     2.11           OBSERVATION DATA    G                   RINEX VERSION / TYPE
SPIDER V4,0,0,3554                      2015 04 15 01:17    PGM / RUN BY / DATE 
CABS                                                        MARKER NAME         
CABS                                                        MARKER NUMBER       
                                                            OBSERVER / AGENCY   
462287              LEICA GRX1200PRO    8.10/2.127          REC # / TYPE / VERS 
103298              LEIAT504                                ANT # / TYPE        
  5116912.3402   671231.6412  3737143.4301                  APPROX POSITION XYZ 
        0.0600        0.0000        0.0000                  ANTENNA: DELTA H/E/N
     1     1                                                WAVELENGTH FACT L1/2
     4    C1    L1    P2    L2                              # / TYPES OF OBSERV 
    30.000                                                  INTERVAL            
  2015    01    21    00    00    0.0000000     GPS         TIME OF FIRST OBS   
  2015    01    21    23    59   30.0000000     GPS         TIME OF LAST OBS    
    16                                                      LEAP SECONDS        
    30                                                      # OF SATELLITES     
   G 1   765   765   765   765                              PRN / # OF OBS      
   G 2   948   948   948   948                              PRN / # OF OBS      
   G 3   836   836   836   836                              PRN / # OF OBS      
   G 4   832   832   832   832                              PRN / # OF OBS      
   G 5   646   646   646   646                              PRN / # OF OBS      
   G 6   822   822   822   822                              PRN / # OF OBS      
   G 7   657   657   657   657                              PRN / # OF OBS      
   G 9   798   798   798   798                              PRN / # OF OBS      
   G10   748   748   748   748                              PRN / # OF OBS      
   G11   764   764   764   764                              PRN / # OF OBS      
   G12   836   836   836   836                              PRN / # OF OBS      
   G13   792   792   792   792                              PRN / # OF OBS      
   G14   949   949   949   949                              PRN / # OF OBS      
   G15   699   699   699   699                              PRN / # OF OBS      
   G16   658   658   657   657                              PRN / # OF OBS      
   G17   921   921   921   921                              PRN / # OF OBS      
   G18   900   900   900   900                              PRN / # OF OBS      
   G19   751   751   751   751                              PRN / # OF OBS      
   G20   818   818   818   818                              PRN / # OF OBS      
   G21   744   744   744   744                              PRN / # OF OBS      
   G22   656   656   656   656                              PRN / # OF OBS      
   G23   736   736   736   736                              PRN / # OF OBS      
   G24   818   818   818   818                              PRN / # OF OBS      
   G25   856   856   856   856                              PRN / # OF OBS      
   G27   793   793   793   793                              PRN / # OF OBS      
   G28   872   872   872   872                              PRN / # OF OBS      
   G29   786   786   786   786                              PRN / # OF OBS      
   G30   665   665   664   664                              PRN / # OF OBS      
   G31   867   867   867   867                              PRN / # OF OBS      
   G32   766   766   766   766                              PRN / # OF OBS      
BIT 2 OF LLI FLAGS DATA COLLECTED UNDER A/S CONDITION       COMMENT             
SNR is mapped to RINEX snr flag value [2-9]                 COMMENT             
Lx:     = 25dBHz -> 1; 26-27dBHz -> 2; 28-31dBHz -> 3       COMMENT             
       32-35dBHz -> 4; 36-38dBHz -> 5; 39-41dBHz -> 6       COMMENT             
       42-44dBHz -> 7; 45-48dBHz -> 8; >=49dBHz -> 9        COMMENT             
                                                            END OF HEADER       
 15 01 21 00 00  0.0000000  0  7G02G12G14G21G25G29G31
  24361950.280   128022938.00806  24361949.320    99758142.74345
  23327832.720   122588669.80407  23327834.040    95523694.44146
  23769990.340   124912135.40605  23769992.100    97334135.92044
  22944076.860   120572002.04607  22944077.580    93952247.11246
  20893254.380   109794856.37309  20893258.140    85554483.92648
  20221036.160   106262370.66209  20221037.640    82801901.94549
  21407888.380   112499220.85508  21407889.020    87661742.57148
 15 01 21 00 00 30.0000000  0  7G02G12G14G21G25G29G31
  24376889.700   128101444.59106  24376888.680    99819316.71445
  23341328.020   122659588.38107  23341329.440    95578955.65746
  23784782.120   124989867.34405  23784784.140    97394706.23145
  22927523.940   120485016.40607  22927524.920    93884466.12646
  20898467.600   109822252.30709  20898471.400    85575831.40748
  20225685.120   106286801.01209  20225686.580    82820938.58449
  21398549.280   112450143.60308  21398549.940    87623500.55948
 15 01 21 00 01  0.0000000  0  7G02G12G14G21G25G29G31
  24391883.060   128180235.04806  24391882.040    99880711.87745
  23354850.860   122730651.71907  23354852.320    95634329.68546
  23799602.800   125067751.86005  23799605.240    97455395.41845
  22911012.600   120398249.82707  22911013.860    93816855.81546
  20903731.920   109849916.84209  20903735.780    85597388.18448
  20230401.140   106311583.84009  20230402.600    82840249.87749
  21389298.400   112401529.99808  21389299.060    87585619.83248
 15 01 21 00 01 30.0000000  0  7G02G12G14G21G25G29G31
  24406929.440   128259304.61106  24406928.560    99942324.52344
  23368400.960   122801857.92007  23368402.380    95689815.03646
  23814451.580   125145783.65505  23814454.340    97516199.39045
  22894542.900   120311702.21407  22894544.460    93749416.13246
  20909047.020   109877848.21809  20909050.920    85619152.88648
  20235183.600   106336715.92409  20235185.080    82859833.31849
  21380135.660   112353379.38508  21380136.260    87548099.87848
 15 01 21 00 02  0.0000000  0  7G02G12G14G21G25G29G31
  24422028.460   128338650.60706  24422027.600   100004152.57045
  23381978.120   122873206.04107  23381979.420    95745410.96446
  23829327.880   125223959.26305  23829330.680    97577115.41844
  22878115.320   120225375.26907  22878116.940    93682148.39946
  20914412.900   109906046.35708  20914416.860    85641125.45848
  20240032.060   106362194.71909  20240033.540    82879686.92549
  21371061.260   112305692.93108  21371061.800    87510941.60048
 15 01 21 00 02 30.0000000  0  7G02G12G14G21G25G29G31
  24437179.980   128418272.64506  24437179.080   100066195.71445
  23395582.460   122944697.26407  23395583.740    95801118.40946
  23844231.400   125302276.90105  23844233.940    97638142.09344
  22861730.580   120139272.63507  22861732.020    93615055.44946
  20919829.940   109934513.19709  20919833.940    85663307.40548
  20244946.500   106388020.16009  20244947.940    82899810.64149
  21362075.880   112258474.30908  21362076.400    87474147.87448
 15 01 21 00 03  0.0000000  0  7G02G12G14G21G25G29G31
  24452383.560   128498168.01506  24452382.620   100128451.85145
  23409214.180   123016332.02607  23409215.540    95856937.69246
  23859161.340   125380733.39006  23859163.640    97699276.99344
  22845388.980   120053396.29307  22845390.160    93548138.84646
  20925298.160   109963248.89209  20925302.160    85685698.84348
  20249926.600   106414190.60209  20249928.000    82920203.19749
  21353179.780   112211724.97708  21353180.300    87437719.82648
 15 01 21 00 03 30.0000000  0  7G02G12G14G21G25G29G31
  24467638.820   128578335.49705  24467637.960   100190920.01745
  23422873.420   123088110.91107  23422874.800    95912869.27046
  23874117.300   125459326.39506  23874119.400    97760518.23645
  22829091.240   119967749.90907  22829092.060    93481401.44746
  20930817.880   109992254.84109  20930821.820    85708300.87148
  20254972.180   106440705.15709  20254973.560    82940863.88549
  21344373.500   112165447.76109  21344374.040    87401659.65948
 15 01 21 00 04  0.0000000  0  7G02G12G14G21G25G29G31
  24482945.340   128658772.21506  24482944.600   100253597.97544
  23436559.900   123160033.07307  23436561.300    95968912.50146
  23889098.440   125538052.21805  23889100.300    97821862.96445
  22812837.420   119882334.55207  22812837.960    93414844.05846
  20936388.960   110021530.63309  20936392.800    85731113.17548
  20260082.720   106467561.31809  20260084.120    82961790.76249
  21335657.320   112119644.01309  21335657.880    87365968.42948
 15 01 21 00 04 30.0000000  0  7G02G12G14G21G25G29G31
  24498302.640   128739475.10306  24498301.880   100316483.32845
  23450273.520   123232097.97907  23450274.900    96025066.96446
  23904103.980   125616906.60306  23904105.880    97883307.89844
  22796627.720   119797151.73507  22796628.200    93348467.86846
  20942011.300   110051075.81109  20942015.000    85754135.38548
  20265257.840   106494756.79309  20265259.260    82982982.03849
  21327031.400   112074314.50209  21327031.940    87330646.73048
 15 01 21 00 05  0.0000000  0  7G02G12G14G21G25G29G31
  24513710.540   128820443.86506  24513709.840   100379575.88445
  23464014.460   123304307.07707  23464015.900    96081333.77646
  23919133.780   125695888.50406  23919135.720    97944852.19845
  22780462.880   119712205.49507  22780463.540    93282276.02846
  20947685.320   110080892.78209  20947688.940    85777369.37748
  20270497.580   106522291.83109  20270499.020    83004437.91549
  21318496.420   112029462.91408  21318496.980    87295697.44348
 15 01 21 00 05 30.0000000  0  7G02G12G14G21G25G29G31
  24529168.540   128901676.17706  24529167.980   100442873.78946
  23477782.600   123376660.22906  23477784.220    96137712.86546
  23934187.120   125774994.62305  23934189.220    98006493.28945
  22764343.240   119627497.76807  22764344.280    93216270.02146
  20953411.060   110110981.63409  20953414.640    85800815.23348
  20275801.460   106550164.05609  20275802.940    83026156.53249
  21310052.700   111985090.88409  21310053.280    87261121.83748
 15 01 21 00 06  0.0000000  0  7G02G12G14G21G25G29G31
  24544676.000   128983168.15306  24544675.360   100506374.02045
  23491577.780   123449156.13906  23491579.600    96194203.18146
  23949263.260   125854220.13706  23949265.480    98068227.41444
  22748269.100   119543029.47407  22748270.600    93150450.57946
  20959188.260   110141341.32408  20959191.900    85824472.12848
  20281169.100   106578371.25809  20281170.600    83048136.16849
  21301700.260   111941198.53109  21301700.860    87226920.00448
 15 01 21 00 06 30.0000000  0  7G02G12G14G21G25G29G31
  24560232.460   129064917.74406  24560231.760   100570074.99845
  23505400.160   123521794.72307  23505402.040    96250804.65946
  23964361.680   125933562.44106  23964363.920    98130052.55445
  22732241.040   119458802.90307  22732242.900    93084819.50546
  20965017.080   110171972.44208  20965020.820    85848340.52648
  20286600.220   106606912.01209  20286601.700    83070375.71749
  21293439.500   111897787.86309  21293440.100    87193093.51148
 15 01 21 00 07  0.0000000  0  7G02G12G14G21G25G29G31
  24575837.760   129146924.06806  24575836.860   100633976.02644
  23519250.080   123594577.10907  23519251.860    96307518.20245
  23979481.920   126013019.30806  23979484.140    98191966.94245
  22716259.800   119374821.41407  22716261.780    93019379.39846
  20970897.820   110202876.47808  20970901.700    85872421.58748
  20292094.540   106635784.91109  20292096.000    83092874.07949
  21285270.940   111854861.74309  21285271.520    87159644.58548
 15 01 21 00 07 30.0000000  0  7G02G12G14G21G25G29G31
  24591491.260   129229183.52406  24591490.280   100698074.30744
  23533127.220   123667501.61407  23533128.760    96364342.47845
  23994623.120   126092586.42006  23994625.380    98253967.23645
  22700325.520   119291085.57907  22700327.320    92954130.72546
  20976830.360   110234052.39709  20976834.280    85896714.50448
  20297651.560   106664987.29309  20297652.980    83115629.18249
  21277194.720   111812420.88909  21277195.280    87126573.78548
 15 01 21 00 08  0.0000000  0  7G02G12G14G21G25G29G31
  24607192.740   129311695.36905  24607191.680   100762369.24744
  23547031.880   123740569.92407  23547033.000    96421278.82946
  24009784.940   126172261.76206  24009787.140    98316051.84944
  22684438.840   119207599.35907  22684440.300    92889076.55446
  20982815.040   110265502.10008  20982818.960    85921220.77048
  20303271.280   106694519.20309  20303272.700    83138641.06249
  21269211.280   111770467.81509  21269211.860    87093883.07848
 15 01 21 00 08 30.0000000  0  7G02G12G14G21G25G29G31
  24622941.820   129394457.47106  24622940.720   100826859.18745
  23560964.020   123813782.60007  23560964.900    96478327.65345
  24024966.800   126252042.74906  24024969.080    98378218.81445
  22668600.160   119124365.17807  22668601.180    92824218.78346
  20988851.940   110297226.28608  20988855.880    85945940.91648
  20308953.420   106724379.02309  20308954.800    83161908.45549
  21261321.140   111729004.92409  21261321.760    87061574.32948
 15 01 21 00 09  0.0000000  0  7G02G12G14G21G25G29G31
  24638737.980   129477466.92905  24638737.040   100891541.88745
  23574923.220   123887138.46207  23574924.220    96535488.05146
  24040168.040   126331925.75406  24040170.380    98440465.25144
  22652809.580   119041384.35807  22652810.260    92759558.43146
  20994940.980   110329224.54208  20994944.940    85970874.61948
  20314697.440   106754564.04209  20314698.820    83185429.24649
  21253524.460   111688033.03609  21253525.040    87029648.17748
 15 01 21 00 09 30.0000000  0  7G02G12G14G21G25G29G31
  24654580.880   129560722.55605  24654580.140   100956416.38545
  23588909.660   123960638.38406  23588910.960    96592760.72146
  24055388.200   126411908.18806  24055390.440    98502789.17644
  22637067.620   118958659.99207  22637068.160    92695097.90246
  21001082.520   110361498.29509  21001086.440    85996022.99648
  20320503.340   106785074.30709  20320504.740    83209203.47949
  21245821.740   111647554.84009  21245822.260    86998106.71948
 15 01 21 00 10  0.0000000  0  7G02G12G14G21G25G29G31
  24670470.040   129644221.23005  24670469.540   101021480.28645
  23602923.320   124034281.28407  23602924.900    96650144.79945
  24070626.540   126491986.38906  24070628.620    98565187.73544
  22621374.520   118876193.36707  22621375.240    92630838.21646
  21007276.380   110394046.98609  21007280.280    86021385.61248
  20326370.560   106815906.91709  20326372.000    83233228.88749
  21238213.100   111607571.26709  21238213.640    86966950.68648
 15 01 21 00 10 30.0000000  0  7G02G12G14G21G25G29G31
  24686404.860   129727959.24806  24686404.280   101086730.70644
  23616964.000   124108065.85507  23616965.840    96707639.26046
  24085882.200   126572155.69106  24085884.140    98627657.25045
  22605730.560   118793985.09207  22605731.600    92566779.83546
  21013522.380   110426869.56209  21013526.200    86046961.64648
  20332298.580   106847059.09609  20332300.060    83257503.31249
  21230698.600   111568082.39509  21230699.200    86936180.13348
 15 01 21 00 11  0.0000000  0  7G02G12G14G21G25G29G31
  24702385.080   129811935.94505  24702384.480   101152167.08444
  23631032.020   124181993.54207  23631033.820    96765245.24446
  24101155.100   126652414.81806  24101157.100    98690196.78244
  22590136.600   118712038.86807  22590137.880    92502925.64847
  21019820.840   110459967.81909  21019824.600    86072752.49648
  20338287.340   106878530.35009  20338288.840    83282026.36749
  21223278.820   111529091.42709  21223279.500    86905797.56048
 15 01 21 00 11 30.0000000  0  7G02G12G14G21G25G29G31
  24718410.160   129896148.17505  24718409.580   101217786.98745
  23645127.280   124256063.79507  23645128.940    96822962.30346
  24116444.320   126732759.51506  24116446.300    98752802.97645
  22574592.940   118630356.37807  22574594.360    92439276.96547
  21026171.640   110493341.48309  21026175.360    86098757.94648
  20344336.360   106910318.16709  20344337.860    83306796.09949
  21215954.000   111490599.18309  21215954.700    86875803.60448
 15 01 21 00 12  0.0000000  0  7G02G12G14G21G25G29G31
  24734480.040   129980595.94805  24734479.440   101283590.45545
  23659249.960   124330277.82307  23659251.380    96880791.40846
  24131749.580   126813188.72606  24131751.640    98815475.04145
  22559100.360   118548941.45908  22559101.680    92375836.79146
  21032575.320   110526992.93309  21032579.040    86124979.85748
  20350445.700   106942422.83609  20350447.180    83331812.72949
  21208724.780   111452609.23109  21208725.480    86846201.04048
 15 01 21 00 12 30.0000000  0  7G02G12G14G21G25G29G31
  24750594.020   130065276.24705  24750593.500   101349575.08945
  23673399.980   124404635.66607  23673401.180    96938732.58046
  24147070.120   126893698.57606  24147072.220    98878209.92045
  22543659.040   118467795.49508  22543660.100    92312606.19646
  21039031.740   110560921.69108  21039035.500    86151417.83848
  20356614.900   106974842.09909  20356616.360    83357074.48949
  21201591.280   111415122.30709  21201591.940    86816990.44348
 15 01 21 00 13  0.0000000  0  7G02G12G14G21G25G29G31
  24766751.700   130150186.18005  24766751.320   101415738.64946
  23687576.980   124479136.04407  23687578.160    96996784.79846
  24162405.400   126974286.03506  24162407.580    98941005.26844
  22528269.220   118386920.27008  22528269.960    92249586.56846
  21045540.920   110595127.95208  21045544.760    86178072.06348
  20362843.680   107007574.45109  20362845.140    83382580.21449
  21194553.780   111378139.88409  21194554.400    86788172.96948
 15 01 21 00 13 30.0000000  0  7G02G12G14G21G25G29G31
  24782952.740   130235323.35605  24782952.400   101482079.32045
  23701781.060   124553779.55507  23701782.300    97054948.56146
  24177754.820   127054947.43206  24177756.960    99003858.27045
  22512931.140   118306317.66607  22512931.680    92186779.36847
  21052102.880   110629611.59408  21052106.800    86204942.43248
  20369131.580   107040617.43609  20369133.020    83408328.00149
  21187612.400   111341662.83809  21187613.020    86759749.29148
 15 01 21 00 14  0.0000000  0  7G02G12G14G21G25G29G31
  24799196.540   130320684.70405  24799196.260   101548594.66045
  23716012.100   124628564.36207  23716013.360    97113222.43246
  24193117.600   127135679.05706  24193119.900    99066765.96145
  22497645.000   118225988.95507  22497645.580    92124185.59446
  21058717.580   110664372.24508  21058721.560    86232028.64948
  20375478.060   107073968.37109  20375479.500    83434315.73949
  21180767.380   111305692.08909  21180768.000    86731720.13648
 15 01 21 00 14 30.0000000  0  6G12G14G21G25G29G31
  23730271.980   124703500.03507  23730272.980    97171613.87845
  24208494.900   127216486.72006  24208497.260    99129732.90344
  22482413.020   118145945.49207  22482413.740    92061814.07747
  21065386.860   110699419.48008  21065390.820    86259338.17748
  20381884.640   107107635.18209  20381886.080    83460549.61749
  21174020.860   111270238.65309  21174021.460    86704094.08048
 15 01 21 00 15  0.0000000  0  6G12G14G21G25G29G31
  23744557.560   124778570.60007  23744558.280    97230110.40246
  24223883.020   127297351.38505  24223885.300    99192744.23444
  22467232.640   118066173.45007  22467233.620    91999654.06047
  21072107.720   110734737.72208  21072111.680    86286858.87748
  20388347.980   107141600.11009  20388349.380    83487015.80149
  21167370.000   111235287.95909  21167370.580    86676859.76649
 15 01 21 00 15 30.0000000  0  6G12G14G21G25G29G31
  23758870.340   124853784.53507  23758870.980    97288718.64745
  24239283.120   127378279.11005  24239285.400    99255804.72545
  22452105.980   117986683.39707  22452107.180    91937713.76447
  21078881.840   110770335.99208  21078885.840    86314597.78248
  20394869.340   107175869.94909  20394870.720    83513719.57649
  21160816.680   111200849.85709  21160817.240    86650024.87948
 15 01 21 00 16  0.0000000  0  6G12G14G21G25G29G31
  23773210.200   124929141.11307  23773210.800    97347438.06845
  24254694.420   127459265.89606  24254696.780    99318911.19945
  22437033.400   117907476.53408  22437034.700    91875994.14647
  21085709.180   110806213.78008  21085713.200    86342554.48748
  20401448.360   107210442.88309  20401449.720    83540659.52849
  21154361.060   111166925.24209  21154361.640    86623590.10948
 15 01 21 00 16 30.0000000  0  6G12G14G21G25G29G31
  23787577.620   125004642.88506  23787578.380    97406270.61046
  24270116.920   127540311.52006  24270119.260    99382063.50244
  22422015.880   117828558.16108  22422017.120    91814499.32947
  21092590.340   110842374.42008  21092594.360    86370731.61048
  20408085.220   107245319.71209  20408086.560    83567836.28349
  21148003.920   111133518.37709  21148004.560    86597558.78548
 15 01 21 00 17  0.0000000  0  6G12G14G21G25G29G31
  23801971.980   125080286.15207  23801973.040    97465213.38846
  24285549.360   127621409.45805  24285551.820    99445256.59744
  22407053.060   117749927.01008  22407054.120    91753228.32247
  21099524.820   110878815.00609  21099528.820    86399126.87448
  20414778.920   107280495.22809  20414780.260    83595245.77949
  21141744.960   111100627.66509  21141745.660    86571929.65448
 15 01 21 00 17 30.0000000  0  6G12G14G21G25G29G31
  23816392.920   125156068.92607  23816394.020    97524264.89545
  24300990.780   127702554.52606  24300993.340    99508486.42544
  22392144.600   117671582.02708  22392145.520    91692180.30247
  21106512.120   110915533.25208  21106516.080    86427738.49048
  20421528.800   107315965.91809  20421530.120    83622885.28249
  21135584.020   111068251.84809  21135584.760    86546701.74448
 15 01 21 00 18  0.0000000  0  6G12G14G21G25G29G31
  23830840.580   125231991.68706  23830841.560    97583425.50245
  24316440.760   127783744.13305  24316443.280    99571750.98344
  22377291.120   117593526.67908  22377292.000    91631357.96747
  21113552.460   110952530.37108  21113556.400    86456567.40948
  20428334.640   107351730.82309  20428336.000    83650754.03549
  21129521.480   111036393.16909  21129522.240    86521876.79948
 15 01 21 00 18 30.0000000  0  6G12G14G21G25G29G31
  23845315.400   125308056.97006  23845316.400    97642697.15945
  24331899.220   127864977.95105  24331901.740    99635049.92645
  22362493.520   117515765.52008  22362494.400    91570764.86446
  21120646.380   110989809.18508  21120650.300    86485615.83048
  20435196.540   107387790.46309  20435197.940    83678852.46049
  21123558.120   111005055.52009  21123558.840    86497457.84348
 15 01 21 00 19  0.0000000  0  6G12G14G21G25G29G31
  23859817.500   125384266.76606  23859818.620    97702081.38546
  24347366.060   127946255.86805  24347368.500    99698383.21544
  22347752.740   117438303.09408  22347753.660    91510404.54747
  21127794.420   111027372.48608  21127798.340    86514885.92648
  20442114.720   107424145.88909  20442116.160    83707181.36449
  21117694.660   110974242.69509  21117695.340    86473447.84848
 15 01 21 00 19 30.0000000  0  6G12G14G21G25G29G31
  23874346.540   125460618.03006  23874347.860    97761575.91546
  24362839.880   128027570.89205  24362842.380    99761745.43644
  22333068.540   117361137.69608  22333069.520    91450275.68847
  21134996.040   111065217.20508  21134999.940    86544375.30948
  20449088.260   107460792.13909  20449089.680    83735736.88949
  21111930.700   110943952.88609  21111931.340    86449845.39548
 15 01 21 00 20  0.0000000  0  6G12G14G21G25G29G31
  23888903.120   125537114.12807  23888904.620    97821183.23645
  24378320.860   128108923.59405  24378323.380    99825136.98644
  22318442.100   117284274.98808  22318443.020    91390382.68946
  21142251.920   111103347.30808  21142255.800    86574087.06848
  20456117.440   107497730.72709  20456118.880    83764520.20649
  21106267.160   110914190.69309  21106267.760    86426654.07648
 15 01 21 00 20 30.0000000  0  6G12G14G21G25G29G31
  23903486.100   125613748.56306  23903487.760    97880898.35946
  24393807.420   128190305.50405  24393809.920    99888551.30644
  22303872.580   117207711.11608  22303873.440    91330722.55647
  21149561.060   111141757.47408  21149564.980    86604017.06348
  20463200.860   107534954.44209  20463202.300    83793525.70549
  21100703.200   110884951.83409  21100703.780    86403870.54349
 15 01 21 00 21  0.0000000  0  6G12G14G21G25G29G31
  23918096.400   125690526.15206  23918098.120    97940725.03645
  24409299.580   128271717.63505  24409302.080    99951989.16845
  22289361.180   117131452.66108  22289362.020    91271300.40347
  21156924.320   111180452.15308  21156928.300    86634168.75148
  20470339.060   107572466.17509  20470340.520    83822755.62349
  21095239.900   110856241.97509  21095240.500    86381499.22049
 15 01 21 00 21 30.0000000  0  6G12G14G21G25G29G31
  23932733.480   125767444.20106  23932735.140    98000661.16445
  24424796.460   128353154.66505  24424799.040   100015446.46345
  22274907.700   117055498.81108  22274908.520    91212115.60447
  21164341.360   111219428.99808  21164345.320    86664540.31848
  20477531.260   107610261.55209  20477532.740    83852206.56849
  21089877.040   110828059.86109  21089877.620    86359539.12749
 15 01 21 00 22  0.0000000  0  6G12G14G21G25G29G31
  23947397.240   125844501.99206  23947398.680    98060706.21445
  24440297.400   128434613.00705  24440300.140   100078920.32844
  22260512.320   116979850.97808  22260513.240    91153169.24847
  21171812.100   111258687.86708  21171816.060    86695131.63148
  20484776.980   107648338.07009  20484778.440    83881876.57849
  21084614.720   110800405.84909  21084615.240    86337990.54049
 15 01 21 00 22 30.0000000  0  6G12G14G21G25G29G31
  23962087.520   125921699.51906  23962088.740    98120860.10645
  24455802.040   128516089.75205  24455804.860   100142408.53644
  22246175.520   116904511.65208  22246176.660    91094463.29147
  21179336.660   111298229.38708  21179340.560    86725943.19348
  20492075.940   107686694.34309  20492077.380    83911764.58249
  21079453.260   110773281.94109  21079453.760    86316855.02449
 15 01 21 00 23  0.0000000  0  6G12G14G21G25G29G31
  23976804.260   125999036.64406  23976805.500    98181122.78546
  24471309.960   128597582.30305  24471312.680   100205909.13844
  22231897.720   116829482.55008  22231899.080    91035999.06547
  21186915.080   111338053.91708  21186918.920    86756975.28548
  20499428.040   107725329.83109  20499429.440    83941870.15849
  21074392.860   110746689.20209  21074393.340    86296133.40549
 15 01 21 00 23 30.0000000  0  6G12G14G21G25G29G31
  23991548.440   126076518.44006  23991549.880    98241498.18546
  24486821.280   128679093.04805  24486823.960   100269423.86544
  22217680.540   116754771.47908  22217682.020    90977782.66347
  21194548.460   111378167.39908  21194552.280    86788232.53748
  20506833.900   107764247.82309  20506835.280    83972195.86149
  21069434.780   110720634.33109  21069435.300    86275830.90849
 15 01 21 00 24  0.0000000  0  6G12G14G21G25G29G31
  24006319.700   126154142.60006  24006321.300    98301984.51745
  24502334.940   128760616.47305  24502337.740   100332948.45644
  22203523.900   116680377.66008  22203525.300    90919813.46647
  21202236.380   111418567.32708  21202240.140    86819712.98948
  20514292.660   107803443.76109  20514294.020    84002738.15349
  21064578.740   110695115.90809  21064579.320    86255946.42349
 15 01 21 00 24 30.0000000  0  6G12G14G21G25G29G31
  24021117.780   126231907.32606  24021119.320    98362580.42145
  24517849.920   128842147.62305  24517852.920   100396479.02044
  22189427.740   116606300.93308  22189428.920    90862091.36547
  21209978.460   111459252.17608  21209982.200    86851415.45748
  20521803.620   107842914.14809  20521805.020    84033494.29749
  21059824.680   110670133.42009  21059825.300    86236479.54249
 15 01 21 00 25  0.0000000  0  5G12G21G25G29G31
  24035944.540   126309822.36607  24035945.880    98423293.46544
  22175394.300   116532553.82808  22175395.240    90804626.10747
  21217776.800   111500232.50108  21217780.500    86883348.16348
  20529368.440   107882667.61109  20529369.880    84064471.01949
  21055174.760   110645698.09609  21055175.440    86217439.02649
 15 01 21 00 25 30.0000000  0  5G12G21G25G29G31
  24050797.160   126387872.25705  24050798.260    98484111.59945
  22161420.940   116459122.69208  22161421.740    90747407.05047
  21225628.500   111541493.37608  21225632.200    86915499.49348
  20536984.100   107922688.04609  20536985.540    84095655.77749
  21050626.280   110621795.74309  21050627.000    86198813.81449
 15 01 21 00 26  0.0000000  0  5G12G21G25G29G31
  24065675.900   126466060.04307  24065677.040    98545037.06146
  22147508.680   116386013.26208  22147509.460    90690438.67147
  21233534.280   111583038.60408  21233538.040    86947872.39148
  20544650.820   107962976.86809  20544652.240    84127049.65949
  21046180.180   110598431.10709  21046180.860    86180607.60249
 15 01 21 00 26 30.0000000  0  5G12G21G25G29G31
  24080579.580   126544377.75006  24080580.680    98606063.85945
  22133656.140   116313218.12808  22133657.000    90633715.19847
  21241492.540   111624859.47408  21241496.300    86980460.07048
  20552366.540   108003523.26909  20552367.980    84158644.25149
  21041834.940   110575596.44809  21041835.600    86162814.35549
 15 01 21 00 27  0.0000000  0  5G12G21G25G29G31
  24095511.020   126622842.74406  24095512.220    98667205.35645
  22119867.280   116240757.64408  22119868.220    90577252.49847
  21249506.760   111666974.45108  21249510.520    87013276.92948
  20560134.400   108044343.77509  20560135.840    84190452.43149
  21037594.180   110553310.95709  21037594.840    86145449.03349
 15 01 21 00 27 30.0000000  0  5G12G21G25G29G31
  24110469.260   126701449.19906  24110470.600    98728457.16445
  22106141.420   116168628.07808  22106142.400    90521047.64847
  21257575.980   111709378.52008  21257579.800    87046319.05048
  20567953.180   108085431.92509  20567954.620    84222469.16949
  21033457.120   110531570.31309  21033457.720    86128508.27049
 15 01 21 00 28  0.0000000  0  5G12G21G25G29G31
  24125453.580   126780192.62106  24125454.920    98789815.72645
  22092478.120   116096826.84708  22092479.040    90465098.65947
  21265699.360   111752067.21208  21265703.260    87079582.95848
  20575821.660   108126781.10109  20575823.120    84254689.30249
  21029423.020   110510371.06609  21029423.640    86111989.37449
 15 01 21 00 28 30.0000000  0  5G12G21G25G29G31
  24140464.780   126859078.68406  24140466.280    98851285.32546
  22078878.860   116025361.74608  22078879.600    90409411.57847
  21273878.100   111795046.79608  21273882.020    87113073.54148
  20583740.660   108168395.67709  20583742.120    84287116.24049
  21025493.260   110489720.02009  21025493.860    86095897.64649
 15 01 21 00 29  0.0000000  0  5G12G21G25G29G31
  24155502.340   126938101.78107  24155503.840    98912861.79545
  22065342.860   115954229.21608  22065343.500    90353983.65047
  21282111.160   111838311.98708  21282115.120    87146786.68548
  20591708.840   108210268.60809  20591710.300    84319744.49549
  21021666.940   110469612.74609  21021667.600    86080229.63449
 15 01 21 00 29 30.0000000  0  5G12G21G25G29G31
  24170564.960   127017254.89106  24170566.220    98974539.57446
  22051869.160   115883424.40508  22051869.780    90298811.08347
  21290397.360   111881856.41408  21290401.360    87180717.39748
  20599724.580   108252391.39609  20599726.000    84352567.44649
  21017943.020   110450043.55609  21017943.740    86064980.91749
 15 01 21 00 30  0.0000000  0  5G12G21G25G29G31
  24185655.300   127096554.97706  24185656.480    99036331.75445
  22038461.280   115812965.92008  22038462.020    90243908.36947
  21298740.020   111925697.26508  21298744.000    87214879.09348
  20607790.780   108294779.41609  20607792.140    84385597.07449
  21014324.900   110431030.29909  21014325.640    86050165.38349
 15 01 21 00 30 30.0000000  0  5G12G21G25G29G31
  24200772.120   127175993.76107  24200773.200    99098232.14045
  22025118.080   115742847.79208  22025119.020    90189270.88347
  21307137.640   111969827.01408  21307141.600    87249265.89648
  20615905.800   108337424.02909  20615907.100    84418826.63949
  21010811.300   110412566.06709  21010812.000    86035777.66449
 15 01 21 00 31  0.0000000  0  5G12G21G25G29G31
  24215914.180   127255565.25806  24215915.240    99160235.88646
  22011838.840   115673065.60908  22011839.980    90134895.16447
  21315589.080   112014239.74608  21315593.080    87283873.20948
  20624068.100   108380317.06609  20624069.400    84452249.78449
  21007401.200   110394645.69509  21007401.860    86021813.73749
 15 01 21 00 31 30.0000000  0  5G12G21G25G29G31
  24231083.920   127335283.47406  24231085.240    99222353.95245
  21998626.760   115603635.73608  21998627.940    90080793.97347
  21324097.140   112058949.92908  21324101.120    87318712.30148
  20632280.020   108423470.82809  20632281.320    84485876.09149
  21004097.540   110377284.64709  21004098.140    86008285.64649
 15 01 21 00 32  0.0000000  0  5G12G21G25G29G31
  24246279.460   127415137.22406  24246280.900    99284577.65146
  21985480.000   115534548.72808  21985481.100    90026959.94447
  21332659.780   112103946.89808  21332663.780    87353774.86448
  20640539.180   108466872.85009  20640540.500    84519695.84849
  21000898.320   110360472.55109  21000898.900    85995185.31049
 15 01 21 00 32 30.0000000  0  5G12G21G25G29G31
  24261501.220   127495128.73606  24261502.760    99346908.70546
  21972399.240   115465808.61508  21972400.260    89973396.23147
  21341277.480   112149233.30708  21341281.540    87389062.96848
  20648845.840   108510524.54809  20648847.160    84553710.15249
  20997804.200   110344212.75109  20997804.760    85982515.32449
 15 01 21 00 33  0.0000000  0  5G12G21G25G29G31
  24276748.740   127575255.31706  24276750.140    99409345.01945
  21959384.480   115397415.34008  21959385.420    89920102.78447
  21349949.900   112194807.09208  21349954.000    87424575.00548
  20657199.200   108554421.52809  20657200.480    84587915.59149
  20994814.880   110328503.82409  20994815.460    85970274.59749
 15 01 21 00 33 30.0000000  0  5G12G21G25G29G31
  24292022.380   127655518.51906  24292023.520    99471887.75745
  21946436.380   115329372.31108  21946437.220    89867082.25047
  21358677.380   112240670.10408  21358681.480    87460312.41348
  20665599.280   108598564.38809  20665600.580    84622312.62449
  20991930.900   110313348.43309  20991931.460    85958465.19349
 15 01 21 00 34  0.0000000  0  5G12G21G25G29G31
  24307322.000   127735917.75806  24307322.940    99534536.49945
  21933555.040   115261680.35208  21933555.780    89814335.28147
  21367459.840   112286821.95708  21367463.880    87496274.88748
  20674045.680   108642950.67709  20674047.040    84656899.34549
  20989152.220   110298746.39209  20989152.780    85947086.97149
 15 01 21 00 34 30.0000000  0  5G12G21G25G29G31
  24322647.940   127816454.94506  24322648.660    99597292.73445
  21920741.300   115194343.64108  21920741.960    89761865.13347
  21376297.740   112333265.07508  21376301.680    87532464.32148
  20682538.560   108687581.09709  20682539.940    84691676.29049
  20986479.420   110284700.84909  20986480.020    85936142.38649
 15 01 21 00 35  0.0000000  0  5G12G21G25G29G31
  24337999.940   127897129.49806  24338000.640    99660156.00745
  21907995.400   115127363.53908  21907996.020    89709672.85847
  21385191.040   112379999.52908  21385194.900    87568880.77348
  20691077.600   108732453.93909  20691078.960    84726642.14549
  20983912.620   110271212.24009  20983913.240    85925631.77549
 15 01 21 00 35 30.0000000  0  5G12G21G25G29G31
  24353377.740   127977940.02706  24353378.560    99723125.23345
  21895317.420   115060740.61708  21895318.120    89657758.89947
  21394139.600   112427024.52908  21394143.400    87605523.62448
  20699662.220   108777566.33309  20699663.520    84761794.66149
  20981451.800   110258280.49909  20981452.440    85915555.08449
 15 01 21 00 36  0.0000000  0  5G12G21G25G29G31
  24368781.640   128058888.52306  24368782.620    99786201.98745
  21882708.120   114994478.64808  21882708.920    89606126.20848
  21403143.820   112474342.18308  21403147.620    87642394.51948
  20708292.560   108822919.11009  20708293.840    84797134.48849
  20979097.480   110245908.42109  20979098.100    85905914.49849
 15 01 21 00 36 30.0000000  0  5G12G21G25G29G31
  24384211.080   128139971.07206  24384212.260    99849383.22045
  21870167.240   114928576.03108  21870168.100    89554773.52447
  21412203.100   112521949.20908  21412206.940    87679490.88148
  20716967.540   108868506.73408  20716968.880    84832657.30849
  20976849.100   110234093.05009  20976849.720    85896707.70749
 15 01 21 00 37  0.0000000  0  5G12G21G25G29G31
  24399666.420   128221189.50006  24399667.540    99912670.34845
  21857695.500   114863036.73208  21857696.400    89503703.94847
  21421317.840   112569847.53308  21421321.700    87716814.22848
  20725687.380   108914330.04708  20725688.780    84868363.78149
  20974707.120   110222836.83209  20974707.740    85887936.62049
 15 01 21 00 37 30.0000000  0  5G12G21G25G29G31
  24415147.800   128302545.45805  24415149.040    99976064.58645
  21845293.460   114797863.59808  21845294.380    89452919.69847
  21430488.420   112618039.21708  21430492.300    87754366.18548
  20734452.080   108960389.19508  20734453.560    84904254.02349
  20972672.060   110212142.44109  20972672.640    85879603.32049
 15 01 21 00 38  0.0000000  0  5G12G21G25G29G31
  24430654.420   128384033.44505  24430655.700   100039561.69945
  21832960.340   114733052.71508  21832961.280    89402417.72447
  21439713.880   112666519.09808  21439717.760    87792142.69348
  20743260.340   109006677.39208  20743261.920    84940322.74149
  20970742.920   110202005.03609  20970743.540    85871704.03749
 15 01 21 00 38 30.0000000  0  5G12G21G25G29G31
  24446186.820   128465656.51706  24446188.100   100103164.05644
  21820697.280   114668609.90808  21820698.180    89352202.55947
  21448995.020   112715291.30008  21448998.800    87830147.00248
  20752112.640   109053196.80308  20752114.280    84976571.62949
  20968920.660   110192429.13909  20968921.300    85864242.29349
 15 01 21 00 39  0.0000000  0  5G12G21G25G29G31
  24461744.520   128547412.06706  24461745.700   100166869.65745
  21808504.100   114604534.34808  21808504.960    89302273.55847
  21458331.240   112764353.28308  21458334.940    87868377.10948
  20761008.160   109099942.94708  20761009.760    85012997.18749
  20967204.880   110183412.63109  20967205.520    85857216.43949
 15 01 21 00 39 30.0000000  0  5G12G21G25G29G31
  24477327.960   128629302.98206  24477328.940   100230680.76045
  21796381.700   114540830.73008  21796382.500    89252634.38847
  21467723.260   112813708.35808  21467726.880    87906835.60948
  20769947.300   109146918.20308  20769948.840    85049601.27949
  20965596.300   110174959.44109  20965596.960    85850629.53349
 15 01 21 00 40  0.0000000  0  5G12G21G25G29G31
  24492936.880   128711328.17906  24492937.700   100294596.51644
  21784330.260   114477499.75708  21784330.940    89203285.59048
  21477170.880   112863355.82308  21477174.480    87945521.92348
  20778929.460   109194119.38908  20778930.900    85086381.42249
  20964094.840   110167068.91909  20964095.480    85844481.07249
 15 01 21 00 40 30.0000000  0  5G12G21G25G29G31
  24508571.280   128793487.33206  24508571.920   100358616.62545
  21772350.020   114414543.16308  21772350.680    89154228.51447
  21486674.160   112913296.07608  21486677.800    87984436.39748
  20787954.540   109241546.27108  20787955.920    85123337.42949
  20962700.580   110159741.87809  20962701.200    85838771.68249
 15 01 21 00 41  0.0000000  0  5G12G21G25G29G31
  24524230.660   128875777.62006  24524231.200   100422738.92544
  21760440.760   114351959.65008  21760441.460    89105462.15048
  21496232.580   112963526.35308  21496236.280    88023576.86148
  20797021.600   109289193.80108  20797022.960    85160465.37149
  20961413.120   110152976.09909  20961413.740    85833499.63849
 15 01 21 00 41 30.0000000  0  5G12G21G25G29G31
  24539915.920   128958204.45606  24539916.520   100486967.61445
  21748603.860   114289756.16608  21748604.580    89056991.91348
  21505847.280   113014052.37408  21505851.040    88062947.78648
  20806131.440   109337066.05409  20806132.740    85197768.42649
  20960233.560   110146777.68209  20960234.220    85828669.69849
 15 01 21 00 42  0.0000000  0  5G12G21G25G29G31
  24555626.280   129040763.12906  24555626.840   100551299.05045
  21736838.880   114227930.53208  21736839.580    89008816.09448
  21515517.540   113064870.25908  21515521.320    88102546.13348
  20815283.060   109385157.96909  20815284.320    85235242.64249
  20959161.220   110141142.82309  20959161.960    85824278.89149
 15 01 21 00 42 30.0000000  0  5G12G21G25G29G31
  24571361.880   129123454.77206  24571362.440   100615734.06544
  21725146.340   114166485.59608  21725147.040    88960936.93448
  21525243.600   113115981.38808  21525247.460    88142372.96748
  20824476.380   109433468.89209  20824477.560    85272887.52249
  20958196.500   110136073.39809  20958197.320    85820328.68649
 15 01 21 00 43  0.0000000  0  5G12G21G25G29G31
  24587122.220   129206276.09406  24587122.860   100680270.17945
  21713525.820   114105419.39008  21713526.560    88913352.88448
  21535024.960   113167382.45808  21535028.860    88182425.73148
  20833710.400   109481993.85309  20833711.560    85310699.17949
  20957338.820   110131566.33309  20957339.680    85816816.68149
 15 01 21 00 43 30.0000000  0  5G12G21G25G29G31
  24602907.600   129289228.83406  24602908.300   100744908.66944
  21701978.020   114044735.43108  21701978.820    88866066.69448
  21544861.920   113219075.82208  21544865.900    88222706.25948
  20842985.360   109530734.24408  20842986.560    85348678.70349
  20956588.700   110127624.25709  20956589.520    85813744.93249
 15 01 21 00 44  0.0000000  0  5G12G21G25G29G31
  24618717.840   129372311.94806  24618718.560   100809648.74244
  21690503.300   113984435.47608  21690504.120    88819079.72648
  21554754.460   113271061.31308  21554758.500    88263214.43048
  20852300.840   109579687.70209  20852302.140    85386824.25549
  20955946.140   110124247.37709  20955946.900    85811113.59249
 15 01 21 00 44 30.0000000  0  5G12G21G25G29G31
  24634553.120   129455527.06106  24634554.000   100874491.67544
  21679102.140   113924522.13608  21679102.980    88772394.01548
  21564702.820   113323340.52608  21564706.980    88303951.45948
  20861657.020   109628854.77608  20861658.340    85425136.26749
  20955411.500   110121437.66709  20955412.240    85808924.20449
 15 01 21 00 45  0.0000000  0  5G12G21G25G29G31
  24650413.420   129538873.98606  24650414.360   100939437.32745
  21667774.900   113864997.31908  21667775.760    88726011.04348
  21574707.160   113375913.91408  21574711.380    88344917.72148
  20871053.540   109678234.02408  20871054.900    85463613.60349
  20954984.860   110119195.54009  20954985.580    85807177.08449
 15 01 21 00 45 30.0000000  0  5G12G21G25G29G31
  24666298.180   129622348.62706  24666298.980   101004482.51245
  21656521.160   113805858.66608  21656522.040    88679928.97948
  21584766.820   113428777.88908  21584771.080    88386110.41848
  20880489.480   109727820.26008  20880490.840    85502252.22449
  20954665.520   110117517.30809  20954666.240    85805869.36249
 15 01 21 00 46  0.0000000  0  5G12G21G25G29G31
  24682208.200   129705956.18406  24682208.960   101069631.24944
  21645342.280   113747113.43608  21645343.180    88634153.47848
  21594882.960   113481938.00408  21594887.080    88427533.88048
  20889965.640   109777617.77008  20889966.980    85541055.48549
  20954454.640   110116409.06809  20954455.360    85805005.79949
 15 01 21 00 46 30.0000000  0  5G12G21G25G29G31
  24698142.520   129789691.06206  24698143.160   101134879.23045
  21634237.460   113688757.28208  21634238.340    88588681.15148
  21605054.380   113535388.68508  21605058.380    88469183.75848
  20899480.620   109827619.23008  20899481.960    85580017.66249
  20954351.160   110115865.34309  20954351.900    85804582.10849
 15 01 21 00 47  0.0000000  0  5G12G21G25G29G31
  24714101.540   129873555.30806  24714102.080   101200227.98644
  21623207.460   113630794.44808  21623208.340    88543515.31348
  21615281.640   113589132.82608  21615285.540    88511062.29748
  20909034.700   109877826.21709  20909036.060    85619139.99149
  20954355.680   110115889.24009  20954356.440    85804600.73049
 15 01 21 00 47 30.0000000  0  5G12G21G25G29G31
  24730085.100   129957549.27006  24730085.760   101265677.81245
  21612252.660   113573226.62708  21612253.520    88498657.27548
  21625564.720   113643170.80008  21625568.660    88553169.79148
  20918627.640   109928237.41308  20918629.020    85658421.44049
  20954468.340   110116481.37809  20954469.120    85805062.13349
 15 01 21 00 48  0.0000000  0  5G12G21G25G29G31
  24746092.880   130041670.85606  24746093.740   101331227.06745
  21601372.980   113516053.76508  21601373.860    88454106.99548
  21635903.340   113697500.99308  21635907.380    88595505.00048
  20928258.820   109978849.73908  20928260.220    85697859.61549
  20954688.900   110117640.29709  20954689.660    85805965.17949
 15 01 21 00 48 30.0000000  0  4G21G25G29G31
  21590580.720   113459340.12708  21590581.620    88409914.56048
  21646309.600   113752186.72608  21646313.700    88638117.26048
  20937940.140   110029725.64508  20937941.620    85737503.17848
  20955029.380   110119429.25309  20955030.100    85807359.16749
 15 01 21 00 49  0.0000000  0  4G21G25G29G31
  21579853.800   113402969.45608  21579854.680    88365989.36248
  21656761.220   113807110.71208  21656765.360    88680915.16748
  20947649.000   110080746.09308  20947650.500    85777259.37148
  20955467.480   110121731.10309  20955468.140    85809152.80849
 15 01 21 00 49 30.0000000  0  4G21G25G29G31
  21569201.420   113346990.57408  21569202.300    88322369.46448
  21667267.120   113862319.65008  21667271.200    88723935.10648
  20957393.960   110131956.19908  20957395.440    85817163.34548
  20956012.060   110124592.57209  20956012.680    85811382.51649
 15 01 21 00 50  0.0000000  0  4G21G25G29G31
  21558621.460   113291392.25908  21558622.320    88279046.11048
  21677825.020   113917801.37408  21677828.960    88767167.61448
  20967172.380   110183342.37108  20967173.900    85857204.51448
  20956660.800   110128001.54309  20956661.380    85814038.85049
 15 01 21 00 50 30.0000000  0  4G21G25G29G31
  21548121.840   113236216.25008  21548122.680    88236051.82348
  21688442.460   113973596.15608  21688446.260    88810644.05948
  20976991.720   110234943.53208  20976993.280    85897413.21248
  20957421.440   110131998.52309  20957422.000    85817153.37049
 15 01 21 00 51  0.0000000  0  4G21G25G29G31
  21537698.020   113181438.87408  21537698.880    88193368.15848
  21699114.800   114029679.54408  21699118.560    88854345.38048
  20986847.040   110286733.58308  20986848.600    85937769.08948
  20958289.240   110136558.85609  20958289.800    85820706.87049
 15 01 21 00 51 30.0000000  0  4G21G25G29G31
  21527352.620   113127073.54108  21527353.460    88151005.56248
  21709844.300   114086063.45008  21709848.120    88898280.87548
  20996740.400   110338723.52008  20996741.960    85978280.72448
  20959266.520   110141694.62309  20959267.100    85824708.75449
 15 01 21 00 52  0.0000000  0  4G21G25G29G31
  21517085.040   113073117.22208  21517085.900    88108961.69248
  21720630.080   114142743.20908  21720633.940    88942446.92348
  21006670.680   110390907.23308  21006672.200    86018943.35448
  20960352.360   110147401.03909  20960353.020    85829155.30349
 15 01 21 00 52 30.0000000  0  4G21G25G29G31
  21506896.060   113019573.81808  21506896.900    88067239.57248
  21731472.660   114199721.37008  21731476.500    88986845.48348
  21016638.040   110443285.75408  21016639.500    86059757.79148
  20961547.260   110153680.65709  20961547.980    85834048.50749
 15 01 21 00 53  0.0000000  0  4G21G25G29G31
  21496783.380   112966431.19008  21496784.160    88025829.73948
  21742369.520   114256984.72408  21742373.360    89031466.26948
  21026639.640   110495844.46408  21026641.080    86100712.63048
  20962848.740   110160520.13809  20962849.480    85839377.95949
 15 01 21 00 53 30.0000000  0  4G21G25G29G31
  21486747.340   112913691.53808  21486748.100    87984733.91348
  21753320.920   114314534.57008  21753324.780    89076310.29848
  21036675.540   110548583.38208  21036676.920    86141807.89048
  20964257.000   110167920.81809  20964257.780    85845144.71049
 15 01 21 00 54  0.0000000  0  4G21G25G29G31
  21476785.800   112861343.52608  21476786.580    87943943.25848
  21764324.460   114372358.21808  21764328.340    89121367.67048
  21046742.980   110601488.22108  21046744.360    86183032.43148
  20965769.660   110175869.88109  20965770.420    85851338.77549
 15 01 21 00 54 30.0000000  0  4G21G25G29G31
  21466904.280   112809416.07908  21466905.140    87903480.32148
  21775385.260   114430482.75508  21775389.220    89166659.49448
  21056846.980   110654585.24908  21056848.400    86224406.73448
  20967391.920   110184394.76809  20967392.660    85857981.53449
 15 01 21 00 55  0.0000000  0  4G21G25G29G31
  21457102.480   112757907.60908  21457103.420    87863343.85348
  21786502.920   114488905.84308  21786506.920    89212183.96848
  21066986.940   110707871.20108  21066988.380    86265928.26148
  20969123.160   110193492.35709  20969123.900    85865070.55949
 15 01 21 00 55 30.0000000  0  4G21G25G29G31
  21447380.480   112706818.31708  21447381.460    87823534.02548
  21797677.180   114547626.53908  21797681.220    89257940.34548
  21077162.360   110761343.41208  21077163.780    86307594.91848
  20970963.220   110203161.91609  20970963.980    85872605.27749
 15 01 21 00 56  0.0000000  0  4G21G25G29G31
  21437738.740   112656150.58208  21437739.700    87784052.68348
  21808908.180   114606645.67708  21808912.240    89303929.27548
  21087373.080   110815001.17108  21087374.500    86349406.15648
  20972912.260   110213403.95709  20972913.020    85880586.08449
 15 01 21 00 56 30.0000000  0  4G21G25G29G31
  21428175.280   112605894.06308  21428176.180    87744891.77048
  21820193.900   114665952.28608  21820197.960    89350142.21248
  21097616.780   110868832.26508  21097618.180    86391352.46148
  20974968.120   110224207.49209  20974968.860    85889004.41749
 15 01 21 00 57  0.0000000  0  4G21G25G29G31
  21418691.460   112556056.06108  21418692.300    87706056.96948
  21831535.380   114725551.90608  21831539.400    89396583.46548
  21107894.380   110922841.56408  21107895.800    86433437.62148
  20977131.840   110235577.86509  20977132.580    85897864.43349
 15 01 21 00 57 30.0000000  0  4G21G25G29G31
  21409289.320   112506647.36908  21409290.120    87667556.69548
  21842934.280   114785453.71908  21842938.280    89443260.18248
  21118207.380   110977036.90508  21118208.840    86475667.75348
  20979405.120   110247524.15609  20979405.860    85907173.22149
 15 01 21 00 58  0.0000000  0  4G21G25G29G31
  21399965.360   112457649.62008  21399966.160    87629376.64248
  21854387.100   114845638.87008  21854391.080    89490157.69148
  21128551.880   111031397.69908  21128553.420    86518026.80748
  20981784.420   110260027.41409  20981785.120    85916916.01249
 15 01 21 00 58 30.0000000  0  4G21G25G29G31
  21390721.460   112409072.63708  21390722.300    87591524.46248
  21865895.480   114906115.98608  21865899.420    89537282.70448
  21138929.360   111085931.94508  21138931.000    86560521.02248
  20984271.260   110273095.69209  20984271.900    85927099.07749
 15 01 21 00 59  0.0000000  0  4G21G25G29G31
  21381557.680   112360916.57508  21381558.520    87554000.26348
  21877459.240   114966884.11308  21877463.200    89584634.48648
  21149339.380   111140637.01908  21149341.080    86603148.35348
  20986865.420   110286728.03109  20986866.080    85937721.66549
 15 01 21 00 59 30.0000000  0  4G21G25G29G31
  21372474.680   112313185.02508  21372475.480    87516806.85448
  21889078.820   115027945.42308  21889082.780    89632214.73048
  21159782.240   111195514.40108  21159783.920    86645909.94548
  20989567.260   110300926.31709  20989567.940    85948785.25449
 15 01 21 01 00  0.0000000  0  4G21G25G29G31
  21363472.200   112265876.62008  21363472.960    87479943.16448
  21900753.720   115089297.41608  21900757.680    89680021.47448
  21170257.220   111250560.62908  21170258.900    86688803.10648
  20992376.300   110315687.89609  20992377.020    85960287.77149
 15 01 21 01 00 30.0000000  0  4G21G25G29G31
  21354550.260   112218991.41708  21354550.960    87443409.25048
  21912483.760   115150939.23108  21912487.740    89728054.04948
  21180763.900   111305773.15308  21180765.500    86731825.84448
  20995292.280   110331011.47409  20995293.060    85972228.21149
 15 01 21 01 01  0.0000000  0  4G21G25G29G31
  21345708.820   112172529.56208  21345709.540    87407205.22248
  21924268.600   115212869.34108  21924272.680    89776311.25948
  21191301.620   111361149.06708  21191303.160    86774975.90048
  20998314.900   110346895.21809  20998315.680    85984605.14649
 15 01 21 01 01 30.0000000  0  4G21G25G29G31
  21336948.720   112126495.16008  21336949.440    87371334.26348
  21936108.940   115275090.96008  21936113.060    89824795.61948
  21201871.000   111416691.45008  21201872.520    86818255.66948
  21001444.660   110363341.90009  21001445.420    85997420.73849
 15 01 21 01 02  0.0000000  0  4G21G25G29G31
  21328270.080   112080888.87508  21328270.820    87335796.90248
  21948004.740   115337604.12108  21948008.920    89873507.16747
  21212471.780   111472398.85408  21212473.320    86861664.02948
  21004681.520   110380351.52009  21004682.260    86010674.97949
 15 01 21 01 02 30.0000000  0  4G21G25G29G31
  21319672.540   112035708.67908  21319673.320    87300591.55848
  21959955.380   115400405.20008  21959959.520    89922443.05547
  21223103.060   111528266.53408  21223104.640    86905197.28448
  21008024.660   110397919.97109  21008025.420    86024364.67349
 15 01 21 01 03  0.0000000  0  4G21G25G29G31
  21311157.820   111990963.60208  21311158.640    87265725.26948
  21971962.340   115463501.84908  21971966.360    89971609.26847
  21233766.120   111584301.17408  21233767.680    86948860.63848
  21011475.480   110416054.37309  21011476.260    86038495.36849
 15 01 21 01 03 30.0000000  0  4G21G25G29G31
  21302724.340   111946645.45208  21302725.220    87231191.64348
  21984023.900   115526885.35408  21984027.780    90020998.99647
  21244459.060   111640492.68708  21244460.560    86992646.22548
  21015032.320   110434745.94009  21015033.120    86053060.20549
 15 01 21 01 04  0.0000000  0  4G21G25G29G31
  21294373.360   111902760.60108  21294374.240    87196995.66448
  21996140.980   115590560.69808  21996144.780    90070616.14547
  21255182.660   111696845.19208  21255184.060    87036557.26148
  21018696.020   110453998.93709  21018696.820    86068062.53649
 15 01 21 01 04 30.0000000  0  4G21G25G29G31
  21286105.900   111859314.44808  21286106.740    87163141.52748
  22008314.300   115654531.83708  22008318.140    90120463.77547
  21265937.460   111753361.84508  21265938.800    87080596.19548
  21022467.300   110473817.21609  21022468.120    86083505.33649
 15 01 21 01 05  0.0000000  0  4G21G25G29G31
  21277919.980   111816296.88008  21277920.740    87129621.35848
  22020541.840   115718788.13008  22020545.740    90170533.61047
  21276721.220   111810030.90708  21276722.560    87124753.89648
  21026344.020   110494189.51709  21026344.860    86099379.85049
 15 01 21 01 05 30.0000000  0  4G21G25G29G31
  21269816.220   111773711.16808  21269816.940    87096437.69548
  22032824.000   115783331.70508  22032828.020    90220827.29347
  21287534.180   111866853.33208  21287535.480    87169031.10248
  21030326.540   110515117.61109  21030327.380    86115687.44649
 15 01 21 01 06  0.0000000  0  5G16G21G25G29G31
  24574543.100   129140098.32306                                
  21261796.120   111731565.28208  21261796.800    87063596.75348
  22045162.160   115848169.44708  22045166.240    90271350.20847
  21298377.460   111923835.28508  21298378.740    87213432.62048
  21034416.060   110536607.92609  21034416.880    86132433.14049
 15 01 21 01 06 30.0000000  0  5G16G21G25G29G31
  24557235.080   129049143.68606  24557236.800   100557771.24845
  21253844.100   111689777.40308  21253844.780    87031034.77148
  22057540.620   115913218.46508  22057544.680    90322037.74447
  21309235.180   111980893.03008  21309236.440    87257893.19248
  21038596.660   110558577.02009  21038597.500    86149551.90249
 15 01 21 01 07  0.0000000  0  5G16G21G25G29G31
  24539939.320   128958254.55805  24539941.100   100486948.58644
  21245991.200   111648510.44008  21245991.900    86998878.69848
  22069990.080   115978640.54508  22069994.100    90373015.97747
  21320137.880   112038187.23708  21320139.140    87302538.02748
  21042899.060   110581186.12709  21042899.900    86167169.37849
 15 01 21 01 07 30.0000000  0  5G16G21G25G29G31
  24522637.260   128867331.77705  24522639.000   100416099.70445
  21238218.440   111607664.60208  21238219.140    86967050.78348
  22082491.380   116044334.97108  22082495.380    90424206.42647
  21331066.160   112095616.04608  21331067.460    87347287.73848
  21047304.000   110604334.26709  21047304.840    86185206.87149
 15 01 21 01 08  0.0000000  0  5G16G21G25G29G31
  24505332.080   128776392.04305  24505333.520   100345237.60844
  21230528.960   111567256.26408  21230529.680    86935563.77048
  22095047.360   116110317.09108  22095051.460    90475621.05148
  21342022.840   112153194.42708  21342024.240    87392154.00248
  21051814.360   110628036.25309  21051815.160    86203675.93749
 15 01 21 01 08 30.0000000  0  5G16G21G25G29G31
  24488023.960   128685437.14206  24488025.200   100274363.68944
  21222923.160   111527287.30008  21222923.860    86904419.13148
  22107658.180   116176587.63108  22107662.440    90527260.42047
  21353007.880   112210921.76908  21353009.360    87437136.34348
  21056430.120   110652292.02009  21056430.860    86222576.52449
 15 01 21 01 09  0.0000000  0  5G16G21G25G29G31
  24470712.880   128594466.58806  24470713.900   100203477.56744
  21215400.720   111487756.48708  21215401.420    86873615.90948
  22120323.520   116243144.74408  22120327.820    90579123.10047
  21364020.840   112268795.48808  21364022.380    87482232.74548
  21061150.820   110677099.36609  21061151.540    86241906.91249
 15 01 21 01 09 30.0000000  0  5G16G21G25G29G31
  24453399.200   128503482.46405  24453400.040   100132580.85444
  21207962.180   111448666.40908  21207962.820    86843156.11448
  22133043.540   116309989.04208  22133047.820    90631209.56047
  21375061.680   112326815.40908  21375063.200    87527443.07448
  21065976.480   110702458.32509  21065977.200    86261667.12549
 15 01 21 01 10  0.0000000  0  5G16G21G25G29G31
  24436082.980   128412485.51605  24436083.920   100061674.17744
  21200607.440   111410016.79308  21200608.040    86813039.53848
  22145818.180   116377119.97108  22145822.320    90683519.36047
  21386130.060   112384979.99208  21386131.580    87572766.11748
  21070906.860   110728367.61509  21070907.580    86281856.17049
 15 01 21 01 10 30.0000000  0  5G16G21G25G29G31
  24418764.420   128321476.19706  24418765.360    99990757.84245
  21193336.440   111371807.50908  21193337.040    86783266.07448
