     2.11           OBSERVATION DATA    M                   RINEX VERSION / TYPE
SPIDER V4,0,0,3554                      2015 03 24 06:49    PGM / RUN BY / DATE 
CNAJ                                                        MARKER NAME         
CNAJ                                                        MARKER NUMBER       
                                                            OBSERVER / AGENCY   
496642              LEICA GRX1200+GNSS  8.10/4.007          REC # / TYPE / VERS 
10321018            LEIAR25         NONE                    ANT # / TYPE        
  5206098.7325   612081.0247  3621806.3029                  APPROX POSITION XYZ 
        0.0720        0.0000        0.0000                  ANTENNA: DELTA H/E/N
     1     1                                                WAVELENGTH FACT L1/2
     4    C1    L1    P2    L2                              # / TYPES OF OBSERV 
    30.000                                                  INTERVAL            
  2015    01    21    00    00    0.0000000     GPS         TIME OF FIRST OBS   
  2015    01    21    23    59   30.0000000     GPS         TIME OF LAST OBS    
    16                                                      LEAP SECONDS        
    54                                                      # OF SATELLITES     
   G 1   762   762   762   762                              PRN / # OF OBS      
   G 2   941   941   941   941                              PRN / # OF OBS      
   G 3   829   829   829   829                              PRN / # OF OBS      
   G 4   819   819   818   818                              PRN / # OF OBS      
   G 5   652   652   652   652                              PRN / # OF OBS      
   G 6   791   790   782   782                              PRN / # OF OBS      
   G 7   617   617   614   614                              PRN / # OF OBS      
   G 9   805   805   805   805                              PRN / # OF OBS      
   G10   761   761   761   761                              PRN / # OF OBS      
   G11   741   741   740   740                              PRN / # OF OBS      
   G12   841   840   840   839                              PRN / # OF OBS      
   G13   796   796   796   796                              PRN / # OF OBS      
   G14   946   946   941   941                              PRN / # OF OBS      
   G15   706   706   706   706                              PRN / # OF OBS      
   G16   665   665   663   663                              PRN / # OF OBS      
   G17   905   905   905   905                              PRN / # OF OBS      
   G18   903   902   901   900                              PRN / # OF OBS      
   G19   759   759   759   759                              PRN / # OF OBS      
   G20   842   842   838   838                              PRN / # OF OBS      
   G21   744   744   741   741                              PRN / # OF OBS      
   G22   655   655   653   653                              PRN / # OF OBS      
   G23   754   754   748   748                              PRN / # OF OBS      
   G24   830   830   830   830                              PRN / # OF OBS      
   G25   863   863   863   863                              PRN / # OF OBS      
   G27   797   797   797   797                              PRN / # OF OBS      
   G28   874   874   872   872                              PRN / # OF OBS      
   G29   784   783   779   779                              PRN / # OF OBS      
   G30   659   659   653   653                              PRN / # OF OBS      
   G31   846   844   840   839                              PRN / # OF OBS      
   G32   774   773   763   763                              PRN / # OF OBS      
   R 1   919   919   899   896                              PRN / # OF OBS      
   R 2   843   843   835   829                              PRN / # OF OBS      
   R 3   687   687   682   681                              PRN / # OF OBS      
   R 4   767   767   762   755                              PRN / # OF OBS      
   R 5   754   754   751   751                              PRN / # OF OBS      
   R 6   656   656   654   654                              PRN / # OF OBS      
   R 7   866   866   853   842                              PRN / # OF OBS      
   R 8   927   927   917   916                              PRN / # OF OBS      
   R 9   683   683   532   527                              PRN / # OF OBS      
   R10   780   780   756   755                              PRN / # OF OBS      
   R11   887   887   887   886                              PRN / # OF OBS      
   R12   753   753   736   728                              PRN / # OF OBS      
   R13   857   857   851   851                              PRN / # OF OBS      
   R14   812   812   764   760                              PRN / # OF OBS      
   R15   726   726   717   716                              PRN / # OF OBS      
   R16   585   585   581   581                              PRN / # OF OBS      
   R17   669   669   669   669                              PRN / # OF OBS      
   R18   574   574   560   556                              PRN / # OF OBS      
   R19   767   767   759   759                              PRN / # OF OBS      
   R20   812   812   805   805                              PRN / # OF OBS      
   R21   590   590   588   410                              PRN / # OF OBS      
   R22   770   770   769   763                              PRN / # OF OBS      
   R23   902   902   899   899                              PRN / # OF OBS      
   R24   773   773   756   754                              PRN / # OF OBS      
BIT 2 OF LLI FLAGS DATA COLLECTED UNDER A/S CONDITION       COMMENT             
SNR is mapped to RINEX snr flag value [2-9]                 COMMENT             
Lx:     = 25dBHz -> 1; 26-27dBHz -> 2; 28-31dBHz -> 3       COMMENT             
       32-35dBHz -> 4; 36-38dBHz -> 5; 39-41dBHz -> 6       COMMENT             
       42-44dBHz -> 7; 45-48dBHz -> 8; >=49dBHz -> 9        COMMENT             
                                                            END OF HEADER       
 15 01 21 00 00  0.0000000  0 13G02G12G14G21G25G29G31R10R11R12R21R22
                                R23
  24524178.580   128875456.82107  24524166.860   100422437.38744
  23386244.200   122895594.19708  23386237.760    95762846.08344
  23623452.440   124142097.36206  23623453.080    96734080.12245
  22804973.260   119841038.47008  22804970.080    93382590.77446
  20963466.100   110163784.51909  20963463.980    85841932.85847
  20270928.200   106524536.03909  20270926.080    83006131.02048
  21432256.400   112627307.89909  21432250.980    87761511.44147
  23005638.620   122633002.42408  23005646.820    95381236.60305
  19509275.300   104251661.34808  19509276.980    81084642.37306
  20342047.220   108663556.40007  20342051.120    84516116.98806
  20493630.260   109665548.93308  20493630.580    85295433.40306
  19311773.340   103087648.63509  19311774.520    80179376.49308
  23118567.460   123668734.34008  23118571.920    96186814.27404
 15 01 21 00 00 30.0000000  0 13G02G12G14G21G25G29G31R10R11R12R21R22
                                R23
  24539315.020   128954999.09807  24539303.820   100484418.41143
  23399275.040   122964072.11508  23399268.900    95816205.51644
  23637866.300   124217838.44106  23637865.980    96793099.06845
  22788793.960   119756015.04708  22788790.980    93316338.80746
  20968427.540   110189856.35509  20968425.240    85862248.57747
  20276243.000   106552465.83509  20276240.820    83027894.51248
  21422402.820   112575527.36209  21422397.900    87721162.96548
  23027090.280   122747348.75109  23027097.440    95470172.56704
  19515798.000   104286517.27008  19515799.880    81111752.53006
  20325824.240   108576898.47607  20325828.280    84448716.40206
  20509667.840   109751369.66408  20509668.220    85362182.86106
  19307955.100   103067265.95709  19307955.960    80163523.30708
  23098438.360   123561057.86508  23098442.640    96103066.05805
 15 01 21 00 01  0.0000000  0 13G02G12G14G21G25G29G31R10R11R12R21R22
                                R23
  24554503.520   129034815.47206  24554492.820   100546612.98243
  23412332.540   123032690.30808  23412327.020    95869674.20545
  23652312.380   124293747.92806  23652311.260    96852249.24045
  22772659.140   119671225.29408  22772656.100    93250268.90445
  20973437.240   110216182.13409  20973434.920    85882762.16847
  20281623.120   106580737.98109  20281620.920    83049924.76448
  21412635.020   112524197.77309  21412630.580    87681165.88748
  23048595.920   122861982.31309  23048601.820    95559331.95504
  19522443.940   104322031.90108  19522445.960    81139375.01706
  20309677.840   108490649.46107  20309681.740    84381633.83306
  20525769.560   109837532.24408  20525769.660    85429198.21306
  19304258.520   103047533.06508  19304259.040    80148175.52608
  23078366.260   123453685.71008  23078370.360    96019554.54106
 15 01 21 00 01 30.0000000  0 13G02G12G14G21G25G29G31R10R11R12R21R22
                                R23
  24569742.100   129114894.78206  24569732.120   100609012.41644
  23425415.300   123101440.54508  23425410.420    95923245.80144
  23666788.240   124369814.18806  23666786.340    96911521.62045
  22756567.500   119586662.68508  22756564.160    93184375.99145
  20978493.680   110242753.76109  20978491.500    85903467.33647
  20287066.620   106609342.75309  20287064.420    83072214.20048
  21402951.640   112473312.14309  21402947.660    87641514.74448
  23070153.220   122976892.02209  23070158.100    95648706.08004
  19529211.580   104358196.72608  19529213.640    81167503.19206
  20293607.260   108404804.26407  20293610.920    84314865.35606
  20541933.040   109924024.43308  20541932.680    85496469.93506
  19300681.740   103028440.46708  19300682.140    80133325.74008
  23058349.780   123346611.06808  23058353.800    95936274.42806
 15 01 21 00 02  0.0000000  0 13G02G12G14G21G25G29G31R10R11R12R21R22
                                R23
  24585032.060   129195243.65707  24585022.920   100671621.89444
  23438524.700   123170331.46108  23438520.420    95976927.02045
  23681294.900   124446043.23507  23681292.320    96970920.77344
  22740521.160   119502338.32608  22740517.420    93118668.72445
  20983598.660   110269580.59609  20983596.720    85924371.35548
  20292574.640   106638286.88409  20292572.560    83094768.07548
  21393354.780   112422881.13109  21393351.180    87602217.85848
  23091763.300   123092084.41108  23091767.620    95738300.05404
  19536102.620   104395020.50908  19536104.640    81196143.91806
  20277614.980   108319376.00007  20277618.420    84248421.13906
  20558159.120   110010851.67508  20558158.480    85564002.24006
  19297226.340   103009996.20708  19297226.800    80118980.20608
  23038390.960   123239844.92808  23038395.100    95853234.25306
 15 01 21 00 02 30.0000000  0 13G02G12G14G21G25G29G31R10R11R12R21R22
                                R23
  24600372.400   129275857.50407  24600364.040   100734437.87244
  23451660.340   123239359.98308  23451656.260    96030715.47145
  23695831.300   124522428.89707  23695828.040    97030442.03344
  22724519.900   119418251.62008  22724515.860    93053146.63944
  20988751.800   110296660.41409  20988750.060    85945472.50048
  20298146.280   106667566.01009  20298144.380    83117582.97648
  21383844.340   112372904.24609  21383841.060    87563274.83948
  23113425.080   123207554.14908  23113429.380    95828109.74505
  19543116.420   104432500.41308  19543118.380    81225294.94606
  20261701.040   108234365.54507  20261704.160    84182301.89205
  20574446.480   110098007.55808  20574445.800    85631790.13906
  19293891.780   102992196.42508  19293892.320    80105135.92908
  23018489.660   123133386.60608  23018493.980    95770433.47706
 15 01 21 00 03  0.0000000  0 13G02G12G14G21G25G29G31R10R11R12R21R22
                                R23
  24615762.240   129356732.54407  24615754.580   100797457.39544
  23464822.080   123308525.62508  23464818.380    96084610.77245
  23710396.540   124598966.96208  23710392.700    97090082.03044
  22708563.940   119334403.52008  22708559.500    92987810.47544
  20993952.900   110323992.36309  20993951.440    85966770.11648
  20303780.960   106697177.26509  20303779.340    83140656.69048
  21374420.440   112323381.93009  21374417.380    87524686.02948
  23135137.600   123323297.60107  23135142.860    95918132.22205
  19550252.860   104470635.08608  19550254.680    81254955.24306
  20245865.960   108149775.47507  20245868.720    84116509.62306
  20590794.240   110185487.06108  20590793.600    85699829.74307
  19290677.600   102975038.97208  19290678.280    80091791.28108
  22998645.920   123027236.43308  22998650.480    95687872.40006
 15 01 21 00 03 30.0000000  0 13G02G12G14G21G25G29G31R10R11R12R21R22
                                R23
  24631202.200   129437872.06007  24631195.420   100860683.01444
  23478010.740   123377833.64908  23478007.520    96138616.99445
  23724990.920   124675659.73707  23724986.700    97149842.59043
  22692654.900   119250802.14608  22692650.200    92922666.58045
  20999203.140   110351582.45309  20999201.960    85988268.87548
  20309479.600   106727124.23009  20309478.060    83163991.99048
  21365084.520   112274321.67009  21365081.500    87486457.26548
  23156902.040   123439317.53308  23156908.360    96008369.78605
  19557512.860   104509430.24408  19557514.680    81285129.24306
  20230111.440   108065615.48307  20230113.720    84051051.83106
  20607202.560   110273292.39808  20607202.220    85768122.77307
  19287584.640   102958528.56008  19287585.420    80078949.85408
  22978861.160   122921402.15508  22978866.020    95605556.98806
 15 01 21 00 04  0.0000000  0 13G02G12G14G21G25G29G31R10R11R12R21R22
                                R23
  24646690.900   129519268.54207  24646685.080   100924108.83244
  23491225.640   123447278.53308  23491222.460    96192729.86445
  23739612.880   124752498.63508  23739608.400    97209716.99842
  22676792.240   119167443.95908  22676787.440    92857712.16145
  21004501.560   110379425.60609  21004500.560    86009964.83148
  20315240.880   106757399.57009  20315239.260    83187583.15748
  21355835.920   112225720.17509  21355832.860    87448585.98348
  23178717.260   123555605.96008  23178724.300    96098816.23404
  19564895.380   104548880.11308  19564897.320    81315812.45706
  20214436.960   107981883.39207  20214438.820    83985926.86106
  20623669.700   110361414.24508  20623669.920    85836661.96307
  19284611.500   102942658.09708  19284612.460    80066606.17308
  22959134.680   122815880.00608  22959139.780    95523484.35705
 15 01 21 00 04 30.0000000  0 13G02G12G14G21G25G29G31R10R11R12R21R22
                                R23
  24662228.500   129600922.96507  24662223.940   100987735.68145
  23504467.320   123516863.96008  23504464.020    96246952.26045
  23754262.500   124829483.68308  23754258.100    97269705.32643
  22660977.080   119084334.56708  22660972.180    92792951.63945
  21009848.820   110407525.61609  21009848.000    86031860.93648
  20321065.100   106788005.04309  20321063.300    83211431.58248
  21346675.580   112177582.43709  21346672.420    87411076.06748
  23200583.160   123672163.92207  23200590.820    96189472.31704
  19572400.900   104588987.71808  19572403.160    81347007.25706
  20198843.760   107898586.83607  20198845.440    83921140.66506
  20640195.640   110449852.35408  20640196.740    85905447.10207
  19281758.760   102927430.21508  19281759.940    80054762.28308
  22939467.600   122710674.93008  22939472.260    95441658.33004
 15 01 21 00 05  0.0000000  0 13G02G12G14G21G25G29G31R10R11R12R21R22
                                R23
  24677814.140   129682830.38806  24677811.100   101051559.66445
  23517735.300   123586586.83008  23517731.600    96301281.75345
  23768938.780   124906609.10007  23768934.560    97329803.03843
  22645209.220   119001473.34408  22645204.240    92728384.48545
  21015244.520   110435880.27109  21015243.780    86053955.46648
  20326951.340   106818936.11409  20326949.320    83235533.71548
  21337603.380   112129907.57509  21337600.100    87373926.82648
  23222498.720   123788985.99207  23222506.740    96280333.78404
  19580028.780   104629750.30808  19580031.620    81378711.47306
  20183332.000   107815726.78607  20183333.940    83856693.96006
  20656779.480   110538600.39608  20656781.540    85974473.32607
  19279025.800   102912840.84909  19279027.040    80043414.99408
  22919859.820   122605786.40508  22919863.500    95360078.44803
 15 01 21 00 05 30.0000000  0 13G02G12G14G21G25G29G31R10R11R12R21R22
                                R23
  24693447.260   129764987.66306  24693445.680   101115578.31844
  23531029.440   123656446.25708  23531025.320    96355717.65645
  23783640.900   124983870.78906  23783637.440    97390006.93143
  22629488.840   118918861.35408  22629483.640    92664011.53645
  21020688.460   110464488.90509  21020687.800    86076247.89248
  20332898.840   106850189.51809  20332896.640    83259887.01248
  21328619.480   112082696.47009  21328616.060    87337138.94848
  23244462.960   123906068.55106  23244470.960    96371397.88003
  19587778.900   104671166.14408  19587782.260    81410923.76906
  20167902.260   107733305.79207  20167904.640    83792588.75806
  20673420.720   110627653.63308  20673423.320    86043736.94307
  19276412.200   102898887.68309  19276413.400    80032562.53208
  22900311.420   122501215.03708  22900313.500    95278745.15103
 15 01 21 00 06  0.0000000  0 13G02G12G14G21G25G29G31R10R11R12R21R22
                                R23
  24709128.220   129847396.74305  24709128.420   101179793.17944
  23544350.400   123726446.81908  23544345.960    96410263.52845
  23798369.020   125061269.62906  23798366.700    97450317.71144
  22613817.020   118836505.28908  22613811.940    92599838.01845
  21026181.560   110493356.27809  21026180.960    86098741.93948
  20338908.260   106881768.65709  20338905.900    83284494.12648
  21319724.980   112035955.06109  21319721.480    87300717.06948
  23266476.000   124023413.72204  23266484.080    96462666.05003
  19595652.440   104713239.59408  19595655.940    81443647.54507
  20152556.320   107651332.28407  20152559.160    83728831.62306
  20690119.700   110717012.87908  20690122.340    86113238.58706
  19273918.560   102885574.19509  19273919.520    80022207.60108
  22880823.380   122396966.92808  22880825.080    95197663.35304
 15 01 21 00 06 30.0000000  0 13G02G12G14G21G25G29G31R10R11R12R21R22
                                R23
  24724856.380   129930052.30506  24724857.580   101244200.11144
  23557697.640   123796585.43309  23557692.980    96464916.97745
  23813121.860   125138800.02104  23813120.440    97510730.89943
  22598193.700   118754404.38308  22598188.740    92535863.31945
  21031723.460   110522479.99709  21031722.920    86121435.74048
  20344978.720   106913668.94609  20344976.200    83309351.49148
  21310919.660   111989682.36909  21310916.260    87264660.42448
  23288538.340   124141015.36307  23288545.380    96554133.86002
  19603648.720   104755967.28908  19603652.080    81476880.18807
  20137294.380   107569807.07307  20137297.460    83665423.14606
  20706875.080   110806671.66408  20706877.340    86182973.20506
  19271543.720   102872895.99308  19271544.620    80012346.77508
  22861395.380   122293041.11408  22861397.740    95116832.23704
 15 01 21 00 07  0.0000000  0 13G02G12G14G21G25G29G31R10R11R12R21R22
                                R23
  24740631.220   130012951.02306  24740632.460   101308796.49245
  23571070.900   123866860.68909  23571066.260    96519676.91745
  23827898.560   125216456.99006  23827896.960    97571242.75043
  22582619.020   118672559.38408  22582614.060    92472088.00345
  21037313.960   110551859.00409  21037313.540    86144328.46248
  20351109.480   106945886.30409  20351106.740    83334455.92548
  21302203.500   111943878.77009  21302200.400    87228969.31248
  23310648.440   124258869.82907  23310654.340    96645798.34402
  19611767.120   104799347.34208  19611770.260    81510620.23107
  20122116.940   107488732.43307  20122120.080    83602365.08506
  20723685.780   110896624.95208  20723687.060    86252936.89906
  19269287.060   102860850.30108  19269287.960    80002977.90708
  22842027.580   122189437.68708  22842030.620    95036251.85504
 15 01 21 00 07 30.0000000  0 13G02G12G14G21G25G29G31R10R11R12R21R22
                                R23
  24756449.960   130096077.97007  24756450.840   101373570.77545
  23584467.600   123937259.83208  23584463.160    96574533.36345
  23842696.840   125294225.17505  23842688.760    97631844.33743
  22567090.920   118590959.66308  22567086.280    92408503.85645
  21042950.780   110581481.15509  21042950.540    86167410.64848
  20357297.900   106978406.73109  20357295.000    83359796.51548
  21293574.540   111898533.85209  21293571.700    87193635.62248
  23332803.060   124376961.66307                                
  19620005.120   104843366.81108  19620008.040    81544857.59807
  20107022.300   107408099.51407  20107025.600    83539650.60706
  20740548.460   110986856.25408  20740548.500    86323116.82706
  19267146.020   102849423.22508  19267147.080    79994090.19208
  22822718.140   122086145.92908  22822721.120    94955913.85104
 15 01 21 00 08  0.0000000  0 13G02G12G14G21G25G29G31R10R11R12R21R22
                                R23
  24772315.300   130179448.25607  24772315.320   101438534.64245
  23597891.140   124007800.48809  23597886.800    96629500.09045
  23857519.640   125372118.18307  23857514.120    97692540.12142
  22551613.240   118509625.02808  22551608.860    92345126.24345
  21048637.300   110611364.22409  21048637.180    86190696.14648
  20363546.980   107011246.05209  20363544.060    83385385.60348
  21285036.340   111853666.06809  21285033.600    87158673.72247
  23355004.780   124495305.75507  23355010.580    96829711.73802
  19628365.820   104888042.54008  19628368.600    81579605.37707
  20092014.300   107327929.83507  20092017.820    83477296.43506
  20757465.600   111077379.70008  20757464.320    86393523.97706
  19265123.900   102838631.03908  19265125.080    79985696.28208
  22803470.720   121983185.44608  22803473.280    94875833.51905
 15 01 21 00 08 30.0000000  0 13G02G12G14G21G25G29G31R10R11R12R21R22
                                R23
  24788226.540   130263058.55807  24788225.460   101503685.55245
  23611341.360   124078482.08908  23611337.300    96684576.65645
  23872365.920   125450132.29807  23872361.520    97753330.28643
  22536186.300   118428556.65208  22536182.200    92281956.09844
  21054373.500   110641507.79609  21054373.340    86214184.63748
  20369856.140   107044401.33709  20369853.340    83411220.88048
  21276589.260   111809276.69109  21276586.340    87124084.58547
  23377252.980   124613898.68107  23377258.760    96921950.55801
  19636849.000   104933373.30708  19636851.680    81614862.62407
  20077093.540   107248226.21207  20077097.360    83415304.73606
  20774436.240   111168190.87908  20774434.140    86464154.88406
  19263220.480   102828471.45508  19263221.620    79977794.40208
  22784285.360   121880556.68508  22784287.920    94796011.20405
 15 01 21 00 09  0.0000000  0 13G02G12G14G21G25G29G31R10R11R12R21R22
                                R23
  24804182.020   130346900.58107  24804179.700   101569017.01345
  23624817.040   124149298.07008  23624813.440    96739757.91745
  23887233.620   125528258.37708  23887229.320    97814207.66044
  22520809.380   118347750.44408  22520805.240    92218990.24745
  21060158.220   110671906.09009  21060157.940    86237871.61348
  20376223.780   107077864.29709  20376221.240    83437295.90548
  21268232.440   111765361.19309  21268229.020    87089864.70847
  23399546.060   124732731.38007                                
  19645453.200   104979352.28008  19645456.020    81650624.02007
  20062259.560   107168986.19407  20062263.620    83353673.60906
  20791458.480   111259279.94908  20791456.200    86535001.91707
  19261434.300   102818936.80908  19261435.380    79970378.57208
  22765161.160   121778254.90408  22765164.000    94716443.22706
 15 01 21 00 09 30.0000000  0 12G12G14G21G25G29G31R10R11R12R21R22R23
  23638318.080   124220247.63808  23638314.980    96795043.27445
  23902121.680   125606492.12408  23902117.560    97875168.97244
  22505482.660   118267207.60908  22505478.500    92156229.60845
  21065991.380   110702558.79409  21065990.980    86261756.82548
  20382649.580   107111633.12608  20382647.240    83463609.26648
  21259965.920   111721920.55209  21259961.980    87056014.84247
  23421883.640   124851800.87906                                
  19654178.420   105025978.40208  19654181.460    81686888.75907
  20047512.980   107090212.70107  20047516.980    83292405.33306
  20808531.560   111350642.51108  20808529.560    86606061.64807
  19259764.880   102810025.00809  19259765.920    79963447.16808
  22746098.400   121676281.63408  22746101.660    94637130.78106
 15 01 21 00 10  0.0000000  0 12G12G14G21G25G29G31R10R11R12R21R22R23
  23651848.620   124291353.49708  23651845.960    96850450.42345
  23917033.860   125684853.39908  23917029.800    97936229.62644
  22490210.880   118186953.16708  22490206.440    92093693.69245
  21071877.300   110733489.08109  21071876.820    86285858.34948
  20389137.500   107145728.47708  20389135.260    83490177.07648
  21251794.400   111678979.46609  21251790.000    87022554.23547
  23444269.660   124971127.33503                                
  19663028.900   105073274.11908  19663032.280    81723674.30207
  20032858.920   107011933.03007  20032862.440    83231521.13806
  20825659.280   111442298.26608  20825657.920    86677349.42807
  19258216.160   102801757.69709  19258217.280    79957017.05308
  22727101.420   121574661.29308  22727105.260    94558092.84507
 15 01 21 00 10 30.0000000  0 11G12G14G21G25G29G31R11R12R21R22R23
  23665405.480   124362598.43508  23665403.140    96905965.93344
  23931966.200   125763321.71008  23931962.120    97997373.67643
  22474991.040   118106971.75808  22474986.480    92031370.52844
  21077812.780   110764680.05809  21077812.080    86310163.00648
  20395684.040   107180131.53108  20395681.600    83516984.66948
  21243714.920   111636522.14809  21243710.240    86989470.59647
  19672001.480   105121221.10308  19672004.980    81760966.39307
  20018294.840   106934133.15407  20018297.780    83171010.09406
  20842837.840   111534226.04008  20842837.180    86748848.78507
  19256784.620   102794115.83908  19256785.860    79951073.40708
  22708167.400   121473378.04307  22708171.720    94479317.07707
 15 01 21 00 11  0.0000000  0 11G12G14G21G25G29G31R11R12R21R22R23
  23678987.600   124433975.09108  23678985.240    96961584.12445
  23946916.840   125841886.87908  23946912.440    98058593.22743
  22459821.980   118027258.16708  22459817.280    91969256.07345
  21083796.600   110796124.70809  21083795.420    86334665.33548
  20402287.340   107214832.85808  20402284.620    83544024.67648
  21235726.440   111594543.04109  21235721.760    86956759.58747
  19681094.500   105169811.16008  19681098.000    81798758.65907
  20003819.860   106856809.44808  20003822.600    83110869.41906
  20860065.220   111626414.67508  20860065.220    86820551.03807
  19255468.600   102787090.39509  19255469.920    79945609.17208
  22689295.340   121372425.73208  22689299.840    94400798.70007
 15 01 21 00 11 30.0000000  0 12G12G14G21G25G29G31R10R11R12R21R22R23
  23692596.500   124505492.09308  23692594.160    97017311.63644
  23961886.720   125920553.69007  23961881.740    98119891.98643
  22444705.840   117947823.17008  22444701.260    91907358.68844
  21089830.280   110827831.88109  21089828.680    86359372.22048
  20408948.580   107249838.88508  20408945.720    83571302.10048
  21227830.940   111553052.08209  21227826.400    86924428.96447
  23511688.160   125330525.11307  23511697.160    97479337.43103
  19690309.440   105219052.72408  19690312.880    81837057.63906
  19989436.320   106779973.90607  19989438.920    83051108.42806
  20877342.400   111718869.36108  20877342.920    86892460.22807
  19254269.340   102780688.56509  19254270.680    79940629.96508
  22670487.400   121271815.38408  22670491.780    94322546.25707
 15 01 21 00 12  0.0000000  0 12G12G14G21G25G29G31R10R11R12R21R22R23
  23706231.180   124577144.31308  23706228.340    97073144.50844
  23976874.400   125999314.56208  23976868.920    98181264.04641
  22429641.980   117868664.06608  22429638.080    91845676.32944
  21095913.100   110859797.53709  21095911.120    86384280.52747
  20415666.520   107285143.33508  20415663.840    83598812.05748
  21220027.900   111512046.48809  21220023.440    86892476.54947
  23534246.360   125450772.64508  23534255.080    97572863.07002
  19699645.280   105268939.92008  19699648.480    81875858.78506
  19975144.060   106703626.15308  19975146.440    82991726.84406
  20894667.860   111811582.01309  20894668.740    86964570.05807
  19253185.660   102774904.09508  19253186.980    79936130.94208
  22651742.840   121171543.54408  22651746.680    94244557.09806
 15 01 21 00 12 30.0000000  0 12G12G14G21G25G29G31R10R11R12R21R22R23
  23719891.880   124648931.89708  23719888.460    97129082.89744
  23991879.360   126078165.69107  23991873.980    98242706.40943
  22414630.780   117789782.37908  22414627.440    91784210.12744
  21102045.000   110892021.44309  21102042.820    86409390.06647
  20422440.900   107320743.99908  20422438.480    83626552.82248
  21212317.380   111471527.20109  21212312.960    86860903.06247
  23556846.120   125571241.98808  23556854.940    97666561.22103
  19709101.860   105319471.86008  19709104.620    81915161.39406
  19960943.740   106627769.43608  19960945.860    82932727.17106
  20912040.740   111904548.41608  20912041.840    87036877.26906
  19252217.200   102769735.00709  19252218.600    79932110.54108
  22633061.780   121071611.38708  22633064.960    94166832.11206
 15 01 21 00 13  0.0000000  0 12G12G14G21G25G29G31R10R11R12R21R22R23
  23733578.840   124720856.39508  23733575.080    97185127.97144
  24006901.500   126157106.64207  24006895.940    98304218.71943
  22399673.200   117711182.53207  22399670.520    91722963.52144
  21108226.540   110924506.44109  21108224.420    86434703.04747
  20429272.040   107356641.89208  20429269.800    83654525.20448
  21204700.160   111431498.42108  21204695.740    86829711.80347
  23579487.540   125691933.23607  23579496.540    97760431.94303
  19718679.440   105370650.13008  19718681.660    81954966.70306
  19946836.400   106552409.71108  19946838.340    82874114.05406
  20929460.900   111997767.80508  20929461.920    87109381.24806
  19251364.140   102765182.17708  19251365.700    79928569.46208
  22614444.900   120972023.03808  22614447.820    94089374.52606
 15 01 21 00 13 30.0000000  0 11G12G14G21G25G29G31R11R12R21R22R23
  23747292.960   124792923.57108  23747289.240    97241284.19344
  24021940.960   126236138.91207  24021936.040    98365802.18642
  22384770.700   117632871.51808  22384768.140    91661942.00344
  21114458.800   110957257.65909  21114456.820    86460223.48547
  20436160.440   107392839.60408  20436158.120    83682731.21548
  21197177.320   111391966.26108  21197173.020    86798907.51647
  19728378.720   105422478.47408  19728380.380    81995277.64806
  19932823.560   106477555.74408  19932825.580    82815894.31007
  20946928.520   112091241.27408  20946929.180    87182082.87106
  19250627.040   102761248.44808  19250628.740    79925509.91508
  22595893.380   120872784.69908  22595896.360    94012189.18706
 15 01 21 00 14  0.0000000  0 11G12G14G21G25G29G31R11R12R21R22R23
  23761034.860   124865136.09808  23761031.140    97297553.66844
  24036997.800   126315263.16907  24036993.580    98427457.27942
  22369924.540   117554854.93008  22369921.720    91601149.87344
  21120742.600   110990279.14009  21120740.680    86485954.51447
  20443106.220   107429338.75008  20443103.720    83711172.09848
  21189749.900   111352936.08208  21189745.900    86768494.39047
  19738200.100   105474960.13308  19738201.440    82036096.71406
  19918906.620   106403214.92107  19918908.980    82758073.68907
  20964443.620   112184969.08608  20964443.940    87254982.30906
  19250006.420   102757936.34209  19250008.280    79922933.84808
  22577408.040   120773901.67007  22577411.320    93935280.21406
 15 01 21 00 14 30.0000000  0 11G12G14G21G25G29G31R11R12R21R22R23
  23774803.760   124937490.14608  23774800.200    97353933.46844
  24052070.440   126394471.68106  24052066.900    98489178.01544
  22355134.320   117477130.72308  22355130.760    91540585.54944
  21127077.240   111023567.15209  21127075.200    86511893.23047
  20450108.300   107466133.70708  20450105.640    83739843.49948
  21182417.460   111314405.62408  21182413.980    86738470.63547
  19748142.600   105528089.99408  19748144.000    82077419.93706
  19905085.520   106329386.51207  19905088.360    82700651.60707
  20982004.820   112278943.61308  20982005.240    87328073.60406
  19249501.140   102755239.57909  19249503.200    79920836.39308
  22558988.520   120675371.64308  22558992.160    93858645.79606
 15 01 21 00 15  0.0000000  0 11G12G14G21G25G29G31R11R12R21R22R23
  23788599.120   125009983.53608  23788595.960    97410421.79645
  24067158.040   126473759.30106  24067155.280    98550960.40244
  22340399.880   117399698.68908  22340395.680    91480248.89644
  21133462.200   111057119.85709  21133459.940    86538038.19147
  20457166.020   107503220.32908  20457163.140    83768742.15348
  21175179.820   111276374.03308  21175177.100    86708835.62448
  19758205.620   105581864.69708  19758207.400    82119244.70006
  19891360.800   106256072.58407  19891364.060    82643629.67607
  20999611.240   112373159.10108  20999611.900    87401352.30407
  19249110.520   102753154.47708  19249112.660    79919214.66108
  22540634.620   120577193.21107  22540638.320    93782284.84105
 15 01 21 00 15 30.0000000  0 11G12G14G21G25G29G31R11R12R21R22R23
  23802421.080   125082617.07808  23802418.440    97467019.34945
  24082260.500   126553124.02607  24082258.380    98612802.86543
  22325721.700   117322561.66808  22325717.100    91420142.12245
  21139897.720   111090938.58309  21139895.240    86564390.43547
  20464279.160   107540597.56509  20464276.000    83797867.27048
  21168037.540   111238843.55508  21168035.720    86679591.09848
  19768389.240   105636284.49108  19768391.620    82161571.19406
  19877733.300   106183277.51808  19877736.700    82587011.31007
  21017262.440   112467613.08209  21017263.260    87474816.49507
  19248834.260   102751680.22808  19248836.300    79918068.03108
  22522346.960   120479369.56207  22522350.360    93706199.79805
 15 01 21 00 16  0.0000000  0 11G12G14G21G25G29G31R11R12R21R22R23
  23816268.600   125155385.08108  23816266.280    97523721.68045
  24097376.120   126632556.92407  24097374.360    98674698.48743
  22311098.840   117245715.76608  22311094.260    91360262.22145
  21146382.720   111125017.90309  21146380.180    86590945.75347
  20471446.300   107578258.46509  20471442.840    83827213.42848
  21160990.060   111201810.14108  21160988.800    86650733.90048
  19778692.300   105691342.55008  19778695.160    82204394.11206
  19864202.560   106110998.81608  19864205.840    82530794.53407
  21034956.680   112562296.27609  21034957.400    87548458.96507
  19248671.000   102750809.15109  19248672.840    79917390.52507
  22504124.980   120381895.77308  22504127.820    93630386.88005
 15 01 21 00 16 30.0000000  0 11G12G14G21G25G29G31R11R12R21R22R23
  23830142.340   125228291.73808  23830140.300    97580532.06045
  24112505.060   126712059.25508  24112503.820    98736648.18943
  22296532.620   117169167.85308  22296528.120    91300614.51745
  21152918.160   111159362.68909  21152915.780    86617707.91847
  20478667.720   107616205.28109  20478663.960    83856782.39048
  21154038.600   111165279.69308  21154037.480    86622268.62448
  19789115.520   105747042.31708  19789118.820    82247716.15106
  19850770.220   106039245.40808  19850773.340    82474986.33507
  21052693.940   112657209.80009  21052694.460    87622280.58408
  19248621.340   102750543.97209  19248622.920    79917184.28707
  22485969.980   120284778.54008  22485972.240    93554851.26706
 15 01 21 00 17  0.0000000  0 11G12G14G21G25G29G31R11R12R21R22R23
  23844042.500   125301338.27308  23844040.760    97637451.42045
  24127646.940   126791629.27908  24127645.980    98798650.63942
  22282023.580   117092921.36108  22282019.240    91241201.67246
  21159504.480   111193974.96709  21159502.400    86644678.51447
  20485943.280   107654437.54009  20485939.180    83886573.75248
  21147183.700   111129255.44808  21147182.420    86594197.79248
  19799659.120   105803384.58308  19799662.460    82291537.88806
  19837437.140   105968022.11908  19837440.220    82419590.44007
  21070473.820   112752351.82509  21070474.120    87696279.92608
  19248685.220   102750884.66109  19248686.560    79917449.25507
  22467882.400   120188020.61608  22467884.320    93479595.09806
 15 01 21 00 17 30.0000000  0 11G12G14G21G25G29G31R11R12R21R22R23
  23857968.620   125374521.69708  23857967.220    97694477.45645
  24142800.540   126871260.79908  24142800.520    98860700.96941
  22267571.280   117016974.25908  22267567.380    91182022.16745
  21166141.220   111228851.53909  21166139.480    86671855.07247
  20493272.060   107692950.64109  20493267.700    83916583.96547
  21140424.880   111093735.32808  21140423.280    86566519.79548
  19810322.340   105860364.78608  19810325.380    82335855.81506
  19824203.440   105897329.50808  19824206.540    82364607.29807
  21088294.980   112847715.41109  21088295.100    87770451.61307
  19248861.600   102751825.82909  19248862.660    79918181.27807
  22449861.580   120091620.01408  22449863.500    93404616.91607
 15 01 21 00 18  0.0000000  0 11G12G14G21G25G29G31R11R12R21R22R23
  23871921.940   125447848.22608  23871920.760    97751615.00744
  24157966.400   126950956.63108                                
  22253177.480   116941335.54908  22253174.060    91123082.95246
  21172829.700   111263999.22109  21172828.180    86699242.87447
  20500655.100   107731749.07009  20500650.540    83946816.51747
  21133763.540   111058727.22308  21133761.440    86539240.74948
  19821106.020   105917988.09108  19821108.660    82380673.93206
  19811070.920   105827177.49508  19811073.900    82310044.60007
  21106157.940   112943303.82008  21106158.040    87844798.13607
  19249151.260   102753371.88309  19249152.140    79919383.76507
  22431908.780   119995584.60508  22431910.940    93329922.75207
 15 01 21 00 18 30.0000000  0 11G12G14G21G25G29G31R11R12R21R22R23
  23885909.300   125521354.14608  23885908.340    97808892.35445
  24173150.820   127030750.42107                                
  22238849.520   116866043.44208  22238846.640    91064413.81645
  21179576.780   111299454.60409  21179575.420    86726870.43347
  20508098.980   107770866.95009  20508094.360    83977297.98048
  21127206.740   111024268.77308  21127204.180    86512390.01747
  19832016.720   105976290.53508  19832019.160    82426020.27506
  19798047.120   105757606.77308  19798050.020    82255934.03107
  21124068.980   113039150.38408  21124069.120    87919345.44907
  19249560.820   102755558.08309  19249561.720    79921084.16207
  22414031.140   119899952.91208  22414033.880    93255542.60507
 15 01 21 00 19  0.0000000  0 11G12G14G21G25G29G31R11R12R21R22R23
  23899914.120   125594950.97808  23899913.220    97866240.52445
  24188336.480   127110551.31407  24188332.720    99047172.06741
  22224571.140   116791011.93008  22224568.600    91005947.73245
  21186365.820   111335130.04409  21186364.460    86754669.47748
  20515586.660   107810214.75309  20515582.100    84007958.60848
  21120738.060   110990273.38908  21120735.080    86485900.11647
  19843037.440   106035181.41708  19843039.840    82471824.27706
  19785115.980   105688531.40108  19785118.920    82202208.72707
  21142010.800   113135162.20108  21142011.020    87994021.27406
  19250073.080   102758293.21009  19250074.260    79923211.48507
  22396212.300   119804636.50507  22396215.700    93181407.69307
 15 01 21 00 19 30.0000000  0 11G12G14G21G25G29G31R11R12R21R22R23
  23913937.140   125668642.67408  23913936.260    97923662.62745
  24203523.420   127190359.20907  24203518.720    99109359.82241
  22210343.480   116716246.16208  22210341.040    90947688.71345
  21193197.400   111371029.41109  21193196.140    86782643.00848
  20523118.380   107849794.28008  20523114.020    84038799.79847
  21114358.440   110956746.22308  21114355.160    86459775.07447
  19854168.660   106094663.02008  19854171.240    82518087.72506
  19772278.960   105619958.81508  19772282.060    82148874.49907
  21159983.620   113231339.58208  21159983.760    88068825.90206
  19250688.500   102761578.80709  19250689.920    79925766.95707
  22378453.420   119709640.49708  22378457.200    93107521.94206
 15 01 21 00 20  0.0000000  0 11G12G14G21G25G29G31R11R12R21R22R23
  23927995.420   125742518.65608  23927994.560    97981228.30545
  24218728.220   127270260.61307  24218724.020    99171620.46542
  22196183.780   116641837.81108  22196181.320    90889708.20845
  21200088.680   111407242.81209  21200087.580    86810861.22048
  20530710.500   107889692.99708  20530706.640    84069889.68947
  21108085.180   110923778.01908  21108081.580    86434085.56348
  19865427.260   106154825.46808  19865429.920    82564880.72207
  19759553.860   105551983.69208  19759556.960    82096004.96107
  21178004.000   113327770.40708  21178003.920    88143827.66006
  19251423.920   102765504.09709  19251425.200    79928819.96007
  22360771.960   119615057.70008  22360775.760    93033957.59806
 15 01 21 00 20 30.0000000  0 11G12G14G21G25G29G31R11R12R21R22R23
  23942080.360   125816534.83008  23942079.520    98038903.23945
  24233942.120   127350209.31906  24233937.720    99233917.97943
  22182084.140   116567745.21308  22182081.520    90831973.73345
  21207031.540   111443727.21209  21207030.560    86839290.61448
  20538354.560   107929865.88608  20538351.460    84101193.21647
  21101910.180   110891326.85908  21101906.360    86408798.94948
  19876804.740   106215623.58408  19876807.520    82612168.12306
  19746933.080   105484565.67008  19746936.100    82043568.72407
  21196063.060   113424407.30309  21196062.580    88218989.71206
  19252270.640   102770023.12609  19252271.600    79932334.78007
  22343160.200   119520845.42608  22343163.600    92960681.39606
 15 01 21 00 21  0.0000000  0 11G12G14G21G25G29G31R11R12R21R22R23
  23956191.580   125890690.13508  23956190.920    98096686.57445
  24249164.060   127430200.30007  24249160.180    99296248.47041
  22168044.740   116493969.01908  22168041.920    90774485.80744
  21214025.660   111480481.19809  21214024.800    86867930.09048
  20546050.400   107970309.75808  20546047.660    84132707.91347
  21095833.460   110859392.51609  21095829.420    86383915.05948
  19888300.580   106277054.14608  19888303.380    82659947.44806
  19734417.040   105417706.79608  19734419.820    81991567.39007
  21214159.740   113521244.98809  21214159.000    88294307.94806
  19253227.800   102775131.87109  19253228.580    79936308.26407
  22325617.980   119427003.53009  22325620.940    92887693.25806
 15 01 21 00 21 30.0000000  0 11G12G14G21G25G29G31R11R12R21R22R23
  23970329.400   125964985.16708  23970328.780    98154578.81545
  24264393.600   127510231.44707  24264390.240    99358610.16943
  22154066.060   116420511.61108  22154062.960    90717246.28744
  21221071.180   111517505.79009  21221070.480    86896780.40948
  20553797.880   108011023.41308  20553794.960    84164432.85647
  21089855.540   110827977.16509  21089851.140    86359435.56547
  19899914.600   106339116.53208  19899917.380    82708218.17906
  19722006.400   105351411.04508  19722009.000    81940004.03307
  21232293.540   113618281.01709  21232292.700    88369780.42407
  19254295.080   102780829.39309  19254295.960    79940739.68507
  22308145.260   119333533.32008  22308148.100    92814994.22907
 15 01 21 00 22  0.0000000  0 11G12G14G21G25G29G31R11R12R21R22R23
  23984493.800   126039419.50508  23984493.120    98212579.58545
  24279630.160   127590299.21706  24279626.880    99421000.42444
  22140148.520   116347374.52908  22140145.180    90660256.37344
  21228168.140   111554801.06309  21228167.600    86925841.64848
  20561596.380   108052004.44508  20561593.100    84196366.13947
  21083976.420   110797081.38509  21083971.740    86335360.91647
  19911646.280   106401809.03708  19911649.180    82756978.99306
  19709701.800   105285681.97708  19709704.380    81888881.41507
  21250463.620   113715511.61709  21250462.860    88445404.22707
  19255472.140   102787113.26609  19255473.140    79945627.15007
  22290742.040   119240436.04908  22290745.040    92742585.26607
 15 01 21 00 22 30.0000000  0 11G12G14G21G25G29G31R11R12R21R22R23
  23998685.060   126113994.78508  23998684.220    98270690.16345
  24294873.480   127670402.56906  24294870.880    99483418.44442
  22126292.920   116274561.82908  22126289.280    90603519.20345
  21235316.960   111592369.30909  21235316.520    86955115.59248
  20569445.660   108093252.97308  20569442.300    84228507.84447
  21078196.860   110766708.88209  21078191.920    86311694.01747
  19923496.000   106465132.69708  19923499.220    82806230.70506
  19697504.280   105220525.10508  19697506.940    81838203.85707
  21268669.780   113812935.56809  21268669.120    88521178.39507
  19256759.120   102793983.50609  19256760.140    79950970.67607
  22273409.020   119147715.24309  22273412.260    92670469.11207
 15 01 21 00 23  0.0000000  0 11G12G14G21G25G29G31R11R12R21R22R23
  24012902.760   126188708.54408  24012901.740    98328908.68245
  24310122.540   127750536.12707  24310120.060    99545860.06542
  22112499.000   116202072.81108  22112495.140    90547034.27245
  21242517.300   111630208.59309  21242516.920    86984600.73448
  20577345.140   108134765.99308  20577341.940    84260855.64347
  21072516.500   110736858.43909  21072511.420    86288433.91947
  19935463.360   106529083.76808  19935466.600    82855970.41706
  19685414.180   105155941.65908  19685416.960    81787972.29407
  21286910.920   113910547.38908  21286910.440    88597098.68807
  19258155.180   102801435.44309  19258156.160    79956766.64607
  22256145.960   119055369.59508  22256149.400    92598644.75907
 15 01 21 00 23 30.0000000  0 11G12G14G21G25G29G31R11R12R21R22R23
  24027146.740   126263559.73708  24027145.220    98387234.30145
  24325376.660   127830696.09107  24325374.320    99608322.12143
  22098766.980   116129909.00108  22098763.020    90490802.74045
  21249769.240   111668318.65709  21249768.940    87014296.87248
  20585294.540   108176540.42208  20585291.420    84293407.14447
  21066935.420   110707530.60409  21066930.440    86265581.05647
  19947548.000   106593659.99208  19947550.860    82906196.37206
  19673432.120   105091934.63608  19673434.840    81738189.05307
  21305186.260   114008343.18008  21305186.060    88673162.05807
  19259659.780   102809466.56409  19259660.580    79963013.08407
  22238953.180   118963400.30508  22238956.660    92527113.12607
 15 01 21 00 24  0.0000000  0 11G12G14G21G25G29G31R11R12R21R22R23
  24041417.200   126338550.23908  24041415.160    98445668.49545
  24340635.580   127910881.04307  24340633.440    99670803.69343
  22085097.400   116058073.70608  22085093.340    90434827.19645
  21257073.180   111706701.22909  21257072.880    87044205.35748
  20593293.920   108218575.74809  20593290.500    84326161.94847
  21061454.220   110678728.18809  21061449.540    86243137.61647
  19959749.940   106658861.81408  19959752.140    82956908.89806
  19661559.040   105028509.07208  19661561.460    81688858.05307
  21323495.480   114106321.14908  21323495.680    88749367.09707
  19261272.740   102818076.27209  19261273.380    79969709.51907
  22221831.120   118871809.53508  22221834.540    92455875.90307
 15 01 21 00 24 30.0000000  0 11G12G14G21G25G29G31R11R12R21R22R23
  24055714.060   126413680.32008  24055711.660    98504211.41345
  24355898.700   127991088.28108  24355897.160    99733302.70743
  22071490.560   115986568.70208  22071486.440    90379109.01645
  21264429.180   111745356.83909  21264428.800    87074326.60948
  20601342.820   108260870.42809  20601338.920    84359118.85847
  21056073.280   110650452.78609  21056068.880    86221104.81947
  19972068.660   106724687.40308  19972070.200    83008106.57206
  19649795.520   104965668.76408  19649797.500    81639982.25207
  21341838.100   114204478.22308  21341838.700    88825711.43907
  19262993.740   102827262.64709  19262994.240    79976854.48607
  22204780.020   118780599.24508  22204783.400    92384934.60507
 15 01 21 00 25  0.0000000  0 11G12G14G21G25G29G31R11R12R21R22R23
  24070037.480   126488950.85208  24070034.880    98562863.75645
  24371165.580   128071315.67507  24371164.220    99795817.41243
  22057947.200   115915397.47808  22057942.980    90323650.93745
  21271837.520   111784287.12409  21271837.080    87104661.89248
  20609440.960   108303423.99709  20609436.560    84392277.49747
  21050793.180   110622706.73209  21050788.940    86199484.51347
  19984504.120   106791137.12008  19984505.220    83059789.69906
  19638142.320   104903418.41708  19638144.020    81591565.31507
  21360213.880   114302812.53208  21360214.800    88902193.64906
  19264822.580   102837024.75609  19264823.040    79984447.23307
  22187800.200   118689771.73308  22187803.640    92314291.04106
 15 01 21 00 25 30.0000000  0 11G12G14G21G25G29G31R11R12R21R22R23
  24084387.220   126564359.78608  24084384.660    98621623.96045
  24386435.360   128151558.76107  24386433.960    99858344.33843
  22044467.380   115844559.79208  22044462.800    90268452.73545
  21279297.840   111823490.63209  21279297.380    87135210.08048
  20617587.660   108346233.70209  20617582.920    84425635.72147
  21045613.780   110595489.36409  21045609.520    86178276.16447
  19997055.640   106858207.40808  19997056.560    83111955.48506
  19626599.700   104841759.84208  19626601.320    81543608.64807
  21378622.020   114401319.03208  21378622.900    88978809.81806
  19266758.540   102847358.78809  19266759.160    79992484.82607
  22170891.900   118599326.52208  22170895.140    92243944.81806
 15 01 21 00 26  0.0000000  0 11G12G14G21G25G29G31R11R12R21R22R23
  24098763.280   126639907.19808  24098760.640    98680492.11045
  24401707.560   128231814.57206  24401706.060    99920881.13744
  22031051.440   115774058.24708  22031046.680    90213516.47645
  21286810.240   111862968.26109  21286809.800    87165971.87148
  20625782.520   108389297.81108  20625777.720    84459192.16047
  21040535.380   110568802.47009  21040530.960    86157481.16547
  20009723.020   106925897.24508  20009724.060    83164603.12506
  19615168.580   104780697.19508  19615170.100    81496115.48207
  21397062.000   114499995.11609  21397062.360    89055557.91305
  19268801.320   102858263.15809  19268802.080    80000966.02407
  22154055.700   118509265.28508  22154058.440    92173897.20806
 15 01 21 00 26 30.0000000  0 11G12G14G21G25G29G31R11R12R21R22R23
  24113165.520   126715592.86707  24113162.840    98739467.97744
  24416981.380   128312079.23505  24416979.940    99983424.80944
  22017699.340   115703892.93108  22017694.500    90158842.21345
  21294374.580   111902718.83909  21294374.140    87196946.34348
  20634025.020   108432612.95908  20634020.420    84492944.22347
  21035557.980   110542645.94409  21035553.300    86137099.44247
  20022505.740   106994203.83208  20022507.080    83217730.45006
  19603849.400   104720232.46408  19603850.840    81449087.35607
  21415532.900   114598836.11708  21415532.720    89132434.28205
  19270950.180   102869734.03109  19270950.900    80009887.82407
  22137291.540   118419587.63008  22137293.960    92104147.91806
 15 01 21 00 27  0.0000000  0 10G12G21G25G29G31R11R12R21R22R23
  24127603.080   126791466.16706  24127601.040    98798589.99245
  22004421.040   115634116.19008  22004416.480    90104470.75145
  21302000.460   111942792.98309  21302000.000    87228172.95348
  20642324.500   108476227.59609  20642320.340    84526929.65447
  21030691.260   110517071.10009  21030686.280    86117170.99047
  20035413.080   107063176.64508  20035414.840    83271375.95307
  19592652.340   104660420.23008  19592653.920    81402566.72807
  21434043.680   114697890.15709  21434043.240    89209476.34806
  19273214.260   102881820.37008  19273215.120    80019288.32207
  22120609.000   118330346.24708  22120611.360    92034737.96407
 15 01 21 00 27 30.0000000  0 10G12G21G25G29G31R11R12R21R22R23
  24142056.700   126867422.55507  24142055.400    98857776.76345
  21991197.220   115564625.49508  21991192.960    90050322.16145
  21309668.100   111983086.94209  21309667.660    87259570.82748
  20650660.980   108520036.39109  20650657.320    84561066.36947
  21025915.560   110491974.96109  21025910.320    86097615.54347
  20048424.940   107132708.15708  20048427.020    83325455.98007
  19581558.260   104601158.06608  19581560.160    81356473.90407
  21452573.900   114797048.08508  21452573.660    89286599.17106
  19275573.380   102894414.26808  19275574.360    80029083.57807
  22103988.260   118241436.27308  22103990.940    91965585.80007
 15 01 21 00 28  0.0000000  0 12G12G14G21G25G29G31R11R12R13R21R22R23
  24156528.320   126943471.46307  24156527.620    98917035.66345
  24462807.620   128552917.59405  24462803.120   100171087.28243
  21978030.100   115495432.06708  21978026.160    89996405.21745
  21317379.280   112023610.21509  21317378.860    87291147.39748
  20659035.820   108564046.55608  20659032.540    84595360.01147
  21021232.880   110467368.06509  21021227.520    86078441.33046
  20061542.840   107202806.19208  20061545.160    83379976.65307
  19570569.520   104542458.99808  19570571.920    81310819.07207
  23716928.400   126647067.99306  23716938.660    98503322.03404
  21471124.680   114896316.13308  21471124.720    89363807.64407
  19278028.900   102907522.89208  19278029.820    80039279.18707
  22087431.360   118152868.20408  22087434.520    91896699.56407
 15 01 21 00 28 30.0000000  0 12G12G14G21G25G29G31R11R12R13R21R22R23
  24171036.820   127019713.72207  24171036.600    98976445.22145
  24478084.260   128633195.49506  24478080.180   100233641.44343
  21964939.320   115426638.82108  21964935.580    89942800.09446
  21325153.340   112064464.31409  21325153.060    87322981.76048
  20667467.800   108608357.57008  20667464.860    84629888.08047
  21016662.600   110443352.48708  21016657.380    86059727.89546
  20074785.700   107273571.77508  20074788.200    83435016.53207
  19559706.000   104484429.25307  19559708.860    81265684.81307
  23693534.700   126522145.95007  23693545.420    98406160.46304
  21489714.620   114995794.29808  21489714.980    89441179.51107
  19280599.780   102921246.57608  19280600.380    80049953.16807
  22070957.880   118064746.20008  22070961.480    91828160.27507
 15 01 21 00 29  0.0000000  0 12G12G14G21G25G29G31R11R12R13R21R22R23
  24185571.240   127096094.43805  24185571.700    99035962.57445
  24493359.900   128713468.47106  24493357.220   100296191.69344
  21951914.660   115358192.48808  21951911.080    89889465.30046
  21332979.880   112105594.32809  21332979.840    87355031.11648
  20675946.000   108652912.61908  20675943.520    84664606.29647
  21012194.520   110419874.24008  21012189.680    86041433.15647
  20088142.460   107344947.16108  20088145.200    83490530.70807
  19548957.920   104427015.95407  19548961.000    81221030.03307
  23670150.660   126397276.45107  23670160.380    98309039.73403
  21508332.720   115095423.14808  21508333.260    89518668.58807
  19283274.980   102935527.19408  19283275.440    80061060.32407
  22054557.620   117977015.41008  22054561.540    91759925.26007
 15 01 21 00 29 30.0000000  0 12G12G14G21G25G29G31R11R12R13R21R22R23
  24200131.900   127172610.83707  24200132.360    99095585.70344
  24508633.400   128793731.27606  24508631.940   100358733.89144
  21938955.920   115290092.51008  21938952.360    89836400.40046
  21340858.600   112146998.42209  21340858.780    87387294.05648
  20684469.780   108697707.50008  20684467.680    84699511.37647
  21007828.400   110396932.12608  21007824.060    86023556.18747
  20101612.440   107416928.44908  20101615.440    83546516.13706
  19538325.540   104370220.67907  19538328.660    81176855.93707
  23646776.620   126272460.34407  23646786.040    98211960.57503
  21526977.920   115195197.49508  21526978.640    89596270.81807
  19286053.700   102950360.27808  19286054.320    80072597.17308
  22038230.260   117889674.20108  22038234.180    91691993.25207
 15 01 21 00 30  0.0000000  0 12G12G14G21G25G29G31R11R12R13R21R22R23
  24214718.820   127249262.85708  24214718.600    99155314.61444
  24523904.280   128873981.09404  24523903.960   100421265.96444
  21926063.420   115222340.57808  21926059.840    89783606.69746
  21348789.580   112188676.90209  21348789.940    87419770.77748
  20693039.060   108742740.56408  20693037.160    84734602.06447
  21003564.500   110374527.15908  21003560.720    86006097.76947
  20115195.480   107489513.90208  20115198.640    83602971.47506
  19527809.460   104314046.72807  19527812.600    81133165.07907
  23623413.260   126147700.85407  23623422.640    98114925.40703
  21545649.740   115295114.30108  21545650.420    89673983.86206
  19288935.560   102965743.43708  19288936.460    80084561.84208
  22021976.040   117802724.12708  22021979.500    91624365.43906
 15 01 21 00 30 30.0000000  0 11G12G21G25G29G31R11R12R13R21R22R23
  24229338.160   127326085.02508  24229337.440    99215176.12345
  21913244.080   115154973.12508  21913240.200    89731112.59846
  21356779.520   112230664.80809  21356779.960    87452488.63148
  20701660.300   108788045.58308  20701658.560    84769904.68047
  20999409.660   110352695.04108  20999406.440    85989085.73347
  20128898.000   107562737.34508  20128901.140    83659923.04206
  19517416.880   104258532.71007  19517420.220    81089987.51607
  23600067.640   126023036.49507  23600078.000    98017964.23903
  21564354.280   115395205.84609  21564354.680    89751832.83706
  19291926.660   102981709.44308  19291927.800    80096979.84408
  22005801.660   117716201.38908  22005804.000    91557069.99306
 15 01 21 00 31  0.0000000  0 10G12G21G25G29G31R11R12R21R22R23
  24243977.720   127403014.90307  24243976.780    99275121.49545
  21900486.220   115087929.25708  21900482.060    89678870.62346
  21364816.620   112272899.86709  21364816.900    87485399.05248
  20710320.980   108833557.91308  20710319.400    84805368.82447
  20995352.200   110331374.29808  20995349.560    85972472.14647
  20142707.780   107636533.17308  20142710.820    83717319.77406
  19507136.660   104203618.30107  19507140.260    81047276.30307
  21583079.040   115495405.32909  21583078.800    89829765.75805
  19295014.700   102998192.76208  19295015.900    80109800.19908
  21989695.480   117630043.63208  21989696.720    91490058.40106
 15 01 21 00 31 30.0000000  0 10G12G21G25G29G31R11R12R21R22R23
  24258644.280   127480090.84505  24258643.700    99335180.58845
  21887797.460   115021249.38608  21887792.980    89626912.29246
  21372908.200   112315420.70609  21372908.240    87518532.16748
  20719027.780   108879313.88308  20719026.600    84841022.82048
  20991399.760   110310604.59208  20991397.460    85956287.95247
  20156631.860   107710938.32108  20156634.480    83775190.45506
  19496976.820   104149346.20307  19496980.580    81005064.65507
  21601830.740   115595748.89608  21601829.080    89907810.78605
  19298206.280   103015229.85908  19298207.640    80123051.28508
  21973664.960   117544291.07408  21973665.500    91423361.97706
 15 01 21 00 32  0.0000000  0 10G12G21G25G29G31R11R12R21R22R23
  24273336.800   127557303.23107  24273336.700    99395345.93845
