     2.11           OBSERVATION DATA    G                   RINEX VERSION / TYPE
SPIDER V4,0,0,3554                      2015 04 16 02:25    PGM / RUN BY / DATE 
CABS                                                        MARKER NAME         
CABS                                                        MARKER NUMBER       
                                                            OBSERVER / AGENCY   
462287              LEICA GRX1200PRO    8.10/2.127          REC # / TYPE / VERS 
103298              LEIAT504                                ANT # / TYPE        
  5116912.3402   671231.6412  3737143.4301                  APPROX POSITION XYZ 
        0.0600        0.0000        0.0000                  ANTENNA: DELTA H/E/N
     1     1                                                WAVELENGTH FACT L1/2
     4    C1    L1    P2    L2                              # / TYPES OF OBSERV 
    30.000                                                  INTERVAL            
  2015    02    06    00    00    0.0000000     GPS         TIME OF FIRST OBS   
  2015    02    06    23    59   30.0000000     GPS         TIME OF LAST OBS    
    16                                                      LEAP SECONDS        
    30                                                      # OF SATELLITES     
   G 1   778   778   777   777                              PRN / # OF OBS      
   G 2   942   942   941   941                              PRN / # OF OBS      
   G 3   847   847   847   847                              PRN / # OF OBS      
   G 4   832   832   832   832                              PRN / # OF OBS      
   G 5   628   628   628   628                              PRN / # OF OBS      
   G 6   809   809   809   809                              PRN / # OF OBS      
   G 7   671   671   671   671                              PRN / # OF OBS      
   G 9   807   807   807   807                              PRN / # OF OBS      
   G10   749   749   749   749                              PRN / # OF OBS      
   G11   771   771   771   771                              PRN / # OF OBS      
   G12   807   807   807   807                              PRN / # OF OBS      
   G13   787   787   787   787                              PRN / # OF OBS      
   G14   942   942   942   942                              PRN / # OF OBS      
   G15   680   680   678   678                              PRN / # OF OBS      
   G16   662   662   662   662                              PRN / # OF OBS      
   G17   941   941   941   941                              PRN / # OF OBS      
   G18   896   896   896   896                              PRN / # OF OBS      
   G19   751   751   751   751                              PRN / # OF OBS      
   G20   808   808   808   808                              PRN / # OF OBS      
   G21   729   729   729   729                              PRN / # OF OBS      
   G22   656   656   656   656                              PRN / # OF OBS      
   G23   756   756   756   756                              PRN / # OF OBS      
   G24   815   815   815   815                              PRN / # OF OBS      
   G25   855   855   855   855                              PRN / # OF OBS      
   G27   793   793   793   793                              PRN / # OF OBS      
   G28   844   844   844   844                              PRN / # OF OBS      
   G29   758   758   758   758                              PRN / # OF OBS      
   G30   695   695   695   695                              PRN / # OF OBS      
   G31   871   871   871   871                              PRN / # OF OBS      
   G32   770   770   770   770                              PRN / # OF OBS      
BIT 2 OF LLI FLAGS DATA COLLECTED UNDER A/S CONDITION       COMMENT             
SNR is mapped to RINEX snr flag value [2-9]                 COMMENT             
Lx:     = 25dBHz -> 1; 26-27dBHz -> 2; 28-31dBHz -> 3       COMMENT             
       32-35dBHz -> 4; 36-38dBHz -> 5; 39-41dBHz -> 6       COMMENT             
       42-44dBHz -> 7; 45-48dBHz -> 8; >=49dBHz -> 9        COMMENT             
                                                            END OF HEADER       
 15 02 06 00 00  0.0000000  0  4G21G25G29G31
  21258786.360   111715738.83608  21258787.300    87051256.93748
  22000906.020   115615639.22708  22000910.280    90090186.81547
  21331800.380   112099535.31508  21331801.960    87350359.82948
  21031474.720   110521161.00209  21031475.680    86120389.40849
 15 02 06 00 00 30.0000000  0  4G21G25G29G31
  21250912.480   111674361.59908  21250913.420    87019014.95248
  22013134.260   115679899.33308  22013138.660    90140259.61047
  21342832.140   112157508.17208  21342833.820    87395533.48248
  21035412.880   110541856.15909  21035413.840    86136515.49449
 15 02 06 00 01  0.0000000  0  4G21G25G29G31
  21243122.100   111633423.23508  21243123.040    86987114.94548
  22025418.060   115744451.45808  22025422.560    90190559.94747
  21353892.660   112215632.00208  21353894.440    87440824.77448
  21039457.360   110563110.17109  21039458.380    86153077.05849
 15 02 06 00 01 30.0000000  0  4G21G25G29G31
  21235414.740   111592921.19808  21235415.700    86955554.92848
  22037756.800   115809291.98208  22037761.320    90241085.01847
  21364981.040   112273901.93408  21364982.860    87486229.91048
  21043607.440   110584918.89209  21043608.480    86170070.86049
 15 02 06 00 02  0.0000000  0  5G16G21G25G29G31
  24570905.600   129120978.26306  24570908.100   100613757.03344
  21227791.480   111552860.81408  21227792.440    86924339.06448
  22050151.420   115874425.69308  22050155.880    90291838.53947
  21376097.920   112332321.43308  21376099.720    87531751.59148
  21047863.900   110607286.64009  21047864.960    86187500.26849
 15 02 06 00 02 30.0000000  0  5G16G21G25G29G31
  24553567.420   129029867.22506  24553569.840   100542761.42544
  21220244.060   111513198.85408  21220245.020    86893433.66148
  22062593.280   115939807.83308  22062597.700    90342785.64447
  21387234.700   112390845.07108  21387236.420    87577354.42248
  21052218.120   110630168.04509  21052219.180    86205329.92049
 15 02 06 00 03  0.0000000  0  5G16G21G25G29G31
  24536234.860   128938784.37305  24536237.180   100471787.80945
  21212789.420   111474024.34408  21212790.360    86862908.08548
  22075099.220   116005526.44408  22075103.540    90393994.94047
  21398407.920   112449560.23708  21398409.540    87623106.48448
  21056686.760   110653650.79609  21056687.800    86223628.15549
 15 02 06 00 03 30.0000000  0  5G16G21G25G29G31
  24518897.640   128847677.00905  24518899.920   100400795.10344
  21205417.320   111435283.44508  21205418.220    86832720.38748
  22087658.740   116071527.18108  22087663.160    90445424.06247
  21409607.040   112508411.54708  21409608.580    87668964.64448
  21061259.400   110677679.88409  21061260.360    86242352.10449
 15 02 06 00 04  0.0000000  0  5G16G21G25G29G31
  24501557.240   128756552.33706  24501559.460   100329788.87344
  21198129.140   111396983.64808  21198130.020    86802876.40248
  22100273.000   116137815.95308  22100277.580    90497077.63147
  21420832.960   112567403.71108  21420834.400    87714932.55648
  21065936.980   110702260.68309  21065937.900    86261505.95948
 15 02 06 00 04 30.0000000  0  5G16G21G25G29G31
  24484213.780   128665411.69205  24484215.940   100258770.21344
  21190924.920   111359125.27108  21190925.800    86773376.38548
  22112941.980   116204392.52008  22112946.740    90548955.45947
  21432085.500   112626536.14508  21432086.940    87761009.77148
  21070719.420   110727392.45909  21070720.300    86281089.14748
 15 02 06 00 05  0.0000000  0  5G16G21G25G29G31
  24466867.080   128574254.47005  24466869.220   100187738.62445
  21183804.540   111321707.48508  21183805.440    86744219.69348
  22125665.460   116271255.11108  22125670.240    90601056.16347
  21443364.120   112685805.97408  21443365.620    87807194.04748
  21075606.260   110753072.93009  21075607.120    86301099.89248
 15 02 06 00 05 30.0000000  0  5G16G21G25G29G31
  24449517.880   128483084.03805  24449519.920   100116696.75744
  21176768.620   111284733.72808  21176769.580    86715408.98748
  22138443.840   116338405.85708  22138448.520    90653381.41347
  21454669.160   112745214.71208  21454670.720    87853486.56048
  21080597.760   110779303.34209  21080598.620    86321539.16549
 15 02 06 00 06  0.0000000  0  5G16G21G25G29G31
  24432166.180   128391900.52506  24432168.160   100045644.69244
  21169816.960   111248202.82108  21169817.980    86686943.35648
  22151276.800   116405843.19908  22151281.320    90705929.97947
  21466000.120   112804759.88908  21466001.820    87899885.39448
  21085693.540   110806081.66309  21085694.380    86342405.37849
 15 02 06 00 06 30.0000000  0  5G16G21G25G29G31
  24414812.380   128300706.40305  24414814.360    99974584.40944
  21162950.080   111212117.16508  21162951.120    86658824.67948
  22164164.560   116473568.26708  22164168.920    90758702.73947
  21477357.160   112864442.00808  21477358.980    87946390.92848
  21090893.720   110833408.75109  21090894.620    86363699.20349
 15 02 06 00 07  0.0000000  0  5G16G21G25G29G31
  24397456.680   128209502.06205  24397458.580    99903516.11643
  21156167.900   111176476.51308  21156168.900    86631052.75948
  22177106.840   116541580.10508  22177111.140    90811698.96047
  21488739.880   112924258.80208  21488741.760    87993001.41148
  21096197.900   110861282.46809  21096198.880    86385418.97849
 15 02 06 00 07 30.0000000  0  5G16G21G25G29G31
  24380099.220   128118288.25706  24380101.160    99832440.48544
  21149470.500   111141281.46208  21149471.480    86603628.05848
  22190103.580   116609878.23008  22190107.880    90864918.26447
  21500148.200   112984209.70208  21500150.040    88039716.38448
  21101605.900   110889701.96009  21101606.980    86407564.03149
 15 02 06 00 08  0.0000000  0  5G16G21G25G29G31
  24362740.520   128027067.95405  24362742.640    99761359.77044
  21142858.220   111106533.89408  21142859.200    86576552.04348
  22203155.000   116678464.00808  22203159.400    90918361.71447
  21511582.180   113044295.26608  21511583.980    88086536.29148
  21107117.880   110918667.99709  21107119.020    86430134.95649
 15 02 06 00 08 30.0000000  0  5G16G21G25G29G31
  24345380.360   127935839.71806  24345382.500    99690272.87045
  21136330.860   111072232.71608  21136331.860    86549823.87148
  22216260.540   116747334.31408  22216265.060    90972026.87247
  21523041.060   113104511.55608  21523042.780    88133458.06748
  21112733.160   110948176.58209  21112734.320    86453128.64748
 15 02 06 00 09  0.0000000  0  5G16G21G25G29G31
  24328018.880   127844604.39606  24328021.020    99619180.48344
  21129888.200   111038376.58308  21129889.220    86523442.47948
  22229420.040   116816487.97108  22229424.620    91025912.83747
  21534524.360   113164856.59908  21534526.080    88180480.16148
  21118451.420   110978226.10709  21118452.560    86476543.84749
 15 02 06 00 09 30.0000000  0  5G16G21G25G29G31
  24310656.500   127753364.56306  24310658.660    99548084.54845
  21123530.860   111004968.67508  21123531.880    86497410.35348
  22242633.900   116885927.11908  22242638.440    91080021.25347
  21546032.420   113225332.00708  21546034.160    88227603.84348
  21124272.900   111008817.84609  21124273.960    86500381.54748
 15 02 06 00 10  0.0000000  0  5G16G21G25G29G31
  24293293.260   127662120.26806  24293295.360    99476985.16944
  21117258.720   110972008.32808  21117259.720    86471726.98248
  22255901.780   116955649.99708  22255906.160    91134350.75047
  21557564.720   113285934.76308  21557566.440    88274826.76048
  21130197.120   111039949.50709  21130198.120    86524639.97049
 15 02 06 00 10 30.0000000  0  5G16G21G25G29G31
  24275929.620   127570873.95806  24275931.720    99405884.21645
  21111071.960   110939496.74508  21111072.960    86446393.28748
  22269223.720   117025657.12308  22269228.020    91188901.73047
  21569121.360   113346665.53408  21569123.080    88322149.42648
  21136223.980   111071620.63309  21136224.960    86549318.75149
 15 02 06 00 11  0.0000000  0  5G16G21G25G29G31
  24258566.160   127479628.70106  24258568.320    99334784.08545
  21104971.120   110907436.58808  21104972.120    86421411.35348
  22282600.000   117095950.30108  22282604.280    91243675.60947
  21580702.580   113407525.25608  21580704.300    88369572.57048
  21142353.680   111103832.28009  21142354.660    86574418.72149
 15 02 06 00 11 30.0000000  0  5G16G21G25G29G31
  24241202.440   127388381.99705  24241204.660    99263682.82946
  21098955.540   110875824.39408  21098956.540    86396778.48348
  22296029.840   117166525.11408  22296034.220    91298668.94547
  21592307.380   113468508.75808  21592309.120    88417092.16948
  21148585.280   111136579.59309  21148586.320    86599936.10249
 15 02 06 00 12  0.0000000  0  5G16G21G25G29G31
  24223838.920   127297136.47706  24223841.220    99192582.48445
  21093025.660   110844662.71208  21093026.660    86372496.66748
  22309513.580   117237383.04608  22309518.120    91353882.89747
  21603935.960   113529616.90108  21603937.660    88464708.89648
  21154918.920   111169863.17209  21154920.040    86625871.34849
 15 02 06 00 12 30.0000000  0  5G16G21G25G29G31
  24206475.640   127205892.33506  24206478.000    99121483.22044
  21087181.260   110813950.39808  21087182.260    86348564.99648
  22323050.900   117308522.35808  22323055.600    91409316.11547
  21615587.820   113590847.56008  21615589.440    88512421.08548
  21161354.020   111203680.04309  21161355.220    86652222.14248
 15 02 06 00 13  0.0000000  0  5G16G21G25G29G31
  24189112.620   127114649.62706  24189115.000    99050385.06945
  21081422.200   110783686.31008  21081423.180    86324982.60248
  22336641.600   117379941.41908  22336646.320    91464967.31847
  21627262.440   113652198.31008  21627264.120    88560226.85248
  21167890.260   111238028.15009  21167891.480    86678986.88949
 15 02 06 00 13 30.0000000  0  5G16G21G25G29G31
  24171750.220   127023409.56206  24171752.480    98979288.96444
  21075748.600   110753871.48508  21075749.640    86301750.29148
  22350285.580   117451640.12208  22350290.180    91520836.42447
  21638959.800   113713668.47508  21638961.540    88608125.67248
  21174527.460   111272906.66609  21174528.660    86706164.94148
 15 02 06 00 14  0.0000000  0  5G16G21G25G29G31
  24154389.260   126932176.83906  24154391.300    98908198.55945
  21070161.080   110724508.92408  21070162.120    86278870.38049
  22363983.160   117523621.04408  22363987.640    91576925.44247
  21650680.300   113775260.25008  21650682.140    88656119.24848
  21181265.880   111308317.19509  21181267.060    86733757.54848
 15 02 06 00 14 30.0000000  0  5G16G21G25G29G31
  24137029.680   126840951.12306  24137031.560    98837113.61645
  21064659.440   110695597.67408  21064660.500    86256342.14148
  22377734.100   117595882.46608  22377738.420    91633233.02846
  21662423.520   113836971.21608  21662425.360    88704205.70348
  21188105.040   111344257.02109  21188106.180    86761762.59148
 15 02 06 00 15  0.0000000  0  5G16G21G25G29G31
  24119671.760   126749733.89706  24119673.520    98766035.28544
  21059243.880   110667138.84308  21059244.960    86234166.43948
  22391538.220   117668423.67508  22391542.400    91689758.62246
  21674189.260   113898800.51608  21674191.080    88752384.37248
  21195044.660   111380724.84909  21195045.740    86790179.06749
 15 02 06 00 15 30.0000000  0  5G16G21G25G29G31
  24102315.820   126658527.53006  24102317.460    98694965.42345
  21053914.680   110639133.78108  21053915.740    86212344.32148
  22405395.760   117741245.99908  22405399.960    91746503.27247
  21685977.600   113960748.79708  21685979.420    88800655.74048
  21202084.840   111417721.20009  21202085.880    86819007.37648
 15 02 06 00 16  0.0000000  0  5G16G21G25G29G31
  24084961.600   126567330.69606  24084963.200    98623902.97645
  21048671.260   110611579.63908  21048672.340    86190873.57348
  22419306.160   117814345.95408  22419310.440    91803464.25647
  21697787.820   114022812.07708  21697789.700    88849016.72548
  21209224.700   111455241.63609  21209225.800    86848244.06648
 15 02 06 00 16 30.0000000  0  5G16G21G25G29G31
  24067609.360   126476144.55606  24067611.040    98552848.84944
  21043513.780   110584476.98508  21043514.820    86169754.63048
  22433269.400   117887722.95508  22433273.720    91860641.11947
  21709619.720   114084989.12908  21709621.580    88897466.36548
  21216463.960   111493284.45109  21216465.100    86877887.81248
 15 02 06 00 17  0.0000000  0  5G16G21G25G29G31
  24050259.720   126384972.31106  24050261.540    98481805.58244
  21038442.600   110557827.82008  21038443.620    86148989.06148
  22447285.700   117961378.43908  22447290.100    91918034.98447
  21721473.580   114147281.57608  21721475.440    88946005.92648
  21223802.800   111531850.45709  21223804.000    86907939.23648
 15 02 06 00 17 30.0000000  0  5G16G21G25G29G31
  24032912.760   126293813.89106  24032914.620    98410773.06344
  21033457.540   110531630.95308  21033458.480    86128575.93348
  22461354.640   118035310.62908  22461359.200    91975644.45447
  21733348.860   114209686.37508  21733350.700    88994633.02648
  21231240.640   111570936.70209  21231241.880    86938396.03748
 15 02 06 00 18  0.0000000  0  6G16G18G21G25G29G31
  24015569.800   126202676.25206  24015571.800    98339756.76244
  24504350.500   128771233.55805  24504352.960   100341252.41543
  21028559.660   110505892.15208  21028560.540    86108519.73448
  22475477.140   118109524.50208  22475481.840    92033473.42247
  21745246.480   114272208.50108  21745248.260    89043351.55848
  21238778.340   111610547.40109  21238779.560    86969261.49548
 15 02 06 00 18 30.0000000  0  6G16G18G21G25G29G31
  23998230.660   126111558.26706  23998232.700    98268755.73545
  24489277.160   128692024.31405  24489280.320   100279531.04744
  21023748.360   110480608.38208  21023749.200    86088818.10549
  22489652.460   118184016.39308  22489657.300    92091519.03247
  21757165.740   114334844.25408  21757167.480    89092158.61648
  21246415.020   111650678.13909  21246416.200    87000532.17948
 15 02 06 00 19  0.0000000  0  6G16G18G21G25G29G31
  23980893.000   126020448.11006  23980894.980    98197760.81745
  24474190.080   128612741.83805  24474193.580   100217752.64843
  21019021.460   110455768.24208  21019022.320    86069462.16049
  22503878.260   118258773.78108  22503883.100    92149771.52246
  21769104.100   114397580.36808  21769105.780    89141043.88548
  21254148.080   111691315.23409  21254149.200    87032197.43148
 15 02 06 00 19 30.0000000  0  6G16G18G21G25G29G31
  23963558.900   125929356.88106  23963560.780    98126780.69045
  24459091.420   128533399.18905  24459095.380   100155911.53244
  21014380.800   110431381.39308  21014381.680    86050459.41948
  22518156.280   118333805.70607  22518161.060    92208237.93947
  21781063.140   114460425.22208  21781064.760    89190013.88648
  21261978.980   111732466.73309  21261980.080    87064263.51648
 15 02 06 00 20  0.0000000  0  6G16G18G21G25G29G31
  23946229.760   125838291.46206  23946231.540    98055820.64645
  24443982.260   128454002.25105  24443986.140   100094043.87443
  21009827.320   110407452.75508  21009828.240    86031813.73348
  22532487.440   118409116.76807  22532492.140    92266921.85247
  21793043.760   114523383.41608  21793045.320    89239072.20348
  21269908.480   111774136.51609  21269909.600    87096733.46348
 15 02 06 00 20 30.0000000  0  6G16G18G21G25G29G31
  23928904.240   125747245.14806  23928905.940    97984875.48944
  24428862.420   128374546.70305  24428866.340   100032130.57944
  21005359.620   110383974.91208  21005360.540    86013519.31849
  22546870.200   118484698.50808  22546874.800    92325816.68247
  21805044.360   114586446.60808  21805045.880    89288212.33948
  21277934.780   111816315.01009  21277935.900    87129599.79948
 15 02 06 00 21  0.0000000  0  6G16G18G21G25G29G31
  23911583.240   125656222.45006  23911584.740    97913948.74845
  24413732.340   128295038.08205  24413736.020    99970175.93443
  21000978.140   110360950.34408  21000979.100    85995578.10949
  22561305.040   118560553.47407  22561309.520    92384924.41947
  21817065.200   114649616.34908  21817066.740    89337435.49748
  21286058.140   111859003.55709  21286059.280    87162863.58048
 15 02 06 00 21 30.0000000  0  6G16G18G21G25G29G31
  23894267.120   125565225.30206  23894268.440    97843041.91044
  24398592.860   128215479.23105  24398596.620    99908182.10643
  20996683.360   110338381.25208  20996684.300    85977991.81949
  22575791.820   118636681.65407  22575796.280    92444245.05047
  21829106.240   114712892.58308  21829107.820    89386741.64548
  21294278.360   111902201.06809  21294279.500    87196523.95548
 15 02 06 00 22  0.0000000  0  6G16G18G21G25G29G31
  23876955.700   125474253.30206  23876956.960    97772154.67445
  24383444.120   128135870.68805  24383447.660    99846149.58044
  20992474.720   110316264.83308  20992475.640    85960758.25749
  22590330.000   118713080.32407  22590334.600    92503776.46347
  21841166.900   114776272.42608  21841168.580    89436128.52348
  21302594.800   111945904.05609  21302595.900    87230578.21148
 15 02 06 00 22 30.0000000  0  6G16G18G21G25G29G31
  23859650.000   125383311.69506  23859651.220    97701291.12544
  24368286.980   128056219.28005  24368290.320    99784083.66644
  20988352.960   110294604.89308  20988353.820    85943880.38849
  22604920.260   118789753.23307  22604925.140    92563521.56647
  21853247.920   114839759.31908  21853249.720    89485598.81348
  21311007.940   111990115.20009  21311009.000    87265028.43248
 15 02 06 00 23  0.0000000  0  6G16G18G21G25G29G31
  23842349.120   125292395.36106  23842350.400    97630447.26444
  24353121.180   127976521.05505  24353124.000    99721981.26643
  20984316.820   110273395.05308  20984317.640    85927353.24949
  22619561.300   118866693.15807  22619566.380    92623474.75147
  21865347.880   114903345.22408  21865349.720    89535146.25948
  21319516.220   112034826.48709  21319517.260    87299868.38648
 15 02 06 00 23 30.0000000  0  6G16G18G21G25G29G31
  23825054.300   125201510.84406  23825055.700    97559628.18045
  24337947.740   127896783.31405  24337950.220    99659848.04944
  20980367.480   110252641.14408  20980368.260    85911181.37649
  22634253.980   118943904.64607  22634259.180    92683639.54246
  21877467.760   114967035.39208  21877469.540    89584774.95248
  21328120.240   112080041.08509  21328121.320    87335100.53948
 15 02 06 00 24  0.0000000  0  6G16G18G21G25G29G31
  23807765.400   125110657.44006  23807766.820    97488833.35645
  24322767.000   127817006.82105  24322768.940    99597684.63245
  20976504.500   110232341.09208  20976505.280    85895363.16249
  22648997.900   119021385.04107  22649003.100    92744013.84946
  21889606.920   115030826.71408  21889608.600    89634482.45948
  21336819.340   112125755.27509  21336820.460    87370721.97148
 15 02 06 00 24 30.0000000  0  6G16G18G21G25G29G31
  23790482.940   125019837.56006  23790484.420    97418064.63545
  24307579.240   127737194.59506  24307581.040    99535493.42644
  20972727.700   110212493.81608  20972728.480    85879897.75749
  22663793.100   119099134.25207  22663798.120    92804597.61646
  21901765.240   115094718.77308  21901766.840    89684268.45848
  21345613.300   112171967.94409  21345614.460    87406731.83248
 15 02 06 00 25  0.0000000  0  6G16G18G21G25G29G31
  23773206.940   124929051.76506  23773208.440    97347322.49245
  24292385.120   127657348.65606  24292386.680    99473275.87544
  20969037.240   110193100.33908  20969038.040    85864785.96249
  22678639.360   119177150.95807  22678644.040    92865389.82346
  21913942.340   115158709.57908  21913943.940    89734131.40348
  21354501.720   112218676.76909  21354502.880    87443128.30348
 15 02 06 00 25 30.0000000  0  6G16G18G21G25G29G31
  23755937.920   124838302.58907  23755939.480    97276608.88544
  24277185.160   127577472.71406  24277186.720    99411034.97744
  20965433.360   110174161.96108  20965434.180    85850028.79349
  22693536.700   119255435.69707  22693541.040    92926390.89046
  21926138.400   115222800.23908  21926140.000    89784072.15748
  21363484.440   112265881.09809  21363485.620    87479910.88148
 15 02 06 00 26  0.0000000  0  6G16G18G21G25G29G31
  23738676.000   124747590.69707  23738677.600    97205924.33345
  24261979.720   127497568.03906  24261981.080    99348771.62744
  20961915.660   110155676.20708  20961916.460    85835624.31749
  22708484.680   119333986.85907  22708488.820    92987599.55446
  21938353.020   115286988.64708  21938354.680    89834089.07448
  21372560.960   112313578.36409  21372562.160    87517077.55748
 15 02 06 00 26 30.0000000  0  6G16G18G21G25G29G31
  23721421.700   124656918.79607  23721423.500    97135270.94545
  24246769.360   127417638.38205  24246771.000    99286488.87844
  20958484.540   110137645.47908  20958485.340    85821574.40849
  22723483.400   119412805.22007  22723487.540    93049016.43746
  21950586.420   115351275.76908  21950588.140    89884182.91248
  21381731.180   112361768.03508  21381732.380    87554627.93648
 15 02 06 00 27  0.0000000  0  6G16G18G21G25G29G31
  23704174.920   124566286.19606  23704176.800    97064648.15145
  24231554.520   127337685.05406  24231556.520    99224187.64643
  20955139.560   110120067.46408  20955140.340    85807877.26149
  22738532.300   119491887.89407  22738536.700    93110639.28547
  21962838.000   115415658.37408  21962839.780    89934351.16448
  21390994.340   112410446.37208  21390995.560    87592559.08748
 15 02 06 00 27 30.0000000  0  6G16G18G21G25G29G31
  23686936.200   124475695.99806  23686938.040    96994058.41545
  24216335.800   127257711.55606  24216338.120    99161870.73844
  20951881.020   110102943.82608  20951881.840    85794534.18349
  22753631.620   119571235.66607  22753636.320    93172468.69846
  21975107.900   115480137.15008  21975109.700    89984594.35148
  21400350.380   112459612.87808  21400351.600    87630870.63648
 15 02 06 00 28  0.0000000  0  6G16G18G21G25G29G31
  23669705.500   124385148.19706  23669707.260    96923501.71045
  24201113.540   127177718.97605  24201115.920    99099538.85744
  20948708.520   110086272.39608  20948709.360    85781543.46349
  22768781.080   119650846.43507  22768785.940    93234503.04046
  21987395.680   115544709.95608  21987397.520    90034910.81047
  21409798.700   112509264.16308  21409799.920    87669559.93548
 15 02 06 00 28 30.0000000  0  6G16G18G21G25G29G31
  23652483.500   124294646.46206  23652485.220    96852980.89644
  24185888.480   127097712.16906  24185891.620    99037195.99744
  20945622.480   110070055.12308  20945623.340    85768906.63549
  22783980.900   119730721.62107  22783985.800    93296743.41847
  21999701.580   115609378.09208  21999703.480    90085301.54247
  21419339.380   112559400.68109  21419340.580    87708627.32648
 15 02 06 00 29  0.0000000  0  6G16G18G21G25G29G31
  23635269.980   124204189.48006  23635271.600    96782494.94444
  24170660.800   127017690.81706  24170663.860    98974841.74243
  20942622.340   110054289.13708  20942623.180    85756621.45749
  22799230.460   119810857.70907  22799235.220    93359187.09946
  22012025.000   115674138.01208  22012026.940    90135763.79147
  21428971.580   112610017.80009  21428972.700    87748069.21948
 15 02 06 00 29 30.0000000  0  6G16G18G21G25G29G31
  23618065.740   124113780.83006  23618067.260    96712046.65644
  24155431.160   126937659.73305  24155434.260    98912479.87244
  20939708.500   110038976.55408  20939709.280    85744689.58349
  22814529.960   119891256.07007  22814534.460    93421835.14046
  22024366.180   115738991.10308  22024368.100    90186298.65147
  21438695.220   112661115.38109  21438696.280    87787885.50048
 15 02 06 00 30  0.0000000  0  6G16G18G21G25G29G31
  23600870.640   124023420.07206  23600872.120    96641635.68045
  24140199.820   126857619.52305  24140203.000    98850110.94943
  20936880.420   110024114.81508  20936881.180    85733109.01749
  22829878.720   119971913.97007  22829883.020    93484685.41246
  22036724.600   115803934.61608  22036726.420    90236903.96347
  21448509.540   112712689.84508  21448510.620    87828073.37948
 15 02 06 00 30 30.0000000  0  6G16G18G21G25G29G31
  23583685.460   123933111.48106  23583686.960    96571265.35745
  24124967.640   126777575.46705  24124971.080    98787739.01745
  20934138.740   110009707.34708  20934139.500    85721882.42049
  22845277.040   120052833.50807  22845281.360    93547739.57146
  22049100.680   115868970.71908  22049102.400    90287581.42147
  21458414.760   112764742.10308  21458415.880    87868633.57448
 15 02 06 00 31  0.0000000  0  6G16G18G21G25G29G31
  23566509.740   123842852.58606  23566511.240    96500933.75344
  24109734.720   126697525.91105  24109738.260    98725362.78044
  20931482.460   109995748.79508  20931483.240    85711005.63749
  22860724.100   120134009.65407  22860728.560    93610993.69246
  22061493.360   115934094.29308  22061495.040    90338327.03947
  21468409.660   112817265.66008  21468410.800    87909561.00948
 15 02 06 00 31 30.0000000  0  6G16G18G21G25G29G31
  23549344.460   123752648.60206  23549345.980    96430644.95745
  24094502.000   126617477.45306  24094505.420    98662987.42843
  20928912.440   109982243.51708  20928913.240    85700482.04249
  22876220.660   120215445.81907  22876225.340    93674450.42646
  22073903.280   115999308.67308  22073904.900    90389143.41647
  21478494.680   112870262.86308  21478495.860    87950857.52348
 15 02 06 00 32  0.0000000  0  6G16G18G21G25G29G31
  23532189.240   123662497.05506  23532190.780    96360396.99245
  24079269.380   126537428.32506  24079272.460    98600611.53844
  20926427.800   109969187.04308  20926428.640    85690308.17049
  22891765.840   120297136.85907  22891770.720    93738105.75746
  22086329.540   116064608.96308  22086331.120    90440026.73947
  21488668.660   112923727.56508  21488669.880    87992518.31748
 15 02 06 00 32 30.0000000  0  6G16G18G21G25G29G31
  23515045.060   123572403.47606  23515046.560    96290194.20545
  24064037.860   126457385.16206  24064040.700    98538240.28344
  20924029.040   109956581.67608  20924029.920    85680485.81849
  22907360.240   120379085.82607  22907365.200    93801962.07746
  22098772.680   116129997.99008  22098774.260    90490979.21547
  21498931.900   112977661.41908  21498933.160    88034544.68248
 15 02 06 00 33  0.0000000  0  6G16G18G21G25G29G31
  23497911.860   123482367.59206  23497913.320    96220036.37845
  24048807.700   126377348.32906  24048810.060    98475873.95044
  20921716.180   109944427.35708  20921717.040    85671014.93149
  22923003.380   120461290.25707  22923008.300    93866017.45546
  22111232.320   116195473.92408  22111233.980    90541999.40947
  21509283.720   113032060.75708  21509285.020    88076933.75548
 15 02 06 00 33 30.0000000  0  6G16G18G21G25G29G31
  23480790.440   123392393.91506  23480791.900    96149927.04145
  24033579.820   126297324.10706  24033581.940    98413517.48644
  20919489.540   109932725.78008  20919490.320    85661896.82949
  22938695.440   120543752.18707  22938700.400    93930273.47646
  22123708.820   116261038.62908  22123710.580    90593088.76947
  21519724.260   113086926.07308  21519725.560    88119685.92848
 15 02 06 00 34  0.0000000  0  7G16G18G21G25G27G29G31
  23463681.920   123302488.32206  23463683.480    96079870.77445
  24018355.600   126217319.26706  24018357.540    98351176.10844
  20917349.740   109921480.60408  20917350.440    85653134.36249
  22954437.180   120626475.07107  22954442.100    93994732.84446
  24620723.460   129382773.65405  24620729.220   100817773.57044
  22136202.960   116326695.75608  22136204.700    90644250.16147
  21530253.920   113142259.69708  21530255.220    88162803.02248
 15 02 06 00 34 30.0000000  0  7G16G18G21G25G27G29G31
  23446582.020   123212628.22506  23446583.700    96009849.94745
  24003130.880   126137312.04306  24003132.660    98288832.85644
  20915292.100   109910667.49308  20915292.800    85644708.57249
  22970223.820   120709434.06207  22970228.720    94059376.18446
  24605937.020   129305068.63005  24605941.960   100757224.35843
  22148709.960   116392420.54008  22148711.720    90695464.25647
  21540867.840   113198035.92608  21540869.100    88206265.00848
 15 02 06 00 35  0.0000000  0  7G16G18G21G25G27G29G31
  23429496.020   123122840.82507  23429497.720    95939885.77345
  23987910.880   126057330.44706  23987912.620    98226509.58043
  20913321.400   109900311.45308  20913322.140    85636638.93249
  22986060.060   120792653.63607  22986064.860    94124222.57946
  24591168.220   129227456.91605  24591172.500   100696747.82145
  22161234.500   116458237.18708  22161236.240    90746749.93447
  21551570.380   113254277.85408  21551571.600    88250089.86848
 15 02 06 00 35 30.0000000  0  7G16G18G21G25G27G29G31
  23412423.220   123033122.67107  23412424.940    95869975.55245
  23972695.280   125977372.23206  23972696.940    98164204.50844
  20911436.580   109890406.91908  20911437.360    85628921.12049
  23001944.780   120876127.97207  23001949.400    94189267.49046
  24576415.840   129149933.57405  24576420.280   100636340.11844
  22173775.560   116524140.54208  22173777.240    90798103.16947
  21562360.200   113310978.46008  21562361.400    88294272.14248
 15 02 06 00 36  0.0000000  0  7G16G18G21G25G27G29G31
  23395363.780   122943474.43607  23395365.380    95800119.80845
  23957484.300   125897439.23806  23957485.940    98101919.10344
  20909637.600   109880953.52608  20909638.420    85621554.84349
  23017877.700   120959855.80907  23017882.080    94254509.92146
  24561679.240   129072495.37205  24561684.920   100576003.10644
  22186332.860   116590129.35208  22186334.460    90849523.00347
  21573236.660   113368134.50408  21573237.860    88338809.29548
 15 02 06 00 36 30.0000000  0  7G16G18G21G25G27G29G31
  23378317.180   122853894.01107  23378318.680    95730316.91945
  23942277.740   125817530.15206  23942279.360    98039652.33044
  20907923.600   109871946.75808  20907924.420    85614536.58849
  23033857.980   121043832.06607  23033862.060    94319945.93546
  24546959.960   128995144.07705  24546965.360   100515729.46845
  22198905.520   116656199.00308  22198907.040    90901005.81947
  21584198.620   113425740.06808  21584199.840    88383696.72548
 15 02 06 00 37  0.0000000  0  7G16G18G21G25G27G29G31
  23361283.880   122764383.35007  23361285.280    95660568.40945
  23927076.400   125737647.80606  23927078.060    97977406.38744
  20906294.480   109863385.86608  20906295.300    85607865.76449
  23049885.380   121128056.05707  23049889.280    94385575.00446
  24532256.780   128917878.83305  24532262.260   100455518.30546
  22211493.400   116722348.79608  22211494.880    90952551.08747
  21595245.800   113483793.36208  21595247.040    88428933.04248
 15 02 06 00 37 30.0000000  0  7G16G18G21G25G27G29G31
  23344264.540   122674946.18607  23344265.900    95590877.14145
  23911881.160   125657797.22905  23911882.840    97915185.17544
  20904750.620   109855272.79808  20904751.400    85601543.90149
  23065960.120   121212529.37807  23065964.120    94451398.33946
  24517569.640   128840700.08205  24517575.320   100395372.54545
  22224096.860   116788580.35908  22224098.320    91004160.06747
  21606378.200   113542294.51408  21606379.500    88474518.33648
 15 02 06 00 38  0.0000000  0  7G16G18G21G25G27G29G31
  23327259.560   122585584.83007  23327261.000    95521244.94745
  23896692.500   125577981.32806  23896694.300    97852991.05244
  20903292.080   109847607.90808  20903292.820    85595571.27049
  23082082.200   121297251.58807  23082086.420    94517415.61246
  24502899.140   128763606.36505  24502904.980   100335299.59544
  22236715.880   116854893.98608  22236717.440    91055833.00847
  21617595.520   113601241.75208  21617596.820    88520451.23348
 15 02 06 00 38 30.0000000  0  7G16G18G21G25G27G29G31
  23310268.580   122496297.05107  23310270.100    95451670.08845
  23881510.360   125498198.74406  23881511.980    97790822.84345
  20901917.880   109840386.32808  20901918.600    85589944.06949
  23098250.720   121382217.75007  23098255.120    94583623.00346
  24488244.500   128686595.59105  24488250.200   100275291.25544
  22249349.580   116921284.78508  22249351.180    91107566.09047
  21628896.460   113660628.55908  21628897.760    88566726.64248
 15 02 06 00 39  0.0000000  0  7G16G18G21G25G27G29G31
  23293292.420   122407087.06407  23293293.940    95382155.85445
  23866335.680   125418455.05406  23866337.240    97728684.95744
  20900628.500   109833610.76708  20900629.240    85584664.42049
  23114466.040   121467429.64807  23114470.560    94650021.86846
  24473606.120   128609670.55105  24473611.800   100215349.74045
  22261998.220   116987754.11008  22261999.920    91159360.34947
  21640281.260   113720456.10008  21640282.560    88613345.48648
 15 02 06 00 39 30.0000000  0  7G16G18G21G25G27G29G31
  23276331.420   122317956.57807  23276332.960    95312703.56845
  23851168.900   125338752.79305  23851170.620    97666579.32744
  20899423.860   109827280.50108  20899424.620    85579731.75449
  23130727.940   121552886.40107  23130732.540    94716611.51946
  24458984.040   128532831.16705  24458989.620   100155474.98244
  22274661.920   117054302.34208  22274663.720    91211216.09447
  21651749.400   113780721.57208  21651750.660    88660305.57648
 15 02 06 00 40  0.0000000  0  7G16G18G21G25G27G29G31
  23259385.880   122228907.18607  23259387.480    95243314.46846
  23836010.440   125259094.03906  23836012.180    97604507.60544
  20898303.800   109821394.70908  20898304.580    85575145.42549
  23147036.120   121638586.68607  23147040.780    94783390.94846
  24444378.160   128456077.12605  24444383.740   100095666.70145
  22287340.420   117120928.32808  22287342.280    91263132.42047
  21663300.440   113841422.49208  21663301.640    88707604.96148
 15 02 06 00 40 30.0000000  0  7G16G18G21G25G27G29G31
  23242456.400   122139942.47507  23242458.060    95173991.34245
  23820861.120   125179484.03207  23820863.040    97542473.85944
  20897268.640   109815954.88508  20897269.400    85570906.60549
  23163390.920   121724532.10307  23163395.580    94850361.37046
  24429788.920   128379410.91405  24429794.540   100035926.88645
  22300034.040   117187633.69608  22300035.920    91315110.60847
  21674934.380   113902559.20908  21674935.540    88755243.93548
 15 02 06 00 41  0.0000000  0  7G16G18G21G25G27G29G31
  23225542.600   122051060.29007  23225544.380    95104732.51645
  23805720.880   125099921.49206  23805722.820    97480477.07844
  20896317.460   109810956.52708  20896318.240    85567011.78749
  23179791.360   121810717.62507  23179796.000    94917518.87646
  24415215.700   128302828.41005  24415221.300    99976252.27945
  22312741.920   117254413.91708  22312743.820    91367147.11547
  21686650.020   113964125.15008  21686651.180    88803217.35948
 15 02 06 00 41 30.0000000  0  7G16G18G21G25G27G29G31
  23208645.320   121962264.56807  23208647.100    95035541.07445
  23790590.460   125020411.02906  23790592.700    97418520.91044
  20895450.700   109806401.70408  20895451.480    85563462.57849
  23196237.740   121897144.57907  23196242.360    94984864.52646
  24400658.920   128226331.92005  24400664.300    99916644.68244
  22325464.340   117321270.52208  22325466.220    91419243.13747
  21698447.340   114026120.45608  21698448.540    88851525.37548
 15 02 06 00 42  0.0000000  0  7G16G18G21G25G27G29G31
  23191764.620   121873555.82507  23191766.260    94966417.40445
  23775470.360   124940954.14406  23775472.540    97356606.45645
  20894667.880   109802288.03608  20894668.700    85560257.12849
  23212729.700   121983810.49707  23212734.280    95052396.37045
  24386118.240   128149920.03105  24386123.360    99857103.03445
  22338200.980   117388201.59408  22338202.760    91471397.19247
  21710325.660   114088541.37008  21710326.900    88900165.03648
 15 02 06 00 42 30.0000000  0  7G16G18G21G25G27G29G31
  23174901.080   121784937.40107  23174902.600    94897364.10745
  23760361.240   124861554.86507  23760363.520    97294736.96245
  20893969.200   109798616.44008  20893970.020    85557396.15149
  23229267.300   122070715.93607  23229271.860    95120114.87345
  24371593.820   128073594.11205  24371598.640    99797628.33345
  22350951.920   117455207.82108  22350953.600    91523609.81447
  21722284.720   114151386.65408  21722286.040    88949135.37448
 15 02 06 00 43  0.0000000  0  7G16G18G21G25G27G29G31
  23158055.000   121696410.56107  23158056.400    94828382.16645
  23745263.520   124782215.61106  23745265.700    97232914.21044
  20893354.540   109795386.16908  20893355.340    85554879.06149
  23245850.360   122157859.96007  23245854.800    95188019.29146
  24357085.720   127997354.25405  24357090.340    99738220.71545
  22363717.000   117522288.40408  22363718.620    91575880.37547
  21734324.080   114214654.02108  21734325.460    88998434.60648
 15 02 06 00 43 30.0000000  0  7G16G18G21G25G27G29G31
  23141226.500   121607976.07007  23141227.880    94759472.19445
  23730177.640   124702938.16906  23730179.680    97171139.60645
  20892823.480   109792595.29108  20892824.260    85552704.35949
  23262478.400   122245240.23807  23262482.780    95256107.80945
  24342593.760   127921199.09205  24342598.340    99678879.10845
  22376495.960   117589442.32308  22376497.600    91628208.08247
  21746443.180   114278340.29008  21746444.560    89048060.24948
 15 02 06 00 44  0.0000000  0  7G16G18G21G25G27G29G31
  23124416.040   121519636.50407  23124417.380    94690636.17745
  23715104.080   124623725.74306  23715106.080    97109415.68945
  20892376.200   109790244.71608  20892376.980    85550872.74849
  23279151.380   122332856.73007  23279155.740    95324380.36746
  24328118.160   127845129.54505  24328122.780    99619604.19644
  22389288.840   117656669.48008  22389290.560    91680592.86547
  21758641.680   114342443.73508  21758643.000    89098010.96548
 15 02 06 00 44 30.0000000  0  7G16G18G21G25G27G29G31
  23107624.180   121431394.67607  23107625.420    94621876.32145
  23700043.400   124544581.83506  23700045.460    97047745.14845
  20892012.660   109788334.32708  20892013.440    85549384.13349
  23295869.300   122420709.44607  23295873.720    95392837.01745
  24313659.100   127769146.63205  24313663.780    99560396.78546
  22402095.760   117723970.43208  22402097.580    91733035.14847
  21770919.360   114406963.18108  21770920.620    89148285.83448
 15 02 06 00 45  0.0000000  0  7G16G18G21G25G27G29G31
  23090851.240   121343252.15607  23090852.380    94553193.83945
  23684996.220   124465509.62606  23684998.360    96986130.46745
  20891732.720   109786863.40608  20891733.520    85548237.96549
  23312631.900   122508797.35906  23312636.520    95461476.93746
  24299216.400   127693250.36805  24299221.420    99501256.86945
  22414916.540   117791344.46408  22414918.500    91785534.36947
  21783275.720   114471896.07108  21783276.920    89198882.87448
 15 02 06 00 45 30.0000000  0  7G16G18G21G25G27G29G31
  23074097.300   121255209.63007  23074098.420    94484589.29746
  23669962.720   124386510.32306  23669965.220    96924572.60145
  20891536.000   109785829.82708  20891536.820    85547432.58549
  23329438.700   122597118.08306  23329443.500    95530298.24746
  24284790.000   127617439.28705  24284795.320    99442183.35145
  22427750.860   117858789.39208  22427752.880    91838088.84047
  21795710.000   114537238.50608  21795711.200    89249799.04548
 15 02 06 00 46  0.0000000  0  7G16G18G21G25G27G29G31
  23057362.700   121167268.96307  23057363.860    94416064.11046
  23654943.720   124307586.59306  23654946.320    96863073.59145
  20891422.460   109785233.18108  20891423.240    85546967.66649
  23346289.520   122685670.80106  23346294.520    95599300.34146
  24270379.900   127541713.65505  24270385.360    99383176.39645
  22440598.800   117926305.52608  22440600.820    91890698.79347
  21808221.780   114602988.14908  21808223.040    89301032.51348
 15 02 06 00 46 30.0000000  0  7G16G18G21G25G27G29G31
  23040647.820   121079431.82607  23040649.100    94347619.59146
  23639939.680   124228740.80806  23639942.400    96801635.35745
  20891391.900   109785072.43708  20891392.620    85546842.41349
  23363184.280   122774454.27606  23363189.480    95668482.22245
  24255985.980   127466073.24505  24255991.480    99324235.84545
  22453460.060   117993891.91108  22453462.060    91943363.49347
  21820810.620   114669142.77308  21820811.920    89352581.55948
 15 02 06 00 47  0.0000000  0  7G16G18G21G25G27G29G31
  23023953.000   120991700.26507  23023954.480    94279257.33846
  23624951.100   124149975.82706  23624953.800    96740260.06844
  20891444.200   109785347.10208  20891444.860    85547056.44449
  23380122.880   122863467.60906  23380128.100    95737843.23446
  24241608.220   127390518.14205  24241613.700    99265361.74145
  22466334.560   118061547.95208  22466336.600    91996082.46347
  21833476.040   114735699.84208  21833477.380    89404444.19148
 15 02 06 00 47 30.0000000  0  7G16G18G21G25G27G29G31
  23007278.620   120904076.08807  23007280.260    94210978.77746
  23609978.440   124071294.21006  23609981.000    96678949.73945
  20891579.260   109786056.64708  20891579.880    85547609.34049
  23397105.180   122952709.89306  23397110.260    95807382.64545
  24227246.660   127315048.44405  24227252.220    99206554.20945
  22479222.280   118129273.44808  22479224.360    92048855.55547
  21846217.580   114802656.98708  21846218.940    89456618.56748
 15 02 06 00 48  0.0000000  0  7G16G18G21G25G27G29G31
  22990624.780   120816559.45507  22990626.480    94142784.01246
  23595021.980   123992697.36906  23595024.520    96617705.50145
  20891796.520   109787198.34108  20891797.140    85548498.97649
  23414130.620   123042178.34807  23414135.360    95877098.29445
  24212901.100   127239662.52005  24212906.600    99147811.96544
  22492122.860   118197066.15708  22492124.920    92101681.01547
  21859034.380   114870009.93508  21859035.780    89509101.37448
 15 02 06 00 48 30.0000000  0  7G16G18G21G25G27G29G31
  22973991.880   120729152.71007  22973993.600    94074674.88146
  23580082.400   123914188.84406  23580084.700    96556530.05044
  20892095.980   109788771.95108  20892096.600    85549725.16949
  23431199.140   123131872.67807  23431203.540    95946989.96645
  24198571.680   127164361.12505  24198577.000    99089135.61744
  22505036.380   118264926.45308  22505038.260    92154559.14846
  21871926.200   114937757.19608  21871927.620    89561891.42748
 15 02 06 00 49  0.0000000  0  7G16G18G21G25G27G29G31
  22957380.600   120641859.28707  22957382.220    94006654.03446
  23565160.300   123835771.77806  23565162.520    96495425.86345
  20892477.720   109790778.15808  20892478.380    85551288.44749
  23448310.540   123221792.74907  23448314.720    96017057.52945
  24184258.580   127089145.03505  24184263.660    99030525.71545
  22517962.880   118332854.54208  22517964.520    92207490.10147
  21884892.760   115005897.16008  21884894.220    89614987.48048
 15 02 06 00 49 30.0000000  0  7G16G18G21G25G27G29G31
  22940791.320   120554681.78007  22940792.900    93938723.51146
  23550256.400   123757450.59606  23550258.520    96434396.39944
  20892941.960   109793217.67608  20892942.600    85553189.37149
  23465464.940   123311939.03807  23465468.980    96087301.36446
  24169962.120   127014015.84206  24169966.900    98971983.54345
  22530902.460   118400851.59808  22530903.940    92260474.79847
  21897933.840   115074428.59208  21897935.320    89668388.57848
 15 02 06 00 50  0.0000000  0  7G16G18G21G25G27G29G31
  22924224.200   120467620.97207  22924225.720    93870883.93046
  23535370.940   123679226.87806  23535373.120    96373442.88145
  20893488.220   109796088.25808  20893488.840    85555426.19649
  23482661.800   123402309.22906  23482665.920    96157719.68246
  24155681.920   126938972.28606  24155686.500    98913508.08145
  22543854.820   118468915.88408  22543856.180    92313511.88347
  21911048.760   115143347.94908  21911050.260    89722091.95448
 15 02 06 00 50 30.0000000  0  7G16G18G21G25G27G29G31
  22907679.720   120380679.52607  22907681.220    93803137.35646
  23520504.660   123601103.38506  23520506.760    96312567.43845
  20894116.440   109799389.64708  20894117.080    85557998.70949
  23499901.100   123492902.73506  23499905.440    96228311.99845
  24141418.060   126864014.95106  24141422.680    98855099.79145
  22556819.940   118537047.62608  22556821.300    92366601.52247
  21924237.160   115212653.35908  21924238.680    89776096.14948
 15 02 06 00 51  0.0000000  0  7G16G18G21G25G27G29G31
  22891158.220   120293858.95207  22891159.740    93735484.97446
  23505657.840   123523082.83506  23505659.960    96251772.24345
  20894826.400   109803120.41008  20894827.040    85560905.80349
  23517182.500   123583718.19006  23517187.240    96299077.24945
  24127170.500   126789143.45806  24127175.200    98796758.40445
  22569797.620   118605245.90308  22569799.080    92419743.00347
  21937498.480   115282341.76108  21937499.960    89830398.78048
 15 02 06 00 51 30.0000000  0  7G16G18G21G25G27G29G31
  22874660.060   120207160.73507  22874661.520    93667927.94346
  23490831.100   123445167.59606  23490833.240    96191059.09046
  20895617.860   109807279.50008  20895618.500    85564146.65749
  23534505.800   123674754.04406  23534510.900    96370014.24546
  24112939.140   126714357.37106  24112943.900    98738483.57945
  22582787.760   118673509.64408  22582789.280    92472935.50447
  21950832.160   115352410.22308  21950833.560    89884997.55548
 15 02 06 00 52  0.0000000  0  7G16G18G21G25G27G29G31
  22858185.360   120120585.35307  22858186.680    93600466.61046
  23476024.440   123367358.55606  23476026.700    96130428.69045
  20896490.360   109811864.57108  20896491.000    85567719.44149
  23551870.680   123766007.73506  23551876.040    96441120.98245
  24098723.680   126639655.18205  24098728.620    98680274.09746
  22595790.080   118741837.29908  22595791.660    92526177.81147
  21964237.400   115422854.78308  21964238.680    89939889.39148
 15 02 06 00 52 30.0000000  0  7G16G18G21G25G27G29G31
  22841734.820   120034136.91107  22841736.060    93533104.20446
  23461238.900   123289660.94906  23461241.320    96069885.12545
  20897444.220   109816877.11308  20897444.880    85571625.32849
  23569277.420   123857480.42706  23569282.840    96512398.37646
  24084524.600   126565039.28805  24084529.760    98622131.86945
  22608804.840   118810230.54308  22608806.440    92579471.21847
  21977714.080   115493675.10108  21977715.320    89995074.02448
 15 02 06 00 53  0.0000000  0  7G16G18G21G25G27G29G31
  22825308.460   119947815.81507  22825309.700    93465841.03146
  23446474.800   123212075.91007  23446477.320    96009429.27345
  20898478.920   109822314.53508  20898479.600    85575862.27649
  23586725.400   123949169.47106  23586730.820    96583844.34446
  24070341.680   126490508.06305  24070346.980    98564055.60245
  22621831.740   118878687.51108  22621833.360    92632814.28647
  21991261.460   115564866.93008  21991262.700    90050548.14348
 15 02 06 00 53 30.0000000  0  7G16G18G21G25G27G29G31
  22808906.740   119861624.45407  22808908.080    93398678.95246
  23431732.600   123134606.57606  23431735.300    95949063.59745
  20899594.460   109828176.76608  20899595.180    85580430.25749
  23604214.520   124041074.41106  23604219.820    96655458.54346
  24056174.960   126416062.22205  24056180.340    98506045.89246
  22634870.840   118947208.51008  22634872.480    92686207.24647
  22004879.080   115636428.41808  22004880.420    90106310.31548
 15 02 06 00 54  0.0000000  0  7G16G18G21G25G27G29G31
  22792530.020   119775564.53007  22792531.440    93331619.30846
  23417012.920   123057255.14206  23417015.700    95888789.78945
  20900790.440   109834461.95908  20900791.220    85585327.81249
  23621744.400   124133193.54006  23621749.580    96727239.65245
  24042024.380   126341701.15606  24042029.740    98448102.22946
  22647921.920   119015792.43008  22647923.600    92739649.23547
  22018566.480   115708356.59308  22018567.980    90162358.22548
 15 02 06 00 54 30.0000000  0  7G16G18G21G25G27G29G31
  22776178.640   119689637.59307  22776180.060    93264663.27446
  23402316.260   122980023.94106  23402319.020    95828609.65345
  20902066.760   109841169.26608  20902067.560    85590554.29149
  23639314.700   124225525.42306  23639319.640    96799186.53945
  24027890.000   126267424.48006  24027895.280    98390224.33245
  22660984.820   119084438.33808  22660986.520    92793139.52647
  22032323.060   115780648.46308  22032324.780    90218689.53048
 15 02 06 00 55  0.0000000  0  7G16G18G21G25G27G29G31
  22759853.020   119603845.92007  22759854.400    93197812.64446
  23387643.280   122902916.47206  23387645.820    95768525.94545
  20903423.320   109848298.22808  20903424.160    85596109.33549
  23656925.220   124318069.44606  23656929.940    96871298.74845
  24013771.960   126193232.78805  24013777.020    98332412.66145
  22674059.680   119153146.93408  22674061.420    92846678.65947
  22046148.520   115853301.86908  22046150.320    90275302.54948
 15 02 06 00 55 30.0000000  0  7G16G18G21G25G27G29G31
  22743553.760   119518192.87307  22743555.140    93131070.03046
  23372994.720   122825936.21907  23372996.840    95708541.37445
  20904860.140   109855848.93608  20904860.980    85601993.00649
  23674575.980   124410825.36206  23674580.620    96943576.06745
  23999670.260   126119127.06106  23999675.160    98274667.96945
  22687146.520   119221918.50008  22687148.320    92900266.86047
  22060042.600   115926315.23208  22060044.340    90332196.06048
 15 02 06 00 56  0.0000000  0  7G16G18G21G25G27G29G31
  22727281.000   119432679.29907  22727282.440    93064436.08747
  23358370.820   122749085.37407  23358372.540    95648657.61145
  20906376.880   109863819.46208  20906377.720    85608203.80749
  23692266.560   124503791.46406  23692271.240    97016017.15544
  23985584.760   126045106.68306  23985589.540    98216989.80245
  22700245.140   119290752.03208  22700246.920    92953903.35147
  22074004.540   115999685.20708  22074006.180    90389367.44148
 15 02 06 00 56 30.0000000  0  7G16G18G21G25G27G29G31
  22711035.160   119347307.65907  22711036.760    92997912.74947
  23343771.960   122672367.03507  23343773.400    95588877.09345
  20907973.440   109872209.60408  20907974.300    85614741.58449
  23709997.200   124596967.03706  23710001.820    97088621.46945
  23971515.500   125971172.05506  23971520.300    98159378.45246
  22713355.540   119359647.71208  22713357.380    93007588.26047
  22088033.960   116073409.67108  22088035.400    90446815.03848
 15 02 06 00 57  0.0000000  0  7G16G18G21G25G27G29G31
  22694816.680   119262079.48407  22694818.400    92931501.21346
  23329198.420   122595782.97007  23329199.840    95529201.24044
  20909649.480   109881017.32508  20909650.360    85621604.74549
  23727767.340   124690350.21506  23727771.980    97161387.54745
  23957462.460   125897322.50805  23957467.200    98101833.38446
  22726477.520   119428604.39807  22726479.420    93061320.71347
  22102130.120   116147485.25508  22102131.420    90504536.24648
 15 02 06 00 57 30.0000000  0  7G16G18G21G25G27G29G31
  22678625.860   119176996.03207  22678627.560    92865202.45046
  23314650.780   122519335.28707  23314652.220    95469631.62445
  20911404.660   109890240.97308  20911405.540    85628792.00649
  23745576.740   124783938.98406  23745581.280    97234313.83445
  23943425.420   125823557.20506  23943430.000    98044353.96646
  22739610.820   119497620.91207  22739612.840    93115099.79147
  22116292.360   116221908.30808  22116293.600    90562528.20048
 15 02 06 00 58  0.0000000  0  7G16G18G21G25G27G29G31
  22662463.080   119092059.72707  22662464.720    92799018.33847
  23300129.640   122443027.15807  23300131.240    95410170.75345
  20913239.000   109899880.45008  20913239.860    85636303.29149
  23763425.220   124877732.76706  23763429.760    97307399.86445
  23929404.500   125749876.81505  23929408.960    97986940.71246
  22752755.580   119566697.11007  22752757.640    93168925.37847
  22130520.380   116296677.04208  22130521.620    90620789.51848
 15 02 06 00 58 30.0000000  0  7G16G18G21G25G27G29G31
  22646328.800   119007273.25307  22646330.360    92732950.97547
  23285635.740   122366862.06207  23285637.580    95350821.35045
  20915152.340   109909935.10908  20915153.220    85644138.09049
  23781312.640   124971731.01106  23781317.140    97380645.21345
  23915399.840   125676281.95805  23915404.200    97929594.14246
  22765911.760   119635833.65007  22765913.900    93222797.98147
  22144813.820   116371789.33908  22144815.100    90679318.55348
 15 02 06 00 59  0.0000000  0  7G16G18G21G25G27G29G31
  22630223.320   118922638.48907  22630224.880    92667001.81646
  23271169.580   122290842.39807  23271171.620    95291585.27345
  20917144.420   109920403.58908  20917145.320    85652295.35149
  23799238.620   125065932.34006  23799243.360    97454048.82645
  23901411.380   125602772.41805  23901415.740    97872314.04046
  22779079.340   119705030.05407  22779081.560    93276717.23547
  22159172.120   116447242.30508  22159173.480    90738113.04348
 15 02 06 00 59 30.0000000  0  7G16G18G21G25G27G29G31
  22614146.880   118838156.42907  22614148.480    92601171.65647
  23256731.560   122214969.89907  23256733.660    95232463.88045
  20919214.920   109931284.14008  20919215.820    85660773.70549
  23817202.840   125160334.46806  23817207.780    97527608.88145
  23887438.880   125529347.11005  23887443.280    97815099.56546
  22792258.140   119774285.17607  22792260.440    93330682.23247
  22173594.540   116523032.16408  22173595.980    90797170.04148
 15 02 06 01 00  0.0000000  0  7G16G18G21G25G27G29G31
  22598099.940   118753829.25308  22598101.580    92535462.18747
  23242322.140   122139247.57007  23242324.320    95173459.50545
  20921363.720   109942576.10008  20921364.580    85669572.63849
  23835205.240   125254936.52306  23835210.200    97601324.75146
  23873482.500   125456006.42905  23873486.980    97757951.02246
  22805448.120   119843598.82107  22805450.380    93384692.84247
  22188080.560   116599156.56008  22188082.080    90856487.72248
 15 02 06 01 00 30.0000000  0  7G16G18G21G25G27G29G31
  22582083.200   118669660.59308  22582084.780    92469876.23047
  23227942.200   122063679.65607  23227944.300    95114575.42645
  20923590.860   109954279.62908  20923591.680    85678692.27349
  23853245.720   125349738.87606  23853250.700    97675196.66245
  23859542.460   125382751.93605  23859547.140    97700869.65246
  22818649.440   119912972.07907  22818651.640    93438749.89946
  22202629.960   116675614.43108  22202631.640    90916065.25248
 15 02 06 01 01  0.0000000  0  7G16G18G21G25G27G29G31
  22566096.540   118585649.94408  22566098.060    92404413.39347
  23213591.660   121988266.05307  23213593.700    95055811.61445
  20925895.540   109966390.70408  20925896.340    85688129.48149
  23871323.520   125444737.40006  23871328.500    97749221.44445
  23845618.360   125309580.78005  23845623.260    97643853.21047
  22831861.520   119982401.75207  22831863.680    93492850.91047
  22217241.740   116752400.07308  22217243.520    90975898.19648
 15 02 06 01 01 30.0000000  0  7G16G18G21G25G27G29G31
  22550140.700   118501801.23908  22550142.160    92339076.75047
  23199271.300   121913011.50407  23199273.340    94997171.73045
  20928277.980   109978910.51108  20928278.800    85697885.17749
  23889438.780   125539933.12406  23889443.720    97823399.89445
  23831710.560   125236495.17105  23831715.560    97586903.42146
  22845084.780   120051889.69807  22845086.800    93546997.33147
  22231915.820   116829513.02408  22231917.620    91035986.17748
