     2.11           OBSERVATION DATA    G                   RINEX VERSION / TYPE
SPIDER V4,0,0,3554                      2015 03 24 00:04    PGM / RUN BY / DATE 
CJSR                                                        MARKER NAME         
CJSR                                                        MARKER NUMBER       
                                                            OBSERVER / AGENCY   
496548              LEICA GRX1200+GNSS  8.20/4.007          REC # / TYPE / VERS 
10321013            LEIAR25         NONE                    ANT # / TYPE        
  5147913.4740   536355.0963  3716357.4907                  APPROX POSITION XYZ 
        0.0720        0.0000        0.0000                  ANTENNA: DELTA H/E/N
     1     1                                                WAVELENGTH FACT L1/2
     4    C1    L1    P2    L2                              # / TYPES OF OBSERV 
    30.000                                                  INTERVAL            
  2015    02    06    00    00    0.0000000     GPS         TIME OF FIRST OBS   
  2015    02    06    06    28   30.0000000     GPS         TIME OF LAST OBS    
    16                                                      LEAP SECONDS        
    16                                                      # OF SATELLITES     
   G 1   268   268   268   268                              PRN / # OF OBS      
   G 3   141   141   141   141                              PRN / # OF OBS      
   G 4   407   407   406   406                              PRN / # OF OBS      
   G11   339   339   339   339                              PRN / # OF OBS      
   G14   293   293   293   293                              PRN / # OF OBS      
   G16   665   665   665   665                              PRN / # OF OBS      
   G18   577   577   577   577                              PRN / # OF OBS      
   G19   547   546   546   546                              PRN / # OF OBS      
   G21   499   499   499   499                              PRN / # OF OBS      
   G22   634   634   634   634                              PRN / # OF OBS      
   G25   169   169   169   169                              PRN / # OF OBS      
   G27   716   716   716   716                              PRN / # OF OBS      
   G28   122   122   122   122                              PRN / # OF OBS      
   G29   238   238   238   238                              PRN / # OF OBS      
   G31   263   263   263   263                              PRN / # OF OBS      
   G32   325   325   324   324                              PRN / # OF OBS      
BIT 2 OF LLI FLAGS DATA COLLECTED UNDER A/S CONDITION       COMMENT             
SNR is mapped to RINEX snr flag value [2-9]                 COMMENT             
Lx:     = 25dBHz -> 1; 26-27dBHz -> 2; 28-31dBHz -> 3       COMMENT             
       32-35dBHz -> 4; 36-38dBHz -> 5; 39-41dBHz -> 6       COMMENT             
       42-44dBHz -> 7; 45-48dBHz -> 8; >=49dBHz -> 9        COMMENT             
                                                            END OF HEADER       
 15 02 06 00 00  0.0000000  0  5G16G21G25G29G31
  24555258.800   129038754.48408  24555257.500   100549674.49245
  21245550.660   111646122.06509  21245547.260    86996963.85848
  22091488.520   116091554.98009  22091488.800    90460952.96448
  21417900.160   112551825.02109  21417897.900    87702710.71448
  20958087.400   110135492.60409  20958084.100    85819850.69048
 15 02 06 00 00 30.0000000  0  5G16G21G25G29G31
  24538174.080   128948972.35508  24538172.340   100479714.42345
  21237880.760   111605816.20309  21237877.320    86965556.70748
  22103621.380   116155313.13209  22103621.580    90510634.61548
  21429324.260   112611859.36909  21429322.040    87749490.71148
  20961788.880   110154944.21709  20961785.540    85835007.79148
 15 02 06 00 01  0.0000000  0  5G16G21G25G29G31
  24521157.920   128859550.83008  24521156.000   100410035.32445
  21230367.620   111566334.39109  21230364.120    86934791.67548
  22115880.060   116219732.77009  22115880.240    90560831.72148
  21440848.080   112672417.78609  21440845.880    87796679.08448
  20965669.200   110175335.77809  20965666.000    85850897.31148
 15 02 06 00 01 30.0000000  0  5G16G21G25G29G31
  24504121.020   128770022.17008  24504119.140   100340272.77945
  21222922.340   111527208.88909  21222918.800    86904304.28548
  22128175.400   116284345.16009  22128175.640    90611179.01148
  21452382.160   112733030.11409  21452379.940    87843909.46548
  20969639.080   110196197.96109  20969635.980    85867153.55248
 15 02 06 00 02  0.0000000  0  5G16G21G25G29G31
  24487080.100   128680472.51608  24487078.340   100270493.85545
  21215561.080   111488524.93909  21215557.440    86874160.95748
  22140523.560   116349235.04509  22140523.840    90661742.53548
  21463942.400   112793779.73509  21463940.180    87891246.82848
  20973714.660   110217615.17909  20973711.620    85883842.28249
 15 02 06 00 02 30.0000000  0  5G16G21G25G29G31
  24470034.960   128590900.73608  24470033.280   100200697.72445
  21208283.600   111450281.48109  21208279.840    86844360.88148
  22152924.080   116414399.83109  22152924.320    90712520.27248
  21475528.220   112854663.27009  21475525.900    87938688.53748
  20977895.320   110239584.18609  20977892.240    85900960.98349
 15 02 06 00 03  0.0000000  0  5G16G21G25G29G31
  24452986.680   128501312.41008  24452984.980   100130888.65645
  21201091.080   111412484.48109  21201087.240    86814908.68748
  22165377.900   116479844.59009  22165378.060    90763516.18048
  21487140.400   112915684.98309  21487137.960    87986237.92548
  20982181.800   110262109.71209  20982178.820    85918513.33249
 15 02 06 00 03 30.0000000  0  5G16G21G25G29G31
  24435934.700   128411703.74508  24435933.240   100061063.75545
  21193982.500   111375129.11708  21193978.840    86785800.63648
  22177884.000   116545564.03509  22177884.040    90814726.12348
  21498777.620   112976838.46909  21498775.180    88033889.98648
  20986573.000   110285185.85709  20986570.120    85936494.72649
 15 02 06 00 04  0.0000000  0  5G16G21G25G29G31
  24418880.180   128322081.39608  24418878.620    99991228.16845
  21186959.260   111338222.36908  21186955.680    86757042.14648
  22190443.280   116611563.65109  22190443.360    90866154.37548
  21510440.640   113038127.87709  21510438.240    88081647.94948
  20991070.040   110308817.52309  20991067.100    85954908.99749
 15 02 06 00 04 30.0000000  0  5G16G21G25G29G31
  24401823.180   128232446.53207  24401821.560    99921382.84445
  21180021.420   111301764.53608  21180017.860    86728633.45548
  22203055.780   116677843.20109  22203056.000    90917800.75948
  21522129.420   113099552.52609  21522127.020    88129511.30848
  20995672.760   110333004.03109  20995669.580    85973755.63149
 15 02 06 00 05  0.0000000  0  5G16G21G25G29G31
  24384763.980   128142800.87708  24384762.500    99851529.13244
  21173169.380   111265757.12009  21173165.900    86700575.74248
  22215721.640   116744403.29409  22215722.060    90969665.74848
  21533843.880   113161111.84809  21533841.380    88177479.60148
  21000381.000   110357745.54209  21000377.820    85993034.71448
 15 02 06 00 05 30.0000000  0  5G16G21G25G29G31
  24367701.060   128053135.31007  24367699.420    99781659.87344
  21166401.340   111230191.16308  21166397.940    86672862.04248
  22228439.020   116811233.70609  22228439.460    91021741.38748
  21545581.860   113222794.87409  21545579.300    88225544.28848
  21005192.600   110383030.93909  21005189.400    86012737.59249
 15 02 06 00 06  0.0000000  0  5G16G21G25G29G31
  24350636.460   127963460.15307  24350634.500    99711783.13645
  21159719.160   111195075.70809  21159715.740    86645499.35848
  22241209.440   116878343.17309  22241210.020    91074034.45648
  21557344.780   113284609.30909  21557342.220    88273711.36848
  21010109.300   110408868.47209  21010106.000    86032870.72049
 15 02 06 00 06 30.0000000  0  5G16G21G25G29G31
  24333569.840   127873774.88008  24333568.060    99641898.54845
  21153122.620   111160410.23009  21153119.060    86618487.31248
  22254032.580   116945729.97209  22254033.340    91126543.62048
  21569132.160   113346552.69309  21569129.700    88321978.92648
  21015130.680   110435256.14909  21015127.420    86053432.53649
 15 02 06 00 07  0.0000000  0  5G16G21G25G29G31
  24316500.840   127784076.46408  24316499.000    99572003.68544
  21146610.940   111126191.08409  21146607.360    86591823.06548
  22266907.700   117013389.78409  22266908.620    91179265.53248
  21580943.020   113408619.29709  21580940.540    88370342.51148
  21020255.700   110462188.53709  21020252.500    86074418.79049
 15 02 06 00 07 30.0000000  0  5G16G21G25G29G31
  24299430.860   127694372.60107  24299429.100    99502104.62045
  21140185.680   111092425.96309  21140182.080    86565512.59548
  22279836.080   117081329.21508  22279837.060    91232205.33948
  21592778.580   113470815.57409  21592776.100    88418807.13448
  21025485.600   110489671.89909  21025482.460    86095834.38749
 15 02 06 00 08  0.0000000  0  5G16G21G25G29G31
  24282359.600   127604663.39707  24282358.040    99432201.38145
  21133846.580   111059113.88509  21133842.940    86539555.14248
  22292817.380   117149546.90109  22292818.420    91285361.95148
  21604638.360   113533139.20409  21604635.900    88467370.98848
  21030819.900   110517704.23709  21030816.660    86117677.75649
 15 02 06 00 08 30.0000000  0  5G16G21G25G29G31
  24265286.300   127514943.31708  24265284.900    99362289.67846
  21127592.720   111026249.71609  21127589.080    86513946.71949
  22305850.360   117218035.71809  22305851.360    91338729.84648
  21616520.840   113595582.13409  21616518.420    88516027.80448
  21036257.220   110546277.59609  21036254.020    86139942.70149
 15 02 06 00 09  0.0000000  0  5G16G21G25G29G31
  24248211.920   127425216.82108  24248210.660    99292372.99345
  21121424.460   110993835.78009  21121420.960    86488689.12748
  22318935.540   117286798.20409  22318936.400    91392310.99147
  21628426.320   113658146.02709  21628423.940    88564778.87348
  21041797.960   110575394.10809  21041794.700    86162630.89148
 15 02 06 00 09 30.0000000  0  5G16G21G25G29G31
  24231136.440   127335484.22408  24231135.160    99222451.53645
  21115342.040   110961873.09109  21115338.760    86463783.15248
  22332072.820   117355834.36209  22332073.480    91446105.38147
  21640354.700   113720830.24509  21640352.320    88613623.70848
  21047441.760   110605052.95609  21047438.660    86185741.66048
 15 02 06 00 10  0.0000000  0  5G16G21G25G29G31
  24214060.220   127245747.29108  24214058.680    99152526.68246
  21109345.720   110930362.68409  21109342.540    86439229.61548
  22345262.200   117425144.22009  22345262.780    91500113.05948
  21652305.740   113783633.41309  21652303.380    88662561.24148
  21053188.720   110635253.58109  21053185.760    86209274.59749
 15 02 06 00 10 30.0000000  0  5G16G21G25G29G31
  24196983.700   127156008.54308  24196981.900    99082600.40945
  21103435.820   110899305.95508  21103432.620    86415029.57548
  22358503.740   117494728.53009  22358504.260    91554334.59847
  21664279.540   113846556.35909  21664277.260    88711592.09848
  21059038.840   110665995.77809  21059035.760    86233229.53948
 15 02 06 00 11  0.0000000  0  5G16G21G25G29G31
  24179907.760   127066273.12908  24179905.700    99012676.74645
  21097613.100   110868707.71809  21097610.000    86391186.81348
  22371798.140   117564591.36609  22371798.680    91608773.14648
  21676276.740   113909602.18609  21676274.500    88760718.69648
  21064992.720   110697282.88209  21064989.400    86257609.10148
 15 02 06 00 11 30.0000000  0  5G16G21G25G29G31
  24162831.880   126976539.29408  24162830.060    98942754.32745
  21091877.160   110838565.32009  21091874.020    86367699.24048
  22385144.860   117634729.14709  22385145.520    91663425.95048
  21688296.540   113972766.37509  21688294.260    88809937.54148
  21071049.440   110729110.91409  21071046.040    86282410.16049
 15 02 06 00 12  0.0000000  0  5G16G21G25G29G31
  24145755.600   126886803.13108  24145753.800    98872830.08145
  21086227.280   110808874.79009  21086224.120    86344563.77948
  22398543.000   117705136.88208  22398543.740    91718289.10448
  21700337.900   114036043.28409  21700335.460    88859244.22148
  21077208.020   110761473.98709  21077204.580    86307628.13349
 15 02 06 00 12 30.0000000  0  5G16G21G25G29G31
  24128679.940   126797069.61208  24128677.820    98802907.86245
  21080664.080   110779639.78008  21080660.940    86321783.26648
  22411993.040   117775817.71309  22411993.880    91773365.05447
  21712401.180   114099435.52609  21712398.580    88908640.75148
  21083468.780   110794374.02209  21083465.340    86333264.50749
 15 02 06 00 13  0.0000000  0  5G16G21G25G29G31
  24111604.460   126707337.70608  24111602.480    98732986.95245
  21075187.080   110750858.19008  21075183.920    86299356.06748
  22425494.620   117846769.10809  22425495.460    91828651.84148
  21724485.660   114162939.66309  21724483.020    88958124.48048
  21089831.160   110827808.06809  21089827.600    86359316.99149
 15 02 06 00 13 30.0000000  0  5G16G21G25G29G31
  24094529.780   126617609.72007  24094527.900    98663069.06145
  21069796.820   110722532.05409  21069793.600    86277283.76748
  22439047.940   117917992.01709  22439048.740    91884150.18947
  21736591.400   114226556.00909  21736588.860    89007695.63748
  21096295.200   110861776.39709  21096291.480    86385785.82048
 15 02 06 00 14  0.0000000  0  5G16G21G25G29G31
  24077456.300   126527888.94907  24077454.460    98593156.83845
  21064493.700   110694663.32909  21064490.300    86255567.87448
  22452653.260   117989488.02009  22452654.000    91939861.35047
  21748718.700   114290285.62109  21748716.220    89057355.05548
  21102860.880   110896279.59609  21102857.100    86412671.42048
 15 02 06 00 14 30.0000000  0  5G16G21G25G29G31
  24060383.700   126438172.46108  24060381.920    98523247.95844
  21059276.840   110667248.30009  21059273.340    86234205.52848
  22466309.660   118061252.70008  22466310.340    91995781.85947
  21760866.580   114354123.24009  21760864.160    89107098.64648
  21109527.320   110931312.26609  21109523.680    86439969.57848
 15 02 06 00 15  0.0000000  0  5G16G21G25G29G31
  24043313.180   126348466.45908  24043311.480    98453347.23044
  21054147.440   110640292.86409  21054143.880    86213201.30048
  22480017.880   118133290.23708  22480018.580    92051914.98248
  21773035.800   114418072.86509  21773033.420    89156929.51048
  21116295.160   110966877.97609  21116291.700    86467683.09748
 15 02 06 00 15 30.0000000  0  5G16G21G25G29G31
  24026243.960   126258766.87208  24026242.120    98383451.45044
  21049104.520   110613791.98509  21049100.880    86192551.27748
  22493777.100   118205595.57409  22493777.880    92108256.78048
  21785225.140   114482128.61509  21785222.800    89206843.06448
  21123163.340   111002970.94409  21123160.020    86495807.47649
 15 02 06 00 16  0.0000000  0  5G16G21G25G29G31
  24009176.360   126169075.54708  24009174.400    98313562.11045
  21044148.200   110587746.09509  21044144.540    86172255.79548
  22507587.380   118278168.60909  22507588.140    92164807.18147
  21797434.540   114546289.79809  21797432.220    89256838.77248
  21130131.720   111039590.06809  21130128.460    86524341.84548
 15 02 06 00 16 30.0000000  0  5G16G21G25G29G31
  23992111.160   126079396.88508  23992109.020    98243682.68745
  21039279.120   110562159.03609  21039275.460    86152317.82948
  22521449.140   118351012.08709  22521449.880    92221568.31947
  21809664.440   114610558.39309  21809662.060    89306918.18248
  21137200.600   111076737.00709  21137197.280    86553287.49448
 15 02 06 00 17  0.0000000  0  5G16G21G25G29G31
  23975048.520   125989732.15908  23975046.460    98173814.10845
  21034497.340   110537030.92009  21034493.700    86132737.49148
  22535362.280   118424125.66609  22535362.920    92278539.92747
  21821914.800   114674934.11709  21821912.280    89357081.07248
  21144369.680   111114410.79809  21144366.360    86582643.69548
 15 02 06 00 17 30.0000000  0  5G16G21G25G29G31
  23957988.580   125900081.48008  23957986.700    98103956.47345
  21029802.700   110512360.75909  21029799.160    86113514.00148
  22549326.480   118497507.81509  22549327.060    92335720.79947
  21834185.080   114739414.08009  21834182.360    89407325.18248
  21151638.560   111152608.70209  21151635.240    86612408.28948
 15 02 06 00 18  0.0000000  0  5G16G21G25G29G31
  23940931.400   125810444.74308  23940929.240    98034109.68946
  21025195.060   110488147.40809  21025191.500    86094646.46148
  22563341.420   118571156.65909  22563341.900    92393109.50247
  21846474.820   114803996.32209  21846471.960    89457648.99948
  21159006.780   111191328.10009  21159003.300    86642579.25348
 15 02 06 00 18 30.0000000  0  6G16G18G21G25G29G31
  23923877.180   125720823.96208  23923874.980    97964275.36646
  24505699.820   128778318.17108  24505698.460   100346739.24345
  21020674.340   110464391.01109  21020670.860    86076134.99148
  22577407.000   118645071.76709  22577407.300    92450705.66848
  21858783.820   114868680.24109  21858780.960    89508052.03648
  21166473.940   111230567.84709  21166470.320    86673155.67148
 15 02 06 00 19  0.0000000  0  6G16G18G21G25G29G31
  23906825.220   125631215.11108  23906822.920    97894450.32146
  24490935.080   128700730.28608  24490933.660   100286281.28244
  21016239.920   110441088.01909  21016236.520    86057976.82448
  22591522.420   118719248.59509  22591522.640    92508505.77547
  21871111.060   114933460.40609  21871108.280    89558530.07548
  21174038.920   111270322.16909  21174035.360    86704133.06549
 15 02 06 00 19 30.0000000  0  6G16G18G21G25G29G31
  23889778.440   125541633.57208  23889775.920    97824646.56246
  24476159.860   128623087.55008  24476158.360   100225780.54544
  21011894.460   110418252.38609  21011891.020    86040182.83848
  22605690.180   118793700.49509  22605690.460    92566520.22547
  21883459.000   114998349.43609  21883456.300    89609092.94848
  21181704.020   111310603.51609  21181700.800    86735521.09348
 15 02 06 00 20  0.0000000  0  6G16G18G21G25G29G31
  23872734.660   125452068.19007  23872731.920    97754855.38845
  24461372.400   128545379.94208  24461370.900   100165229.26344
  21007635.420   110395871.08008  21007631.960    86022742.86948
  22619907.740   118868414.19308  22619908.100    92624738.66847
  21895825.080   115063333.95909  21895822.460    89659730.22848
  21189466.740   111351397.84709  21189463.740    86767308.85849
 15 02 06 00 20 30.0000000  0  6G16G18G21G25G29G31
  23855695.300   125362527.46407  23855692.720    97685083.47045
  24446574.600   128467617.27008  24446573.120   100104635.06944
  21003464.300   110373951.94809  21003460.880    86005663.04348
  22634176.400   118943396.57808  22634176.760    92683166.47847
  21908210.560   115128420.83909  21908208.080    89710447.25948
  21197328.340   111392710.94409  21197325.420    86799500.85748
 15 02 06 00 21  0.0000000  0  6G16G18G21G25G29G31
  23838659.660   125273005.56808  23838657.320    97615326.18445
  24431765.440   128389794.93808  24431763.940   100043994.36844
  20999379.700   110352487.15909  20999376.200    85988937.23448
  22648494.700   119018639.94208  22648495.180    92741797.65447
  21920613.840   115193601.33509  21920611.520    89761237.23948
  21205287.140   111434533.90009  21205284.020    86832090.17248
 15 02 06 00 21 30.0000000  0  6G16G18G21G25G29G31
  23821628.900   125183508.00508  23821626.440    97545587.84245
  24416946.020   128311919.20107  24416944.440    99983312.08844
  20995382.600   110331482.44909  20995379.100    85972569.94148
  22662863.360   119094147.91508  22662863.900    92800635.00947
  21933035.640   115258878.85809  21933033.420    89812102.82348
  21213343.320   111476869.31009  21213340.100    86865078.78848
 15 02 06 00 22  0.0000000  0  6G16G18G21G25G29G31
  23804603.480   125094039.33108  23804600.960    97475872.02545
  24402117.380   128233995.70307  24402116.040    99922592.60345
  20991473.460   110310940.16309  20991470.060    85956562.98248
  22677282.840   119169922.96408  22677283.400    92859680.47247
  21945476.380   115324255.60109  21945474.180    89863045.73148
  21221497.340   111519718.78209  21221494.160    86898467.97349
 15 02 06 00 22 30.0000000  0  6G16G18G21G25G29G31
  23787582.400   125004593.31208  23787580.320    97406173.85346
  24387278.900   128156019.98407  24387277.740    99861832.42745
  20987650.880   110290852.64008  20987647.540    85940910.36648
  22691751.680   119245957.41608  22691752.240    92918928.07847
  21957934.540   115389723.55009  21957932.400    89914059.69148
  21229747.440   111563073.62609  21229744.440    86932250.93649
 15 02 06 00 23  0.0000000  0  6G16G18G21G25G29G31
  23770566.720   124915175.07608  23770564.860    97336497.34445
  24372431.780   128077998.29407  24372430.820    99801036.43245
  20983915.540   110271223.80609  20983912.220    85925615.18548
  22706270.540   119322254.51108  22706271.060    92978380.33747
  21970410.560   115455284.94409  21970408.440    89965146.48648
  21238094.220   111606936.25609  21238091.280    86966429.58249
 15 02 06 00 23 30.0000000  0  6G16G18G21G25G29G31
  23753556.700   124825786.75208  23753554.620    97266844.12345
  24357576.280   127999933.56706  24357575.460    99740206.91045
  20980267.880   110252055.14209  20980264.420    85910678.57048
  22720839.420   119398814.46908  22720839.920    93038037.41847
  21982904.540   115520940.61409  21982902.340    90016306.73148
  21246537.400   111651305.52509  21246534.540    87001003.02148
 15 02 06 00 24  0.0000000  0  6G16G18G21G25G29G31
  23736552.700   124736429.74508  23736550.340    97197215.30745
  24342713.020   127921828.60107  24342712.560    99679346.05545
  20976707.860   110233346.68009  20976704.280    85896100.55648
  22735458.260   119475636.83109  22735458.860    93097898.97347
  21995416.220   115586689.53909  21995413.960    90067539.64448
  21255076.700   111696179.91709  21255073.800    87035970.07249
 15 02 06 00 24 30.0000000  0  6G16G18G21G25G29G31
  23719554.280   124647102.13808  23719551.820    97127609.40445
  24327842.220   127843682.44208  24327841.720    99618453.04445
  20973234.460   110215093.08009  20973230.640    85881876.98648
  22750126.260   119552717.29508  22750126.920    93157961.65947
  22007944.700   115652527.00109  22007942.460    90118841.54848
  21263710.940   111741554.17909  21263708.220    87071326.62248
 15 02 06 00 25  0.0000000  0  6G16G18G21G25G29G31
  23702562.260   124557807.97908  23702559.560    97058029.55245
  24312964.720   127765500.35308  24312964.020    99557532.03445
  20969848.460   110197298.91009  20969844.560    85868011.41748
  22764843.820   119630058.16609  22764844.440    93218227.24747
  22020490.280   115718454.54809  22020488.120    90170213.65448
  21272440.620   111787429.58509  21272437.980    87107073.68148
 15 02 06 00 25 30.0000000  0  6G16G18G21G25G29G31
  23685576.520   124468547.11308  23685573.460    96988475.64545
  24298080.620   127687283.57708  24298079.760    99496583.99345
  20966549.560   110179962.81609  20966545.620    85854502.78748
  22779610.600   119707657.42808  22779611.080    93278694.19647
  22033052.640   115784470.58409  22033050.560    90221654.70748
  21281265.220   111833802.83009  21281262.600    87143208.65649
 15 02 06 00 26  0.0000000  0  6G16G18G21G25G29G31
  23668597.900   124379324.38808  23668595.000    96918951.47945
  24283190.980   127609037.48408  24283189.820    99435613.08345
  20963338.200   110163086.53509  20963334.120    85841352.44448
  22794427.060   119785517.77508  22794427.500    93339364.57247
  22045632.240   115850577.21709  22045630.200    90273166.34948
  21290184.960   111880675.71009  21290182.240    87179732.95248
 15 02 06 00 26 30.0000000  0  6G16G18G21G25G29G31
  23651626.100   124290137.48208  23651623.380    96849455.22745
  24268295.600   127530760.92408  24268294.160    99374618.43145
  20960213.720   110146667.46808  20960209.700    85828558.37248
  22809292.320   119863635.06008  22809292.740    93400235.16147
  22058228.300   115916770.33009  22058226.300    90324745.38748
  21299198.840   111928042.72909  21299195.900    87216642.30549
 15 02 06 00 27  0.0000000  0  6G16G18G21G25G29G31
  23634661.380   124200988.11208  23634658.960    96779988.22245
  24253395.080   127452457.73208  24253393.540    99313603.04545
  20957176.260   110130705.92809  20957172.400    85816120.81148
  22824206.380   119942009.09508  22824206.880    93461305.80347
  22070840.720   115983049.36009  22070838.780    90376391.36048
  21308306.500   111975902.87509  21308303.460    87253935.89949
 15 02 06 00 27 30.0000000  0  6G16G18G21G25G29G31
  23617704.980   124111881.79708  23617702.560    96710554.75745
  24238490.340   127374133.66408  24238489.060    99252571.41045
  20954226.600   110115205.76008  20954222.920    85804042.77048
  22839169.860   120020642.90508  22839170.460    93522578.87747
  22083470.160   116049417.11509  22083468.200    90428106.47248
  21317508.280   112024257.86709  21317505.160    87291615.10148
 15 02 06 00 28  0.0000000  0  6G16G18G21G25G29G31
  23600755.800   124022812.92908  23600753.060    96641150.47946
  24223580.960   127295784.47808  24223579.600    99191520.16144
  20951363.340   110100159.47108  20951359.740    85792318.38948
  22854181.380   120099529.20408  22854182.040    93584048.67947
  22096115.080   116115866.08509  22096112.980    90479884.86948
  21326802.580   112073099.08609  21326799.360    87329673.17849
 15 02 06 00 28 30.0000000  0  6G16G18G21G25G29G31
  23583814.980   123933788.09308  23583812.260    96571780.53046
  24208668.360   127217417.88908  24208666.420    99130455.33644
  20948587.320   110085571.83509  20948583.820    85780951.40848
  22869241.820   120178672.20308  22869242.480    93645718.53047
  22108776.220   116182400.36009  22108774.040    90531729.74648
  21336189.820   112122429.90109  21336186.720    87368112.74348
 15 02 06 00 29  0.0000000  0  6G16G18G21G25G29G31
  23566882.460   123844806.77908  23566879.780    96502444.44946
  24193752.440   127139034.46308  24193750.360    99069377.38744
  20945898.280   110071440.89209  20945894.740    85769940.28548
  22884350.680   120258069.47708  22884351.260    93707586.51447
  22121453.060   116249017.33809  22121450.820    90583639.05548
  21345669.580   112172246.63609  21345666.500    87406930.95448
 15 02 06 00 29 30.0000000  0  6G16G18G21G25G29G31
  23549958.880   123755872.41108  23549956.160    96433144.96746
  24178834.140   127060638.95108  24178832.280    99008290.03445
  20943296.480   110057768.67708  20943293.060    85759286.61348
  22899508.120   120337722.37308  22899508.760    93769653.67447
  22134145.860   116315718.26309  22134143.600    90635613.77648
  21355241.860   112222549.14709  21355238.780    87446127.69149
 15 02 06 00 30  0.0000000  0  6G16G18G21G25G29G31
  23533044.200   123666984.84708  23533041.460    96363881.93846
  24163913.660   126982232.13407  24163911.980    98947193.88344
  20940781.640   110044552.94608  20940778.180    85748988.64748
  22914713.760   120417628.51109  22914714.340    93831918.16247
  22146854.120   116382500.63109  22146851.800    90687651.96848
  21364905.860   112273334.20409  21364902.840    87485700.44648
 15 02 06 00 30 30.0000000  0  6G16G18G21G25G29G31
  23516139.080   123578148.09708  23516136.500    96294658.52146
  24148992.020   126903819.30707  24148990.520    98886093.06244
  20938354.280   110031796.94109  20938350.780    85739048.91448
  22929968.000   120497789.91008  22929968.540    93894381.57247
  22159578.280   116449366.43809  22159575.940    90739755.17148
  21374661.880   112324602.66609  21374658.940    87525649.88148
 15 02 06 00 31  0.0000000  0  7G16G18G21G25G27G29G31
  23499242.920   123489358.52108  23499240.300    96225471.86146
  24134068.680   126825397.52907  24134067.280    98824985.25644
  20936013.100   110019494.13309  20936009.560    85729462.32248
  22945269.720   120578200.49209  22945270.080    93957039.14247
  24571454.320   129123865.97105  24571452.660   100616008.81644
  22172317.140   116516309.39109  22172314.820    90791918.48348
  21384508.400   112376346.93009  21384505.500    87565970.06648
 15 02 06 00 31 30.0000000  0  7G16G18G21G25G27G29G31
  23482357.000   123400622.25009  23482354.160    96156326.73545
  24119144.940   126746974.48307  24119143.700    98763876.49545
  20933759.200   110007649.85109  20933755.700    85720233.03048
  22960619.660   120658864.68208  22960619.860    94019894.33447
  24556737.500   129046530.25705  24556743.020   100555751.41941
  22185071.500   116583333.75609  22185069.180    90844145.24048
  21394446.140   112428570.38709  21394443.400    87606663.65048
 15 02 06 00 32  0.0000000  0  7G16G18G21G25G27G29G31
  23465482.500   123311945.70209  23465479.340    96087228.11445
  24104222.400   126668557.18908  24104221.300    98702772.17945
  20931593.400   109996268.55009  20931589.860    85711364.49048
  22976018.540   120739786.36608  22976018.800    94082950.16947
  24542040.420   128969297.77905  24542044.600   100495570.26041
  22197842.140   116650443.54109  22197839.780    90896438.55948
  21404475.640   112481275.89409  21404473.000    87647732.84848
 15 02 06 00 32 30.0000000  0  7G16G18G21G25G27G29G31
  23448615.800   123223310.45108  23448612.620    96018161.68846
  24089298.020   126590128.67708  24089296.840    98641659.10145
  20929511.540   109985328.64108  20929508.000    85702839.90248
  22991462.420   120820944.80308  22991462.840    94146190.48347
  24527359.240   128892148.36105  24527362.300   100435453.94642
  22210625.060   116717617.67709  22210622.520    90948782.02948
  21414592.780   112534441.29109  21414589.980    87689160.42748
 15 02 06 00 33  0.0000000  0  7G16G18G21G25G27G29G31
  23431760.640   123134736.19408  23431757.560    95949142.79646
  24074375.420   126511709.09908  24074374.060    98580552.98746
  20927517.500   109974850.10008  20927514.000    85694674.80548
  23006954.680   120902357.63308  23006955.280    94209629.01347
  24512697.400   128815100.59205  24512700.040   100375416.79942
  22223423.660   116784874.31409  22223421.040    91001189.77648
  21424800.560   112588082.98009  21424797.540    87730959.13248
 15 02 06 00 33 30.0000000  0  7G16G18G21G25G27G29G31
  23414915.740   123046216.47008  23414912.960    95880166.40346
  24059453.640   126433293.83608  24059452.120    98519450.24046
  20925609.520   109964823.63208  20925605.900    85686861.97548
  23022493.640   120984015.98708  23022494.340    94273258.87347
  24498053.900   128738143.20606  24498056.500   100315437.48943
  22236236.220   116852204.35309  22236233.560    91053654.72348
  21435096.980   112642190.59809  21435093.960    87773120.88448
 15 02 06 00 34  0.0000000  0  7G16G18G21G25G27G29G31
  23398082.040   122957755.78008  23398079.560    95811236.02645
  24044533.680   126354888.43908  24044532.260    98458355.18445
  20923788.000   109955251.64508  20923784.380    85679403.29848
  23038079.800   121065922.16008  23038080.580    94337081.84047
  24483428.380   128661285.33306  24483429.640   100255548.39941
  22249063.200   116919610.13409  22249060.520    91106178.68548
  21445482.220   112696765.22409  21445479.180    87815646.55448
 15 02 06 00 34 30.0000000  0  7G16G18G21G25G27G29G31
  23381260.520   122869358.96908  23381258.160    95742355.41446
  24029616.580   126276498.50208  24029615.100    98397272.16646
  20922053.520   109946137.18508  20922049.900    85672301.12848
  23053713.660   121148078.79608  23053714.440    94401099.97346
  24468821.760   128584527.35506  24468822.140   100195737.07243
  22261905.080   116987094.26909  22261902.360    91158763.71648
  21455956.480   112751808.68909  21455953.520    87858537.53348
 15 02 06 00 35  0.0000000  0  7G16G18G21G25G27G29G31
  23364451.260   122781026.81708  23364449.080    95673525.18546
  24014702.640   126198125.69608  24014701.040    98336202.51545
  20920405.920   109937478.95708  20920402.340    85665554.45548
  23069394.880   121230484.10008  23069395.580    94465311.87646
  24454233.800   128507868.23306  24454234.620   100136002.81544
  22274761.420   117054654.64209  22274758.680    91211408.13948
  21466519.380   112807317.76209  21466516.620    87901791.32148
 15 02 06 00 35 30.0000000  0  7G16G18G21G25G27G29G31
  23347653.800   122692755.74508  23347651.600    95604742.56246
  23999791.580   126119767.71308  23999789.760    98275144.38745
  20918844.080   109929271.23108  20918840.460    85659158.84448
  23085122.320   121313132.19508  23085122.980    94529712.96846
  24439663.780   128431302.84406  24439664.960   100076341.59444
  22287631.180   117122285.90809  22287628.420    91264107.81348
  21477169.720   112863285.40109  21477166.960    87945402.44448
 15 02 06 00 36  0.0000000  0  7G16G18G21G25G27G29G31
  23330868.740   122604549.66208  23330866.500    95536010.55846
  23984884.520   126041429.66708  23984882.500    98214101.77245
  20917368.540   109921516.99208  20917364.960    85653116.57848
  23100896.420   121396025.27108  23100897.020    94594304.95846
  24425112.180   128354834.25307  24425113.220   100016755.80644
  22300514.760   117189990.19009  22300512.100    91316864.37448
  21487907.540   112919711.74609  21487904.520    87989371.01648
 15 02 06 00 36 30.0000000  0  7G16G18G21G25G27G29G31
  23314096.420   122516410.64708  23314094.120    95467330.84646
  23969981.720   125963114.53808  23969979.500    98153077.04745
  20915979.200   109914215.89008  20915975.620    85647427.41448
  23116716.920   121479162.52308  23116717.680    94659087.19947
  24410579.040   128278462.46007  24410579.940    99957245.41944
  22313412.100   117257766.97909  22313409.600    91369677.44148
  21498732.300   112976595.15609  21498729.040    88033695.75148
 15 02 06 00 37  0.0000000  0  7G16G18G21G25G27G29G31
  23297337.420   122428341.68808  23297335.160    95398705.69846
  23955083.840   125884826.17808  23955081.660    98092073.20245
  20914676.120   109907368.32708  20914672.560    85642091.65648
  23132584.000   121562544.44708  23132584.760    94724060.10447
  24396064.600   128202188.72607  24396065.540    99897811.45344
  22326323.400   117325616.74109  22326321.060    91422547.36248
  21509643.740   113033935.06009  21509640.420    88078376.19248
 15 02 06 00 37 30.0000000  0  7G16G18G21G25G27G29G31
  23280591.120   122340339.64308  23280588.840    95330132.71046
  23940190.740   125806562.91108  23940188.580    98031088.87145
  20913458.420   109900969.35408  20913454.800    85637105.44448
  23148496.600   121646165.90308  23148497.520    94789219.64847
  24381567.880   128126008.70306  24381568.780    99838450.45345
  22339247.660   117393534.22309  22339245.420    91475470.05848
  21520640.640   113091724.77209  21520637.660    88123407.11048
 15 02 06 00 38  0.0000000  0  7G16G18G21G25G27G29G31
  23263858.700   122252410.40508  23263856.260    95261616.45046
  23925303.600   125728331.18207  23925301.320    97970129.16045
  20912326.920   109895022.94509  20912323.240    85632471.88048
  23164455.420   121730030.08908  23164456.420    94854568.34446
  24367089.760   128049926.38607  24367090.920    99779165.65144
  22352185.540   117461523.26209  22352183.340    91528448.51048
  21531723.480   113149966.18309  21531720.700    88168790.00948
 15 02 06 00 38 30.0000000  0  7G16G18G21G25G27G29G31
  23247139.720   122164551.82208  23247137.280    95193155.23746
  23910422.360   125650129.72808  23910420.180    97909193.03245
  20911280.620   109889524.35708  20911276.920    85628187.26948
  23180459.580   121814132.29908  23180460.480    94920102.50347
  24352629.620   127973937.91107  24352630.960    99719953.92845
  22365136.160   117529579.06609  22365133.960    91581478.99348
  21542891.220   113208652.96409  21542888.520    88214519.94348
 15 02 06 00 39  0.0000000  0  7G16G18G21G25G27G29G31
  23230435.320   122076769.77108  23230432.780    95124753.66746
  23895548.340   125571965.98308  23895546.080    97848286.26544
  20910320.280   109884477.99908  20910316.620    85624255.05848
  23196509.820   121898476.18108  23196510.580    94985824.98746
  24338188.220   127898047.76307  24338189.380    99660818.82844
  22378100.080   117597704.75009  22378097.820    91634563.92448
  21554144.380   113267788.09109  21554141.540    88260599.24748
 15 02 06 00 39 30.0000000  0  7G16G18G21G25G27G29G31
  23213745.300   121989062.98908  23213742.620    95056410.72546
  23880681.460   125493839.39008  23880678.840    97787408.40644
  20909445.400   109879880.23209  20909441.660    85620672.38048
  23212605.320   121983057.88708  23212605.980    95051732.78246
  24323764.920   127822252.93607  24323765.900    99601757.97945
  22391076.820   117665897.67409  22391074.440    91687701.23147
  21565481.760   113327365.83909  21565478.800    88307023.44348
 15 02 06 00 40  0.0000000  0  7G16G18G21G25G27G29G31
  23197070.340   121901435.46008  23197067.740    94988129.57846
  23865822.440   125415754.49208  23865819.620    97726563.06245
  20908656.200   109875732.65308  20908652.340    85617440.50748
  23228746.340   122067878.72308  23228747.020    95117826.91347
  24309360.140   127746555.55008  24309361.280    99542773.09545
  22404066.580   117734159.15509  22404064.160    91740891.97347
  21576903.220   113387386.32909  21576900.200    88353792.62648
 15 02 06 00 40 30.0000000  0  7G16G18G21G25G27G29G31
  23180410.420   121813886.95008  23180407.940    94919909.98446
  23850971.620   125337712.87208  23850968.820    97665751.45545
  20907952.200   109872032.96108  20907948.260    85614557.63048
  23244932.400   122152936.52308  23244933.080    95184105.69547
  24294973.680   127670954.31408  24294974.820    99483863.12146
  22417068.960   117802486.96809  22417066.460    91794134.38847
  21588408.300   113447846.08209  21588405.300    88400904.11248
 15 02 06 00 41  0.0000000  0  7G16G18G21G25G27G29G31
  23163765.980   121726419.43608  23163763.700    94851753.53146
  23836129.560   125259717.37808  23836126.820    97604975.76145
  20907333.360   109868780.78809  20907329.340    85612023.48548
  23261163.460   122238230.53608  23261164.060    95250568.54846
  24280605.440   127595449.27808  24280606.800    99425028.13146
  22430083.920   117870880.76909  22430081.380    91847428.25248
  21599996.440   113508742.81209  21599993.720    88448356.08748
 15 02 06 00 41 30.0000000  0  7G16G18G21G25G27G29G31
  23147137.720   121639036.98508  23147135.440    94783663.33846
  23821297.060   125181772.76008  23821294.360    97544239.74145
  20906800.100   109865978.41909  20906796.060    85609839.81748
  23277439.680   122323762.37108  23277440.280    95317216.69546
  24266255.920   127520042.91908  24266257.300    99366269.97446
  22443111.780   117939342.24109  22443109.080    91900774.82147
  21611667.960   113570076.85609  21611665.240    88496148.81848
 15 02 06 00 42  0.0000000  0  7G16G18G21G25G27G29G31
  23130525.120   121551736.87308  23130522.440    94715637.29746
  23806474.040   125103877.41708  23806471.240    97483542.09145
  20906351.380   109863620.29009  20906347.340    85608002.33148
  23293760.040   122409526.52508  23293760.620    95384045.89246
  24251924.420   127444730.65408  24251925.680    99307585.15546
  22456151.520   118007866.35309  22456148.740    91954170.22147
  21623421.380   113631841.43809  21623418.620    88544277.04448
 15 02 06 00 42 30.0000000  0  7G16G18G21G25G27G29G31
  23113928.840   121464522.42508  23113926.060    94647678.01846
  23791661.160   125026035.38608  23791658.700    97422886.03345
  20905987.360   109861707.32909  20905983.320    85606511.72348
  23310124.660   122495523.54408  23310125.380    95451056.53546
  24237611.080   127369513.91008  24237612.200    99248974.77746
  22469203.240   118076453.72309  22469200.400    92007614.90447
  21635256.560   113694035.32409  21635253.760    88592739.79648
 15 02 06 00 43  0.0000000  0  7G16G18G21G25G27G29G31
  23097349.780   121377398.65408  23097346.980    94579789.39246
  23776859.560   124948252.83108  23776857.140    97362276.26845
  20905708.560   109860242.51908  20905704.580    85605370.31748
  23326533.980   122581756.44208  23326534.940    95518250.95246
  24223316.640   127294396.43108  24223317.700    99190441.74447
  22482267.560   118145107.32009  22482264.720    92061111.19147
  21647173.680   113756660.09609  21647170.900    88641538.30848
 15 02 06 00 43 30.0000000  0  7G16G18G21G25G27G29G31
  23080787.380   121290362.21808  23080784.480    94511968.81546
  23762068.920   124870527.59108  23762066.400    97301711.16045
  20905513.920   109859219.93408  20905509.980    85604573.49848
  23342987.040   122668218.87608  23342988.160    95585624.24646
  24209040.120   127219372.90708  24209041.160    99131981.91046
  22495343.500   118213822.08509  22495340.760    92114655.13147
  21659171.360   113819708.62709  21659168.660    88690667.00348
 15 02 06 00 44  0.0000000  0  7G16G18G21G25G27G29G31
  23064242.500   121203418.10808  23064239.560    94444220.17646
  23747290.200   124792865.23708  23747287.700    97241195.09845
  20905404.060   109858642.86008  20905400.200    85604123.83848
  23359484.380   122754913.35808  23359485.560    95653178.36047
  24194782.080   127144446.66908  24194783.040    99073597.87446
  22508431.580   118282600.32009  22508428.880    92168248.53847
  21671249.820   113883181.66809  21671247.180    88740126.48848
 15 02 06 00 44 30.0000000  0  7G16G18G21G25G27G29G31
  23047715.140   121116566.95208  23047712.400    94376544.00246
  23732523.660   124715267.17908  23732521.040    97180729.12645
  20905378.580   109858509.09608  20905374.740    85604019.61448
  23376025.560   122841837.84608  23376026.640    95720911.69646
  24180542.300   127069616.63708  24180543.220    99015288.83847
  22521531.500   118351440.46709  22521528.800    92221890.19147
  21683408.560   113947075.94409  21683405.740    88789914.23448
 15 02 06 00 45  0.0000000  0  7G16G18G21G25G27G29G31
  23031205.880   121029810.78309  23031203.160    94308941.81546
  23717770.160   124637737.11808  23717767.660    97120316.12045
  20905437.400   109858818.36808  20905433.620    85604260.61248
  23392610.520   122928991.89708  23392611.480    95788823.90946
  24166320.940   126994883.23808  24166321.800    98957055.08247
  22534643.120   118420342.24609  22534640.460    92275579.88747
  21695647.060   114011389.45109  21695644.140    88840028.62448
 15 02 06 00 45 30.0000000  0  7G16G18G21G25G27G29G31
  23014714.720   120943149.06809  23014711.960    94241413.23146
  23703029.560   124560275.11308  23703027.220    97059956.16345
  20905579.860   109859567.38108  20905576.140    85604844.26448
  23409238.480   123016372.05708  23409239.340    95856912.31246
  24152117.500   126920243.89408  24152118.340    98898894.63446
  22547765.800   118489302.35509  22547763.280    92329314.99847
  21707964.460   114076117.21309  21707961.440    88890465.83548
 15 02 06 00 46  0.0000000  0  7G16G18G21G25G27G29G31
  22998242.780   120856587.51709  22998239.840    94173962.68846
  23688303.140   124482887.65508  23688300.740    96999654.28145
  20905806.680   109860759.57508  20905803.000    85605773.24748
  23425910.100   123103981.43608  23425910.900    95925179.32646
  24137932.700   126845702.68708  24137933.460    98840810.61446
  22560900.320   118558324.88909  22560897.920    92383098.75647
  21720360.880   114141260.81309  21720358.000    88941227.05248
 15 02 06 00 46 30.0000000  0  7G16G18G21G25G27G29G31
  22981789.420   120770123.29409  22981786.180    94106587.97946
  23673590.420   124405572.71508  23673588.240    96939408.93245
  20906116.820   109862389.48008  20906113.200    85607043.31048
  23442624.260   123191814.45808  23442624.980    95993620.62047
  24123765.780   126771254.98808  24123766.540    98782799.47346
  22574045.740   118627404.44309  22574043.400    92436926.96547
  21732835.180   114206813.65009  21732832.460    88992307.16148
 15 02 06 00 47  0.0000000  0  7G16G18G21G25G27G29G31
  22965355.840   120683763.13209  22965352.280    94039294.34446
  23658893.060   124328337.87408  23658890.840    96879225.94945
  20906511.120   109864461.34608  20906507.520    85608657.76048
  23459381.700   123279875.03208  23459382.380    96062239.21646
  24109617.600   126696905.59608  24109618.240    98724864.91846
  22587202.840   118696545.24909  22587200.540    92490802.89447
  21745387.700   114272777.99009  21745385.100    89043707.91148
 15 02 06 00 47 30.0000000  0  7G16G18G21G25G27G29G31
  22948941.960   120597507.75708  22948938.420    93972082.39246
  23644211.360   124251184.77808  23644209.100    96819106.69345
  20906989.220   109866973.57308  20906985.580    85610615.34648
  23476182.100   123368161.33308  23476182.680    96131033.71246
  24095487.860   126622653.58708  24095488.380    98667006.25746
  22600371.300   118765745.93709  22600369.040    92544725.47947
  21758017.920   114339150.46209  21758015.400    89095426.70648
 15 02 06 00 48  0.0000000  0  7G16G18G21G25G27G29G31
  22932547.420   120511354.67508  22932544.000    93904950.12846
  23629544.960   124174112.19508  23629542.660    96759050.17545
  20907550.100   109869920.84408  20907546.380    85612911.92548
  23493024.400   123456668.03108  23493024.960    96199999.94946
  24081375.920   126548494.63908  24081376.420    98609220.05846
  22613550.220   118835001.71809  22613548.000    92598691.00047
  21770724.520   114405924.25809  21770722.100    89147458.19748
 15 02 06 00 48 30.0000000  0  7G16G18G21G25G27G29G31
  22916173.580   120425310.31608  22916170.100    93837902.59946
  23614895.340   124097127.64908  23614892.920    96699062.23145
  20908194.500   109873306.93409  20908190.760    85615550.44448
  23509909.340   123545399.03108  23509909.940    96269140.95846
  24067282.660   126474433.63508  24067283.180    98551510.22446
  22626740.440   118904316.96609  22626738.300    92652702.85947
  21783507.980   114473102.05409  21783505.520    89199804.50348
 15 02 06 00 49  0.0000000  0  7G16G18G21G25G27G29G31
  22899820.480   120339375.56708  22899817.140    93770940.48646
  23600262.540   124020231.92308  23600260.300    96639143.52545
  20908922.100   109877130.09909  20908918.360    85618529.53848
  23526836.500   123634351.79208  23526836.980    96338454.77346
  24053207.580   126400468.95308  24053208.280    98493875.46846
  22639941.600   118973689.47709  22639939.500    92706759.33747
  21796367.640   114540679.79009  21796364.980    89252462.45448
 15 02 06 00 49 30.0000000  0  7G16G18G21G25G27G29G31
  22883488.540   120253551.62909  22883485.280    93704064.69146
  23585647.380   123943428.05608  23585644.840    96579296.36445
  20909732.740   109881389.66208  20909728.880    85621848.67648
  23543805.720   123723525.49508  23543806.120    96407940.74846
  24039150.900   126326600.72708  24039151.700    98436315.82646
  22653153.580   119043119.00809  22653151.480    92760860.23947
  21809303.080   114608654.93709  21809300.240    89305430.07748
 15 02 06 00 50  0.0000000  0  7G16G18G21G25G27G29G31
  22867177.160   120167835.52909  22867174.140    93637272.93946
  23571049.160   123866713.88208  23571046.500    96519519.11245
  20910625.220   109886079.61109  20910621.280    85625503.19448
  23560815.840   123812914.17108  23560816.160    96477594.23846
  24025111.600   126252823.98408  24025112.240    98378827.50346
  22666375.420   119112600.11008  22666373.220    92815001.34147
  21822312.720   114677020.27409  21822309.660    89358701.75148
 15 02 06 00 50 30.0000000  0  7G16G18G21G25G27G29G31
  22850888.720   120082239.80308  22850885.760    93570574.97147
  23556470.380   123790102.19108  23556467.840    96459821.71545
  20911601.420   109891209.67608  20911597.500    85629500.64948
  23577868.720   123902527.38508  23577869.140    96547422.68346
  24011091.640   126179149.23808  24011092.480    98321418.63747
  22679608.980   119182142.96608  22679606.720    92869190.55547
  21835398.080   114745783.95509  21835394.780    89412283.82848
 15 02 06 00 51  0.0000000  0  7G16G18G21G25G27G29G31
  22834621.640   119996755.92009  22834618.720    93503964.15847
  23541909.740   123713585.68208  23541907.360    96400198.48445
  20912659.180   109896768.38908  20912655.340    85633832.11448
  23594962.140   123992353.70308  23594962.700    96617417.19046
  23997089.140   126105566.05308  23997090.140    98264081.13346
  22692852.240   119251736.61209  22692849.980    92923419.33547
  21848556.700   114814932.98309  21848553.220    89466166.17848
 15 02 06 00 51 30.0000000  0  7G16G18G21G25G27G29G31
  22818377.200   119911390.81708  22818374.420    93437445.89847
  23527368.660   123637172.23508  23527366.280    96340655.55145
  20913799.340   109902760.12608  20913795.480    85638500.99648
  23612096.920   124082397.24008  23612097.440    96687580.94546
  23983104.960   126032079.50808  23983106.000    98206818.93447
  22706106.060   119321385.42309  22706103.640    92977691.12147
  21861789.180   114884469.93509  21861785.700    89520350.78548
 15 02 06 00 52  0.0000000  0  7G16G18G21G25G27G29G31
  22802155.480   119826144.75709  22802152.780    93371020.40047
  23512847.360   123560862.50708  23512845.000    96281193.45346
  20915021.440   109909182.37808  20915017.540    85643505.34848
  23629272.560   124172655.22308  23629272.940    96757911.82846
  23969139.080   125958687.94008  23969140.080    98149630.74247
  22719370.080   119391087.65409  22719367.600    93032004.51947
  21875094.720   114954390.68909  21875091.300    89574834.46048
 15 02 06 00 52 30.0000000  0  7G16G18G21G25G27G29G31
  22785956.900   119741020.01409  22785954.140    93304689.42747
  23498346.460   123484660.02308  23498344.260    96221814.93146
  20916325.380   109916034.86808  20916321.500    85648844.95948
  23646488.880   124263127.27508  23646489.280    96828409.48546
  23955191.420   125885391.89008  23955192.280    98092516.97247
  22732644.240   119460843.23908  22732641.700    93086359.50747
  21888472.900   115024693.24209  21888469.620    89629615.64448
 15 02 06 00 53  0.0000000  0  7G16G18G21G25G27G29G31
  22769782.060   119656019.79609  22769779.240    93238455.49847
  23483866.660   123408568.72008  23483864.640    96162523.04645
  20917711.240   109923317.82708  20917707.400    85654519.99648
  23663746.000   124353813.58508  23663746.340    96899074.13046
  23941261.960   125812192.58908  23941262.780    98035478.60447
  22745928.680   119530653.14009  22745926.160    93140756.79747
  21901923.380   115095376.23809  21901920.360    89684693.25048
 15 02 06 00 53 30.0000000  0  7G16G18G21G25G27G29G31
  22753631.080   119571144.98609  22753628.060    93172319.29247
  23469408.340   123332590.31108  23469406.240    96103319.11545
  20919178.780   109931029.65208  20919174.920    85660529.20248
  23681043.500   124444712.31108  23681043.980    96969904.27046
  23927350.840   125739089.25408  23927351.680    97978515.00747
  22759223.220   119600516.17809  22759220.720    93195195.49547
  21915445.720   115166436.32809  21915442.700    89740064.73448
 15 02 06 00 54  0.0000000  0  7G16G18G21G25G27G29G31
  22737503.860   119486395.18709  22737500.700    93106280.49647
  23454971.600   123256724.95108  23454969.540    96044203.28945
  20920727.140   109939166.45208  20920723.280    85666869.56548
  23698380.740   124535819.78808  23698381.300    97040897.07546
  23913457.580   125666079.25208  23913458.220    97921624.14847
  22772527.220   119670429.14008  22772524.680    93249673.10847
  21929038.920   115237868.59609  21929035.860    89795726.23348
 15 02 06 00 54 30.0000000  0  7G16G18G21G25G27G29G31
  22721401.400   119401775.61009  22721398.160    93040343.17847
  23440557.500   123180978.72808  23440555.540    95985180.29345
  20922356.880   109947731.10108  20922353.100    85673543.32048
  23715758.080   124627138.40308  23715758.600    97112054.40646
  23899582.660   125593165.88708  23899582.940    97864808.57647
  22785841.220   119740394.85409  22785838.740    93304191.82347
  21942702.960   115309673.83609  21942699.980    89851678.33648
 15 02 06 00 55  0.0000000  0  7G16G18G21G25G27G29G31
  22705323.700   119317286.04109  22705320.280    92974507.15647
  23426166.320   123105352.67908  23426164.260    95926250.91545
  20924067.420   109956720.63508  20924063.820    85680548.15648
  23733174.920   124718665.11108  23733175.480    97183373.87246
  23885725.900   125520347.28108  23885725.920    97808066.84447
  22799164.920   119810411.49309  22799162.460    93358750.22747
  21956437.040   115381847.44209  21956434.100    89907917.47248
 15 02 06 00 55 30.0000000  0  7G16G18G21G25G27G29G31
  22689271.320   119232929.89109  22689267.780    92908775.10347
  23411798.580   123029850.21908  23411796.420    95867417.87045
  20925858.880   109966135.18108  20925855.320    85687884.16848
  23750631.460   124810399.88508  23750632.000    97254855.49146
  23871887.220   125447624.41408  23871887.200    97751399.71747
  22812498.320   119880479.41108  22812495.980    93413348.57047
  21970241.100   115454387.95909  21970238.020    89964442.54148
 15 02 06 00 56  0.0000000  0  7G16G18G21G25G27G29G31
  22673244.620   119148709.21909  22673241.120    92843148.63247
  23397455.120   122954475.02008  23397452.860    95808683.96545
  20927731.160   109975974.11508  20927727.540    85695550.86648
  23768127.480   124902342.33508  23768128.320    97326498.90346
  23858066.800   125374997.94208  23858066.820    97694807.69447
  22825841.580   119950598.90209  22825839.360    93467987.10847
  21984114.640   115527293.34209  21984111.440    90021251.90748
 15 02 06 00 56 30.0000000  0  7G16G18G21G25G27G29G31
  22657244.100   119064625.65109  22657240.380    92777628.97747
  23383136.340   122879229.28608  23383134.040    95750050.94645
  20929683.980   109986236.35608  20929680.400    85703547.42348
  23785662.840   124994491.01608  23785663.520    97398303.05846
  23844264.760   125302467.53008  23844264.700    97638290.53147
  22839194.540   120020769.33109  22839192.340    93522665.33747
  21998057.100   115600560.76009  21998053.840    90078343.38148
 15 02 06 00 57  0.0000000  0  7G16G18G21G25G27G29G31
  22641269.620   118980679.14209  22641265.860    92712216.14047
  23368842.200   122804113.25008  23368839.800    95691519.00445
  20931716.740   109996918.39308  20931713.180    85711871.08648
  23803236.800   125086842.64708  23803237.500    97470265.33146
  23830480.440   125230030.91508  23830480.640    97581846.46346
  22852556.780   120090988.03409  22852554.440    93577381.17947
  22012067.420   115674185.35209  22012064.360    90135713.16648
 15 02 06 00 57 30.0000000  0  7G16G18G21G25G27G29G31
  22625321.940   118896873.85209  22625318.300    92646913.34347
  23354573.820   122729132.11008  23354571.420    95633092.14645
  20933829.700   110008021.47108  20933826.020    85720522.83548
  23820849.560   125179398.22808  23820850.140    97542386.53846
  23816714.340   125157690.22808  23816714.580    97525477.12745
  22865928.560   120161256.73109  22865926.200    93632135.98847
  22026145.480   115748166.49009  22026142.680    90193360.77848
 15 02 06 00 58  0.0000000  0  7G16G18G21G25G27G29G31
  22609401.440   118813211.29309  22609397.860    92581721.74347
  23340331.500   122654288.01808  23340329.180    95574772.09045
  20936022.600   110019544.57908  20936018.820    85729501.87248
  23838500.920   125272156.40708  23838501.360    97614665.61646
  23802966.380   125085445.17308  23802966.540    97469182.26845
  22879309.660   120231574.44008  22879307.080    93686928.97947
  22040290.840   115822501.51009  22040288.160    90251284.13748
 15 02 06 00 58 30.0000000  0  7G16G18G21G25G27G29G31
  22593508.180   118729692.14809  22593504.620    92516641.92847
  23326115.460   122579582.56808  23326113.100    95516560.07945
  20938294.880   110031485.10708  20938291.000    85738806.18248
  23856190.400   125365114.71508  23856190.600    97687100.64046
  23789236.420   125013294.40008  23789236.500    97412960.90145
  22892699.800   120301939.75909  22892697.180    93741759.08347
  22054502.740   115897186.39409  22054500.240    90309480.12748
 15 02 06 00 59  0.0000000  0  7G16G18G21G25G27G29G31
  22577642.700   118646318.70809  22577639.160    92451675.62047
  23311926.360   122505018.59708  23311923.760    95458458.29345
  20940646.340   110043842.12308  20940642.440    85748435.02248
  23873917.840   125458272.28508  23873917.960    97759690.91846
  23775524.340   124941238.10307  23775524.620    97356813.14946
  22906098.960   120372352.74909  22906096.380    93796626.32247
  22068780.840   115972218.73409  22068778.500    90367946.85448
 15 02 06 00 59 30.0000000  0  7G16G18G21G25G27G29G31
  22561805.680   118563094.98209  22561802.240    92386825.99647
  23297765.080   122430600.94108  23297762.640    95400470.54746
  20943077.260   110056616.91008  20943073.380    85758389.41148
  23891683.400   125551630.08408  23891683.400    97832437.24146
  23761830.700   124869278.35107  23761831.280    97300740.69946
  22919507.540   120442815.25208  22919505.100    93851532.15047
  22083124.940   116047597.89809  22083122.720    90426683.83248
 15 02 06 01 00  0.0000000  0  7G16G18G21G25G27G29G31
  22545997.280   118480022.34609  22545994.000    92322094.09447
  23283632.100   122356331.88008  23283629.720    95342598.57146
  20945587.480   110069808.08408  20945583.640    85768668.24848
  23909486.640   125645186.51308  23909486.600    97905338.31446
  23748155.400   124797414.68707  23748156.300    97244743.10146
  22932925.360   120513326.39808  22932923.140    93906475.86947
  22097534.560   116123320.78409  22097532.320    90485688.66848
 15 02 06 01 00 30.0000000  0  7G16G18G21G25G27G29G31
  22530217.380   118397099.41109  22530214.300    92257478.84847
  23269527.320   122282210.62408  23269524.780    95284841.75946
  20948176.020   110083410.72209  20948172.180    85779267.69848
  23927326.800   125738937.02408  23927326.740    97978390.62546
  23734497.720   124725643.66708  23734498.840    97188817.70647
  22946351.640   120583882.20508  22946349.660    93961454.38947
  22112008.520   116199381.40309  22112006.120    90544956.64848
 15 02 06 01 01  0.0000000  0  7G16G18G21G25G27G29G31
  22514466.920   118314331.18009  22514464.120    92192984.15047
  23255451.620   122208242.66308  23255449.200    95227204.43145
  20950843.140   110097426.34108  20950839.240    85790188.96348
  23945204.220   125832883.11408  23945204.400    98051595.33846
  23720858.420   124653967.98608  23720859.320    97132966.57447
  22959786.920   120654485.01208  22959785.040    94016469.52747
  22126546.800   116275779.61309  22126544.140    90604487.70648
 15 02 06 01 01 30.0000000  0  7G16G18G21G25G27G29G31
  22498746.260   118231719.53509  22498743.600    92128611.46347
  23241405.640   122134430.76808  23241403.460    95169688.70646
  20953588.660   110111854.16408  20953584.740    85801431.43148
  23963118.700   125927023.96308  23963118.860    98124951.81146
  23707237.400   124582387.92408  23707237.900    97077189.91047
  22973231.200   120725134.78308  22973229.320    94071521.25647
  22141148.840   116352513.03909  22141146.040    90664279.96248
 15 02 06 01 02  0.0000000  0  7G16G18G21G25G27G29G31
  22483055.360   118149263.80309  22483052.780    92064360.26047
  23227389.380   122060774.97208  23227387.360    95112294.59846
  20956411.920   110126690.44508  20956408.020    85812992.16848
  23981069.460   126021355.55708  23981069.700    98198456.92246
  23693634.060   124510900.56508  23693634.320    97021485.48547
  22986684.000   120795828.89208  22986682.000    94126607.55147
  22155813.640   116429576.39209  22155810.760    90724329.31048
