     2.11           OBSERVATION DATA    G                   RINEX VERSION / TYPE
SPIDER V4,0,0,3554                      2015 04 15 03:14    PGM / RUN BY / DATE 
CABS                                                        MARKER NAME         
CABS                                                        MARKER NUMBER       
                                                            OBSERVER / AGENCY   
462287              LEICA GRX1200PRO    8.10/2.127          REC # / TYPE / VERS 
103298              LEIAT504                                ANT # / TYPE        
  5116912.3402   671231.6412  3737143.4301                  APPROX POSITION XYZ 
        0.0600        0.0000        0.0000                  ANTENNA: DELTA H/E/N
     1     1                                                WAVELENGTH FACT L1/2
     4    C1    L1    P2    L2                              # / TYPES OF OBSERV 
    30.000                                                  INTERVAL            
  2015    01    24    00    00    0.0000000     GPS         TIME OF FIRST OBS   
  2015    01    24    23    59   30.0000000     GPS         TIME OF LAST OBS    
    16                                                      LEAP SECONDS        
    30                                                      # OF SATELLITES     
   G 1   802   802   802   802                              PRN / # OF OBS      
   G 2   946   946   946   946                              PRN / # OF OBS      
   G 3   846   846   846   846                              PRN / # OF OBS      
   G 4   832   832   832   832                              PRN / # OF OBS      
   G 5   646   646   646   646                              PRN / # OF OBS      
   G 6   838   838   838   838                              PRN / # OF OBS      
   G 7   671   671   671   671                              PRN / # OF OBS      
   G 9   808   808   808   808                              PRN / # OF OBS      
   G10   752   752   752   752                              PRN / # OF OBS      
   G11   771   771   771   771                              PRN / # OF OBS      
   G12   836   836   836   836                              PRN / # OF OBS      
   G13   792   792   792   792                              PRN / # OF OBS      
   G14   949   949   949   949                              PRN / # OF OBS      
   G15   699   699   699   699                              PRN / # OF OBS      
   G16   659   659   659   659                              PRN / # OF OBS      
   G17   941   941   941   941                              PRN / # OF OBS      
   G18   899   899   899   899                              PRN / # OF OBS      
   G19   750   750   750   750                              PRN / # OF OBS      
   G20   827   827   827   827                              PRN / # OF OBS      
   G21   742   742   742   742                              PRN / # OF OBS      
   G22   656   656   656   656                              PRN / # OF OBS      
   G23   755   755   755   755                              PRN / # OF OBS      
   G24   816   816   816   816                              PRN / # OF OBS      
   G25   856   856   856   856                              PRN / # OF OBS      
   G27   793   793   793   793                              PRN / # OF OBS      
   G28   878   878   878   878                              PRN / # OF OBS      
   G29   785   785   785   785                              PRN / # OF OBS      
   G30   718   718   718   718                              PRN / # OF OBS      
   G31   869   869   869   869                              PRN / # OF OBS      
   G32   770   770   770   770                              PRN / # OF OBS      
BIT 2 OF LLI FLAGS DATA COLLECTED UNDER A/S CONDITION       COMMENT             
SNR is mapped to RINEX snr flag value [2-9]                 COMMENT             
Lx:     = 25dBHz -> 1; 26-27dBHz -> 2; 28-31dBHz -> 3       COMMENT             
       32-35dBHz -> 4; 36-38dBHz -> 5; 39-41dBHz -> 6       COMMENT             
       42-44dBHz -> 7; 45-48dBHz -> 8; >=49dBHz -> 9        COMMENT             
                                                            END OF HEADER       
 15 01 24 00 00  0.0000000  0  7G02G12G14G21G25G29G31
  24733748.140   129976741.42206  24733747.520   101280580.10844
  23657351.420   124320292.89307  23657352.680    96872993.41346
  24136793.540   126839697.84706  24136795.300    98836118.41644
  22547058.460   118485622.88508  22547059.440    92326468.68846
  21032696.220   110527614.22509  21032699.860    86125442.06748
  20357466.140   106979300.42109  20357467.460    83360551.39449
  21208081.360   111449219.56009  21208081.920    86843552.01748
 15 01 24 00 00 30.0000000  0  7G02G12G14G21G25G29G31
  24749869.660   130061461.06705  24749869.260   101346595.35544
  23671502.920   124394658.72107  23671504.000    96930940.79746
  24152106.180   126920165.65106  24152108.060    98898820.52845
  22531659.900   118404701.88308  22531660.620    92263413.38946
  21039154.780   110561554.18908  21039158.460    86151888.78948
  20363718.600   107012157.22509  20363719.920    83386154.10449
  21200975.640   111411878.69409  21200976.200    86814455.23648
 15 01 24 00 01  0.0000000  0  7G02G12G14G21G25G29G31
  24766035.000   130146410.36805  24766034.640   101412789.59545
  23685681.500   124469167.72507  23685682.660    96988999.73046
  24167433.380   127000710.41806  24167435.380    98961582.62444
  22516313.140   118324053.53507  22516313.680    92200570.54046
  21045666.140   110595772.08208  21045669.900    86178552.07448
  20370030.340   107045325.51409  20370031.660    83411999.52649
  21193966.000   111375042.83709  21193966.540    86785751.97148
 15 01 24 00 01 30.0000000  0  7G02G12G14G21G25G29G31
  24782243.560   130231586.62106  24782243.160   101479160.68744
  23699887.360   124543820.44607  23699888.580    97047170.66446
  24182774.620   127081328.92606  24182776.680    99024402.21045
  22501018.340   118243679.11007  22501018.840    92137941.13746
  21052230.440   110630268.06408  21052234.300    86205432.04948
  20376400.900   107078803.05109  20376402.220    83438085.91549
  21187052.680   111338713.28409  21187053.240    86757443.22248
 15 01 24 00 02  0.0000000  0  7G02G12G14G21G25G29G31
  24798494.960   130316987.86605  24798494.500   101545707.09545
  23714120.500   124618616.36907  23714121.820    97105453.18946
  24198129.280   127162018.09406  24198131.360    99087276.80445
  22485776.140   118163581.81507  22485776.740    92075527.68446
  21058847.760   110665042.43808  21058851.640    86232528.95048
  20382829.960   107112588.02109  20382831.280    83464411.85949
  21180236.020   111302891.49409  21180236.580    86729530.13548
 15 01 24 00 02 30.0000000  0  6G12G14G21G25G29G31
  23728381.380   124693557.38507  23728382.560    97163848.78345
  24213497.280   127242777.17106  24213499.400    99150205.89045
  22470587.380   118083765.61907  22470588.180    92013333.25946
  21065518.620   110700098.06808  21065522.520    86259845.01948
  20389317.800   107146681.71709  20389319.100    83490978.37549
  21173516.840   111267581.70709  21173517.380    86702016.01448
 15 01 24 00 03  0.0000000  0  6G12G14G21G25G29G31
  23742669.220   124768639.87007  23742670.160    97222354.60645
  24228877.240   127323598.87105  24228879.300    99213183.76444
  22455451.760   118004228.52907  22455452.780    91951356.32046
  21072242.260   110735430.92708  21072246.180    86287377.11548
  20395863.260   107181078.16809  20395864.500    83517780.80649
  21166894.500   111232780.71109  21166895.000    86674898.35048
 15 01 24 00 03 30.0000000  0  6G12G14G21G25G29G31
  23756984.480   124843867.08507  23756985.340    97280973.17445
  24244269.120   127404483.60105  24244271.220    99276210.75545
  22440370.440   117924975.90707  22440371.560    91889601.04446
  21079019.400   110771045.04908  21079023.360    86315128.38048
  20402466.600   107215778.90909  20402467.840    83544820.34549
  21160369.980   111198493.79609  21160370.420    86648181.27348
 15 01 24 00 04  0.0000000  0  6G12G14G21G25G29G31
  23771326.900   124919237.15307  23771327.700    97339703.12045
  24259672.160   127485427.18905  24259674.240    99339283.61344
  22425343.620   117846008.76008  22425344.640    91828068.22347
  21085849.900   110806939.40008  21085853.900    86343097.99948
  20409127.280   107250780.84809  20409128.500    83572094.58549
  21153943.260   111164721.21209  21153943.740    86621864.97248
 15 01 24 00 04 30.0000000  0  6G12G14G21G25G29G31
  23785696.240   124994748.84606  23785697.100    97398543.40646
  24275085.560   127566425.01806  24275087.660    99402398.69645
  22410371.220   117767327.25508  22410372.060    91766757.97647
  21092733.500   110843112.75708  21092737.480    86371285.03648
  20415844.680   107286080.91509  20415845.880    83599601.13549
  21147614.400   111131463.13809  21147614.960    86595949.59248
 15 01 24 00 05  0.0000000  0  6G12G14G21G25G29G31
  23800092.760   125070403.15107  23800093.800    97457494.77445
  24290508.960   127647475.40106  24290511.060    99465554.76345
  22395453.800   117688934.98008  22395454.480    91705673.10046
  21099670.580   110879566.92008  21099674.540    86399690.88248
  20422618.740   107321678.74409  20422619.960    83627339.69949
  21141383.880   111098721.84209  21141384.500    86570436.89348
 15 01 24 00 05 30.0000000  0  6G12G14G21G25G29G31
  23814516.120   125146198.46907  23814517.180    97516556.04645
  24305941.340   127728573.08705  24305943.460    99528747.66845
  22380591.300   117610831.97308  22380591.920    91644813.63346
  21106660.680   110916300.04908  21106664.640    86428314.10148
  20429448.780   107357570.95909  20429450.040    83655307.66149
  21135251.560   111066496.60609  21135252.240    86545326.32048
 15 01 24 00 06  0.0000000  0  6G12G14G21G25G29G31
  23828966.260   125222134.16306  23828967.100    97575726.76045
  24321382.240   127809715.07805  24321384.400    99591975.15344
  22365784.120   117533020.34008  22365784.760    91584181.20846
  21113703.920   110953312.54108  21113707.820    86457154.99748
  20436334.540   107393756.00909  20436335.860    83683503.80049
  21129217.800   111034788.95709  21129218.460    86520619.05948
 15 01 24 00 06 30.0000000  0  6G12G14G21G25G29G31
  23843443.680   125298212.77507  23843444.500    97635008.79145
  24336831.580   127890901.11905  24336833.740    99655236.87545
  22351033.140   117455504.29108  22351033.860    91523779.09446
  21120800.900   110990607.57208  21120804.780    86486216.06148
  20443276.180   107430234.73309  20443277.520    83711928.77249
  21123283.380   111003603.29609  21123284.000    86496318.54248
 15 01 24 00 07  0.0000000  0  6G12G14G21G25G29G31
  23857948.200   125374434.81006  23857949.120    97694402.55445
  24352288.920   127972128.54905  24352290.900    99718530.88044
  22336339.080   117378286.97108  22336339.840    91463609.77646
  21127951.780   111028185.56308  21127955.600    86515497.60448
  20450273.420   107467005.52209  20450274.760    83740581.34149
  21117448.580   110972941.07609  21117449.140    86472425.89848
 15 01 24 00 07 30.0000000  0  6G12G14G21G25G29G31
  23872480.180   125450801.15906  23872481.220    97753908.83246
  24367753.680   128053395.62605  24367755.560    99781855.75444
  22321702.580   117301371.39008  22321703.280    91403675.58347
  21135156.840   111066048.31208  21135160.580    86545001.02948
  20457326.240   107504068.51509  20457327.620    83769461.59949
  21111713.900   110942805.07109  21111714.440    86448943.29548
 15 01 24 00 08  0.0000000  0  6G12G14G21G25G29G31
  23887039.460   125527311.43507  23887040.600    97813527.18645
  24383225.180   128134698.54705  24383227.040    99845208.55244
  22307123.720   117224758.62708  22307124.340    91343977.34747
  21142415.880   111104195.20808  21142419.640    86574725.87748
  20464434.140   107541420.81309  20464435.540    83798567.28649
  21106079.420   110913195.68109  21106079.940    86425871.04648
 15 01 24 00 08 30.0000000  0  6G12G14G21G25G29G31
  23901625.520   125603962.39406  23901626.880    97873255.20245
  24398702.320   128216031.46705  24398704.160    99908584.73744
  22292602.400   117148447.96808  22292602.960    91284514.52147
  21149728.480   111142623.90908  21149732.340    86604670.31048
  20471596.220   107579057.89009  20471597.640    83827894.87649
  21100544.920   110884111.68009  21100545.440    86403208.18748
 15 01 24 00 09  0.0000000  0  6G12G14G21G25G29G31
  23916238.600   125680754.60306  23916240.060    97933093.25045
  24414184.620   128297392.16705  24414186.660    99971982.57244
  22278139.000   117072441.83608  22278139.540    91225288.97047
  21157094.940   111181335.47208  21157098.900    86634835.15248
  20478812.460   107616979.44209  20478813.880    83857444.13549
  21095110.720   110855554.73209  21095111.240    86380956.01848
 15 01 24 00 09 30.0000000  0  6G12G14G21G25G29G31
  23930878.520   125757688.21506  23930880.060    97993041.50746
  24429671.700   128378777.91305  24429674.080   100035399.89845
  22263733.960   116996742.84808  22263734.540    91166302.75547
  21164515.420   111220330.42808  21164519.400    86665220.83548
  20486082.480   107655183.64709  20486083.900    83887213.64249
  21089777.120   110827526.45409  21089777.640    86359115.79748
 15 01 24 00 10  0.0000000  0  6G12G14G21G25G29G31
  23945545.420   125834762.64006  23945546.800    98053099.53345
  24445162.860   128460185.22105  24445165.560   100098834.02243
  22249387.440   116921352.28808  22249388.220    91107556.86747
  21171989.840   111259608.60708  21171993.820    86695827.21048
  20493405.960   107693668.78109  20493407.340    83917202.06249
  21084544.360   110800027.62009  21084544.780    86337688.13349
 15 01 24 00 10 30.0000000  0  6G12G14G21G25G29G31
  23960238.820   125911976.87306  23960240.080    98113266.44245
  24460657.560   128541610.31605  24460660.440   100162282.00945
  22235099.760   116846271.39208  22235100.760    91049052.27247
  21179518.140   111299169.67308  21179522.040    86726654.01348
  20500782.400   107732432.16109  20500783.740    83947407.29749
  21079412.500   110773059.23509  21079412.880    86316673.80548
 15 01 24 00 11  0.0000000  0  6G12G14G21G25G29G31
  23974959.120   125989333.19506  23974960.440    98173544.06845
  24476155.760   128623052.52005  24476158.480   100225743.31344
  22220871.940   116771504.59708  22220873.120    90990792.43047
  21187100.760   111339016.07908  21187104.520    86757703.15248
  20508211.860   107771474.08509  20508213.160    83977829.57349
  21074382.160   110746624.47609  21074382.540    86296075.29148
 15 01 24 00 11 30.0000000  0  6G12G14G21G25G29G31
  23989706.520   126066831.82706  23989707.980    98233932.60346
  24491656.960   128704509.79205  24491659.440   100289216.33844
  22206704.580   116697054.69708  22206705.740    90932779.53947
  21194737.880   111379148.91108  21194741.540    86788975.49348
  20515694.200   107810794.15709  20515695.540    84008468.58949
  21069453.660   110720725.09409  21069454.060    86275893.95248
 15 01 24 00 12  0.0000000  0  6G12G14G21G25G29G31
  24004480.900   126144471.88706  24004482.520    98294431.31545
  24507160.060   128785977.41405  24507162.460   100352697.43844
  22192597.700   116622921.85908  22192598.700    90875013.70647
  21202429.220   111419566.98108  21202432.840    86820470.09548
  20523228.880   107850389.21809  20523230.260    84039321.88149
  21064626.980   110695361.00009  21064627.440    86256129.72049
 15 01 24 00 12 30.0000000  0  6G12G14G21G25G29G31
  24019282.480   126222254.51206  24019284.080    98355041.17445
  24522664.760   128867454.20805  24522667.280   100416185.68344
  22178551.900   116549109.82008  22178552.700    90817497.85447
  21210175.180   111460272.22908  21210178.800    86852188.45948
  20530815.840   107890258.92209  20530817.240    84070389.18149
  21059902.640   110670534.72609  21059903.160    86236784.57048
 15 01 24 00 13  0.0000000  0  5G12G21G25G29G31
  24034112.400   126300186.11807  24034113.880    98415767.09044
  22164568.720   116475627.14508  22164569.380    90760238.64547
  21217977.140   111501271.67408  21217980.760    86884136.07948
  20538456.140   107930408.88109  20538457.540    84101674.86449
  21055282.200   110646254.22309  21055282.760    86217864.70049
 15 01 24 00 13 30.0000000  0  5G12G21G25G29G31
  24048966.600   126378244.38306  24048967.740    98476591.76645
  22150644.240   116402453.49108  22150644.860    90703220.22547
  21225830.840   111542543.35108  21225834.540    86916295.81948
  20546145.200   107970814.94509  20546146.560    84133160.10049
  21050761.700   110622498.71209  21050762.260    86199353.91048
 15 01 24 00 14  0.0000000  0  5G12G21G25G29G31
  24063848.440   126456448.57007  24063849.580    98537530.01445
  22136782.440   116329609.77408  22136783.120    90646458.89747
  21233740.080   111584106.67408  21233743.800    86948682.81648
  20553886.340   108011494.77109  20553887.660    84164858.65749
  21046344.940   110599288.35809  21046345.500    86181267.91849
 15 01 24 00 14 30.0000000  0  5G12G21G25G29G31
  24078756.060   126534787.18106  24078757.080    98598573.10845
  22122981.740   116257087.15208  22122982.500    90589947.77847
  21241702.860   111625951.17108  21241706.600    86981288.91148
  20561677.160   108052435.90109  20561678.480    84196760.84249
  21042030.020   110576613.04509  21042030.560    86163598.84149
 15 01 24 00 15  0.0000000  0  5G12G21G25G29G31
  24093691.160   126613271.37806  24093692.240    98659729.55345
  22109244.620   116184898.43308  22109245.400    90533696.85347
  21249721.220   111668087.91408  21249725.000    87014122.73548
  20569519.400   108093647.31109  20569520.740    84228873.63349
  21037819.220   110554484.97909  21037819.740    86146356.19049
 15 01 24 00 15 30.0000000  0  5G12G21G25G29G31
  24108652.880   126691895.78907  24108654.000    98720995.35245
  22095570.520   116113040.45508  22095571.260    90477703.62947
  21257794.300   111710512.31408  21257798.160    87047180.70148
  20577411.880   108135122.63409  20577413.220    84261192.06749
  21033711.800   110532900.34409  21033712.300    86129536.99049
 15 01 24 00 16  0.0000000  0  5G12G21G25G29G31
  24123641.120   126770659.43806  24123642.120    98782369.68445
  22081959.640   116041514.35908  22081960.300    90421969.02847
  21265922.060   111753223.97908  21265925.960    87080462.50348
  20585354.220   108176859.92509  20585355.580    84293714.62949
  21029707.860   110511859.56009  21029708.360    86113141.57249
 15 01 24 00 16 30.0000000  0  5G12G21G25G29G31
  24138656.060   126849564.49706  24138657.240    98843854.10645
  22068412.680   115970324.27508  22068413.260    90366496.25147
  21274104.880   111796225.09908  21274108.780    87113969.85948
  20593346.480   108218859.27209  20593347.800    84326441.39349
  21025807.940   110491365.46109  21025808.480    86097172.14449
 15 01 24 00 17  0.0000000  0  5G12G21G25G29G31
  24153697.740   126928609.25607  24153698.940    98905447.42945
  22054929.640   115899470.28308  22054930.200    90311285.37147
  21282342.580   111839514.62008  21282346.480    87147701.93748
  20601388.020   108261117.49609  20601389.260    84359369.87749
  21022011.980   110471417.85609  21022012.600    86081628.55649
 15 01 24 00 17 30.0000000  0  5G12G21G25G29G31
  24168764.620   127007785.23606  24168765.740    98967143.03945
  22041509.240   115828946.04408  22041509.900    90256331.43047
  21290633.620   111883084.34808  21290637.540    87181652.36248
  20609476.920   108303624.83909  20609478.120    84392492.47649
  21018318.600   110452009.02109  21018319.220    86066504.78049
 15 01 24 00 18  0.0000000  0  5G12G21G25G29G31
  24183858.860   127087106.52506  24183860.100    99028951.74645
  22028154.580   115758767.57008  22028155.440    90201646.92047
  21298980.760   111926948.74908  21298984.640    87215832.41548
  20617615.620   108346393.99109  20617616.780    84425819.08449
  21014730.720   110433154.42609  21014731.320    86051812.88449
 15 01 24 00 18 30.0000000  0  5G12G21G25G29G31
  24198979.800   127166567.39607  24198981.040    99090869.31846
  22014865.140   115688931.62508  22014866.160    90147229.30647
  21307383.020   111971102.92608  21307386.880    87250238.25148
  20625802.840   108389418.02309  20625804.000    84459344.29749
  21011247.520   110414849.91309  21011248.080    86037549.61949
 15 01 24 00 19  0.0000000  0  5G12G21G25G29G31
  24214126.060   127246160.91006  24214127.260    99152890.25845
  22001639.920   115619432.80608  22001641.000    90093074.39547
  21315839.140   112015540.13608  21315843.020    87284864.63848
  20634036.960   108432688.55209  20634038.140    84493061.59349
  21007867.880   110397089.44409  21007868.360    86023710.29049
 15 01 24 00 19 30.0000000  0  5G12G21G25G29G31
  24229299.820   127325900.19506  24229301.160    99215024.72545
  21988481.860   115550286.54708  21988482.900    90039194.20147
  21324351.700   112060274.10108  21324355.640    87319722.26148
  20642320.200   108476217.27209  20642321.420    84526980.07049
  21004594.400   110379887.02209  21004594.820    86010305.80249
 15 01 24 00 20  0.0000000  0  5G12G21G25G29G31
  24244499.960   127405778.39006  24244501.460    99277267.46045
  21975389.960   115481487.76208  21975390.880    89985584.77547
  21332919.500   112105298.13108  21332923.440    87354805.91648
  20650651.020   108519995.94309  20650652.240    84561093.31149
  21001425.940   110363236.56809  21001426.340    85997331.42249
 15 01 24 00 20 30.0000000  0  5G12G21G25G29G31
  24259726.240   127485793.59906  24259727.760    99339616.96745
  21962364.100   115413036.34008  21962365.000    89932246.02147
  21341542.220   112150610.94308  21341546.220    87390114.59348
  20659028.800   108564021.46109  20659030.020    84595398.91249
  20998362.400   110347137.61209  20998362.800    85984786.77349
 15 01 24 00 21  0.0000000  0  5G12G21G25G29G31
  24274978.080   127565942.59306  24274979.500    99402070.74145
  21949404.120   115344931.22208  21949405.000    89879177.11247
  21350219.440   112196209.82408  21350223.460    87425646.18248
  20667452.620   108608289.09409  20667453.880    84629893.16349
  20995403.440   110331588.18609  20995403.860    85972670.33449
 15 01 24 00 21 30.0000000  0  5G12G21G25G29G31
  24290256.240   127646229.46106  24290257.480    99464631.93344
  21936511.180   115277178.37108  21936512.000    89826382.69347
  21358951.960   112242099.18808  21358955.940    87461404.12048
  20675923.020   108652801.50109  20675924.320    84664578.14849
  20992549.940   110316593.02309  20992550.360    85960985.79249
 15 01 24 00 22  0.0000000  0  5G12G21G25G29G31
  24305560.520   127726653.14406  24305561.500    99527299.71344
  21923685.480   115209778.80508  21923686.220    89773863.55647
  21367739.600   112288278.25108  21367743.540    87497387.80748
  20684439.500   108697555.80309  20684440.800    84699451.63049
  20989801.920   110302152.21709  20989802.360    85949733.21049
 15 01 24 00 22 30.0000000  0  5G12G21G25G29G31
  24320891.060   127807214.58806  24320891.800    99590074.86044
  21910927.540   115142735.33308  21910928.200    89721621.91047
  21376582.620   112334748.33508  21376586.440    87533598.25848
  20693002.060   108742552.23609  20693003.320    84734513.79049
  20987159.740   110288267.66209  20987160.240    85938914.07849
 15 01 24 00 23  0.0000000  0  5G12G21G25G29G31
  24336247.580   127887913.07206  24336248.340    99652956.77745
  21898237.560   115076049.21408  21898238.200    89669658.71347
  21385480.960   112381509.43208  21385484.720    87570035.46348
  20701610.380   108787789.09509  20701611.600    84769763.28649
  20984623.520   110274939.65509  20984624.020    85928528.61649
 15 01 24 00 23 30.0000000  0  5G12G21G25G29G31
  24351630.260   127968749.64606  24351631.180    99715946.28545
  21885616.260   115009724.07408  21885616.940    89617976.80047
  21394435.020   112428563.46908  21394438.780    87606700.93648
  20710264.380   108833266.13308  20710265.580    84805199.93449
  20982193.680   110262170.56209  20982194.140    85918578.66949
 15 01 24 00 24  0.0000000  0  5G12G21G25G29G31
  24367038.940   128049723.01107  24367040.000    99779042.42945
  21873063.540   114943759.25008  21873064.240    89566575.64547
  21403444.460   112475908.50908  21403448.240    87643593.17148
  20718963.340   108878979.53409  20718964.560    84840820.76449
  20979869.960   110249959.17609  20979870.360    85909063.29849
 15 01 24 00 24 30.0000000  0  5G12G21G25G29G31
  24382472.900   128130828.75006  24382473.940    99842241.73345
  21860579.020   114878152.86508  21860579.780    89515453.79547
  21412508.600   112523541.08108  21412512.460    87680709.46248
  20727706.300   108924924.41608  20727707.580    84876621.96449
  20977651.780   110238302.63509  20977652.200    85899980.27949
 15 01 24 00 25  0.0000000  0  5G12G21G25G29G31
  24397933.140   128212072.80206  24397934.160    99905548.80545
  21848164.280   114812913.16108  21848165.080    89464617.67147
  21421628.740   112571467.88708  21421632.660    87718055.01748
  20736494.180   108971105.37108  20736495.540    84912607.12349
  20975540.520   110227207.92809  20975540.940    85891335.04849
 15 01 24 00 25 30.0000000  0  5G12G21G25G29G31
  24413419.620   128293455.12906  24413420.640    99968963.60045
  21835819.660   114748041.78908  21835820.460    89414068.57447
  21430804.940   112619689.15108  21430808.900    87755630.01848
  20745326.800   109017521.59408  20745328.240    84948775.59649
  20973536.300   110216675.84709  20973536.760    85883128.23049
 15 01 24 00 26  0.0000000  0  5G12G21G25G29G31
  24428931.700   128374972.14006  24428932.820   100032483.30644
  21823544.700   114683536.55208  21823545.500    89363804.77747
  21440036.540   112668201.23508  21440040.440    87793431.64048
  20754203.180   109064167.24408  20754204.620    84985122.85048
  20971638.500   110206703.16109  20971639.000    85875357.30149
 15 01 24 00 26 30.0000000  0  5G12G21G25G29G31
  24444469.100   128456621.74206  24444470.240   100096106.33745
  21811339.460   114619397.68808  21811340.240    89313826.45047
  21449323.260   112717002.85408  21449327.060    87831458.87048
  20763122.760   109111039.74309  20763124.160    85021646.86748
  20969847.020   110197289.03609  20969847.520    85868021.61949
 15 01 24 00 27  0.0000000  0  5G12G21G25G29G31
  24460031.940   128538404.32406  24460032.940   100159833.01245
  21799204.400   114555627.40408  21799205.100    89264135.33447
  21458665.220   112766094.77608  21458668.880    87869712.31748
  20772085.280   109158137.75908  20772086.640    85058346.62449
  20968162.080   110188434.64809  20968162.600    85861122.09449
 15 01 24 00 27 30.0000000  0  5G12G21G25G29G31
  24475620.620   128620322.87606  24475621.500   100223665.66845
  21787140.340   114492230.25708  21787140.920    89214734.96547
  21468063.060   112815480.53808  21468066.640    87908194.73148
  20781091.100   109205463.30808  20781092.380    85095223.66949
  20966584.420   110180143.75509  20966584.920    85854661.65449
 15 01 24 00 28  0.0000000  0  5G12G21G25G29G31
  24491235.080   128702377.42206  24491235.880   100287604.27045
  21775147.780   114429209.01608  21775148.340    89165627.52547
  21477516.940   112865160.79408  21477520.440    87946906.61548
  20790140.040   109253015.57708  20790141.260    85132277.37948
  20965114.220   110172417.62509  20965114.700    85848641.28749
 15 01 24 00 28 30.0000000  0  5G12G21G25G29G31
  24506874.820   128784565.19406  24506875.600   100351646.65944
  21763226.420   114366561.99808  21763226.980    89116811.68847
  21487026.260   112915132.66608  21487029.760    87985845.73448
  20799231.160   109300789.69608  20799232.360    85169503.96149
  20963751.000   110165253.71109  20963751.460    85843059.01549
 15 01 24 00 29  0.0000000  0  5G12G21G25G29G31
  24522539.580   128866883.75306  24522540.360   100415790.98044
  21751376.260   114304288.83808  21751376.840    89068287.16147
  21496590.620   112965394.18708  21496594.200    88025010.54748
  20808363.880   109348782.23209  20808365.020    85206900.73849
  20962494.420   110158650.27809  20962494.860    85837913.47649
 15 01 24 00 29 30.0000000  0  5G12G21G25G29G31
  24538230.000   128949337.56706  24538230.800   100480040.72144
  21739598.400   114242395.51908  21739599.000    89020058.60548
  21506211.020   113015950.20908  21506214.660    88064404.84648
  20817538.840   109396996.71809  20817539.920    85244470.46948
  20961345.480   110152612.72909  20961345.980    85833208.88449
 15 01 24 00 30  0.0000000  0  5G12G21G25G29G31
  24553945.520   129031923.12406  24553946.280   100544393.07944
  21727892.540   114180880.66508  21727893.160    88972124.95947
  21515886.880   113066797.72408  21515890.560    88104026.27248
  20826755.080   109445428.30909  20826756.140    85282209.36248
  20960303.600   110147138.05909  20960304.200    85828942.90449
 15 01 24 00 30 30.0000000  0  5G12G21G25G29G31
  24569686.840   129114644.65506  24569687.720   100608851.40145
  21716259.800   114119750.23708  21716260.480    88924490.86648
  21525619.200   113117941.61308  21525622.940    88143878.63748
  20836013.200   109494080.10608  20836014.260    85320119.85049
  20959369.900   110142231.65809  20959370.580    85825119.73049
 15 01 24 00 31  0.0000000  0  5G12G21G25G29G31
  24585453.020   129197496.53206  24585453.880   100673411.30145
  21704699.580   114059000.93208  21704700.300    88877153.76148
  21535407.100   113169376.95208  21535410.840    88183958.10348
  20845312.020   109542945.79808  20845313.120    85358197.01949
  20958543.500   110137888.87409  20958544.180    85821735.73849
 15 01 24 00 31 30.0000000  0  5G12G21G25G29G31
  24601244.140   129280479.50206  24601244.980   100738073.33745
  21693212.280   113998634.73108  21693212.980    88830115.17348
  21545250.560   113221104.41508  21545254.340    88224265.19948
  20854651.320   109592024.37908  20854652.480    85396440.06949
  20957824.600   110134110.78909  20957825.240    85818791.77449
 15 01 24 00 32  0.0000000  0  5G12G21G25G29G31
  24617059.940   129363591.68706  24617060.780   100802836.07245
  21681797.840   113938651.43608  21681798.520    88783374.95848
  21555149.240   113273122.36708  21555153.120    88264798.65548
  20864030.640   109641312.98608  20864031.800    85434846.77048
  20957212.880   110130895.90809  20957213.460    85816286.66649
 15 01 24 00 32 30.0000000  0  5G12G21G25G29G31
  24632901.260   129446838.90806  24632902.220   100867704.03545
  21670457.780   113879059.16308  21670458.440    88736939.43948
  21565104.460   113325437.70808  21565108.500    88305563.85748
  20873450.800   109690816.32108  20873451.960    85473420.79549
  20956709.640   110128251.15909  20956710.160    85814225.81949
 15 01 24 00 33  0.0000000  0  5G12G21G25G29G31
  24648767.540   129530217.49506  24648768.660   100932674.33445
  21659191.660   113819855.46108  21659192.300    88690806.70448
  21575115.480   113378046.40708  21575119.660    88346557.64248
  20882910.820   109740529.09609  20882911.980    85512158.01649
  20956314.140   110126172.76909  20956314.660    85812606.28549
 15 01 24 00 33 30.0000000  0  5G12G21G25G29G31
  24664658.080   129613722.81706  24664659.220   100997743.41844
  21647999.000   113761037.76708  21647999.660    88644974.74548
  21585181.600   113430944.30908  21585185.780    88387776.77448
  20892409.720   109790446.10808  20892410.880    85551054.39149
  20956025.700   110124656.92509  20956026.200    85811425.10249
 15 01 24 00 34  0.0000000  0  5G12G21G25G29G31
  24680574.020   129697361.26306  24680575.100   101062916.22244
  21636881.500   113702614.91008  21636882.140    88599450.45148
  21595304.300   113484138.94408  21595308.340    88429227.13348
  20901948.540   109840572.84808  20901949.700    85590114.18848
  20955845.800   110123711.47909  20955846.300    85810688.38549
 15 01 24 00 34 30.0000000  0  5G12G21G25G29G31
  24696514.140   129781126.15006  24696514.980   101128187.58144
  21625837.980   113644581.06508  21625838.640    88554229.28048
  21605482.220   113537623.49908  21605486.080    88470903.40148
  20911525.720   109890901.21608  20911526.900    85629331.09249
  20955773.160   110123329.82109  20955773.700    85810390.98949
 15 01 24 00 35  0.0000000  0  5G12G21G25G29G31
  24712479.280   129865022.31606  24712480.020   101193561.19245
  21614869.800   113586942.99308  21614870.460    88509316.50648
  21615716.220   113591403.09408  21615720.000    88512809.56648
  20921141.840   109941434.35708  20921143.060    85668707.55249
  20955808.720   110123516.91109  20955809.300    85810536.76549
 15 01 24 00 35 30.0000000  0  5G12G21G25G29G31
  24728468.800   129949047.56906  24728469.500   101259035.40345
  21603976.720   113529699.76808  21603977.420    88464711.41048
  21626005.940   113645475.90808  21626009.740    88554944.21948
  20930796.420   109992169.72708  20930797.700    85708241.59648
  20955952.200   110124271.12709  20955952.840    85811124.46649
 15 01 24 00 36  0.0000000  0  5G12G21G25G29G31
  24744482.660   130033200.97906  24744483.440   101324609.44445
  21593159.140   113472853.16908  21593159.860    88420415.36648
  21636351.360   113699841.84408  21636355.260    88597307.28348
  20940489.120   110043105.25708  20940490.420    85747931.61148
  20956203.660   110125592.45609  20956204.300    85812154.06449
 15 01 24 00 36 30.0000000  0  4G21G25G29G31
  21582419.460   113416415.72008  21582420.180    88376438.14548
  21646754.740   113754512.40508  21646758.700    88639907.73348
  20950221.840   110094251.11208  20950223.160    85787785.52048
  20956565.280   110127492.46609  20956565.880    85813634.58649
 15 01 24 00 37  0.0000000  0  4G21G25G29G31
  21571756.640   113360382.18908  21571757.360    88332775.66948
  21657214.840   113809481.03808  21657218.840    88682740.42848
  20959993.140   110145599.69008  20959994.480    85827797.38848
  20957035.840   110129965.03409  20957036.400    85815561.25649
 15 01 24 00 37 30.0000000  0  4G21G25G29G31
  21561165.640   113304725.89808  21561166.340    88289407.14348
  21667726.320   113864719.26208  21667730.280    88725783.17948
  20969797.140   110197120.21008  20969798.520    85867943.23848
  20957609.900   110132981.54309  20957610.400    85817911.77849
 15 01 24 00 38  0.0000000  0  4G21G25G29G31
  21550650.900   113249470.29308  21550651.540    88246350.83648
  21678293.480   113920249.63908  21678297.320    88769053.59148
  20979638.040   110248834.63008  20979639.460    85908240.17748
  20958291.780   110136564.48409  20958292.200    85820703.67249
 15 01 24 00 38 30.0000000  0  4G21G25G29G31
  21540215.840   113194633.43808  21540216.440    88203620.82948
  21688919.380   113976088.97908  21688923.140    88812564.76148
  20989518.800   110300758.28808  20989520.220    85948700.16448
  20959084.660   110140730.93609  20959085.040    85823950.25449
 15 01 24 00 39  0.0000000  0  4G21G25G29G31
  21529857.000   113140197.53508  21529857.620    88161203.24048
  21699600.440   114032218.29708  21699604.140    88856301.87748
  20999435.420   110352870.37808  20999436.840    85989306.97748
  20959984.900   110145461.75009  20959985.280    85827636.59949
 15 01 24 00 39 30.0000000  0  4G21G25G29G31
  21519576.000   113086170.69608  21519576.640    88119104.40948
  21710337.900   114088644.08808  21710341.600    88900270.02048
  21009388.880   110405175.89208  21009390.260    86030064.51448
  20960993.720   110150763.46609  20960994.160    85831767.80449
 15 01 24 00 40  0.0000000  0  4G21G25G29G31
  21509373.140   113032554.46308  21509373.780    88077325.53048
  21721131.860   114145366.84108  21721135.580    88944469.56347
  21019379.160   110457674.81308  21019380.480    86070972.76548
  20962111.280   110156636.60109  20962111.800    85836344.26549
 15 01 24 00 40 30.0000000  0  4G21G25G29G31
  21499248.000   112979346.46908  21499248.600    88035864.76448
  21731981.620   114202382.89808  21731985.360    88988897.66448
  21029405.140   110510361.53608  21029406.420    86112027.34848
  20963336.860   110163077.27009  20963337.440    85841362.96249
 15 01 24 00 41  0.0000000  0  4G21G25G29G31
  21489200.120   112926544.55608  21489200.700    87994720.42848
  21742886.520   114259688.91508  21742890.360    89033551.68748
  21039465.980   110563231.38908  21039467.200    86153224.64648
  20964669.880   110170082.50809  20964670.500    85846821.57449
 15 01 24 00 41 30.0000000  0  4G21G25G29G31
  21479227.380   112874137.49008  21479227.940    87953883.75248
  21753844.300   114317272.40108  21753848.220    89078421.91848
  21049559.040   110616270.96708  21049560.300    86194554.18348
  20966107.900   110177639.38309  20966108.540    85852710.04649
 15 01 24 00 42  0.0000000  0  4G21G25G29G31
  21469331.200   112822133.02908  21469331.840    87913360.80148
  21764856.180   114375139.87408  21764860.160    89123513.43948
  21059685.320   110669485.09008  21059686.640    86236019.73148
  20967652.160   110185754.47209  20967652.800    85859033.48049
 15 01 24 00 42 30.0000000  0  4G21G25G29G31
  21459512.900   112770537.88708  21459513.640    87873156.79648
  21775923.260   114433297.26508  21775927.280    89168830.86648
  21069845.660   110722878.33408  21069847.040    86277624.85348
  20969303.780   110194433.64609  20969304.400    85865796.47149
 15 01 24 00 43  0.0000000  0  4G21G25G29G31
  21449775.740   112719368.93408  21449776.520    87833284.89348
  21787048.300   114491759.05908  21787052.360    89214385.49048
  21080042.640   110776463.86008  21080044.000    86319379.80648
  20971065.440   110203691.14009  20971066.060    85873010.09449
 15 01 24 00 43 30.0000000  0  4G21G25G29G31
  21440119.180   112668623.41108  21440119.960    87793742.93748
  21798230.600   114550521.59408  21798234.620    89260174.46548
  21090275.360   110830237.27408  21090276.740    86361281.16548
  20972936.460   110213523.19909  20972937.060    85880671.43049
 15 01 24 00 44  0.0000000  0  4G21G25G29G31
  21430542.060   112618295.32108  21430542.840    87754526.25848
  21809468.760   114609578.06308  21809472.740    89306192.48148
  21100542.240   110884190.30508  21100543.640    86403322.48648
  20974915.500   110223922.99509  20974916.080    85888775.16249
 15 01 24 00 44 30.0000000  0  4G21G25G29G31
  21421044.300   112568384.11908  21421045.040    87715634.42048
  21820762.560   114668926.87008  21820766.480    89352438.29748
  21110842.700   110938319.95308  21110844.160    86445501.42948
  20977002.220   110234888.66209  20977002.780    85897319.82749
 15 01 24 00 45  0.0000000  0  4G21G25G29G31
  21411627.180   112518896.69108  21411627.880    87677072.79848
  21832112.960   114728573.33608  21832116.840    89398916.05248
  21121177.580   110992630.37708  21121179.100    86487821.23748
  20979197.560   110246425.31509  20979198.140    85906309.42049
 15 01 24 00 45 30.0000000  0  4G21G25G29G31
  21402290.400   112469831.43408  21402291.080    87638840.13648
  21843519.460   114788514.92408  21843523.320    89445623.76548
  21131546.180   111047117.86408  21131547.760    86530279.01948
  20981501.060   110258530.36009  20981501.640    85915741.91949
 15 01 24 00 46  0.0000000  0  4G21G25G29G31
  21393032.880   112421182.76408  21393033.560    87600932.08448
  21854980.760   114848744.72808  21854984.600    89492556.06748
  21141946.920   111101774.25608  21141948.580    86572868.41348
  20983911.400   110271196.75009  20983911.960    85925611.82549
 15 01 24 00 46 30.0000000  0  4G21G25G29G31
  21383855.900   112372957.30108  21383856.560    87563353.80548
  21866497.920   114909268.15908  21866501.740    89539717.17448
  21152380.580   111156603.65908  21152382.320    86615592.62848
  20986429.520   110284429.44509  20986430.060    85935923.01049
 15 01 24 00 47  0.0000000  0  4G21G25G29G31
  21374759.640   112325156.04508  21374760.280    87526106.08448
  21878070.900   114970084.95708  21878074.740    89587106.88148
  21162846.960   111211604.60508  21162848.680    86658450.50848
  20989055.300   110298227.99309  20989055.860    85946675.11949
 15 01 24 00 47 30.0000000  0  4G21G25G29G31
  21365743.100   112277773.84508  21365743.700    87489184.89348
  21889698.620   115031189.36708  21889702.500    89634720.70748
  21173344.720   111266770.33808  21173346.380    86701436.78948
  20991787.640   110312586.44009  20991788.200    85957863.51149
 15 01 24 00 48  0.0000000  0  4G21G25G29G31
  21356807.280   112230815.79308  21356807.840    87452594.20648
  21901381.760   115092584.77408  21901385.660    89682561.27347
  21183874.360   111322103.54608  21183875.940    86744553.57748
  20994627.080   110327507.87409  20994627.680    85969490.60049
 15 01 24 00 48 30.0000000  0  4G21G25G29G31
  21347953.060   112184286.59008  21347953.620    87416337.68848
  21913120.920   115154274.66808  21913124.880    89730631.31247
  21194436.180   111377606.03808  21194437.700    86787802.28648
  20997574.260   110342995.41209  20997574.880    85981558.80449
 15 01 24 00 49  0.0000000  0  4G21G25G29G31
  21339180.200   112138184.97108  21339180.760    87380414.34848
  21924915.660   115216256.92108  21924919.740    89778929.16547
  21205029.600   111433274.73608  21205031.080    86831180.50148
  21000628.720   110359046.58909  21000629.360    85994066.20849
 15 01 24 00 49 30.0000000  0  4G21G25G29G31
  21330487.380   112092504.05908  21330487.940    87344818.83648
  21936764.600   115278523.80408  21936768.720    89827448.81148
  21215653.000   111489100.91408  21215654.480    86874681.41748
  21003788.920   110375653.42909  21003789.540    86007006.59949
 15 01 24 00 50  0.0000000  0  4G21G25G29G31
  21321874.940   112047245.70208  21321875.560    87309552.58448
  21948667.860   115341075.76608  21948671.940    89876190.59347
  21226306.260   111545083.91308  21226307.720    86918304.53548
  21007054.940   110392816.30609  21007055.560    86020380.26149
 15 01 24 00 50 30.0000000  0  4G21G25G29G31
  21313345.260   112002422.24608  21313345.960    87274625.22248
  21960627.500   115403923.76508  21960631.460    89925163.05747
  21236991.220   111601233.48408  21236992.620    86962057.44948
  21010428.660   110410545.52409  21010429.300    86034195.22849
 15 01 24 00 51  0.0000000  0  4G21G25G29G31
  21304897.060   111958026.72408  21304897.820    87240031.31048
  21972642.020   115467060.11008  21972645.860    89974360.20547
  21247706.180   111657540.70608  21247707.520    87005933.19848
  21013908.640   110428832.94809  21013909.280    86048445.16349
 15 01 24 00 51 30.0000000  0  4G21G25G29G31
  21296531.720   111914066.44208  21296532.500    87205776.55448
  21984712.580   115530490.85808  21984716.300    90023786.75847
  21258452.140   111714010.94608  21258453.420    87049935.97948
  21017495.960   110447684.56009  21017496.620    86063134.72649
 15 01 24 00 52  0.0000000  0  4G21G25G29G31
  21288248.560   111870537.99008  21288249.320    87171858.28548
  21996838.280   115594211.55008  21996841.940    90073439.24147
  21269228.060   111770638.79308  21269229.300    87094061.56248
  21021189.700   110467095.30309  21021190.360    86078259.97249
 15 01 24 00 52 30.0000000  0  4G21G25G29G31
  21280048.700   111827446.96708  21280049.380    87138280.87348
  22009019.980   115658226.70508  22009023.660    90123321.17247
  21280034.640   111827427.82308  21280035.860    87138312.74348
  21024990.620   110487069.37709  21024991.280    86093824.18049
 15 01 24 00 53  0.0000000  0  4G21G25G29G31
  21271931.560   111784790.78808  21271932.160    87105042.30048
  22021256.900   115722532.60008  22021260.680    90173429.65447
  21290871.000   111884373.23208  21290872.200    87182685.78148
  21028897.940   110507602.54309  21028898.620    86109824.03949
 15 01 24 00 53 30.0000000  0  4G21G25G29G31
  21263896.800   111742567.56008  21263897.320    87072141.08848
  22033548.580   115787126.34508  22033552.500    90223762.43847
  21301736.320   111941471.05808  21301737.540    87227177.58548
  21032911.020   110528691.51809  21032911.740    86126257.00649
 15 01 24 00 54  0.0000000  0  5G16G21G25G29G31
  24573137.080   129132707.78606  24573137.680   100622890.22245
  21255943.920   111700774.85508  21255944.420    87039575.35048
  22045894.520   115852004.90308  22045898.500    90274317.14847
  21312629.780   111998716.64708  21312630.960    87271784.52448
  21037029.220   110550332.64209  21037029.940    86143120.21449
 15 01 24 00 54 30.0000000  0  5G16G21G25G29G31
  24555827.460   129041745.71506  24555828.400   100552010.72345
  21248064.080   111659366.34708  21248064.600    87007308.99048
  22058285.580   115917120.00008  22058289.540    90325056.16648
  21323542.220   112056061.93508  21323543.380    87316469.15448
  21041243.260   110572477.39309  21041243.960    86160375.86449
 15 01 24 00 55  0.0000000  0  5G16G21G25G29G31
  24538525.360   128950823.34906  24538526.420   100481162.15145
  21240278.520   111618453.42908  21240279.100    86975428.80248
  22070742.760   115982582.42108  22070746.640    90376065.84147
  21334494.400   112113616.25808  21334495.600    87361316.66848
  21045574.040   110595235.83209  21045574.780    86178109.70949
 15 01 24 00 55 30.0000000  0  5G16G21G25G29G31
  24521218.520   128859875.47806  24521219.700   100410293.66944
  21232574.840   111577970.56408  21232575.420    86943883.72148
  22083253.320   116048325.57408  22083257.180    90427294.25547
  21345473.520   112171312.51208  21345474.800    87406274.78148
  21050008.880   110618540.98209  21050009.600    86196269.56149
 15 01 24 00 56  0.0000000  0  5G16G21G25G29G31
  24503908.360   128768909.88405  24503909.560   100339411.40944
  21224954.360   111537924.66908  21224954.920    86912679.13148
  22095818.500   116114356.04308  22095822.480    90478746.55348
  21356480.700   112229155.96408  21356482.060    87451347.60348
  21054548.940   110642399.01609  21054549.600    86214860.23649
 15 01 24 00 56 30.0000000  0  5G16G21G25G29G31
  24486595.420   128677929.92506  24486596.540   100268517.96344
  21217417.740   111498319.31608  21217418.300    86881817.82648
  22108438.660   116180675.82808  22108442.820    90530424.29548
  21367516.140   112287147.72208  21367517.540    87496535.98048
  21059194.460   110666811.18109  21059195.080    86233882.69349
 15 01 24 00 57  0.0000000  0  5G16G21G25G29G31
  24469279.540   128586934.46606  24469280.520   100197612.42745
  21209964.680   111459153.17708  21209965.220    86851298.76948
  22121113.340   116247282.15708  22121117.560    90582325.31647
  21378579.140   112345284.16308  21378580.540    87541837.10348
  21063944.840   110691774.45709  21063945.420    86253334.59349
 15 01 24 00 57 30.0000000  0  5G16G21G25G29G31
  24451960.920   128495924.85406  24451961.860   100126695.87743
  21202595.360   111420427.03108  21202595.860    86821122.55748
  22133842.660   116314175.31708  22133846.840    90634449.84047
  21389669.680   112403565.12408  21389671.060    87587250.83648
  21068799.960   110717288.14809  21068800.500    86273215.38349
 15 01 24 00 58  0.0000000  0  5G16G21G25G29G31
  24434639.680   128404901.79805  24434640.660   100055768.83943
  21195309.840   111382141.45708  21195310.340    86791289.65548
  22146626.520   116381354.67608  22146630.520    90686797.37647
  21400787.280   112461988.12808  21400788.620    87632775.25348
  21073759.600   110743351.15409  21073760.120    86293524.21649
 15 01 24 00 58 30.0000000  0  5G16G21G25G29G31
  24417316.180   128313866.63305  24417317.140    99984832.36944
  21188108.280   111344297.09308  21188108.800    86761800.54248
  22159464.840   116448820.00308  22159468.640    90739367.74947
  21411931.980   112520553.40108  21411933.240    87678410.52948
  21078823.720   110769963.16809  21078824.240    86314260.84749
 15 01 24 00 59  0.0000000  0  5G16G21G25G29G31
  24399990.580   128222819.89605  24399991.480    99913886.88844
  21180990.700   111306894.05008  21180991.260    86732655.32448
  22172357.420   116516570.50108  22172361.060    90792160.33247
  21423103.380   112579258.98908  21423104.560    87724155.13948
  21083991.900   110797122.22709  21083992.460    86335423.74849
 15 01 24 00 59 30.0000000  0  5G16G21G25G29G31
  24382663.040   128131755.17106  24382664.620    99842936.06344
  21173956.980   111269931.69408  21173957.600    86703853.49248
  22185303.880   116584604.46608  22185307.460    90845173.79547
  21434300.880   112638102.03108  21434302.020    87770006.85048
  21089263.700   110824826.02009  21089264.380    86357011.11549
 15 01 24 01 00  0.0000000  0  5G16G21G25G29G31
  24365334.720   128040695.14606  24365336.200    99771980.21544
  21167008.980   111233419.65208  21167009.640    86675402.55548
  22198305.900   116652931.06208  22198309.640    90898415.29847
  21445526.060   112697090.75308  21445527.200    87815972.09348
  21094640.900   110853083.59909  21094641.640    86379030.00749
 15 01 24 01 00 30.0000000  0  5G16G21G25G29G31
  24348004.240   127949623.33706  24348005.520    99701015.15445
  21160144.740   111197347.67508  21160145.360    86647294.52748
  22211361.340   116721538.34608  22211365.280    90951875.51847
  21456776.600   112756212.99408  21456777.780    87862041.36248
  21100120.940   110881881.59209  21100121.720    86401469.99649
 15 01 24 01 01  0.0000000  0  5G16G21G25G29G31
  24330672.520   127858544.52906  24330673.720    99630044.68544
  21153364.840   111161718.98608  21153365.440    86619531.91648
  22224470.760   116790429.20408  22224474.860    91005556.70247
  21468052.920   112815470.94408  21468054.220    87908216.38248
  21105704.300   110911222.54209  21105705.120    86424333.06549
 15 01 24 01 01 30.0000000  0  5G16G21G25G29G31
  24313339.720   127767459.88706  24313340.900    99559069.65246
  21146669.520   111126534.92408  21146670.120    86592115.77048
  22237634.240   116859603.87408  22237638.420    91059459.02847
  21479354.920   112874863.93108  21479356.360    87954496.62348
  21111390.960   110941106.04709  21111391.780    86447618.90849
 15 01 24 01 02  0.0000000  0  5G16G21G25G29G31
  24296006.000   127676370.60205  24296007.240    99488091.01545
  21140058.900   111091796.23908  21140059.540    86565046.66848
  22250851.800   116929061.95108  22250855.820    91113582.19247
  21490682.520   112934390.88108  21490683.980    88000881.26048
  21117180.700   110971531.01809  21117181.460    86471326.66549
 15 01 24 01 02 30.0000000  0  5G16G21G25G29G31
  24278671.840   127585278.89306  24278673.140    99417110.47045
  21133533.320   111057504.41808  21133534.000    86538325.78448
  22264123.380   116998803.98908  22264127.260    91167926.62347
  21502035.580   112994051.47208  21502037.020    88047370.03848
  21123073.420   111002497.28209  21123074.160    86495456.21149
 15 01 24 01 03  0.0000000  0  5G16G21G25G29G31
  24261337.560   127494187.00405  24261338.940    99346129.79646
  21127093.060   111023660.87008  21127093.760    86511954.19848
  22277449.040   117068830.67308  22277452.840    91222492.85447
  21513414.100   113053845.78508  21513415.500    88093963.00148
  21129069.140   111034004.87409  21129069.840    86520007.57149
 15 01 24 01 03 30.0000000  0  5G16G21G25G29G31
  24244003.040   127403093.88405  24244004.560    99275148.18745
  21120737.820   110990263.93208  21120738.520    86485930.61648
  22290828.340   117139139.58708  22290832.140    91277279.00947
  21524817.420   113113770.60808  21524818.820    88140657.66648
  21135167.260   111066050.63009  21135167.960    86544978.28649
 15 01 24 01 04  0.0000000  0  5G16G21G25G29G31
  24226668.620   127312001.20705  24226670.100    99204166.91745
  21114467.720   110957314.41008  21114468.420    86460255.66448
  22304261.220   117209730.48108  22304265.140    91332284.88647
  21536245.440   113173825.58408  21536246.920    88187453.74148
  21141367.580   111098633.43109  21141368.280    86570367.47449
 15 01 24 01 04 30.0000000  0  5G16G21G25G29G31
  24209334.500   127220910.21505  24209335.940    99133186.95244
  21108282.860   110924812.73108  21108283.560    86434929.68648
  22317747.740   117280603.07708  22317751.800    91387510.27147
  21547697.980   113234009.26908  21547699.480    88234350.12148
  21147669.860   111131752.23609  21147670.600    86596174.32649
 15 01 24 01 05  0.0000000  0  5G16G21G25G29G31
  24192000.620   127129820.88805  24192002.180    99062208.26244
  21102183.140   110892758.46508  21102183.800    86409952.34848
  22331287.660   117351755.75508  22331291.760    91442953.91647
  21559174.660   113294319.79808  21559176.140    88281345.33448
  21154073.680   111165404.80309  21154074.480    86622397.09749
 15 01 24 01 05 30.0000000  0  5G16G21G25G29G31
  24174667.020   127038732.25806  24174668.520    98991230.15244
  21096168.240   110861149.82808  21096168.840    86385322.24848
  22344880.540   117423186.05708  22344884.580    91498613.88547
  21570674.900   113354754.02708  21570676.400    88328436.92948
  21160578.460   111199587.78409  21160579.300    86649033.18449
 15 01 24 01 06  0.0000000  0  5G16G21G25G29G31
  24157334.680   126947650.00206  24157336.040    98920256.96145
  21090239.040   110829991.62708  21090239.600    86361043.14348
  22358526.980   117494897.95508  22358530.940    91554493.28547
  21582199.280   113415314.90608  21582200.740    88375627.22048
  21167184.840   111234304.37109  21167185.640    86676085.06349
 15 01 24 01 06 30.0000000  0  5G16G21G25G29G31
  24140003.800   126856575.30506  24140005.060    98849289.69645
  21084395.660   110799284.46408  21084396.240    86337115.48148
  22372226.900   117566891.03508  22372230.680    91610591.79047
  21593747.760   113476002.33608  21593749.200    88422916.12748
  21173892.540   111269553.36809  21173893.300    86703551.80949
 15 01 24 01 07  0.0000000  0  5G16G21G25G29G31
  24122674.240   126765507.55906  24122675.440    98778327.81745
  21078637.780   110769026.55008  21078638.360    86313537.89848
  22385979.820   117639162.86508  22385983.360    91666907.49447
  21605319.620   113536812.74208  21605321.040    88470300.85148
  21180700.900   111305331.24409  21180701.580    86731430.66649
 15 01 24 01 07 30.0000000  0  5G16G21G25G29G31
  24105346.580   126674450.06206  24105347.720    98707373.93845
  21072965.840   110739220.15708  21072966.420    86290312.13748
  22399786.020   117711714.97808  22399789.420    91723441.60347
  21616915.080   113597747.30908  21616916.500    88517782.32748
  21187610.100   111341639.19909  21187610.720    86759722.57249
 15 01 24 01 08  0.0000000  0  5G16G21G25G29G31
  24088020.640   126583401.54906  24088021.860    98636427.06744
  21067379.460   110709863.48508  21067380.060    86267436.81048
  22413644.940   117784544.65908  22413648.400    91780191.99647
  21628533.500   113658802.87508  21628535.020    88565358.08748
  21194619.400   111378473.30009  21194620.020    86788424.47049
 15 01 24 01 08 30.0000000  0  5G16G21G25G29G31
  24070696.880   126492364.69606  24070698.120    98565489.28144
  21061878.980   110680958.15408  21061879.560    86244913.17848
  22427556.820   117857652.56208  22427560.420    91837159.19247
  21640174.920   113719979.12908  21640176.500    88613027.89348
  21201728.740   111415833.50209  21201729.460    86817536.31549
 15 01 24 01 09  0.0000000  0  5G16G21G25G29G31
  24053375.240   126401339.00806  24053376.460    98494560.19545
  21056464.040   110652502.55208  21056464.640    86222739.98848
  22441521.340   117931036.52408  22441525.100    91894341.49547
  21651838.940   113781274.04108  21651840.520    88660790.16348
  21208937.600   111453716.54309  21208938.380    86847055.57049
 15 01 24 01 09 30.0000000  0  5G16G21G25G29G31
  24036056.100   126310326.26906  24036057.280    98423641.19845
  21051134.800   110624497.46708  21051135.420    86200917.85248
  22455538.440   118004696.58708  22455542.380    91951738.93547
  21663525.420   113842686.67408  21663526.940    88708644.16448
  21216245.880   111492121.85609  21216246.680    86876981.78549
 15 01 24 01 10  0.0000000  0  5G16G21G25G29G31
  24018739.700   126219327.69606  24018740.900    98352733.25944
  21045891.340   110596943.12208  21045891.980    86179446.93649
  22469607.980   118078632.04308  22469612.060    92009350.97647
  21675234.140   113904216.23708  21675235.600    88756589.27448
  21223653.200   111531047.53509  21223653.980    86907313.47848
 15 01 24 01 10 30.0000000  0  5G16G21G25G29G31
  24001428.420   126128356.04906  24001429.660    98281846.28944
  21040735.880   110569851.01008  21040736.480    86158336.20748
  22483731.900   118152853.63608  22483736.120    92067185.97247
  21686967.060   113965873.08508  21686968.500    88804633.57148
  21231161.400   111570503.28209  21231162.160    86938058.20548
 15 01 24 01 11  0.0000000  0  6G16G18G21G25G29G31
  23984116.960   126037383.79906  23984118.340    98210958.84445
  24497364.280   128734513.74305  24497364.780   100312622.20443
  21035663.020   110543192.99808  21035663.560    86137563.73948
  22497904.740   118227332.45008  22497909.020    92125221.40047
  21698718.580   114027627.89408  21698720.060    88852754.18848
  21238764.840   111610459.52609  21238765.560    86969192.92948
 15 01 24 01 11 30.0000000  0  6G16G18G21G25G29G31
  23966810.760   125946439.28806  23966812.140    98140093.00445
  24482312.340   128655417.51805  24482315.040   100250989.88644
  21030677.920   110516996.14208  21030678.420    86117150.61249
  22512131.480   118302094.78008  22512135.740    92183477.76247
  21710493.660   114089506.55408  21710495.160    88900971.32148
  21246468.420   111650941.75309  21246469.080    87000737.51748
 15 01 24 01 12  0.0000000  0  6G16G18G21G25G29G31
  23949508.620   125855516.25406  23949509.900    98069243.91645
  24467249.400   128576261.26305  24467251.440   100189311.79243
  21025779.260   110491253.40708  21025779.700    86097091.34748
  22526410.600   118377132.41507  22526414.780    92241948.62747
  21722290.640   114151500.22108  21722292.180    88949278.07848
  21254270.280   111691940.69909  21254270.900    87032684.74148
 15 01 24 01 12 30.0000000  0  5G16G21G25G29G31
  23932210.380   125764613.50506  23932211.560    97998410.62144
  21020966.500   110465962.07008  21020966.900    86077383.81949
  22540741.540   118452442.35107  22540745.620    92300631.67347
  21734109.020   114213605.92508  21734110.520    88997672.13348
  21262169.680   111733452.23909  21262170.280    87065031.39848
 15 01 24 01 13  0.0000000  0  6G16G18G21G25G29G31
  23914918.020   125673741.25106  23914919.020    97927601.11344
  24437090.440   128417780.46605  24437092.820   100065814.39543
  21016241.360   110441131.08908  21016241.720    86058035.01149
  22555126.000   118528033.06007  22555129.940    92359533.51147
  21745950.160   114275831.24908  21745951.600    89046159.39748
  21270168.020   111775483.83109  21270168.640    87097783.28248
 15 01 24 01 13 30.0000000  0  6G16G18G21G25G29G31
  23897627.640   125582879.50406  23897628.440    97856799.76044
  24421994.460   128338448.27205  24421996.900   100003997.13444
  21011599.800   110416739.46908  21011600.160    86039028.55649
  22569559.740   118603882.38908  22569563.540    92418636.87247
  21757809.860   114338153.99708  21757811.180    89094722.56048
  21278261.020   111818012.90909  21278261.660    87130922.81748
 15 01 24 01 14  0.0000000  0  6G16G18G21G25G29G31
  23880342.940   125492047.56206  23880343.620    97786021.65444
  24406889.320   128259068.90205  24406891.560    99942143.13045
  21007045.220   110392805.07608  21007045.620    86020378.38249
  22584045.960   118680007.57108  22584049.720    92477955.18247
  21769691.320   114400590.82608  21769692.480    89143374.63548
  21286451.620   111861054.96009  21286452.300    87164462.07148
 15 01 24 01 14 30.0000000  0  6G16G18G21G25G29G31
