     2.11           OBSERVATION DATA    G                   RINEX VERSION / TYPE
SPIDER V4,0,0,3554                      2015 04 15 00:25    PGM / RUN BY / DATE 
CABS                                                        MARKER NAME         
CABS                                                        MARKER NUMBER       
                                                            OBSERVER / AGENCY   
462287              LEICA GRX1200PRO    8.10/2.127          REC # / TYPE / VERS 
103298              LEIAT504                                ANT # / TYPE        
  5116912.3402   671231.6412  3737143.4301                  APPROX POSITION XYZ 
        0.0600        0.0000        0.0000                  ANTENNA: DELTA H/E/N
     1     1                                                WAVELENGTH FACT L1/2
     4    C1    L1    P2    L2                              # / TYPES OF OBSERV 
    30.000                                                  INTERVAL            
  2015    01    20    11    35    0.0000000     GPS         TIME OF FIRST OBS   
  2015    01    20    23    59   30.0000000     GPS         TIME OF LAST OBS    
    16                                                      LEAP SECONDS        
    23                                                      # OF SATELLITES     
   G 1    63    63    63    63                              PRN / # OF OBS      
   G 2   911   911   911   911                              PRN / # OF OBS      
   G 3   211   211   211   211                              PRN / # OF OBS      
   G 5   646   646   646   646                              PRN / # OF OBS      
   G 6   654   654   654   654                              PRN / # OF OBS      
   G 7   587   587   587   587                              PRN / # OF OBS      
   G 9   510   510   510   510                              PRN / # OF OBS      
   G10   644   644   644   644                              PRN / # OF OBS      
   G12   731   731   731   731                              PRN / # OF OBS      
   G13   793   793   793   793                              PRN / # OF OBS      
   G14   433   433   433   433                              PRN / # OF OBS      
   G15   698   698   698   698                              PRN / # OF OBS      
   G17   537   537   537   537                              PRN / # OF OBS      
   G18   318   318   318   318                              PRN / # OF OBS      
   G20   415   415   415   415                              PRN / # OF OBS      
   G21    94    94    94    94                              PRN / # OF OBS      
   G23   323   323   323   323                              PRN / # OF OBS      
   G24   817   817   817   817                              PRN / # OF OBS      
   G25   547   547   547   547                              PRN / # OF OBS      
   G28   603   603   603   603                              PRN / # OF OBS      
   G29   393   393   393   393                              PRN / # OF OBS      
   G30   711   711   711   711                              PRN / # OF OBS      
   G31   208   208   208   208                              PRN / # OF OBS      
BIT 2 OF LLI FLAGS DATA COLLECTED UNDER A/S CONDITION       COMMENT             
SNR is mapped to RINEX snr flag value [2-9]                 COMMENT             
Lx:     = 25dBHz -> 1; 26-27dBHz -> 2; 28-31dBHz -> 3       COMMENT             
       32-35dBHz -> 4; 36-38dBHz -> 5; 39-41dBHz -> 6       COMMENT             
       42-44dBHz -> 7; 45-48dBHz -> 8; >=49dBHz -> 9        COMMENT             
                                                            END OF HEADER       
 15 01 20 11 35  0.0000000  0  9G01G03G06G07G09G10G17G20G23
  23520276.840   123599888.93306  23520288.680    96311647.12046
  21752039.460   114307738.95508  21752046.620    89070994.68148
  21545252.240   113221063.69708  21545259.080    88224233.35648
  23028156.860   121013781.00207  23028164.720    94296485.68647
  20443523.860   107431442.52209  20443529.280    83712834.56349
  22705574.960   119318601.20507  22705580.660    92975557.70146
  23283506.020   122355648.88307  23283513.100    95342092.55446
  20283037.980   106588083.44908  20283041.060    83055662.24549
  20748394.920   109033551.60409  20748396.280    84961213.44448
 15 01 20 11 35 30.0000000  0  9G01G03G06G07G09G10G17G20G23
  23540158.740   123704369.07506  23540170.460    96393059.94845
  21761641.340   114358196.98308  21761648.480    89110312.60348
  21533001.260   113156684.39108  21533008.060    88174067.69448
  23009299.680   120914685.68107  23009307.360    94219268.78647
  20439861.060   107412194.45409  20439866.460    83697836.09149
  22690834.560   119241140.38507  22690840.340    92915198.72146
  23297090.660   122427036.30107  23297097.800    95397718.94846
  20281253.660   106578706.96508  20281256.800    83048355.89649
  20754817.260   109067301.17109  20754818.620    84987511.79548
 15 01 20 11 36  0.0000000  0  9G01G03G06G07G09G10G17G20G23
  23560074.960   123809029.21506  23560086.780    96474612.99946
  21771281.880   114408857.95308  21771288.960    89149788.65448
  21520830.940   113092729.05908  21520837.760    88124232.40348
  22990472.740   120815749.42007  22990480.200    94142175.86046
  20436276.380   107393357.10909  20436281.820    83683157.65949
  22676114.480   119163786.90907  22676120.360    92854923.39846
  23310724.660   122498683.45707  23310731.980    95453547.72746
  20279522.840   106569611.46308  20279526.000    83041268.49049
  20761299.800   109101366.97809  20761301.120    85014056.57048
 15 01 20 11 36 30.0000000  0  9G01G03G06G07G09G10G17G20G23
  23580025.760   123913869.81906  23580037.520    96556306.67746
  21780961.620   114459724.64708  21780968.560    89189425.01748
  21508742.200   113029202.63808  21508749.100    88074731.33448
  22971677.060   120716977.99307  22971684.240    94065211.34546
  20432770.260   107374932.40909  20432775.700    83668800.77049
  22661415.560   119086544.24107  22661421.500    92794734.40045
  23324408.120   122570590.48307  23324415.620    95509578.99546
  20277846.200   106560800.46908  20277849.340    83034402.77849
  20767842.720   109135750.06809  20767844.000    85040848.57448
 15 01 20 11 37  0.0000000  0  9G01G03G06G07G09G10G17G20G23
  23600010.140   124018886.27707  23600021.760    96638137.37046
  21790680.080   114510794.61808  21790686.820    89229219.77148
  21496735.020   112966104.98308  21496742.060    88025564.36548
  22952912.560   120618371.02107  22952919.600    93988375.01246
  20429342.040   107356917.19609  20429347.520    83654762.95649
  22646737.440   119009410.71506  22646743.380    92734630.45446
  23338140.020   122642751.43207  23338147.520    95565808.13446
  20276223.300   106552271.98708  20276226.380    83027757.20649
  20774445.220   109170446.29809  20774446.460    85067884.58948
 15 01 20 11 37 30.0000000  0  9G01G03G06G07G09G10G17G20G23
  23620028.160   124124079.26506  23620039.680    96720105.62046
  21800437.680   114562070.83208  21800444.380    89269175.21948
  21484810.400   112903441.20308  21484817.540    87976735.48648
  22934180.440   120519934.63407  22934187.340    93911671.60246
  20425992.140   107339313.48609  20425997.640    83641045.78849
  22632080.760   118932389.69107  22632086.660    92674614.16046
  23351920.300   122715166.13807  23351927.700    95622235.00046
  20274654.840   106544029.67508  20274657.920    83021334.62349
  20781107.540   109205456.95509  20781108.800    85095165.60848
 15 01 20 11 38  0.0000000  0  9G01G03G06G07G09G10G17G20G23
  23640078.520   124229442.90206  23640089.920    96802206.82446
  21810233.760   114613549.61108  21810240.500    89309288.52348
  21472968.120   112841209.89008  21472975.300    87928243.59548
  22915480.480   120421667.51807  22915487.320    93835100.07347
  20422719.760   107322117.06609  20422725.260    83627645.98849
  22617445.000   118855478.05307  22617450.840    92614683.11046
  23365747.540   122787827.57107  23365754.800    95678854.12546
  20273140.240   106536070.47108  20273143.340    83015132.65049
  20787828.640   109240776.69209  20787829.980    85122687.46948
 15 01 20 11 38 30.0000000  0  9G01G03G06G07G09G10G17G20G23
  23660161.400   124334978.09506  23660172.660    96884441.71846
  21820068.960   114665234.13908  21820075.780    89349562.15448
  21461209.160   112779416.39608  21461216.340    87880092.85548
  22896813.820   120323575.52307  22896820.740    93758665.01046
  20419525.300   107305330.14409  20419530.820    83614565.27449
  22602830.800   118778679.72207  22602836.580    92554840.34246
  23379621.660   122860735.77107  23379629.000    95735665.52046
  20271680.180   106528398.03508  20271683.320    83009154.12349
  20794608.820   109276406.95909  20794610.220    85150451.30348
 15 01 20 11 39  0.0000000  0  9G01G03G06G07G09G10G17G20G23
  23680276.280   124440681.65206  23680287.420    96966807.79446
  21829943.040   114717123.44708  21829950.020    89389995.35048
  21449533.820   112718061.96008  21449540.940    87832284.23948
  22878180.900   120225660.20507  22878187.940    93682367.61547
  20416408.440   107288950.96309  20416413.940    83601802.28249
  22588238.100   118701994.31407  22588243.780    92495085.56546
  23393541.820   122933886.24507  23393549.240    95792665.70445
  20270274.600   106521011.63608  20270277.740    83003398.49149
  20801447.520   109312344.89909  20801449.020    85178454.88048
 15 01 20 11 39 30.0000000  0  9G01G03G06G07G09G10G17G20G23
  23700422.680   124546550.89706  23700433.800    97049302.96045
  21839856.080   114769217.16508  21839863.160    89430587.83648
  21437942.380   112657148.40508  21437949.440    87784819.16648
  22859582.180   120127924.06007  22859589.360    93606209.82847
  20413368.940   107272978.31709  20413374.440    83589356.07149
  22573666.880   118625422.09107  22573672.520    92435418.97846
  23407507.480   123007275.77907  23407514.960    95849852.17145
  20268923.580   106513911.80008  20268926.660    82997866.14949
  20808344.480   109348588.90209  20808346.020    85206696.95348
 15 01 20 11 40  0.0000000  0  9G01G03G06G07G09G10G17G20G23
  23720600.320   124652584.01506  23720611.380    97131925.83345
  21849808.160   114821515.67208  21849815.260    89471339.89448
  21426435.280   112596678.24408  21426442.320    87737699.59748
  22841018.220   120030370.20907  22841025.500    93530194.06647
  20410406.740   107257411.70409  20410412.220    83577226.25649
  22559117.420   118548964.14507  22559123.020    92375841.44546
  23421518.120   123080901.75107  23421525.640    95907222.85845
  20267627.280   106507099.54208  20267630.340    82992557.90049
  20815299.440   109385137.57909  20815300.980    85235176.43548
 15 01 20 11 40 30.0000000  0  9G01G03G06G07G09G10G17G20G23
  23740808.900   124758779.35606  23740819.820    97214675.10745
  21859799.380   114874019.61208  21859806.480    89512252.02048
  21415013.040   112536654.32308  21415020.140    87690927.74748
  22822489.540   119933001.78607  22822496.900    93454322.77047
  20407521.780   107242250.95009  20407527.240    83565412.69049
  22544589.820   118472621.52207  22544595.460    92316353.76346
  23435573.240   123154761.23807  23435580.740    95964775.52246
  20266385.860   106500575.74208  20266388.940    82987474.41549
  20822312.140   109421989.58209  20822313.660    85263892.27348
 15 01 20 11 41  0.0000000  0  9G01G03G06G07G09G10G17G20G23
  23761047.540   124865132.64306  23761058.620    97297547.42445
  21869829.340   114926726.94508  21869836.380    89553322.64348
  21403675.720   112477076.74508  21403682.860    87644503.69648
  22803996.260   119835819.30808  22804003.600    93378596.36147
  20404713.500   107227493.13209  20404718.920    83553913.10049
  22530083.920   118396392.77907  22530089.520    92256954.81846
  23449671.780   123228848.81106  23449679.260    96022505.92346
  20265199.080   106494339.26308  20265202.160    82982614.82549
  20829381.900   109459141.30409  20829383.360    85292841.66348
 15 01 20 11 41 30.0000000  0  9G01G03G06G07G09G10G17G20G23
  23781316.240   124971644.50206  23781327.640    97380543.30145
  21879898.580   114979640.54808  21879905.520    89594553.99848
  21392424.320   112417950.56508  21392431.500    87598431.38248
  22785539.300   119738828.07508  22785546.640    93303018.96046
  20401982.240   107213140.25809  20401987.660    83542729.06149
  22515600.400   118320281.66707  22515606.000    92197647.54646
  23463813.660   123303164.19606  23463821.120    96080413.81046
  20264067.600   106488393.38408  20264070.700    82977981.68049
  20836508.940   109496593.94409  20836510.360    85322025.53648
 15 01 20 11 42  0.0000000  0  9G01G03G06G07G09G10G17G20G23
  23801614.380   125078311.34905  23801626.080    97463659.95045
  21890006.820   115032759.09308  21890013.740    89635945.04348
  21381259.020   112359276.59108  21381266.160    87552711.43548
  22767119.020   119642029.65407  22767126.300    93227591.78647
  20399327.580   107199190.12009  20399333.040    83531858.84049
  22501139.200   118244287.58507  22501144.740    92138431.46446
  23477998.140   123377702.94306  23478005.560    96138495.74846
  20262991.360   106482737.69708  20262994.440    82973574.66149
  20843692.640   109534344.51909  20843694.060    85351441.56448
 15 01 20 11 42 30.0000000  0  9G01G03G06G07G09G10G17G20G23
  23821941.680   125185131.41106  23821953.760    97546895.98345
  21900154.140   115086083.08908  21900161.040    89677496.18048
  21370180.260   112301057.46408  21370187.340    87507345.91748
  22748736.000   119545427.22808  22748743.220    93152317.34247
  20396749.480   107185642.35209  20396754.960    83521302.15649
  22486700.500   118168411.95407  22486705.960    92079307.66846
  23492224.620   123452462.30206  23492231.980    96196749.59646
  20261970.460   106477372.89708  20261973.560    82969394.30549
  20850932.780   109572392.03209  20850934.280    85381088.97748
 15 01 20 11 43  0.0000000  0  9G01G03G06G07G09G10G17G20G23
  23842297.820   125292102.30406  23842310.160    97630249.54346
  21910340.420   115139612.43108  21910347.400    89719207.32948
  21359188.480   112243295.20708  21359195.500    87462336.40148
  22730390.760   119449023.28207  22730397.880    93077197.54147
  20394247.740   107172495.93009  20394253.260    83511058.21349
  22472284.460   118092655.25507  22472289.860    92020276.55546
  23506492.440   123527438.84707  23506499.740    96255172.66846
  20261005.060   106472299.70408  20261008.180    82965441.18249
  20858229.060   109610734.58609  20858230.640    85410966.29248
 15 01 20 11 43 30.0000000  0  9G01G03G06G07G09G10G17G20G23
  23862682.540   125399222.69406  23862695.020    97713719.57146
  21920565.980   115193347.98008  21920572.980    89761079.15648
  21348284.160   112185992.79808  21348291.120    87417685.19948
  22712083.940   119352821.24207  22712090.920    93002235.07747
  20391822.360   107159750.83709  20391827.920    83501126.99049
  22457891.260   118017018.78307  22457896.600    91961339.11946
  23520801.020   123602630.04306  23520808.340    96313763.00645
  20260095.380   106467519.39508  20260098.520    82961716.28549
  20865581.360   109649371.37009  20865582.980    85441072.87948
 15 01 20 11 44  0.0000000  0  9G01G03G06G07G09G10G17G20G23
  23883095.100   125506488.38306  23883107.540    97797302.81846
  21930830.420   115247287.86008  21930837.380    89803110.20847
  21337467.360   112129150.44808  21337474.300    87373392.48748
  22693815.680   119256821.94107  22693822.540    92927430.57647
  20389472.840   107147404.25809  20389478.420    83491506.29949
  22443520.700   117941501.36707  22443526.000    91902494.46346
  23535149.480   123678030.97706  23535156.880    96372516.76945
  20259241.200   106463030.79408  20259244.340    82958218.69449
  20872988.940   109688298.63409  20872990.580    85471405.81648
 15 01 20 11 44 30.0000000  0  9G01G03G06G07G09G10G17G20G23
  23903535.480   125613900.27806  23903547.920    97880999.98146
  21941134.340   115301435.24408  21941141.280    89845302.93948
  21326739.100   112072773.43908  21326746.080    87329462.38048
  22675587.160   119161031.08208  22675593.840    92852788.51847
  20387199.580   107135458.42209  20387205.180    83482197.87849
  22429173.500   117866106.96307  22429178.780    91843745.64646
  23549537.800   123753641.47806  23549545.360    96431433.85345
  20258443.240   106458837.54608  20258446.380    82954951.24449
  20880452.100   109727517.83809  20880453.700    85501966.24548
 15 01 20 11 45  0.0000000  0  9G01G03G06G07G09G10G17G20G23
  23924003.240   125721456.14606  23924015.660    97964809.31546
  21951477.760   115355790.19908  21951484.660    89887657.41347
  21316099.880   112016863.96108  21316106.880    87285896.58348
  22657398.920   119065451.56408  22657405.400    92778311.11947
  20385002.440   107123912.48609  20385008.040    83473201.07049
  22414849.820   117790836.16907  22414855.160    91785093.16146
  23563965.320   123829458.13406  23563973.100    96490511.55246
  20257701.580   106454940.30108  20257704.760    82951914.44949
  20887970.540   109767027.56509  20887972.120    85532753.05248
 15 01 20 11 45 30.0000000  0  9G01G03G06G07G09G10G17G20G23
  23944497.580   125829152.55606  23944510.140    98048728.14046
  21961860.480   115410351.49808  21961867.300    89930172.67648
  21305549.800   111961422.85108  21305556.800    87242695.74548
  22639251.180   118970084.60708  22639257.500    92703999.36447
  20382881.020   107112764.26709  20382886.580    83464514.17149
  22400549.600   117715688.72007  22400555.000    91726536.77346
  23578431.320   123905476.68106  23578439.200    96549746.56046
  20257016.180   106451338.50008  20257019.360    82949107.86949
  20895543.700   109806825.00209  20895545.300    85563764.04848
 15 01 20 11 46  0.0000000  0  9G01G03G06G07G09G10G17G20G23
  23965018.140   125936987.29706  23965030.840    98132754.76046
  21972282.440   115465119.22308  21972289.260    89972848.79647
  21295089.240   111906452.24708  21295096.260    87199861.53948
  22621144.460   118874932.91208  22621150.660    92629855.33247
  20380835.140   107102012.89809  20380840.620    83456136.50749
  22386272.980   117640665.16907  22386278.420    91668076.93946
  23592935.220   123981694.09406  23592943.060    96609136.52545
  20256387.080   106448032.72008  20256390.260    82946531.95549
  20903171.340   109846908.43209  20903172.900    85594997.89948
 15 01 20 11 46 30.0000000  0 10G01G02G03G06G07G09G10G17G20G23
  23985564.740   126044959.39006  23985577.620    98216888.39446
  24841296.240   130541888.08405  24841299.860   101720973.89445
  21982743.960   115520094.70008  21982750.820    90015686.80248
  21284718.860   111851955.55108  21284725.900    87157396.61348
  22603079.500   118780000.70708  22603085.660    92555882.33447
  20378864.840   107091658.78409  20378870.300    83448068.39749
  22372020.400   117565767.81607  22372025.860    91609715.43846
  23607476.520   124058108.13806  23607484.300    96668679.72246
  20255814.720   106445025.05108  20255817.920    82944188.32849
  20910853.320   109887277.20409  20910854.840    85626454.09448
 15 01 20 11 47  0.0000000  0 10G01G02G03G06G07G09G10G17G20G23
  24006137.280   126153068.18406  24006150.300    98301128.56245
  24821795.280   130439410.59405  24821799.120   101641121.45644
  21993245.240   115575279.52808  21993252.260    90058687.93648
  21274439.320   111797936.38008  21274446.360    87115303.78548
  22585056.980   118685292.21408  22585063.280    92482083.66047
  20376970.240   107081702.49409  20376975.660    83440310.27349
  22357792.340   117490999.05007  22357797.740    91551454.14746
  23622054.940   124134717.41906  23622062.660    96728375.04345
  20255299.520   106442317.62708  20255302.660    82942078.66049
  20918589.680   109927931.71109  20918591.140    85658132.93548
 15 01 20 11 47 30.0000000  0 10G01G02G03G06G07G09G10G17G20G23
  24026734.020   126261303.59806  24026747.020    98385467.38745
  24802313.520   130337034.28105  24802317.380   101561347.82945
  22003784.840   115630665.85108  22003792.020    90101846.07148
  21264249.560   111744388.97408  21264256.580    87073578.57348
  22567075.880   118590802.27207  22567082.480    92408455.27747
  20375149.640   107072135.31009  20375155.060    83432855.34949
  22343587.420   117416351.78107  22343592.760    91493287.51946
  23636668.360   124211510.74806  23636676.120    96788213.74046
  20254840.040   106439903.23308  20254843.180    82940197.32449
  20926378.580   109968862.16609  20926379.960    85690026.80348
 15 01 20 11 48  0.0000000  0 10G01G02G03G06G07G09G10G17G20G23
  24047355.960   126369670.60406  24047368.660    98469908.72245
  24782852.740   130234768.83405  24782856.880   101481660.59545
  22014364.160   115686261.00508  22014371.460    90145166.94048
  21254151.380   111691322.67508  21254158.340    87032228.24348
  22549138.060   118496540.21507  22549144.920    92335004.46747
  20373404.260   107062963.47809  20373409.700    83425708.49849
  22329407.140   117341833.95707  22329412.380    91435221.75046
  23651317.580   124288492.00106  23651325.320    96848198.88345
  20254437.860   106437789.82308  20254441.000    82938550.52049
  20934221.080   110010074.26109  20934222.360    85722140.12648
 15 01 20 11 48 30.0000000  0 10G01G02G03G06G07G09G10G17G20G23
  24068002.240   126478165.24606  24068014.800    98554449.51545
  24763413.160   130132614.40806  24763417.540   101402059.89045
  22024982.900   115742063.23108  22024990.320    90188649.16347
  21244144.800   111638737.72608  21244151.680    86991252.99148
  22531243.860   118402507.27308  22531250.820    92261732.19247
  20371733.600   107054184.29809  20371739.060    83418867.60149
  22315251.320   117267444.60208  22315256.460    91377256.08646
  23666001.660   124365656.47707  23666009.420    96908326.78845
  20254092.680   106435975.84008  20254095.780    82937137.03049
  20942116.460   110051564.58509  20942117.680    85754470.25148
 15 01 20 11 49  0.0000000  0 10G01G02G03G06G07G09G10G17G20G23
  24088672.060   126586783.98606  24088684.540    98639086.98745
  24743995.080   130030572.08405  24743999.340   101322546.50045
  22035640.920   115798071.34708  22035648.300    90232291.81547
  21234229.980   111586634.94808  21234236.820    86950653.45648
  22513393.740   118308705.16608  22513400.560    92188639.76847
  20370137.240   107045795.58209  20370142.700    83412330.96649
  22301119.820   117193183.16608  22301124.920    91319390.11246
  23680719.740   124442999.80006  23680727.700    96968594.04446
  20253804.420   106434461.02108  20253807.540    82935956.66649
  20950064.240   110093330.47109  20950065.460    85787015.09748
 15 01 20 11 49 30.0000000  0 10G01G02G03G06G07G09G10G17G20G23
  24109365.260   126695525.97006  24109377.740    98723820.47844
  24724599.040   129928645.37206  24724603.180   101243123.20844
  22046338.400   115854286.62308  22046345.700    90276095.88047
  21224407.500   111535017.65408  21224414.340    86910432.21748
  22495588.440   118215137.70108  22495594.940    92115730.22147
  20368615.260   107037797.64209  20368620.700    83406098.83149
  22287013.100   117119051.98608  22287018.160    91261625.62246
  23695471.600   124520520.31006  23695479.760    97028999.36845
  20253573.500   106433247.31508  20253576.580    82935010.92849
  20958064.320   110135371.28109  20958065.540    85819774.16848
 15 01 20 11 50  0.0000000  0 10G01G02G03G06G07G09G10G17G20G23
  24130081.640   126804389.82906  24130094.300    98808648.90044
  24705225.680   129826837.83806  24705229.700   101163792.78645
  22057075.520   115910710.12308  22057082.680    90320062.19447
  21214677.980   111483888.83908  21214684.840    86870591.61248
  22477828.460   118121808.21608  22477834.620    92043006.11347
  20367167.660   107030190.48709  20367173.080    83400171.20549
  22272931.440   117045052.64708  22272936.520    91203963.86946
  23710256.560   124598214.99506  23710264.920    97089540.41946
  20253400.140   106432336.29708  20253403.220    82934301.05649
  20966116.600   110177686.47909  20966117.880    85852747.03748
 15 01 20 11 50 30.0000000  0 10G01G02G03G06G07G09G10G17G20G23
  24150820.580   126913372.11506  24150833.440    98893569.62545
  24685875.180   129725150.27706  24685879.020   101084555.86244
  22067852.060   115967340.61908  22067859.000    90364189.79647
  21205041.560   111433249.24908  21205048.420    86831132.21748
  22460114.040   118028718.16308  22460119.980    91970468.57547
  20365794.020   107022971.87309  20365799.400    83394546.33749
  22258874.800   116971184.82508  22258879.960    91146404.60746
  23725073.840   124676079.51806  23725082.360    97150213.78646
  20253284.220   106431727.18608  20253287.300    82933826.43249
  20974220.520   110220273.21809  20974221.880    85885931.49948
 15 01 20 11 51  0.0000000  0 10G01G02G03G06G07G09G10G17G20G23
  24171581.800   127022470.56106  24171594.780    98978580.86545
  24666547.900   129623585.09806  24666551.680   101005414.31345
  22078668.020   116024178.18608  22078674.800    90408478.76147
  21195498.620   111383100.99508  21195505.480    86792055.68548
  22442445.660   117935870.59108  22442451.600    91898119.98447
  20364494.140   107016140.93109  20364499.500    83389223.55449
  22244843.360   116897449.41507  22244848.580    91088948.51746
  23739922.880   124754110.96406  23739931.560    97211017.22845
  20253225.880   106431420.71808  20253228.960    82933587.63549
  20982375.780   110263129.80609  20982377.220    85919326.23648
 15 01 20 11 51 30.0000000  0 10G01G02G03G06G07G09G10G17G20G23
  24192365.000   127131683.62206  24192378.100    99063681.39745
  24647244.420   129522145.06406  24647248.200   100926370.26345
  22089523.420   116081223.37308  22089530.160    90452929.50448
  21186049.660   111333446.53808  21186056.520    86753363.92748
  22424823.880   117843268.55608  22424830.040    91825962.70047
  20363267.920   107009697.10409  20363273.220    83384202.42349
  22230837.420   116823848.02208  22230842.660    91031596.85246
  23754803.260   124832306.68206  23754812.040    97271948.66646
  20253225.360   106431418.18508  20253228.460    82933585.67449
  20990582.240   110306255.45409  20990583.760    85952930.62348
 15 01 20 11 52  0.0000000  0 10G01G02G03G06G07G09G10G17G20G23
  24213169.820   127241009.90606  24213182.920    99148870.14545
  24627965.300   129420833.56105  24627969.180   100847426.36545
  22100418.520   116138477.21308  22100425.280    90497542.82647
  21176695.260   111284288.86808  21176702.120    86715059.27648
  22407249.420   117750915.68208  22407255.920    91753999.55347
  20362115.360   107003640.45009  20362120.600    83379482.97749
  22216857.340   116750382.50807  22216862.620    90974351.07246
  23769714.520   124910664.25606  23769723.280    97333006.20346
  20253282.940   106431720.99308  20253286.060    82933821.63949
  20998839.780   110349649.25609  20998841.360    85986743.96648
 15 01 20 11 52 30.0000000  0 10G01G02G03G06G07G09G10G17G20G23
  24233995.580   127350446.72606  24234008.900    99234145.00845
  24608711.000   129319652.32805  24608715.020   100768583.98946
  22111353.180   116195939.20508  22111360.040    90542318.35347
  21167435.660   111235629.37308  21167442.520    86677142.81848
  22389722.660   117658813.92308  22389729.600    91682232.07447
  20361036.160   106997969.38109  20361041.400    83375063.99349
  22202903.080   116677052.84407  22202908.360    90917211.13246
  23784656.020   124989180.59006  23784664.580    97394187.43845
  20253398.740   106432329.48408  20253401.860    82934295.79849
  21007147.980   110393309.04509  21007149.580    86020764.57248
 15 01 20 11 53  0.0000000  0 10G01G02G03G06G07G09G10G17G20G23
  24254842.100   127459992.76706  24254855.720    99319504.92345
  24589482.040   129218604.46005  24589486.240   100689845.53045
  22122327.620   116253610.33908  22122334.560    90587256.84247
  21158271.420   111187470.99308  21158278.260    86639616.82848
  22372244.500   117566966.98308  22372251.680    91610663.14347
  20360030.360   106992683.86609  20360035.580    83370945.43949
  22188975.100   116603861.06507  22188980.340    90860178.64246
  23799627.180   125067852.67206  23799635.420    97455490.03845
  20253572.980   106433245.16308  20253576.080    82935009.32449
  21015506.720   110437234.51209  21015508.380    86054992.19248
 15 01 20 11 53 30.0000000  0 11G01G02G03G06G07G09G10G17G20G23G30
  24275708.260   127569642.49005  24275722.120    99404945.63345
  24570278.360   129117689.09205  24570282.560   100611210.31346
  22133341.240   116311487.38708  22133348.260    90632355.79347
  21149202.280   111139812.39908  21149209.100    86602480.28348
  22354814.860   117475374.07708  22354822.060    91539292.17647
  20359097.080   106987779.63909  20359102.340    83367123.99749
  22175072.880   116530804.69507  22175078.060    90803251.66046
  23814626.760   125146674.27606  23814634.880    97516909.15446
  20253805.180   106434465.34608  20253808.260    82935960.12649
  21023915.100   110481420.49009  21023916.720    86089422.82448
  24704584.060   129823471.35505  24704605.120   101161221.82844
 15 01 20 11 54  0.0000000  0 10G01G02G03G06G07G09G10G17G20G23
  24296594.480   127679398.03106  24296608.600    99490468.80145
  24551101.100   129016912.95305  24551105.340   100532683.58345
  22144394.860   116369574.73308  22144401.880    90677618.59947
  21140229.400   111092659.84308  21140236.200    86565738.05248
  22337435.160   117384042.64308  22337442.080    91468124.95047
  20358236.980   106983260.00309  20358242.260    83363602.23449
  22161197.420   116457888.99407  22161202.560    90746434.28446
  23829654.940   125225646.65206  23829663.160    97578445.74346
  20254096.280   106435995.11008  20254099.380    82937152.15749
  21032373.580   110525869.77109  21032375.140    86124058.62248
 15 01 20 11 54 30.0000000  0 10G01G02G03G06G07G09G10G17G20G23
  24317499.920   127789254.99405  24317514.420    99576070.98046
  24531950.480   128916276.42805  24531954.740   100454265.63746
  22155488.220   116427870.27608  22155495.080    90723043.64947
  21131352.760   111046013.12908  21131359.600    86529389.99048
  22320105.300   117292972.86508  22320111.760    91397161.61747
  20357449.460   106979121.78409  20357454.760    83360377.67849
  22147348.440   116385112.63007  22147353.580    90689725.49746
  23844710.720   125304764.42206  23844719.160    97640095.63846
  20254445.900   106437832.58108  20254449.020    82938583.96249
  21040881.460   110570578.68509  21040882.960    86158896.73548
 15 01 20 11 55  0.0000000  0 10G01G02G03G06G07G09G10G17G20G23
  24338424.360   127899212.48105  24338439.140    99661751.48345
  24512827.200   128815783.18705  24512831.500   100375959.34645
  22166621.460   116486375.33008  22166628.180    90768631.93347
  21122573.040   110999875.44208  21122579.860    86493438.56848
  22302825.900   117202168.72408  22302831.940    91326405.27547
  20356734.600   106975365.25109  20356739.900    83357450.54049
  22133526.400   116312477.99007  22133531.580    90633127.14746
  23859793.800   125384025.82806  23859802.580    97701857.43045
  20254854.540   106439980.09608  20254857.680    82940257.36549
  21049438.660   110615546.81009  21049440.100    86193936.82748
 15 01 20 11 55 30.0000000  0 10G01G02G03G06G07G09G10G17G20G23
  24359367.120   128009266.54206  24359382.300    99747507.16244
  24493731.300   128715433.66305  24493735.620   100297765.05345
  22177794.180   116545088.22308  22177800.880    90814382.16947
  21113890.220   110954246.99908  21113897.000    86457883.96048
  22285597.120   117111631.17908  22285602.880    91255856.65747
  20356091.860   106971987.68209  20356097.140    83354818.69149
  22119731.220   116239984.30007  22119736.460    90576638.62146
  23874903.180   125463425.72506  23874912.300    97763727.15846
  20255322.000   106442436.59408  20255325.120    82942171.52949
  21058044.540   110660771.03009  21058045.940    86229176.48248
 15 01 20 11 56  0.0000000  0 10G01G02G03G06G07G09G10G17G20G23
  24380327.980   128119415.04405  24380343.540    99833336.48545
  24474663.240   128615230.47806  24474667.500   100219684.78046
  22189006.520   116604009.12508  22189013.240    90860294.50347
  21105304.660   110909129.75008  21105311.440    86422727.68248
  22268419.440   117021362.92008  22268425.180    91185517.87947
  20355521.020   106968988.13609  20355526.300    83352481.40849
  22105963.040   116167632.50707  22105968.280    90520260.67246
  23890038.440   125542961.09906  23890047.780    97825702.43746
  20255848.440   106445202.98108  20255851.500    82944327.17049
  21066698.800   110706249.72609  21066700.240    86264614.42648
 15 01 20 11 56 30.0000000  0 10G01G02G03G06G07G09G10G17G20G23
  24401306.780   128229657.02805  24401322.460    99919238.60944
  24455623.700   128515177.08605  24455627.920   100141721.22346
  22200258.640   116663139.33108  22200265.560    90906369.92147
  21096816.960   110864526.87208  21096823.800    86387972.21948
  22251293.680   116931367.73408  22251299.580    91115391.87547
  20355022.160   106966366.84909  20355027.460    83350438.86849
  22092222.380   116095424.99608  22092227.580    90463995.15346
  23905199.340   125622630.38507  23905208.640    97887782.04846
  20256434.140   106448280.87108  20256437.200    82946725.54249
  21075401.460   110751982.77509  21075402.920    86300250.57548
 15 01 20 11 57  0.0000000  0 11G01G02G03G06G07G09G10G17G20G23G30
  24422302.800   128339988.99105  24422318.700   100005210.79845
  24436612.840   128415274.88106  24436616.940   100063875.47046
  22211550.400   116722477.54708  22211557.520    90952607.43448
  21088427.260   110820438.84808  21088434.120    86353617.94848
  22234220.200   116841647.03708  22234226.280    91045479.76247
  20354594.820   106964121.43809  20354600.140    83348689.21649
  22078509.060   116023361.03908  22078514.180    90407841.49447
  23920384.820   125702428.58407  23920394.040    97949962.11346
  20257079.000   106451669.58808  20257082.040    82949366.11149
  21084151.920   110797966.95509  21084153.420    86336082.40648
  24556481.720   129045227.84905  24556502.740   100554807.67045
 15 01 20 11 57 30.0000000  0 11G01G02G03G06G07G09G10G17G20G23G30
  24443315.860   128450409.85905  24443331.760   100091252.26545
  24417631.380   128315527.28206  24417635.460    99986150.21145
  22222882.000   116782025.06008  22222889.260    90999008.03847
  21080136.120   110776868.79708  21080143.040    86319667.28348
  22217199.800   116752204.89108  22217206.020    90975784.71647
  20354239.040   106962252.06909  20354244.360    83347232.58349
  22064823.500   115951443.02008  22064828.620    90351801.55347
  23935594.480   125782354.04507  23935603.660    98012241.32846
  20257783.360   106455371.08808  20257786.380    82952250.41149
  21092950.120   110844202.14508  21092951.680    86372109.82848
  24535312.940   128933986.59105  24535333.800   100468127.18445
 15 01 20 11 58  0.0000000  0 11G01G02G03G06G07G09G10G17G20G23G30
  24464345.220   128560916.48105  24464361.260   100177360.51845
  24398679.640   128215935.73106  24398683.600    99908546.52245
  22234253.200   116841780.89308  22234260.580    91045570.98047
  21071943.740   110733817.53108  21071950.620    86286120.86748
  22200232.780   116663042.74608  22200239.000    90906307.83947
  20353954.440   106960756.71209  20353959.760    83346067.38849
  22051165.760   115879671.25408  22051170.860    90295875.57546
  23950827.580   125862402.68706  23950836.720    98074616.54145
  20258547.260   106459385.34208  20258550.240    82955378.40949
  21101795.620   110890685.88108  21101797.240    86408330.92148
  24514142.340   128822736.50505  24514162.940   100381439.79044
 15 01 20 11 58 30.0000000  0 11G01G02G03G06G07G09G10G17G20G23G30
  24485390.600   128671506.86306  24485406.640   100263534.02745
  24379758.140   128116502.81406  24379761.980    99831066.43345
  22245664.060   116901745.29608  22245671.500    91092296.43247
  21063850.460   110691287.08908  21063857.320    86252980.28748
  22183319.660   116574163.52208  22183325.760    90837051.42447
  20353740.880   106959634.52009  20353746.200    83345192.97049
  22037536.020   115808046.61008  22037541.120    90240064.24247
  23966083.600   125942572.01006  23966092.860    98137085.78545
  20259370.700   106463712.70008  20259373.700    82958750.38949
  21110688.180   110937416.93108  21110689.880    86444744.72448
  24492970.640   128711480.42305  24492990.780   100294747.63444
 15 01 20 11 59  0.0000000  0 11G01G02G03G06G07G09G10G17G20G23G30
  24506451.660   128782179.81805  24506467.760   100349771.86845
  24360867.480   128017232.00906  24360871.140    99753712.70344
  22257114.820   116961919.37808  22257122.240    91139185.27847
  21055856.800   110649280.31709  21055863.640    86220247.76048
  22166461.100   116485570.91508  22166466.940    90768018.35347
  20353598.340   106958885.49609  20353603.640    83344609.33349
  22023934.660   115736570.88308  22023939.660    90184368.93447
  23981361.840   126022858.98606  23981371.240    98199646.68646
  20260254.120   106468355.10408  20260257.120    82962367.84649
  21119627.700   110984394.36809  21119629.400    86481350.51548
  24471798.480   128600221.93106  24471818.020   100208053.57145
 15 01 20 11 59 30.0000000  0 11G01G02G03G06G07G09G10G17G20G23G30
  24527527.960   128892932.78806  24527544.080   100436071.96545
  24342008.040   127918125.40606  24342011.500    99676486.89345
  22268605.500   117022302.85708  22268612.800    91186237.29047
  21047963.100   110607798.72808  21047969.900    86187924.46248
  22149657.460   116397267.12508  22149663.020    90699210.33447
  20353526.560   106958508.26109  20353531.840    83344315.40449
  22010361.840   115665245.12308  22010366.740    90128790.48546
  23996661.760   126103260.04306  23996671.340    98262296.48246
  20261197.520   106473312.69408  20261200.500    82966230.90849
  21128613.860   111031616.77809  21128615.520    86518147.19748
  24450626.220   128488963.39806  24450645.360   100121359.44544
 15 01 20 12 00  0.0000000  0 11G01G02G03G06G07G09G10G17G20G23G30
  24548619.000   129003762.53705  24548635.040   100522431.88945
  24323180.040   127819184.50205  24323183.520    99599390.21645
  22280135.860   117082894.74608  22280143.020    91233451.68947
  21040169.440   110566843.00709  21040176.240    86156010.93248
  22132908.980   116309253.75508  22132914.320    90630628.60947
  20353525.100   106958500.69609  20353530.400    83344309.52849
  21996817.500   115594069.31208  21996822.300    90073328.88346
  24011982.820   126183771.76706  24011992.520    98325032.51346
  20262200.880   106478585.33608  20262203.820    82970339.45849
  21137646.120   111079081.29409  21137647.720    86555132.52948
  24429454.180   128377706.29306  24429473.020   100034666.45044
 15 01 20 12 00 30.0000000  0 11G01G02G03G06G07G09G10G17G20G23G30
  24569724.400   129114667.53005  24569740.300   100608850.38144
  24304384.020   127720412.43705  24304387.800    99522425.09345
  22291706.060   117143695.72908  22291713.100    91280829.02447
  21032476.360   110526415.65609  21032483.140    86124509.11948
  22116216.340   116221534.30208  22116221.620    90562275.92147
  20353593.900   106958862.39209  20353599.220    83344591.39449
  21983302.020   115523044.98508  21983306.680    90017985.31247
  24027324.620   126264391.60406  24027334.360    98387852.78946
  20263264.380   106484174.32908  20263267.380    82974694.51449
  21146724.240   111126786.88409  21146725.760    86592305.72148
  24408282.940   128266453.94806  24408301.640    99947977.16844
 15 01 20 12 01  0.0000000  0 11G01G02G03G06G07G09G10G17G20G23G30
  24590843.840   129225646.50106  24590859.720   100695326.48645
  24285620.860   127621812.60905  24285624.860    99445594.22445
  22303316.240   117204706.78308  22303323.220    91328370.05447
  21024884.340   110486519.28309  21024891.100    86093421.05649
  22099580.200   116134112.03608  22099585.580    90494154.80047
  20353732.960   106959593.20509  20353738.280    83345160.88049
  21969815.700   115452174.14708  21969820.300    89962761.34047
  24042686.580   126345117.05707  24042696.320    98450755.35145
  20264388.340   106490081.10508  20264391.420    82979297.19449
  21155848.180   111174733.41509  21155849.660    86629666.66048
  24387113.220   128155209.82806  24387131.820    99861294.30145
 15 01 20 12 01 30.0000000  0 11G01G02G03G06G07G09G10G17G20G23G30
  24611976.820   129336696.65705  24611992.740   100781858.01444
  24266890.940   127523386.48305  24266894.940    99368898.67045
  22314966.240   117265927.35008  22314973.240    91376074.34447
  21017393.600   110447155.07309  21017400.320    86062747.66249
  22083001.060   116046989.07408  22083006.560    90426266.90547
  20353941.940   106960691.44709  20353947.260    83346016.67449
  21956358.640   115381457.14508  21956363.240    89907657.24246
  24058067.980   126425944.71307  24058077.700    98513737.53646
  20265572.800   106496305.71308  20265575.920    82984147.53849
  21165017.540   111222918.62509  21165018.980    86667213.57748
  24365945.320   128043975.96706  24365964.000    99774619.48445
 15 01 20 12 02  0.0000000  0 11G01G02G03G06G07G09G10G17G20G23G30
  24633123.040   129447815.88505  24633138.780   100868443.32044
  24248194.680   127425137.02905  24248198.700    99292340.77345
  22326656.020   117327357.58508  22326663.160    91423942.01147
  21010004.440   110408324.88309  21010011.180    86032490.39049
  22066479.540   115960168.21308  22066485.080    90358614.40748
  20354220.680   106962156.20409  20354225.980    83347158.06549
  21942931.120   115310895.43508  21942935.760    89852674.15247
  24073468.140   126506871.47706  24073477.960    98576796.95546
  20266817.920   106502849.04108  20266821.080    82989246.24149
  21174232.040   111271341.18309  21174233.480    86704945.44548
  24344779.900   127932755.10405  24344798.700    99687954.81445
 15 01 20 12 02 30.0000000  0 11G01G02G03G06G07G09G10G17G20G23G30
  24654281.940   129559002.56905  24654297.860   100955081.15644
  24229532.620   127327067.25706  24229536.500    99215922.88846
  22338385.660   117388998.09407  22338393.020    91471973.53647
  21002717.320   110370030.94809  21002724.100    86002650.97849
  22050016.220   115873652.71708  22050021.740    90291199.85348
  20354569.080   106963986.89809  20354574.320    83348584.60349
  21929533.480   115240490.47208  21929538.120    89797813.19346
  24088886.680   126587894.75406  24088896.620    98639931.58146
  20268123.940   106509712.28808  20268127.100    82994594.23249
  21183491.520   111320000.10609  21183492.960    86742861.49048
  24323617.600   127821550.31406  24323636.300    99601302.71144
 15 01 20 12 03  0.0000000  0 11G01G02G03G06G07G09G10G17G20G23G30
  24675453.000   129670253.70905  24675469.220   101041769.18544
  24210905.040   127229178.70006  24210908.800    99139646.19945
  22350155.120   117450848.08607  22350162.700    91520168.28547
  20995532.380   110332274.10409  20995539.200    85973230.08649
  22033611.260   115787443.98808  22033616.760    90224024.33348
  20354986.760   106966181.63209  20354991.960    83350294.80649
  21916165.660   115170242.25608  21916170.260    89743074.37547
  24104322.840   126669010.58006  24104332.860    98703138.32346
  20269490.860   106516895.46708  20269494.020    83000191.52749
  21192795.520   111368892.99509  21192796.980    86780959.84748
  24302458.760   127710363.44605  24302477.300    99514664.57446
 15 01 20 12 03 30.0000000  0 11G01G02G03G06G07G09G10G17G20G23G30
  24696635.820   129781566.96605  24696652.640   101128505.54944
  24192312.440   127131474.00406  24192316.120    99063512.78845
  22361964.520   117512907.52408  22361972.180    91568526.23447
  20988449.960   110295056.02008  20988456.820    85944228.99949
  22017265.120   115701544.71908  22017270.580    90157089.93447
  20355473.440   106968739.22609  20355478.640    83352287.75749
  21902827.900   115100151.97508  21902832.480    89688458.62747
  24119776.000   126750215.77106  24119786.100    98766414.68146
  20270918.720   106524398.92208  20270921.900    83006038.38349
  21202143.740   111418018.17809  21202145.200    86819239.21548
  24281303.780   127599196.92506  24281322.200    99428042.33345
 15 01 20 12 04  0.0000000  0 11G01G02G03G06G07G09G10G17G20G23G30
  24717830.080   129892940.06705  24717847.300   101215288.53144
  24173755.200   127033955.37006  24173758.760    98987524.34645
  22373813.940   117575176.27408  22373821.400    91617047.27647
  20981470.360   110258378.12409  20981477.180    85915648.84149
  22000978.180   115615957.12508  22000983.620    90090398.40948
  20356028.920   106971658.42709  20356034.120    83354562.47749
  21889520.360   115030220.55408  21889524.920    89633966.66847
  24135245.500   126831507.11506  24135255.720    98829758.16446
  20272407.640   106532223.22608  20272410.820    83012135.24949
  21211535.900   111467374.23609  21211537.340    86857698.48348
  24260153.140   127488053.22206  24260171.360    99341437.83545
 15 01 20 12 04 30.0000000  0 11G01G02G03G06G07G09G10G17G20G23G30
  24739035.320   130004370.45905  24739053.100   101302116.03044
  24155233.740   126936624.87506  24155237.180    98911682.51445
  22385703.240   117637654.04708  22385710.420    91665731.19847
  20974593.840   110222241.79609  20974600.620    85887490.68248
  21984751.020   115530683.93608  21984756.420    90023951.88847
  20356652.960   106974937.79609  20356658.120    83357117.84349
  21876243.160   114960448.74608  21876247.760    89579599.08747
  24150730.780   126912881.19206  24150741.080    98893166.09446
  20273957.740   106540368.73808  20273960.860    83018482.41049
  21220971.640   111516959.34209  21220973.040    86896336.23448
  24239007.240   127376934.61906  24239025.200    99254852.87745
 15 01 20 12 05  0.0000000  0 11G01G02G03G06G07G09G10G17G20G23G30
  24760251.340   130115856.58005  24760269.480   101388986.97744
  24136748.700   126839485.97706  24136752.060    98835989.97245
  22397632.440   117700341.50708  22397639.440    91714578.50247
  20967820.800   110186649.24409  20967827.540    85859756.24449
  21968584.280   115445728.21008  21968589.600    89957752.72647
  20357345.440   106978576.85209  20357350.580    83359953.48649
  21862996.640   114890838.25008  21863001.280    89525357.20147
  24166231.380   126994335.60306  24166241.740    98956636.61945
  20275569.160   106548836.40808  20275572.160    83025080.59649
  21230450.760   111566772.46709  21230452.160    86935151.65448
  24217866.680   127265844.31006  24217884.440    99168289.94945
 15 01 20 12 05 30.0000000  0 11G01G02G03G06G07G09G10G17G20G23G30
  24781477.700   130227395.96905  24781496.120   101475899.36144
  24118300.360   126742540.31806  24118303.780    98760448.01045
  22409601.440   117763238.38007  22409608.400    91763588.99747
  20961151.460   110151601.80709  20961158.200    85832446.57449
  21952478.480   115361092.19108  21952483.720    89891802.68647
  20358106.120   106982574.21909  20358111.220    83363068.33449
  21849780.960   114821389.85308  21849785.660    89471241.62746
  24181746.600   127075866.82906  24181757.020    99020166.99246
  20277242.040   106557627.03408  20277244.940    83031930.43949
  21239972.960   111616811.86109  21239974.360    86974143.38948
  24196731.880   127154784.62706  24196749.420    99081750.85045
 15 01 20 12 06  0.0000000  0 11G01G02G03G06G07G09G10G17G20G23G30
  24802714.220   130338988.23505  24802732.720   101562852.88745
  24099889.660   126645792.34605  24099893.160    98685060.07646
  22421610.520   117826346.48207  22421617.660    91812764.09447
  20954586.520   110117102.89909  20954593.280    85805564.32849
  21936434.460   115276780.19908  21936439.580    89826105.13048
  20358935.120   106986930.59809  20358940.160    83366462.93049
  21836596.720   114752106.59108  21836601.440    89417254.73247
  24197276.140   127157473.32906  24197286.520    99083755.98745
  20278976.760   106566742.94708  20278979.660    83039033.74749
  21249538.300   111667077.89309  21249539.680    87013311.72048
  24175603.760   127043760.01605  24175621.100    98995239.04446
 15 01 20 12 06 30.0000000  0 10G02G03G06G07G09G10G17G20G23G30
  24081516.420   126549241.27206  24081519.880    98609825.57745
  22433659.060   117889662.31307  22433666.400    91862101.06247
  20948125.600   110083150.47709  20948132.340    85779107.90849
  21920451.960   115192791.21408  21920456.980    89760659.27048
  20359831.520   106991641.25409  20359836.540    83370133.59149
  21823443.420   114682985.88008  21823448.140    89363394.49747
  24212818.900   127239149.07606  24212829.340    99147398.96445
  20280772.760   106576181.00908  20280775.660    83046388.08149
  21259145.880   111717565.70709  21259147.220    87052652.86848
  24154482.200   126932769.56505  24154499.320    98908753.78746
 15 01 20 12 07  0.0000000  0 10G02G03G06G07G09G10G17G20G23G30
  24063182.720   126452897.64805  24063186.100    98534752.73446
  22445748.620   117953193.87407  22445756.200    91911606.13947
  20941770.520   110049754.15909  20941777.200    85753084.81749
  21904532.920   115109135.85008  21904537.940    89695473.37048
  20360796.660   106996713.16509  20360801.680    83374085.74849
  21810322.760   114614036.88708  21810327.540    89309668.07347
  24228375.800   127320898.99606  24228386.280    99211099.70946
  20282631.720   106585949.94408  20282634.640    83054000.24549
  21268796.860   111768281.58709  21268798.140    87092171.73348
  24133369.320   126821823.95305  24133386.140    98822303.44145
 15 01 20 12 07 30.0000000  0 10G02G03G06G07G09G10G17G20G23G30
  24044887.100   126356753.74506  24044890.280    98459835.49946
  22457877.380   118016931.12407  22457885.080    91961271.48047
  20935519.600   110016905.33209  20935526.260    85727488.34949
  21888675.860   115025806.67408  21888680.980    89630541.63548
  20361828.360   107002135.01609  20361833.420    83378310.58949
  21797233.100   114545250.62008  21797237.880    89256068.44347
  24243944.180   127402709.67806  24243954.760    99274847.78246
  20284551.860   106596040.50508  20284554.820    83061863.02649
  21278489.040   111819214.15509  21278490.300    87131859.44048
  24112263.580   126710915.58906  24112280.120    98735882.07445
 15 01 20 12 08  0.0000000  0 10G02G03G06G07G09G10G17G20G23G30
  24026630.320   126260814.20206  24026633.480    98385077.49646
  22470045.840   118080876.21908  22470053.480    92011098.78647
  20929373.600   109984607.76809  20929380.240    85702321.43249
  21872881.660   114942808.21008  21872886.920    89565867.59348
  20362926.880   107007907.92509  20362931.960    83382808.98649
  21784175.100   114476630.64208  21784179.840    89202598.39147
  24259523.940   127484580.37106  24259534.680    99338642.61845
  20286533.740   106606455.57008  20286536.740    83069978.66749
  21288222.540   111870364.08509  21288223.800    87171716.51648
  24091166.000   126600049.46706  24091182.180    98649493.54645
 15 01 20 12 08 30.0000000  0 10G02G03G06G07G09G10G17G20G23G30
  24008413.440   126165084.33806  24008416.680    98310482.89646
  22482254.460   118145031.76808  22482261.860    92061090.05747
  20923333.280   109952865.45709  20923339.860    85677587.18249
  21857151.280   114860145.44008  21857156.680    89501455.13648
  20364092.440   107014033.26509  20364097.580    83387582.00349
  21771149.420   114408180.37908  21771154.120    89149260.58547
  24275114.980   127566510.28406  24275125.960    99402483.56045
  20288577.960   106617198.12908  20288580.980    83078349.51349
  21297997.600   111921732.53009  21297998.860    87211743.86748
  24070077.420   126489230.71406  24070093.280    98563141.90944
 15 01 20 12 09  0.0000000  0 10G02G03G06G07G09G10G17G20G23G30
  23990236.660   126069564.90606  23990240.000    98236052.27145
  22494502.780   118209395.92808  22494509.900    92111243.88547
  20917398.540   109921678.08809  20917405.100    85653285.35949
  21841485.020   114777819.38208  21841490.480    89437305.05948
  20365324.520   107020508.11509  20365329.740    83392627.37449
  21758155.900   114339899.19908  21758160.620    89096054.53647
  24290716.500   127648494.81006  24290727.740    99466367.06346
  20290684.220   106628266.71608  20290687.240    83086974.39849
  21307813.620   111973316.11809  21307814.900    87251938.86348
  24048998.040   126378460.22306  24049013.540    98476827.81745
 15 01 20 12 09 30.0000000  0 10G02G03G06G07G09G10G17G20G23G30
  23972100.780   125974259.93506  23972104.100    98161788.75946
  22506790.980   118273970.24007  22506797.940    92161561.46947
  20911569.940   109891048.63509  20911576.520    85629418.26949
  21825883.660   114695833.94508  21825889.020    89373420.40148
  20366623.180   107027332.82709  20366628.460    83397945.35649
  21745195.140   114271789.89008  21745199.860    89042982.41547
  24306328.100   127730532.20106  24306339.500    99530291.75445
  20292853.040   106639663.91308  20292856.060    83095855.34349
  21317670.620   112025115.15209  21317671.920    87292301.73948
  24027928.580   126267742.16506  24027943.820    98390554.52945
 15 01 20 12 10  0.0000000  0 10G02G03G06G07G09G10G17G20G23G30
  23954006.320   125879172.52706  23954009.520    98087694.75546
  22519119.260   118338755.56307  22519126.180    92212043.49047
  20905847.920   109860979.43009  20905854.540    85605987.74449
  21810347.840   114614192.47808  21810352.960    89309803.78048
  20367988.380   107034507.16209  20367993.700    83403535.77349
  21732267.420   114203854.43408  21732272.100    88990045.75747
  24321949.360   127812620.39306  24321960.860    99594256.00846
  20295084.680   106651391.30508  20295087.700    83104993.58349
  21327568.440   112077128.73909  21327569.800    87332831.79948
  24006869.780   126157080.02006  24006884.820    98304324.77445
 15 01 20 12 10 30.0000000  0 10G02G03G06G07G09G10G17G20G23G30
  23935953.560   125784304.10706  23935956.600    98013771.39546
  22531487.280   118403750.44107  22531494.340    92262688.79647
  20900232.460   109831470.42809  20900239.140    85582993.73349
  21794877.680   114532895.87608  21794882.560    89246455.88348
  20369419.620   107042028.48409  20369424.960    83409396.56849
  21719372.720   114136092.56508  21719377.340    88937244.36047
  24337579.460   127894755.29106  24337591.080    99658256.62545
  20297379.000   106663447.99608  20297381.980    83114388.41549
  21337506.620   112129354.30909  21337508.000    87373527.03848
  23985821.900   126046475.16806  23985836.780    98218139.62945
 15 01 20 12 11  0.0000000  0 10G02G03G06G07G09G10G17G20G23G30
  23917942.760   125689656.58606  23917945.600    97940020.16645
  22543895.140   118468954.60007  22543902.380    92313497.17946
  20894723.840   109802522.72809  20894730.560    85560437.10549
  21779473.600   114451946.85808  21779478.340    89183378.83048
  20370916.620   107049895.34309  20370921.940    83415526.61749
  21706511.300   114068505.42508  21706515.840    88884579.12247
  24353217.820   127976933.43106  24353229.620    99722290.94845
  20299735.940   106675833.98608  20299738.920    83124039.84449
  21347484.860   112181790.24308  21347486.260    87414386.19548
  23964785.420   125935929.82906  23964800.180    98132000.83245
 15 01 20 12 11 30.0000000  0 10G02G03G06G07G09G10G17G20G23G30
  23899974.520   125595233.21506  23899977.300    97866443.59946
  22556342.980   118534368.46507  22556350.340    92364468.96847
  20889322.440   109774138.18509  20889329.140    85538319.29949
  21764136.020   114371347.98308  21764140.820    89120574.60248
  20372479.260   107058107.05609  20372484.540    83421925.37949
  21693683.440   114001094.62108  21693687.920    88832051.29447
  24368864.040   128059152.09206  24368875.920    99786356.82945
  20302155.860   106688550.76208  20302158.800    83133949.03249
  21357502.880   112234435.37008  21357504.320    87455408.36348
  23943761.040   125825447.30406  23943775.480    98045910.94445
 15 01 20 12 12  0.0000000  0 10G02G03G06G07G09G10G17G20G23G30
  23882049.060   125501034.38206  23882051.800    97793042.00146
  22568830.440   118599989.91107  22568837.780    92415602.49947
  20884028.060   109746315.98009  20884034.740    85516639.67149
  21748865.080   114291099.52608  21748870.020    89058043.42548
  20374106.880   107066660.28609  20374112.160    83428590.25349
  21680888.860   113933858.85208  21680893.280    88779659.85347
  24384516.980   128141405.92806  24384528.900    99850450.09245
  20304638.340   106701596.40808  20304641.280    83144114.47549
  21367559.980   112287285.99208  21367561.540    87496590.65248
  23922748.860   125715028.05206  23922762.960    97959870.37245
 15 01 20 12 12 30.0000000  0 10G02G03G06G07G09G10G17G20G23G30
  23864167.240   125407065.19906  23864170.060    97719819.34946
  22581357.960   118665821.59507  22581365.240    92466899.84647
  20878841.460   109719060.17109  20878848.140    85495401.39149
  21733661.780   114211206.68608  21733666.880    88995789.34848
  20375799.760   107075556.56409  20375805.020    83435522.44149
  21668128.300   113866801.82208  21668132.680    88727407.70247
  24400176.680   128223694.77006  24400188.600    99914570.61246
  20307184.040   106714974.34708  20307187.000    83154538.85749
  21377656.460   112340343.47308  21377658.120    87537934.13248
  23901749.880   125604677.50706  23901763.500    97873883.31745
 15 01 20 12 13  0.0000000  0 10G02G03G06G07G09G10G17G20G23G30
  23846329.720   125313329.18106  23846332.700    97646778.38945
  22593925.640   118731864.25607  22593932.860    92518361.59247
  20873763.040   109692372.83409  20873769.700    85474606.07549
  21718526.900   114131672.90408  21718532.040    88933815.06248
  20377557.840   107084795.49709  20377563.100    83442721.63049
  21655402.140   113799925.82808  21655406.560    88675296.61847
  24415842.620   128306016.21406  24415854.520    99978716.53345
  20309793.240   106728685.84008  20309796.180    83165223.14649
  21387792.260   112393607.38108  21387793.900    87579438.46248
  23880764.540   125494399.09806  23880777.740    97787952.45145
 15 01 20 12 13 30.0000000  0 10G02G03G06G07G09G10G17G20G23G30
  23828536.720   125219827.67806  23828539.920    97573920.16846
  22606533.080   118798116.66107  22606540.400    92569986.77747
  20868792.800   109666254.02509  20868799.440    85454253.76749
  21703460.600   114052499.05008  21703465.620    88872121.24648
  20379380.680   107094374.69609  20379385.920    83450185.96649
  21642710.440   113733230.89108  21642714.880    88623326.61147
  24431514.100   128388366.71406  24431525.960   100042885.07445
  20312465.800   106742730.53708  20312468.800    83176167.07449
  21397966.800   112447074.88308  21397968.380    87621101.43548
  23859793.140   125384194.32806  23859806.020    97702078.98745
 15 01 20 12 14  0.0000000  0 10G02G03G06G07G09G10G17G20G23G30
  23810789.040   125126564.32206  23810792.420    97501247.52046
  22619180.480   118864579.95107  22619188.040    92621776.29447
  20863931.200   109640706.23709  20863937.840    85434346.41249
  21688463.540   113973689.14408  21688468.420    88810711.03048
  20381268.260   107104294.16209  20381273.480    83457915.44049
  21630053.640   113666719.43108  21630058.060    88571499.58147
  24447190.500   128470743.83006  24447202.520   100107074.33445
  20315202.140   106757110.24308  20315205.160    83187372.04649
  21408180.040   112500745.75108  21408181.560    87662922.87848
  23838836.400   125274067.10306  23838849.140    97616265.95745
 15 01 20 12 14 30.0000000  0 10G02G03G06G07G09G10G17G20G23G30
  23793087.000   125033540.08906  23793090.280    97428761.19246
  22631867.640   118931252.53807  22631875.460    92673728.90047
