     2.11           OBSERVATION DATA    M                   RINEX VERSION / TYPE
SPIDER V4,0,0,3554                      2015 03 24 06:36    PGM / RUN BY / DATE 
CNAJ                                                        MARKER NAME         
CNAJ                                                        MARKER NUMBER       
                                                            OBSERVER / AGENCY   
496642              LEICA GRX1200+GNSS  8.10/4.007          REC # / TYPE / VERS 
10321018            LEIAR25         NONE                    ANT # / TYPE        
  5206098.7325   612081.0247  3621806.3029                  APPROX POSITION XYZ 
        0.0720        0.0000        0.0000                  ANTENNA: DELTA H/E/N
     1     1                                                WAVELENGTH FACT L1/2
     4    C1    L1    P2    L2                              # / TYPES OF OBSERV 
    30.000                                                  INTERVAL            
  2015    01    20    00    00    0.0000000     GPS         TIME OF FIRST OBS   
  2015    01    20    23    59   30.0000000     GPS         TIME OF LAST OBS    
    16                                                      LEAP SECONDS        
    37                                                      # OF SATELLITES     
   G 1   808   808   808   808                              PRN / # OF OBS      
   G 2   945   945   944   944                              PRN / # OF OBS      
   G 3   851   850   851   850                              PRN / # OF OBS      
   G 4   843   843   843   843                              PRN / # OF OBS      
   G 5   652   652   652   652                              PRN / # OF OBS      
   G 6   808   808   799   799                              PRN / # OF OBS      
   G 7   668   668   666   666                              PRN / # OF OBS      
   G 9   811   811   809   809                              PRN / # OF OBS      
   G10   760   760   760   760                              PRN / # OF OBS      
   G11   777   777   777   777                              PRN / # OF OBS      
   G12   842   842   841   841                              PRN / # OF OBS      
   G13   795   795   795   795                              PRN / # OF OBS      
   G14   948   948   944   944                              PRN / # OF OBS      
   G15   706   706   706   706                              PRN / # OF OBS      
   G16   664   664   660   660                              PRN / # OF OBS      
   G17   939   936   937   936                              PRN / # OF OBS      
   G18   900   899   898   898                              PRN / # OF OBS      
   G19   758   758   758   758                              PRN / # OF OBS      
   G20   843   843   841   841                              PRN / # OF OBS      
   G21   741   741   738   738                              PRN / # OF OBS      
   G22   655   655   652   652                              PRN / # OF OBS      
   G23   751   751   748   748                              PRN / # OF OBS      
   G24   830   830   829   829                              PRN / # OF OBS      
   G25   860   859   858   858                              PRN / # OF OBS      
   G27   801   801   801   801                              PRN / # OF OBS      
   G28   861   861   856   856                              PRN / # OF OBS      
   G29   781   780   776   775                              PRN / # OF OBS      
   G30   703   703   697   697                              PRN / # OF OBS      
   G31   839   839   831   831                              PRN / # OF OBS      
   G32   774   773   761   760                              PRN / # OF OBS      
   R10    90    90    88    87                              PRN / # OF OBS      
   R11    90    90    90    90                              PRN / # OF OBS      
   R12    90    90    90    90                              PRN / # OF OBS      
   R20    51    51    51    51                              PRN / # OF OBS      
   R21    71    71    71    71                              PRN / # OF OBS      
   R22    90    90    90    90                              PRN / # OF OBS      
   R23    32    32    29    29                              PRN / # OF OBS      
BIT 2 OF LLI FLAGS DATA COLLECTED UNDER A/S CONDITION       COMMENT             
SNR is mapped to RINEX snr flag value [2-9]                 COMMENT             
Lx:     = 25dBHz -> 1; 26-27dBHz -> 2; 28-31dBHz -> 3       COMMENT             
       32-35dBHz -> 4; 36-38dBHz -> 5; 39-41dBHz -> 6       COMMENT             
       42-44dBHz -> 7; 45-48dBHz -> 8; >=49dBHz -> 9        COMMENT             
                                                            END OF HEADER       
 15 01 20 00 00  0.0000000  0  7G02G12G14G21G25G29G31
  24405252.700   128250479.90107  24405248.040    99935387.05144
  23283563.440   122356034.00307  23283558.580    95342375.98843
  23507758.680   123534107.02206  23507755.940    96260314.93344
  22940180.860   120551503.00408  22940177.580    93936207.29044
  20925535.480   109964443.20109  20925535.300    85686627.97547
  20229269.380   106305580.09609  20229266.260    82835509.05748
  21514584.260   113059918.63809  21514580.360    88098639.36247
 15 01 20 00 00 30.0000000  0  7G02G12G14G21G25G29G31
  24419959.740   128327765.76307  24419954.600    99995609.78044
  23296387.380   122423424.37008  23296382.020    95394887.98943
  23521902.180   123608434.17505  23521899.460    96318232.11743
  22923657.360   120464671.91208  22923653.200    93868546.69844
  20930119.360   109988531.91109  20930119.120    85705398.39447
  20234029.580   106330594.99309  20234026.400    82855001.18048
  21504058.000   113004601.71809  21504053.160    88055535.26447
 15 01 20 00 01  0.0000000  0  7G02G12G14G21G25G29G31
  24434721.680   128405339.54807  24434715.900   100056056.87643
  23309237.220   122490950.76407  23309231.360    95447505.96344
  23536081.700   123682951.87106  23536078.960    96376297.80143
  22907174.180   120378051.95108  22907168.940    93801050.61644
  20934750.300   110012867.18409  20934749.880    85724360.93247
  20238857.060   106355963.21409  20238853.840    82874768.62348
  21493613.800   112949715.82009  21493607.940    88012767.02047
 15 01 20 00 01 30.0000000  0  7G02G12G14G21G25G29G31
  24449537.140   128483194.38607  24449530.480   100116722.96244
  23322112.020   122558608.55208  23322105.940    95500226.31543
  23550296.020   123757652.14505  23550293.620    96434505.86243
  22890730.840   120291640.85408  22890724.840    93733717.28644
  20939427.400   110037444.81909  20939426.860    85743512.33347
  20243750.460   106381678.30409  20243747.360    82894806.36248
  21483251.080   112895258.19509  21483244.380    87970332.49647
 15 01 20 00 02  0.0000000  0  7G02G12G14G21G25G29G31
  24464407.240   128561335.87007  24464399.780   100177612.42043
  23335013.580   122626405.58308  23335007.240    95553055.19744
  23564546.120   123832539.77405  23564544.980    96492859.85944
  22874329.240   120205448.46608  22874323.040    93666554.37244
  20944152.140   110062272.93809  20944151.480    85762858.90147
  20248710.920   106407746.38309  20248708.060    82915119.14948
  21472971.560   112841238.23609  21472964.420    87928239.00347
 15 01 20 00 02 30.0000000  0  7G02G12G14G21G25G29G31
  24479330.440   128639756.17507  24479321.600   100238719.10143
  23347940.320   122694335.72408  23347933.640    95605987.76243
  23578830.280   123907605.43305  23578829.940    96551352.52144
  22857968.460   120119471.11508  22857962.560    93599559.05844
  20948923.480   110087346.33109  20948922.640    85782396.60347
  20253736.980   106434159.87609  20253734.500    82935701.08348
  21462774.600   112787652.48109  21462767.440    87886483.85447
 15 01 20 00 03  0.0000000  0  7G02G12G14G21G25G29G31
  24494306.220   128718452.39107  24494296.460   100300040.77844
  23360892.400   122762398.99308  23360885.220    95659024.11544
  23593148.100   123982845.65105  23593148.120    96609981.22345
  22841648.940   120033711.15908  22841643.620    93532733.14745
  20953741.500   110112664.83709  20953740.340    85802125.29947
  20258828.380   106460916.66709  20258826.180    82956550.52848
  21452660.500   112734502.30909  21452653.600    87845068.12347
 15 01 20 00 03 30.0000000  0  7G02G12G14G21G25G29G31
  24509335.040   128797427.25807  24509324.760   100361579.63243
  23373870.660   122830600.64608  23373863.760    95712168.25544
  23607499.800   124058262.34206  23607499.400    96668747.41445
  22825372.100   119948175.76608  22825367.580    93466082.22945
  20958607.340   110138233.95109  20958605.660    85822049.28347
  20263985.720   106488019.77209  20263983.620    82977669.83548
  21442630.560   112681794.85009  21442624.200    87803997.37147
 15 01 20 00 04  0.0000000  0  7G02G12G14G21G25G29G31
  24524415.400   128876673.26207  24524405.120   100423329.76643
  23386874.140   122898935.13308  23386868.000    95765415.89344
  23621883.900   124133846.97806  23621882.820    96727644.49445
  22809137.360   119862861.41108  22809133.320    93399603.54145
  20963519.900   110164048.71309  20963517.820    85842164.67047
  20269207.640   106515461.95409  20269205.500    82999053.35148
  21432684.180   112629526.64609  21432678.460    87763268.89647
 15 01 20 00 04 30.0000000  0  7G02G12G14G21G25G29G31
  24539548.380   128956196.52807  24539538.340   100485295.90743
  23399904.500   122967410.53108  23399898.800    95818773.36144
  23636301.080   124209604.38906  23636299.200    96786676.18845
  22792946.640   119777778.40608  22792942.840    93333305.12045
  20968480.820   110190117.84109  20968478.500    85862478.26647
  20274495.400   106543249.85909  20274493.180    83020706.26648
  21422823.280   112577707.71109  21422818.100    87722890.50148
 15 01 20 00 05  0.0000000  0  7G02G12G14G21G25G29G31
  24554732.840   129035990.80007  24554723.460   100547473.24144
  23412960.880   123036022.99408  23412955.700    95872237.58744
  23650749.640   124285527.44706  23650747.080    96845836.96545
  22776799.780   119692925.21208  22776796.100    93267185.77045
  20973489.400   110216437.80709  20973487.100    85882987.32447
  20279848.100   106571378.36909  20279845.860    83042624.58648
  21413047.540   112526336.48909  21413042.880    87682860.97848
 15 01 20 00 05 30.0000000  0  7G02G12G14G21G25G29G31
  24569968.520   129116054.46807  24569959.940   100609860.44343
  23426043.660   123104773.54008  23426039.140    95925809.43144
  23665229.120   124361614.04606  23665226.000    96905125.14745
  22760697.240   119608305.10408  22760693.300    93201248.05145
  20978545.900   110243009.80209  20978543.720    85903692.78747
  20285265.420   106599845.75509  20285263.180    83064806.96348
  21403357.420   112475415.37609  21403353.300    87643182.19148
 15 01 20 00 06  0.0000000  0  7G02G12G14G21G25G29G31
  24585255.020   129196385.06907  24585247.240   100672455.67844
  23439152.500   123173661.49008  23439148.520    95979488.32645
  23679738.780   124437860.46206  23679735.480    96964537.91844
  22744639.340   119523919.77608  22744635.000    93135493.25444
  20983650.340   110269833.80409  20983648.420    85924594.59547
  20290746.860   106628649.95309  20290744.720    83087251.79048
  21393753.220   112424945.86609  21393749.560    87603855.30448
 15 01 20 00 06 30.0000000  0  7G02G12G14G21G25G29G31
  24600591.700   129276979.59307  24600584.440   100735256.57544
  23452287.480   123242686.42808  23452283.800    96033273.98045
  23694278.000   124514263.00507  23694274.340    97024072.29745
  22728626.320   119439770.79108  22728621.620    93069922.62845
  20988802.720   110296909.72309  20988801.060    85945692.70148
  20296291.920   106657788.92209  20296289.940    83109957.48548
  21384235.260   112374929.37909  21384231.940    87564881.43048
 15 01 20 00 07  0.0000000  0  7G02G12G14G21G25G29G31
  24615978.360   129357838.27407  24615971.740   100798263.33144
  23465448.940   123311850.54408  23465445.540    96087168.07945
  23708846.560   124590820.43007  23708842.620    97083727.38645
  22712659.020   119355862.51008  22712653.920    93004539.54244
  20994003.540   110324240.28209  20994002.180    85966989.23148
  20301900.540   106687262.88109  20301898.800    83132924.20648
  21374804.260   112325369.70209  21374801.140    87526263.51048
 15 01 20 00 07 30.0000000  0  7G02G12G14G21G25G29G31
  24631414.880   129438959.88907  24631409.120   100861474.96345
  23478636.940   123381155.20708  23478633.940    96141171.67244
  23723444.160   124667531.00207  23723439.940    97143501.85445
  22696738.120   119272198.38308  22696732.840    92939346.75345
  20999253.180   110351827.08809  20999252.100    85988485.43648
  20307572.680   106717070.94809  20307571.120    83156151.27548
  21365460.920   112276270.35509  21365457.880    87488004.29748
 15 01 20 00 08  0.0000000  0  7G02G12G14G21G25G29G31
  24646900.040   129520337.96807  24646895.380   100924886.44744
  23491851.140   123450596.30508  23491848.020    96195281.60445
  23738069.300   124744387.19907  23738065.000    97203389.76744
  22680863.280   119188776.11108  22680857.680    92874342.39344
  21004550.800   110379666.15609  21004549.940    86010178.20048
  20313307.480   106747207.71709  20313305.940    83179634.47048
  21356204.660   112227628.64109  21356201.580    87450101.67348
 15 01 20 00 08 30.0000000  0  7G02G12G14G21G25G29G31
  24662434.200   129601974.22907  24662430.660   100988499.10645
  23505091.940   123520177.24908  23505088.640    96249500.50244
  23752722.180   124821389.69806  23752718.100    97263391.73944
  22665035.780   119105602.04208  22665030.060    92809531.44344
  21009897.240   110407761.91409  21009896.560    86032070.98948
  20319105.300   106777674.95209  20319103.660    83203375.17248
  21347036.640   112179450.53109  21347033.480    87412560.29948
 15 01 20 00 09  0.0000000  0  7G02G12G14G21G25G29G31
  24678016.080   129683861.86006  24678014.040   101052307.64145
  23518358.760   123589894.03408  23518355.260    96303825.24644
  23767401.420   124898530.97807  23767397.800    97323501.77443
  22649255.120   119022673.60508  22649249.160    92744911.90145
  21015291.740   110436110.30809  21015291.200    86054160.63448
  20324964.960   106808466.60909  20324963.120    83227368.66548
  21337956.380   112131733.21409  21337953.060    87375377.98048
 15 01 20 00 09 30.0000000  0  7G02G12G14G21G25G29G31
  24693646.140   129766002.71506  24693645.540   101116313.49045
  23531652.380   123659750.45508  23531648.380    96358258.81344
  23782107.180   124975811.91907  23782104.380    97383720.66643
  22633522.480   118939997.45108  22633516.360    92680488.92845
  21020735.080   110464715.89109  21020734.600    86076450.69148
  20330886.800   106839585.03509  20330884.780    83251616.78348
  21328965.020   112084482.88309  21328961.560    87338559.53848
 15 01 20 00 10  0.0000000  0  7G02G12G14G21G25G29G31
  24709323.880   129848393.70506  24709324.560   101180514.21444
  23544972.440   123729746.09308  23544968.160    96412800.83245
  23796838.560   125053228.41307  23796836.160    97444045.14043
  22617837.960   118857574.63708  22617831.860    92616263.37544
  21026227.200   110493578.20609  21026226.780    86098940.79448
  20336870.180   106871027.30409  20336868.040    83276117.24548
  21320062.620   112037700.27709  21320059.140    87302105.55748
 15 01 20 00 10 30.0000000  0  7G02G12G14G21G25G29G31
  24725048.740   129931031.05806  24725050.380   101244906.96545
  23558318.680   123799878.95609  23558314.180    96467449.80145
  23811594.500   125130776.00405  23811592.500    97504471.79943
  22602201.700   118775405.89308  22602195.700    92552235.81044
  21031767.960   110522696.15309  21031767.640    86121630.09548
  20342914.520   106902790.11309  20342912.240    83300867.47548
  21311249.280   111991385.68409  21311245.960    87266016.26648
 15 01 20 00 11  0.0000000  0  7G02G12G14G21G25G29G31
  24740819.880   130013910.24606  24740821.620   101309488.12945
  23571690.660   123870147.24308  23571686.140    96522204.31345
  23826374.240   125208449.01504  23826371.040    97564996.17644
  22586613.700   118693491.06808  22586607.820    92488406.08445
  21037357.100   110552067.99609  21037356.880    86144517.23848
  20349019.040   106934869.39309  20349016.580    83325864.31848
  21302524.860   111945538.75709  21302521.840    87230291.39648
 15 01 20 00 11 30.0000000  0  7G02G12G14G21G25G29G31
  24756634.700   130097016.79507  24756635.980   101374246.47145
  23585085.920   123940538.60109  23585081.800    96577054.68945
  23841175.500   125286232.11606  23841170.680    97625602.33341
  22571071.940   118611819.94208  22571066.600    92424766.26244
  21042992.340   110581681.87909  21042992.260    86167592.98248
  20355181.200   106967251.56009  20355178.540    83351097.18248
  21293887.360   111900148.99509  21293884.640    87194922.76748
 15 01 20 00 12  0.0000000  0  7G02G12G14G21G25G29G31
  24772497.660   130180374.73207  24772498.120   101439200.70845
  23598509.420   124011078.91009  23598505.540    96632021.14945
  23856002.900   125364148.45106  23855999.280    97686316.30943
  22555582.000   118530421.05608  22555577.140    92361338.57145
  21048678.780   110611564.44409  21048678.780    86190878.07748
  20361405.560   106999960.97409  20361402.820    83376585.02748
  21285342.180   111855244.54409  21285339.560    87159932.29247
 15 01 20 00 12 30.0000000  0  7G02G12G14G21G25G29G31
  24788405.640   130263967.93707  24788404.940   101504338.28946
  23611958.560   124081754.66008  23611954.860    96687093.15045
  23870852.800   125442181.01407  23870849.500    97747120.85943
  22540141.700   118449282.71408  22540137.320    92298113.89744
  21054413.920   110641702.25609  21054413.860    86214362.06848
  20367689.140   107032981.65409  20367686.460    83402315.41948
  21276887.100   111810813.07209  21276884.300    87125310.36947
 15 01 20 00 13  0.0000000  0  7G02G12G14G21G25G29G31
  24804358.260   130347794.85407  24804356.400   101569657.95445
  23625433.500   124152566.72808  23625430.120    96742271.37645
  23885724.380   125520327.31707  23885721.000    97808013.99643
  22524751.640   118368407.69508  22524747.380    92235094.40544
  21060197.920   110672096.52009  21060197.700    86238045.88548
  20374031.780   107066313.07209  20374029.320    83428287.94648
  21268522.600   111766857.30109  21268519.380    87091059.12047
 15 01 20 00 13 30.0000000  0  6G12G14G21G25G29G31
  23638932.600   124223506.06508  23638929.680    96797548.77245
  23900615.160   125598575.30708  23900611.880    97868986.38044
  22509410.500   118287789.35708  22509406.320    92172274.92845
  21066029.120   110702738.71809  21066028.760    86261922.89748
  20380431.400   107099944.14808  20380429.140    83454493.96548
  21260247.220   111723370.01709  21260243.500    87057172.91247
 15 01 20 00 14  0.0000000  0  6G12G14G21G25G29G31
  23652461.600   124294603.59408  23652459.120    96852949.40744
  23915530.540   125676953.58308  23915527.140    97930060.29244
  22494124.700   118207461.15608  22494120.380    92109681.52844
  21071913.520   110733660.66609  21071913.040    86286017.90448
  20386893.600   107133904.52908  20386891.500    83480956.60548
  21252067.220   111680384.02209  21252062.860    87023677.31547
 15 01 20 00 14 30.0000000  0  6G12G14G21G25G29G31
  23666017.540   124365843.79508  23666015.560    96908461.24244
  23930466.720   125755442.35408  23930463.180    97991220.31444
  22478891.500   118127409.09608  22478886.900    92047303.29045
  21077848.100   110764846.62609  21077847.380    86310318.63748
  20393415.060   107168176.08908  20393412.860    83507661.72548
  21243979.860   111637885.13109  21243975.140    86990561.28247
 15 01 20 00 15  0.0000000  0  6G12G14G21G25G29G31
  23679599.080   124437217.57408  23679597.180    96964077.17544
  23945421.520   125834029.63908  23945417.520    98052457.07543
  22463709.420   118047626.27008  22463704.640    91985134.87245
  21083831.300   110796288.03409  21083830.140    86334818.43348
  20399993.820   107202748.52308  20399991.340    83534601.30147
  21235983.820   111595866.31909  21235979.060    86957819.33647
 15 01 20 00 15 30.0000000  0  6G12G14G21G25G29G31
  23693206.720   124508728.06808  23693204.740    97019799.63644
  23960395.020   125912715.66508  23960390.680    98113770.79843
  22448579.460   117968117.98008  22448574.780    91923180.38145
  21089863.760   110827988.64709  21089862.140    86359520.19547
  20406630.020   107237623.09508  20406627.320    83561776.30348
  21228080.140   111554332.47408  21228075.520    86925455.30747
 15 01 20 00 16  0.0000000  0  6G12G14G21G25G29G31
  23706840.420   124580375.49008  23706837.940    97075628.77944
  23975386.720   125991497.16007  23975381.800    98175158.90243
  22433501.920   117888886.43608  22433497.720    91861441.54045
  21095945.600   110859948.97409  21095943.580    86384424.33748
  20413323.300   107272797.88308  20413320.660    83589185.22648
  21220269.040   111513285.00809  21220264.600    86893470.27147
 15 01 20 00 16 30.0000000  0  6G12G14G21G25G29G31
  23720499.560   124652155.34608  23720496.420    97131561.14144
  23990395.280   126070366.80007  23990390.020    98236615.70343
  22418476.440   117809929.27608  22418472.780    91799916.50544
  21102075.980   110892164.85109  21102073.780    86409527.60047
  20420072.660   107308267.42808  20420070.300    83616823.81448
  21212550.020   111472721.10808  21212545.580    86861862.02747
 15 01 20 00 17  0.0000000  0  6G12G14G21G25G29G31
  23734185.300   124724073.97708  23734181.800    97187601.64744
  24005421.300   126149327.96807  24005415.780    98298143.79743
  22403504.780   117731255.11007  22403501.600    91738611.99344
  21108256.300   110924643.36909  21108254.160    86434835.53847
  20426879.100   107344035.91608  20426877.000    83644695.37448
  21204924.560   111432649.27108  21204920.160    86830637.22747
 15 01 20 00 17 30.0000000  0  6G12G14G21G25G29G31
  23747898.280   124796135.35608  23747894.720    97243753.36144
  24020464.840   126228381.48406  24020459.560    98359743.82844
  22388588.080   117652870.07307  22388585.040    91677532.76645
  21114487.500   110957388.99809  21114485.520    86460351.61047
  20433742.980   107380105.41308  20433740.940    83672801.45848
  21197393.640   111393074.87908  21197389.420    86799800.02847
 15 01 20 00 18  0.0000000  0  6G12G14G21G25G29G31
  23761638.140   124868337.16808  23761634.760    97300014.49144
  24035524.680   126307521.78506  24035520.480    98421411.44143
  22373726.540   117574773.64108  22373723.400    91616678.40744
  21120769.220   110990399.55709  21120767.380    86486074.11647
  20440663.540   107416472.08408  20440661.340    83701139.11248
  21189957.120   111353997.13708  21189953.240    86769349.82747
 15 01 20 00 18 30.0000000  0  6G12G14G21G25G29G31
  23775405.420   124940682.38808  23775402.360    97356387.39545
  24050600.740   126386748.39406  24050596.980    98483146.34943
  22358921.200   117496970.77308  22358917.240    91556052.79844
  21127102.060   111023678.16209  21127100.060    86512005.49647
  20447640.840   107453136.69008  20447638.380    83729708.92948
  21182615.860   111315420.44708  21182612.540    86739290.05747
 15 01 20 00 19  0.0000000  0  6G12G14G21G25G29G31
  23789199.680   125013170.02608  23789197.080    97412871.25945
  24065692.520   126466058.11206  24065689.220    98544945.98144
  22344172.300   117419462.98508  22344167.500    91495657.09744
  21133485.900   111057224.79709  21133483.660    86538145.71547
  20454674.500   107490097.08408  20454671.800    83758509.23348
  21175370.100   111277345.86808  21175367.520    86709621.55747
 15 01 20 00 19 30.0000000  0  6G12G14G21G25G29G31
  23803020.160   125085795.48408  23803018.160    97469462.50645
  24080798.700   126545442.63807  24080795.880    98606803.94543
  22329479.180   117342247.43608  22329474.020    91435489.10544
  21139919.860   111091035.22809  21139917.420    86564491.48747
  20461763.340   107527346.69309  20461760.340    83787534.89548
  21168219.360   111239770.53608  21168217.580    86680342.08248
 15 01 20 00 20  0.0000000  0  6G12G14G21G25G29G31
  23816866.400   125158556.77608  23816864.760    97526159.62545
  24095918.320   126624896.62207  24095915.600    98668715.98143
  22314841.640   117265324.10608  22314836.680    91375548.86345
  21146403.540   111125107.56409  21146401.060    86591041.35147
  20468906.560   107564881.70909  20468903.200    83816782.96748
  21161163.680   111202693.68808  21161162.420    86651451.04648
 15 01 20 00 20 30.0000000  0  6G12G14G21G25G29G31
  23830738.940   125231457.20008  23830737.540    97582965.14445
  24111051.420   126704421.27908  24111048.240    98730683.11541
  22300260.760   117188698.55808  22300255.940    91315840.63545
  21152937.720   111159445.77109  21152935.480    86617798.38347
  20476104.280   107602703.44709  20476100.580    83846254.43948
  21154204.080   111166120.10508  21154202.880    86622952.15448
 15 01 20 00 21  0.0000000  0  6G12G14G21G25G29G31
  23844637.540   125304495.89208  23844636.560    97639878.39945
  24126197.140   126784011.94708  24126192.860    98792701.69041
  22285736.540   117112371.74508  22285732.000    91256365.22545
  21159522.340   111194049.22809  21159520.440    86644762.11047
  20483355.920   107640809.59909  20483351.940    83875947.55747
  21147340.600   111130050.29008  21147339.160    86594845.83247
 15 01 20 00 21 30.0000000  0  6G12G14G21G25G29G31
  23858570.660   125377716.28008  23858570.120    97696933.23245
  24141363.140   126863709.03708                                
  22271277.680   117036389.67108  22271273.580    91197158.41845
  21166165.980   111228962.06609  21166164.440    86671966.90247
  20490669.400   107679241.97709  20490665.180    83905894.84047
  21140581.740   111094529.72108  21140579.960    86567167.46848
 15 01 20 00 22  0.0000000  0  6G12G14G21G25G29G31
  23872521.480   125451029.91008  23872521.160    97754060.75344
  24156532.120   126943421.59608                                
  22256867.760   116960665.61108  22256864.100    91138152.67545
  21172851.920   111264096.44409  21172850.660    86699344.33647
  20498027.740   107717910.54609  20498023.340    83936026.20547
  21133910.880   111059471.54308  21133908.660    86539849.41148
 15 01 20 00 22 30.0000000  0  6G12G14G21G25G29G31
  23886499.660   125524487.76807  23886499.420    97811300.64245
  24171713.060   127023197.01707                                
  22242516.780   116885252.33308  22242513.780    91079389.12846
  21179589.760   111299503.28409  21179588.660    86726934.05848
  20505440.360   107756864.16409  20505435.860    83966379.67547
  21127337.840   111024927.77008  21127335.160    86512932.19448
 15 01 20 00 23  0.0000000  0  6G12G14G21G25G29G31
  23900493.840   125598028.72308  23900493.580    97868605.28845
  24186893.620   127102971.20407  24186890.720    99041260.19143
  22228213.620   116810090.28108  22228210.940    91020821.32445
  21186368.040   111335122.09809  21186366.940    86754688.97048
  20512895.340   107796040.06209  20512890.860    83996906.35347
  21120851.360   110990838.97708  21120848.280    86486369.51747
 15 01 20 00 23 30.0000000  0  6G12G14G21G25G29G31
  23914524.260   125671759.23608  23914523.960    97926057.61945
  24202093.600   127182847.49406  24202091.500    99103501.32442
  22213979.220   116735289.12408  22213976.700    90962534.71545
  21193206.920   111371059.84809  21193205.920    86782692.39048
  20520412.600   107835543.26409  20520408.240    84027688.06747
  21114472.000   110957313.43308  21114468.620    86460245.72448
 15 01 20 00 24  0.0000000  0  6G12G14G21G25G29G31
  23928581.380   125745628.92808  23928581.060    97983618.41845
  24217302.860   127262772.58706  24217301.340    99165780.49543
  22199804.200   116660800.08108  22199801.600    90904491.34045
  21200096.880   111407266.34609  21200096.080    86810905.22948
  20527981.940   107875321.47608  20527977.980    84058684.06047
  21108190.420   110924301.82608  21108186.760    86434522.40047
 15 01 20 00 24 30.0000000  0  6G12G14G21G25G29G31
  23942664.640   125819635.90008  23942664.180    98041286.17445
  24232520.560   127342742.08706  24232518.780    99228094.20743
  22185688.500   116586623.17708  22185685.720    90846691.16245
  21207037.780   111443740.55209  21207037.100    86839326.68348
  20535602.620   107915371.25008  20535599.380    84089891.64947
  21102006.460   110891803.87208  21102002.580    86409199.33148
 15 01 20 00 25  0.0000000  0  6G12G14G21G25G29G31
  23956774.880   125893785.78508  23956774.520    98099065.29545
  24247747.340   127422759.07007  24247745.000    99290444.91843
  22171633.760   116512766.49108  22171630.740    90789140.50845
  21214030.720   111480488.48909  21214030.160    86867961.43648
  20543275.760   107955696.43208  20543273.060    84121313.83647
  21095921.560   110859826.84408  21095917.480    86384282.17348
 15 01 20 00 25 30.0000000  0  6G12G14G21G25G29G31
  23970911.220   125968072.85308  23970910.800    98156951.31445
  24262981.200   127502813.34207  24262979.080    99352824.68641
  22157639.240   116439225.87508  22157636.020    90731836.14145
  21221074.640   111517504.66209  21221074.220    86896805.19548
  20551000.180   107996289.59208  20550997.520    84152944.86047
  21089934.980   110828366.32609  21089930.640    86359767.48648
 15 01 20 00 26  0.0000000  0  6G12G14G21G25G29G31
  23985073.740   126042497.33208  23985073.160    98214944.42545
  24278221.820   127582902.34807  24278219.640    99415231.60741
  22143705.240   116366002.91208  22143701.920    90674779.30445
  21228169.620   111554789.57009  21228169.320    86925858.36548
  20558775.600   108037149.41808  20558772.580    84184783.71047
  21084046.900   110797423.47909  21084042.340    86335656.17847
 15 01 20 00 26 30.0000000  0  6G12G14G21G25G29G31
  23999262.900   126117061.38508  23999262.160    98273046.25845
  24293469.040   127663025.93907  24293466.460    99477665.36242
  22129832.860   116293102.47208  22129829.380    90617973.75845
  21235316.180   111592345.86809  21235316.000    86955123.00948
  20566601.820   108078276.12708  20566598.460    84216830.49947
  21078258.040   110767002.18409  21078253.280    86311951.26547
 15 01 20 00 27  0.0000000  0  6G12G14G21G25G29G31
  24013479.040   126191766.97208  24013478.160    98331258.41045
  24308722.540   127743182.86107  24308720.660    99540125.20243
  22116022.660   116220527.83908  22116019.060    90561422.09845
  21242514.780   111630175.95209  21242514.660    86984600.97248
  20574478.680   108119669.79208  20574475.280    84249085.28847
  21072568.960   110737105.86209  21072564.120    86288655.41347
 15 01 20 00 27 30.0000000  0  6G12G14G21G25G29G31
  24027721.360   126266609.61808  24027720.220    98389577.35945
  24323981.020   127823366.13607  24323979.760    99602605.54043
  22102274.220   116148277.64108  22102270.460    90505123.24645
  21249764.900   111668276.34909  21249764.800    87014289.58148
  20582405.420   108161325.23708  20582402.060    84281544.06147
  21066979.080   110707731.63508  21066974.340    86265766.40347
 15 01 20 00 28  0.0000000  0  6G12G14G21G25G29G31
  24041990.220   126341591.85608  24041988.620    98448005.10745
  24339244.380   127903574.84307  24339243.220    99665105.66743
  22088588.180   116076355.64108  22088584.300    90449080.12345
  21257067.060   111706649.53209  21257066.940    87044190.75048
  20590382.300   108203242.78109  20590378.700    84314207.07947
  21061489.160   110678883.37408  21061484.680    86243287.23147
 15 01 20 00 28 30.0000000  0  6G12G14G21G25G29G31
  24056285.200   126416712.16008  24056283.220    98506540.41145
  24354511.680   127983804.68407  24354510.500    99727622.32243
  22074964.620   116004762.53608  22074960.640    90393293.29445
  21264421.100   111745294.59809  21264420.860    87074303.78048
  20598408.680   108245419.16509  20598404.620    84347071.80647
  21056099.260   110650560.78209  21056095.040    86221217.66847
 15 01 20 00 29  0.0000000  0  6G12G14G21G25G29G31
  24070607.000   126491974.28408  24070604.840    98565186.20844
  24369783.180   128064056.89207  24369781.900    99790156.34043
  22061404.800   115933504.51008  22061400.620    90337767.56445
  21271827.740   111784215.87909  21271827.420    87104632.04748
  20606484.840   108287856.98409  20606480.260    84380140.24547
  21050810.480   110622769.19909  21050806.400    86199561.88547
 15 01 20 00 29 30.0000000  0  6G12G14G21G25G29G31
  24084954.520   126567371.42008  24084952.260    98623937.22145
  24385056.980   128144321.27906  24385055.540    99852699.86543
  22047907.760   115862576.30008  22047903.240    90282498.82145
  21279285.680   111823406.92209  21279285.340    87135170.51848
  20614608.940   108330547.46309  20614603.880    84413405.56547
  21045621.780   110595503.05609  21045617.660    86178315.53347
 15 01 20 00 30  0.0000000  0  6G12G14G21G25G29G31
  24099329.040   126642910.50008  24099326.640    98682798.86845
  24400333.840   128224601.81206  24400332.040    99915255.97144
  22034475.100   115791986.33908  22034470.180    90227493.65445
  21286796.200   111862874.68509  21286795.860    87165924.60648
  20622781.780   108373495.36508  20622776.520    84446871.45547
  21040534.540   110568769.78408  21040530.260    86157484.39247
 15 01 20 00 30 30.0000000  0  6G12G14G21G25G29G31
  24113729.380   126718586.44807  24113726.960    98741767.16844
  24415612.180   128304890.55705  24415609.760    99977818.43643
  22021105.980   115721731.46508  22021100.940    90172749.59444
  21294358.540   111902614.76009  21294358.200    87196890.89348
  20631002.240   108416694.71208  20630997.220    84480533.27647
  21035548.220   110542566.31709  21035543.560    86137066.10647
 15 01 20 00 31  0.0000000  0  5G12G21G25G29G31
  24128163.500   126794441.69706  24128161.780    98800875.11844
  22007808.940   115651856.15908  22007804.100    90118301.31145
  21301980.780   111942669.86309  21301980.420    87228102.64948
  20639278.200   108460186.07409  20639273.640    84514422.64747
  21030671.020   110516936.19809  21030666.000    86117094.58347
 15 01 20 00 31 30.0000000  0  5G12G21G25G29G31
  24142615.560   126870389.59807  24142614.540    98860055.28445
  21994568.060   115582276.13708  21994563.520    90064083.11945
  21309646.560   111982954.07409  21309646.200    87259492.93348
  20647592.940   108503881.05909  20647589.000    84548470.68447
  21025886.620   110491794.09009  21025881.320    86097503.31847
 15 01 20 00 32  0.0000000  0  6G12G14G21G25G29G31
  24157082.000   126946410.95407  24157081.640    98919292.71645
  24461447.480   128545771.30606  24461442.240   100165504.03041
  21981380.220   115512974.31908  21981376.100    90010081.70746
  21317352.340   112023449.08509  21317352.020    87291047.48148
  20655942.680   108547759.66908  20655939.260    84582661.82447
  21021191.620   110467122.47909  21021186.200    86078278.69247
 15 01 20 00 32 30.0000000  0  6G12G14G21G25G29G31
  24171590.900   127022655.43106  24171590.940    98978703.99045
  24476730.880   128626085.46906  24476727.320   100228086.30042
  21968274.140   115444101.23808  21968270.320    89956414.37146
  21325126.540   112064304.00709  21325126.360    87322882.46948
  20664355.280   108591968.72708  20664352.300    84617110.43847
  21016614.600   110443071.25908  21016609.300    86059537.48747
 15 01 20 00 33  0.0000000  0  6G12G14G21G25G29G31
  24186124.800   127099033.61605  24186125.460    99038219.37644
  24492012.480   128706390.33006  24492009.840   100290661.34544
  21955233.300   115375570.30008  21955229.680    89903013.65246
  21332952.400   112105430.40509  21332952.440    87354928.99948
  20672813.420   108636417.92208  20672810.880    84651746.16447
  21012138.840   110419552.81508  21012134.000    86041211.42747
 15 01 20 00 33 30.0000000  0  6G12G14G21G25G29G31
  24200684.080   127175542.07207  24200684.440    99097836.33444
  24507291.040   128786680.08806  24507289.700   100353224.60943
  21942257.280   115307379.92708  21942253.760    89849878.30346
  21340829.420   112146825.42909  21340829.620    87387184.85348
  20681316.300   108681102.96008  20681314.240    84686565.66247
  21007764.080   110396565.13608  21007759.780    86023298.94647
 15 01 20 00 34  0.0000000  0  6G12G14G21G25G29G31
  24215269.940   127252188.04408  24215269.600    99157560.52744
  24522567.300   128866958.95805  24522567.100   100415779.34544
  21929347.860   115239538.85908  21929344.300    89797015.13746
  21348759.000   112188496.58609  21348759.400    87419655.87448
  20689865.100   108726028.72808  20689863.300    84721572.74247
  21003491.900   110374116.64408  21003488.180    86005806.61847
 15 01 20 00 34 30.0000000  0  5G12G21G25G29G31
  24229884.760   127328986.61408  24229883.980    99217403.64545
  21916508.180   115172064.27208  21916504.380    89744437.53546
  21356744.140   112230459.26809  21356744.600    87452354.03848
  20698462.380   108771208.29708  20698460.760    84756777.59847
  20999325.340   110352223.26208  20999322.220    85988746.84047
 15 01 20 00 35  0.0000000  0  5G12G21G25G29G31
  24244522.580   127405907.62407  24244521.700    99277342.09445
  21903732.780   115104927.83008  21903728.700    89692123.43346
  21364779.240   112272683.85909  21364779.580    87485256.31048
  20707102.080   108816610.34008  20707100.600    84792155.80847
  20995258.980   110330856.03808  20995256.400    85972097.04547
 15 01 20 00 35 30.0000000  0  5G12G21G25G29G31
  24259187.780   127482976.49005  24259187.300    99337395.66745
  21891026.740   115038156.70308  21891022.420    89640093.99146
  21372869.240   112315196.26809  21372869.340    87518382.85148
  20715788.620   108862259.44808  20715787.460    84827726.52947
  20991297.980   110310041.55008  20991295.740    85955877.95347
 15 01 20 00 36  0.0000000  0  5G12G21G25G29G31
  24273877.340   127560172.25407  24273877.100    99397548.12345
  21878386.340   114971731.67308  21878381.820    89588334.23146
  21381010.160   112357975.88609  21381009.900    87551717.60148
  20724517.540   108908132.43408  20724516.900    84863471.68247
  20987438.560   110289760.04208  20987436.420    85940074.16547
 15 01 20 00 36 30.0000000  0  5G12G21G25G29G31
  24288591.080   127637491.76908  24288590.240    99457797.12445
  21865811.420   114905651.77708  21865806.820    89536843.41445
  21389201.440   112401020.28109  21389200.800    87585258.67148
  20733288.260   108954224.93408  20733288.020    84899387.88747
  20983680.340   110270009.73509  20983678.220    85924684.29747
 15 01 20 00 37  0.0000000  0  5G12G21G25G29G31
  24303331.920   127714952.73108  24303330.320    99518156.37944
  21853305.940   114839936.73108  21853301.220    89485636.88046
  21397446.500   112444347.32309  21397445.520    87619019.99948
  20742104.260   109000553.01108  20742103.920    84935487.67947
  20980026.820   110250808.86509  20980024.600    85909722.57247
 15 01 20 00 37 30.0000000  0  5G12G21G25G29G31
  24318098.600   127792549.98808  24318096.940    99578621.85844
  21840869.200   114774583.05508  21840864.560    89434711.94446
  21405744.400   112487952.51909  21405743.200    87652998.06248
  20750964.200   109047109.96608  20750963.360    84971765.83447
  20976477.220   110232153.80709  20976474.880    85895186.15548
 15 01 20 00 38  0.0000000  0  5G12G21G25G29G31
  24332892.380   127870291.39108  24332890.780    99639199.63845
  21828503.140   114709600.34008  21828498.720    89384076.06946
  21414096.700   112531843.93709  21414095.340    87687199.15847
  20759868.980   109093902.23108  20759867.640    85008227.35247
  20973033.120   110214053.19309  20973030.580    85881081.78647
 15 01 20 00 38 30.0000000  0  5G12G21G25G29G31
  24347712.940   127948176.42906  24347711.760    99699889.20245
  21816208.040   114644989.70808  21816203.780    89333730.13246
  21422503.400   112576021.36509  21422501.960    87721623.11147
  20768817.920   109140927.63608  20768816.340    85044870.53347
  20969694.600   110196507.53009  20969691.680    85867409.84148
 15 01 20 00 39  0.0000000  0  5G12G21G25G29G31
  24362556.020   128026179.22207  24362555.140    99760670.47745
  21803979.260   114580727.14308  21803975.200    89283655.41046
  21430959.620   112620459.59509  21430958.120    87756250.28547
  20777805.820   109188158.95408  20777804.320    85081674.13947
  20966456.960   110179492.17509  20966453.620    85854151.13148
 15 01 20 00 39 30.0000000  0  5G12G21G25G29G31
  24377426.160   128104321.49408  24377425.080    99821560.55345
  21791821.380   114516836.70108  21791817.460    89233870.66245
  21439469.640   112665181.12909  21439468.260    87791098.21847
  20786836.760   109235616.56508  20786835.340    85118654.08147
  20963324.560   110163030.04009  20963320.780    85841323.50048
 15 01 20 00 40  0.0000000  0  5G12G21G25G29G31
  24392322.780   128182602.19708  24392321.460    99882558.48945
  21779734.520   114453318.98208  21779730.540    89184376.33746
  21448033.360   112710184.89809  21448032.160    87826166.07547
  20795910.340   109283297.52508  20795908.720    85155808.05947
  20960297.340   110147120.91509  20960293.220    85828926.78848
 15 01 20 00 40 30.0000000  0  5G12G21G25G29G31
  24407245.940   128261022.68408  24407244.280    99943665.38743
  21767719.160   114390176.50708  21767714.780    89135174.39446
  21456651.140   112755472.66009  21456650.100    87861455.23047
  20805026.680   109331202.31208  20805024.420    85193136.46547
  20957375.660   110131766.70709  20957371.360    85816962.47148
 15 01 20 00 41  0.0000000  0  5G12G21G25G29G31
  24422195.380   128339581.18208  24422191.340   100004879.98941
  21755775.260   114327409.56908  21755770.520    89086265.09546
  21465322.860   112801043.25009  21465322.000    87896964.76947
  20814184.920   109379327.54108  20814181.680    85230636.64346
  20954559.440   110116966.82209  20954555.200    85805430.10148
 15 01 20 00 41 30.0000000  0  5G12G21G25G29G31
  24437169.620   128418269.41805  24437165.380   100066195.65743
  21743901.700   114265012.10308  21743896.580    89037643.67246
  21474047.080   112846888.81309  21474046.280    87932688.56347
  20823383.100   109427663.46008  20823378.740    85268301.00846
  20951847.340   110102714.33609  20951843.340    85794324.25548
 15 01 20 00 42  0.0000000  0  5G12G21G25G29G31
  24452064.720   128496462.55706  24452066.680   100127112.17845
  21731996.880   114202450.92208  21731991.460    88988894.70645
  21482722.060   112892474.97309  21482721.220    87968210.23747
  20832519.140   109475673.95508  20832514.120    85305711.79046
  20949137.760   110088475.02409  20949134.040    85783228.68948
 15 01 20 00 42 30.0000000  0  5G12G21G25G29G31
  24467255.300   128576285.04208  24467255.280   100189311.49745
  21720431.240   114141672.33008  21720425.500    88941534.77446
  21491717.840   112939746.93709  21491716.960    88005045.52047
  20841962.960   109525302.16108  20841957.940    85344383.11746
  20946800.900   110076194.36309  20946797.420    85773659.33948
 15 01 20 00 43  0.0000000  0  5G12G21G25G29G31
  24482254.400   128655102.07709  24482253.140   100250727.37846
  21708720.540   114080132.40108  21708714.760    88893581.59346
  21500550.020   112986159.50709  21500549.100    88041211.14547
  20851229.920   109574001.08108  20851225.320    85382330.30546
  20944352.400   110063327.72109  20944349.160    85763633.38548
 15 01 20 00 43 30.0000000  0  5G12G21G25G29G31
  24497329.600   128734320.54409  24497327.640   100312456.03946
  21697133.000   114019240.77108  21697127.320    88846133.58445
  21509486.540   113033120.62209  21509485.700    88077804.22047
  20860587.620   109623177.18808  20860583.760    85420649.34147
  20942060.380   110051283.85809  20942057.340    85754248.55048
 15 01 20 00 44  0.0000000  0  5G12G21G25G29G31
  24512433.720   128813692.14008  24512431.420   100374304.03045
  21685621.840   113958750.34708  21685616.200    88798998.19945
  21518480.120   113080382.50609  21518479.460    88114631.65448
  20869988.540   109672580.79408  20869985.400    85459145.64547
  20939877.760   110039815.06109  20939874.900    85745311.82348
 15 01 20 00 44 30.0000000  0  5G12G21G25G29G31
  24527562.880   128893195.94705  24527560.860   100436255.04744
  21674183.520   113898642.03508  21674177.760    88752160.55345
  21527526.920   113127924.31309  21527526.440    88151677.20147
  20879428.480   109722189.01708  20879425.840    85497801.38947
  20937800.840   110028901.30309  20937798.000    85736807.59248
 15 01 20 00 45  0.0000000  0  5G12G21G25G29G31
  24542716.740   128972841.51406  24542715.280   100498310.01943
  21662819.360   113838922.76808  21662813.620    88705626.04945
  21536628.040   113175751.61709  21536627.660    88188945.22747
  20888908.040   109772005.60008  20888905.780    85536619.48747
  20935830.600   110018548.17709  20935827.720    85728740.22548
 15 01 20 00 45 30.0000000  0  5G12G21G25G29G31
  24557895.780   129052608.99008                                
  21651527.600   113779583.53808  21651521.980    88659387.67845
  21545781.580   113223854.16809  21545781.320    88226427.72147
  20898424.900   109822018.56308  20898423.000    85575590.61147
  20933965.120   110008745.77309  20933962.340    85721101.98848
 15 01 20 00 46  0.0000000  0  5G12G21G25G29G31
  24573100.320   129132508.37808  24573096.240   100622708.26443
  21640309.520   113720631.14508  21640304.020    88613450.72846
  21554988.700   113272237.65009  21554988.520    88264129.13248
  20907979.780   109872231.70108  20907978.400    85614717.71947
  20932205.660   109999500.08409  20932203.000    85713897.56448
 15 01 20 00 46 30.0000000  0  5G12G21G25G29G31
  24588331.980   129212550.14408  24588327.580   100685078.45444
  21629167.380   113662077.93208  21629162.100    88567824.84146
  21564251.480   113320913.03909  21564251.220    88302057.99848
  20917574.900   109922654.92508  20917573.880    85654008.51247
  20930554.540   109990822.70209  20930551.800    85707135.97548
 15 01 20 00 47  0.0000000  0  5G12G21G25G29G31
  24603588.820   129292724.73308  24603584.300   100747552.14844
  21618099.640   113603916.13408  21618094.640    88522503.94646
  21573568.160   113369871.51909  21573567.800    88340207.44747
  20927208.180   109973277.19408  20927207.240    85693454.42248
  20929010.080   109982705.06709  20929007.060    85700810.55248
 15 01 20 00 47 30.0000000  0  5G12G21G25G29G31
  24618871.680   129373036.82808  24618867.160   100810132.96844
  21607107.560   113546151.92508  21607102.720    88477492.88046
  21582939.660   113419117.93309  21582939.220    88378581.25948
  20936880.040   110024101.44908  20936878.960    85733057.73147
  20927573.140   109975152.47709  20927569.860    85694925.42148
 15 01 20 00 48  0.0000000  0  5G12G21G25G29G31
  24634182.000   129453497.45105  24634178.260   100872829.43944
  21596193.560   113488798.16608  21596188.780    88432801.66246
  21592368.120   113468663.62909  21592367.600    88417188.27748
  20946592.220   110075137.35708  20946590.880    85772825.97847
  20926245.660   109968176.15309  20926242.180    85689489.32447
 15 01 20 00 48 30.0000000  0  5G12G21G25G29G31
  24649517.360   129534090.29607  24649514.420   100935628.94844
  21585354.740   113431839.58008  21585349.980    88388418.37046
  21601850.480   113518492.62909  21601849.860    88456016.05348
  20956341.360   110126367.79908  20956339.760    85812745.79247
  20925024.740   109961760.63409  20925021.040    85684490.21147
 15 01 20 00 49  0.0000000  0  5G12G21G25G29G31
  24664874.580   129614793.58308  24664870.800   100998514.62044
  21574587.420   113375257.31808  21574582.820    88344328.31046
  21611382.660   113568584.11109  21611382.100    88495048.35048
  20966122.960   110177769.77408  20966121.200    85852799.26547
  20923906.600   109955885.43909  20923902.740    85679912.13447
 15 01 20 00 49 30.0000000  0  5G12G21G25G29G31
  24680256.540   129695624.84408  24680252.260   101061500.16442
  21563895.220   113319069.98508  21563890.840    88300545.99146
  21620968.040   113618955.85209  21620967.640    88534299.04048
  20975940.220   110229359.37908  20975938.180    85892998.95747
  20922894.620   109950568.15509  20922890.540    85675768.79247
 15 01 20 00 50  0.0000000  0  5G12G21G25G29G31
  24695664.840   129776594.05208  24695661.600   101124593.14743
  21553280.200   113263288.87608  21553276.100    88257080.21346
  21630608.700   113669618.18509  21630608.360    88573776.16747
  20985794.820   110281145.53608  20985792.440    85933351.79447
  20921990.960   109945819.87109  20921986.580    85672068.82647
 15 01 20 00 50 30.0000000  0  5G12G21G25G29G31
  24711098.400   129857696.00008  24711096.040   101187789.50144
  21542741.720   113207910.38808  21542738.160    88213928.16446
  21640303.680   113720566.09009  21640303.280    88613475.82747
  20995685.460   110333121.46608  20995682.940    85973852.52746
  20921194.740   109941635.75609  20921190.100    85668808.48547
 15 01 20 00 51  0.0000000  0  5G12G21G25G29G31
  24726557.460   129938932.67107  24726555.280   101251090.77944
  21532280.320   113152937.94808  21532277.460    88171092.52146
  21650053.560   113771802.12609  21650052.940    88653400.00347
  21005612.160   110385287.56708  21005609.780    86014501.43747
  20920506.440   109938018.31109  20920501.480    85665989.69447
 15 01 20 00 51 30.0000000  0  5G12G21G25G29G31
  24742041.000   130020299.27806  24742038.800   101314493.27244
  21521895.700   113098369.26808  21521893.420    88128571.51346
  21659857.540   113823322.16809  21659856.620    88693545.47447
  21015574.060   110437639.05808  21015572.020    86055294.78046
  20919925.340   109934963.59309  20919919.960    85663609.39947
 15 01 20 00 52  0.0000000  0  4G21G25G29G31
  21511587.540   113044201.59708  21511585.440    88086362.96346
  21669714.920   113875122.51409  21669713.820    88733909.36547
  21025570.060   110490170.15507  21025568.500    86096228.09046
  20919450.720   109932468.14409  20919444.920    85661664.89847
 15 01 20 00 52 30.0000000  0  4G21G25G29G31
  21501351.200   112990410.31308  21501348.980    88044447.68545
  21679620.760   113927177.68409  21679619.560    88774471.82347
  21035594.920   110542853.53607  21035593.940    86137280.03446
  20919077.660   109930506.72309  20919071.640    85660136.50647
 15 01 20 00 53  0.0000000  0  4G21G25G29G31
  21491189.620   112936962.95308  21491186.700    88002816.81245
  21689577.660   113979499.85209  21689576.520    88815189.88847
  21045650.880   110595640.96107  21045650.700    86178420.61747
  20918808.920   109929082.72709  20918803.220    85659001.46147
 15 01 20 00 53 30.0000000  0  4G21G25G29G31
  21481113.960   112884014.55608  21481110.500    87961558.33845
  21699596.680   114032150.71409  21699595.520    88856216.52647
  21055749.940   110648710.86808  21055749.680    86219773.78746
  20918655.260   109928275.59809  20918649.740    85658372.51747
 15 01 20 00 54 30.0000000  0  4G21G25G29G31
  21461185.480   112779289.05308  21461180.120    87879942.94445
  21719784.920   114138239.79909  21719783.780    88938882.67047
  21076037.700   110755322.83908  21076036.780    86302846.16547
  20918657.560   109928287.73509  20918653.360    85658386.51348
 15 01 20 00 55  0.0000000  0  4G21G25G29G31
  21451339.520   112727547.55908  21451333.820    87839624.88445
  21729961.520   114191718.52609  21729960.460    88980554.39747
  21086232.220   110808894.70208  21086231.320    86344590.45547
  20918820.980   109929146.84609  20918816.860    85659055.93948
 15 01 20 00 55 30.0000000  0  4G21G25G29G31
  21441593.920   112676336.33908  21441587.740    87799717.11845
  21740213.940   114245595.10709  21740213.400    89022538.33547
  21096481.540   110862757.92408  21096480.580    86386561.08547
  20919113.340   109930682.30509  20919109.420    85660255.37448
 15 01 20 00 56  0.0000000  0  4G21G25G29G31
  21431912.940   112625462.44408  21431906.680    87760075.10945
  21750506.520   114299683.03009  21750505.980    89064684.76347
  21106749.180   110916713.58108  21106747.900    86428604.45747
  20919499.140   109932709.91809  20919495.140    85661835.32747
 15 01 20 00 56 30.0000000  0  4G21G25G29G31
  21422322.960   112575066.42008  21422316.680    87720805.68745
  21760865.280   114354117.88509  21760864.760    89107102.73347
  21117061.800   110970908.05708  21117059.500    86470828.45947
  20920004.340   109935364.06609  20920000.120    85663902.69947
 15 01 20 00 57  0.0000000  0  4G21G25G29G31
  21412801.060   112525029.27008  21412794.960    87681815.70445
  21771267.120   114408779.84209  21771266.560    89149696.43947
  21127394.880   111025207.64808  21127392.280    86513139.82847
  20920605.880   109938525.09309  20920601.680    85666365.82547
 15 01 20 00 58  0.0000000  0  4G21G25G29G31
  21394003.960   112426252.34108  21393999.720    87604851.23245
  21792242.420   114519005.01209  21792241.780    89235586.57347
  21148164.580   111134355.49408  21148161.700    86598186.93747
  20922139.760   109946586.75609  20922135.300    85672647.06547
 15 01 20 00 58 30.0000000  0  4G21G25G29G31
  21384720.600   112377469.05608  21384716.800    87566838.29546
  21802806.460   114574518.61309  21802805.620    89278843.91447
  21158591.340   111189149.22808  21158588.680    86640883.33947
  20923062.860   109951437.90809  20923058.280    85676427.18047
 15 01 20 00 59  0.0000000  0  4G21G25G29G31
  21375520.080   112329115.71208  21375517.460    87529169.05446
  21813427.880   114630335.91809  21813426.380    89322334.78547
  21169051.780   111244117.94308  21169049.580    86683718.40547
  20924096.080   109956867.14809  20924091.500    85680655.52047
 15 01 20 00 59 30.0000000  0  4G21G25G29G31
  21366398.660   112281181.63008  21366396.180    87491817.84846
  21824101.440   114686425.29009  21824099.720    89366040.77947
  21179541.700   111299242.60208  21179539.460    86726672.67147
  20925235.040   109962852.67309  20925230.720    85685319.56848
 15 01 20 01 00  0.0000000  0  4G21G25G29G31
  21357360.900   112233687.21808  21357358.320    87454810.91146
  21834831.960   114742815.16009  21834829.920    89409977.37147
  21190064.860   111354541.34308  21190062.220    86769762.57647
  20926483.880   109969414.06509  20926480.400    85690437.89848
 15 01 20 01 00 30.0000000  0  4G21G25G29G31
  21348406.060   112186627.27008  21348403.180    87418140.83146
  21845618.900   114799500.88109  21845616.900    89454148.05647
  21200620.460   111410011.18008  21200617.700    86812985.83047
  20927842.700   109976554.64709  20927839.420    85696001.97748
 15 01 20 01 01  0.0000000  0  4G21G25G29G31
  21339531.860   112139995.84808  21339527.660    87381797.65646
  21856458.800   114856466.00609  21856457.380    89498538.44847
  21211205.040   111465634.07808  21211201.840    86856325.54547
  20929307.820   109984254.44309  20929304.940    85702004.02448
 15 01 20 01 01 30.0000000  0  4G21G25G29G31
  21330737.040   112093777.17508  21330732.240    87345783.12446
  21867352.180   114913711.35409  21867350.940    89543145.20447
  21221818.500   111521407.82208  21221815.200    86899785.60447
  20930879.280   109992512.44509  20930876.420    85708438.83048
 15 01 20 01 02  0.0000000  0  4G21G25G29G31
  21322024.360   112047989.98808  21322018.820    87310104.79345
  21878300.520   114971245.75509  21878299.500    89587977.18047
  21232462.180   111577340.35608  21232458.960    86943369.39647
  20932558.800   110001337.98809  20932555.960    85715315.85848
 15 01 20 01 02 30.0000000  0  4G21G25G29G31
  21313392.720   112002634.63608  21313386.000    87274753.29246
  21889302.540   115029060.68109  21889301.940    89633031.30847
  21243134.760   111633425.79208  21243131.780    86987071.76747
  20934345.160   110010725.24509  20934342.320    85722631.82448
 15 01 20 01 03  0.0000000  0  4G21G25G29G31
  21304843.760   111957710.17308  21304836.880    87239747.20345
  21900360.400   115087170.17209  21900359.900    89678311.40647
  21253837.440   111689669.13608  21253834.680    87030897.73547
  20936240.060   110020682.56509  20936237.240    85730390.75848
 15 01 20 01 03 30.0000000  0  4G21G25G29G31
  21296380.340   111913233.83708  21296373.380    87205088.88045
  21911476.280   115145584.31309  21911475.860    89723829.89947
  21264572.280   111746081.92608  21264570.300    87074859.52547
  20938246.080   110031224.47609  20938243.200    85738604.67348
 15 01 20 01 04  0.0000000  0  4G21G25G29G31
  21288002.420   111869207.96408  21287995.540    87170783.00545
  21922649.580   115204300.48309  21922649.180    89769582.74447
  21275339.140   111802662.48008  21275337.320    87118948.26747
  20940362.240   110042344.19909  20940359.320    85747269.39748
 15 01 20 01 04 30.0000000  0  4G21G25G29G31
  21279642.340   111825276.02008  21279635.820    87136550.32945
  21933812.720   115262963.27409  21933812.340    89815293.98347
  21286069.820   111859053.06208  21286068.120    87162888.97847
  20942521.100   110053688.03409  20942518.100    85756108.74348
 15 01 20 01 05  0.0000000  0  4G21G25G29G31
  21271398.580   111781955.67808  21271392.280    87102794.22345
  21945064.000   115322089.45709  21945063.740    89861366.31147
  21296862.420   111915769.48608  21296860.860    87207083.59847
  20944820.940   110065772.68209  20944817.820    85765525.33548
 15 01 20 01 05 30.0000000  0  4G21G25G29G31
  21263267.900   111739229.79308  21263261.600    87069501.32245
  21956400.080   115381661.12709  21956399.900    89907785.76847
  21307713.100   111972792.22507  21307711.840    87251516.89547
  20947258.200   110078579.75809  20947254.900    85775504.85648
 15 01 20 01 06  0.0000000  0  4G21G25G29G31
  21255277.080   111697234.87908  21255270.640    87036779.97145
  21967847.800   115441818.47709  21967847.620    89954662.67747
  21318647.560   112030250.38107  21318647.560    87296297.31947
  20949859.520   110092254.16409  20949856.080    85786158.38748
 15 01 20 01 06 30.0000000  0  4G21G25G29G31
  21247364.340   111655654.36608  21247358.020    87004379.57345
  21979344.540   115502233.93009  21979344.380    90001739.64047
  21329605.160   112087835.28307  21329605.560    87341168.63047
  20952562.320   110106457.91009  20952558.920    85797226.23548
 15 01 20 01 07  0.0000000  0  4G21G25G29G31
  21238790.760   111610602.13508  21238784.480    86969273.93145
  21990151.780   115559025.82409  21990151.560    90045993.04547
  21339846.460   112141654.04808  21339846.780    87383105.32946
  20954628.160   110117314.42409  20954624.820    85805685.84848
 15 01 20 01 07 30.0000000  0  4G21G25G29G31
  21230859.220   111568924.14408  21230853.320    86936797.59445
  22001572.040   115619039.10709  22001571.620    90092756.63647
  21350673.800   112198550.35108  21350673.680    87427440.10847
  20957359.540   110131668.02309  20957356.160    85816870.46648
 15 01 20 01 08  0.0000000  0  4G21G25G29G31
  21224292.900   111534419.39208  21224287.400    86909910.77945
  22014327.980   115686071.77109  22014327.340    90144989.86147
  21362809.420   112262320.73708  21362808.680    87477131.31447
  20961479.040   110153316.08109  20961475.640    85833739.07348
 15 01 20 01 08 30.0000000  0  4G21G25G29G31
  21217470.480   111498567.29108  21217465.400    86881974.07346
  22026798.040   115751602.29509  22026797.300    90196052.59847
  21374631.420   112324443.15808  21374630.060    87525538.39347
  20965365.000   110173737.02009  20965361.560    85849651.49147
 15 01 20 01 09 30.0000000  0  4G21G25G29G31
  21201177.540   111412936.34108  21201173.300    86815257.55746
  22048999.500   115868274.75009  22048998.260    90286962.39747
  21395452.320   112433860.27408  21395449.320    87610789.58647
