     2.11           OBSERVATION DATA    G                   RINEX VERSION / TYPE
SPIDER V4,0,0,3554                      2015 04 15 04:19    PGM / RUN BY / DATE 
CABS                                                        MARKER NAME         
CABS                                                        MARKER NUMBER       
                                                            OBSERVER / AGENCY   
462287              LEICA GRX1200PRO    8.10/2.127          REC # / TYPE / VERS 
103298              LEIAT504                                ANT # / TYPE        
  5116912.3402   671231.6412  3737143.4301                  APPROX POSITION XYZ 
        0.0600        0.0000        0.0000                  ANTENNA: DELTA H/E/N
     1     1                                                WAVELENGTH FACT L1/2
     4    C1    L1    P2    L2                              # / TYPES OF OBSERV 
    30.000                                                  INTERVAL            
  2015    01    27    00    00    0.0000000     GPS         TIME OF FIRST OBS   
  2015    01    27    23    59   30.0000000     GPS         TIME OF LAST OBS    
    16                                                      LEAP SECONDS        
    30                                                      # OF SATELLITES     
   G 1   800   800   800   800                              PRN / # OF OBS      
   G 2   939   939   939   939                              PRN / # OF OBS      
   G 3   847   847   847   847                              PRN / # OF OBS      
   G 4   831   831   831   831                              PRN / # OF OBS      
   G 5   646   646   646   646                              PRN / # OF OBS      
   G 6   837   837   837   837                              PRN / # OF OBS      
   G 7   671   671   671   671                              PRN / # OF OBS      
   G 9   808   808   808   808                              PRN / # OF OBS      
   G10   752   752   752   752                              PRN / # OF OBS      
   G11   770   770   770   770                              PRN / # OF OBS      
   G12   836   836   836   836                              PRN / # OF OBS      
   G13   791   791   791   791                              PRN / # OF OBS      
   G14   943   943   943   943                              PRN / # OF OBS      
   G15   699   699   699   699                              PRN / # OF OBS      
   G16   659   659   659   659                              PRN / # OF OBS      
   G17   942   942   942   942                              PRN / # OF OBS      
   G18   899   899   899   899                              PRN / # OF OBS      
   G19   750   750   750   750                              PRN / # OF OBS      
   G20   823   823   823   823                              PRN / # OF OBS      
   G21   743   743   743   743                              PRN / # OF OBS      
   G22   657   657   657   657                              PRN / # OF OBS      
   G23   755   755   755   755                              PRN / # OF OBS      
   G24   817   817   817   817                              PRN / # OF OBS      
   G25   856   856   856   856                              PRN / # OF OBS      
   G27   794   794   794   794                              PRN / # OF OBS      
   G28   873   873   873   873                              PRN / # OF OBS      
   G29   784   784   784   784                              PRN / # OF OBS      
   G30   718   718   718   718                              PRN / # OF OBS      
   G31   868   868   868   868                              PRN / # OF OBS      
   G32   772   772   771   771                              PRN / # OF OBS      
BIT 2 OF LLI FLAGS DATA COLLECTED UNDER A/S CONDITION       COMMENT             
SNR is mapped to RINEX snr flag value [2-9]                 COMMENT             
Lx:     = 25dBHz -> 1; 26-27dBHz -> 2; 28-31dBHz -> 3       COMMENT             
       32-35dBHz -> 4; 36-38dBHz -> 5; 39-41dBHz -> 6       COMMENT             
       42-44dBHz -> 7; 45-48dBHz -> 8; >=49dBHz -> 9        COMMENT             
                                                            END OF HEADER       
 15 01 27 00 00  0.0000000  0  6G12G14G21G25G29G31
  24002221.720   126132698.36306  24002223.480    98285285.35745
  24512087.380   128811895.59805  24512089.280   100372919.26244
  22180047.360   116556979.12008  22180048.780    90823612.72947
  21202540.500   111420182.12808  21202544.660    86820979.06048
  20532582.760   107899505.07608  20532584.500    84077572.27149
  21064155.360   110692900.28808  21064156.080    86254222.00549
 15 01 27 00 00 30.0000000  0  6G12G14G21G25G29G31
  24017024.020   126210484.26306  24017025.780    98345897.75846
  24527583.480   128893327.32805  24527585.360   100436372.45043
  22166058.860   116483468.12308  22166060.060    90766331.45147
  21210289.040   111460901.12008  21210293.220    86852708.13448
  20540249.220   107939792.36108  20540250.900    84108964.95549
  21059464.400   110668249.26108  21059465.160    86235013.41049
 15 01 27 00 01  0.0000000  0  5G12G21G25G29G31
  24031852.840   126288409.88306  24031854.500    98406618.99445
  22152131.440   116410278.39608  22152132.500    90709300.51647
  21218091.780   111501904.70308  21218096.000    86884658.96848
  20547966.780   107980348.12408  20547968.420    84140566.84549
  21054875.560   110644134.72009  21054876.300    86216222.85949
 15 01 27 00 01 30.0000000  0  5G12G21G25G29G31
  24046709.320   126366480.94406  24046710.840    98467453.64745
  22138266.580   116337417.88608  22138267.560    90652526.10147
  21225949.860   111543199.10808  21225954.080    86916836.42548
  20555736.120   108021176.19708  20555737.740    84172380.92449
  21050390.140   110620563.55009  21050390.840    86197855.71549
 15 01 27 00 02  0.0000000  0  5G12G21G25G29G31
  24061592.620   126444693.89706  24061594.220    98528398.72745
  22124464.060   116264885.28308  22124465.040    90596007.20347
  21233862.760   111584781.60808  21233867.000    86949238.36248
  20563556.560   108062272.67108  20563558.120    84204404.14749
  21046007.840   110597534.25109  21046008.480    86179910.80549
 15 01 27 00 02 30.0000000  0  5G12G21G25G29G31
  24076502.180   126523043.94806  24076503.800    98589450.73546
  22110723.300   116192677.61408  22110724.360    90539741.49747
  21241829.680   111626647.65508  21241833.860    86981861.25048
  20571426.760   108103630.80408  20571428.280    84236631.25749
  21041727.920   110575042.86709  21041728.540    86162385.05148
 15 01 27 00 03  0.0000000  0  5G12G21G25G29G31
  24091438.860   126601537.18806  24091440.540    98650614.24245
  22097045.940   116120802.94708  22097047.060    90483735.27547
  21249851.740   111668803.80708  21249855.900    87014710.19248
  20579347.620   108145255.26708  20579349.140    84269065.89849
  21037551.720   110553096.62209  21037552.320    86145284.08149
 15 01 27 00 03 30.0000000  0  5G12G21G25G29G31
  24106402.160   126680170.18906  24106403.920    98711886.72445
  22083431.840   116049260.03708  22083432.880    90427987.56647
  21257928.420   111711247.03408  21257932.580    87047782.83048
  20587318.280   108187141.21608  20587319.780    84301704.29749
  21033478.840   110531693.39909  21033479.440    86128606.24748
 15 01 27 00 04  0.0000000  0  5G12G21G25G29G31
  24121391.960   126758942.24806  24121393.740    98773267.59745
  22069881.080   115978049.81308  22069882.000    90372499.09247
  21266059.660   111753977.13608  21266063.880    87081078.99248
  20595338.300   108229286.72608  20595339.800    84334544.94749
  21029509.420   110510833.93209  21029510.000    86112352.11549
 15 01 27 00 04 30.0000000  0  5G12G21G25G29G31
  24136408.440   126837855.15306  24136410.360    98834758.13145
  22056394.480   115907177.09408  22056395.360    90317273.60947
  21274245.980   111796996.46408  21274250.160    87114600.54348
  20603407.740   108271691.85708  20603409.240    84367587.90149
  21025644.040   110490521.37309  21025644.620    86096524.14749
 15 01 27 00 05  0.0000000  0  5G12G21G25G29G31
  24151451.620   126916907.40307  24151453.480    98896357.30645
  22042971.940   115836641.27108  22042972.820    90262310.64247
  21282486.980   111840303.28808  21282491.160    87148346.11048
  20611525.920   108314353.34608  20611527.420    84400830.61849
  21021882.520   110470754.41309  21021883.060    86081121.31848
 15 01 27 00 05 30.0000000  0  5G12G21G25G29G31
  24166520.420   126996093.04506  24166522.060    98958060.46246
  22029612.840   115766439.13908  22029613.800    90207607.69647
  21290781.820   111883892.95008  21290786.020    87182312.06448
  20619691.660   108357264.88808  20619693.200    84434268.18449
  21018224.060   110451529.07309  21018224.580    86066140.53048
 15 01 27 00 06  0.0000000  0  5G12G21G25G29G31
  24181616.280   127075422.42206  24181618.000    99019875.46345
  22016319.400   115696582.24208  22016320.500    90153173.75547
  21299132.420   111927775.47108  21299136.600    87216506.22648
  20627906.500   108400434.25608  20627908.060    84467906.64849
  21014670.720   110432856.10109  21014671.220    86051590.15248
 15 01 27 00 06 30.0000000  0  5G12G21G25G29G31
  24196739.440   127154894.65107  24196741.160    99081801.89446
  22003091.940   115627071.92208  22003093.160    90099009.88647
  21307538.680   111971950.74208  21307542.900    87250928.49648
  20636170.080   108443859.49608  20636171.620    84501744.49649
  21011222.580   110414736.05009  21011223.120    86037470.63049
 15 01 27 00 07  0.0000000  0  5G12G21G25G29G31
  24211887.620   127234497.92106  24211889.200    99143830.43246
  21989928.660   115557898.55808  21989929.920    90045108.57547
  21315998.560   112016407.70608  21316002.800    87285570.27848
  20644479.920   108487527.83708  20644481.440    84535771.77049
  21007877.700   110397158.71609  21007878.260    86023774.00449
 15 01 27 00 07 30.0000000  0  5G12G21G25G29G31
  24227063.420   127314247.75606  24227065.080    99205973.10345
  21976832.920   115489080.06708  21976834.200    89991483.78347
  21324515.040   112061162.18608  21324519.300    87320443.88748
  20652838.660   108531453.22108  20652840.180    84569999.34449
  21004639.220   110380140.39909  21004639.780    86010512.97148
 15 01 27 00 08  0.0000000  0  5G12G21G25G29G31
  24242265.640   127394136.70706  24242267.380    99268224.22645
  21963803.620   115420610.61508  21963804.920    89938130.97747
  21333086.760   112106206.84208  21333091.020    87355543.60948
  20661244.580   108575626.69908  20661246.140    84604420.23048
  21001505.940   110363674.83609  21001506.480    85997682.65848
 15 01 27 00 08 30.0000000  0  5G12G21G25G29G31
  24257493.680   127474161.30706  24257495.500    99330581.06345
  21950840.420   115352488.45708  21950841.660    89885048.78747
  21341713.120   112151538.84108  21341717.420    87390867.23448
  20669696.780   108620043.43408  20669698.380    84639030.66849
  20998477.340   110347759.24609  20998477.840    85985280.89648
 15 01 27 00 09  0.0000000  0  5G12G21G25G29G31
  24272748.000   127554323.82806  24272749.840    99393045.38845
  21937944.140   115284717.94408  21937945.320    89832240.60547
  21350394.720   112197160.85408  21350399.000    87426416.84248
  20678195.340   108664703.78608  20678196.960    84673830.93748
  20995554.000   110332397.02509  20995554.520    85973310.32848
 15 01 27 00 09 30.0000000  0  5G12G21G25G29G31
  24288027.960   127634619.95306  24288029.620    99455613.78244
  21925114.340   115217296.77108  21925115.440    89779704.64347
  21359130.720   112243068.98608  21359135.040    87462189.39848
  20686739.380   108709603.06108  20686741.020    84708817.38348
  20992735.340   110317585.00809  20992735.920    85961768.49348
 15 01 27 00 10  0.0000000  0  5G12G21G25G29G31
  24303334.540   127715055.68306  24303335.940    99518290.94645
  21912352.540   115150233.09108  21912353.600    89727447.23847
  21367922.440   112289269.82108  21367926.760    87498190.03448
  20695329.820   108754746.08108  20695331.420    84743993.76248
  20990022.720   110303330.18109  20990023.340    85950660.83349
 15 01 27 00 10 30.0000000  0  5G12G21G25G29G31
  24318667.400   127795629.26506  24318668.620    99581075.54145
  21899658.800   115083527.09808  21899659.840    89675468.55447
  21376769.620   112335761.86608  21376773.900    87534417.59648
  20703965.980   108800129.08008  20703967.520    84779357.13748
  20987415.980   110289631.77209  20987416.620    85939986.74449
 15 01 27 00 11  0.0000000  0  5G12G21G25G29G31
  24334026.360   127876340.40706  24334027.560    99643967.31745
  21887033.360   115017180.14708  21887034.400    89623769.63947
  21385672.240   112382545.35008  21385676.520    87570872.25248
  20712647.460   108845750.39408  20712648.980    84814906.20948
  20984915.300   110276490.52109  20984915.920    85929746.80248
 15 01 27 00 11 30.0000000  0  5G12G21G25G29G31
  24349411.520   127957189.79506  24349412.820    99706966.82445
  21874476.820   114951194.96308  21874477.820    89572352.62547
  21394630.520   112429621.42108  21394634.800    87607554.89748
  20721374.220   108891609.60408  20721375.700    84850640.65748
  20982520.920   110263908.03709  20982521.520    85919942.26348
 15 01 27 00 12  0.0000000  0  5G12G21G25G29G31
  24364823.060   128038178.51706  24364824.500    99770074.93445
  21861989.660   114885574.51808  21861990.680    89521219.81947
  21403644.800   112476991.57408  21403649.080    87644466.69548
  20730146.240   108937706.94908  20730147.760    84886560.66648
  20980233.260   110251886.25509  20980233.880    85910574.63748
 15 01 27 00 12 30.0000000  0  5G12G21G25G29G31
  24380259.940   128119300.37606  24380261.560    99833286.78445
  21849571.040   114820314.26308  21849572.140    89470367.68347
  21412713.940   112524650.05108  21412718.200    87681603.15748
  20738962.040   108984034.50108  20738963.620    84922660.05248
  20978051.360   110240420.13309  20978051.960    85901639.99448
 15 01 27 00 13  0.0000000  0  5G12G21G25G29G31
  24395722.960   128200559.72806  24395724.760    99896605.77045
  21837222.360   114755421.73208  21837223.520    89419802.08547
  21421838.940   112572602.23108  21421843.220    87718968.48348
  20747822.320   109030595.88808  20747823.960    84958941.65148
  20975976.260   110229515.23109  20975976.820    85893142.66348
 15 01 27 00 13 30.0000000  0  5G12G21G25G29G31
  24411211.680   128281954.10806  24411213.540    99960029.95845
  21824943.260   114690894.83708  21824944.440    89369521.39747
  21431019.200   112620844.80408  21431023.480    87756560.09248
  20756726.100   109077385.79908  20756727.800    84995401.31848
  20974007.440   110219168.96409  20974007.980    85885080.63849
 15 01 27 00 14  0.0000000  0  5G12G21G25G29G31
  24426725.820   128363481.12306  24426727.620   100023557.47545
  21812733.740   114626733.52608  21812734.900    89319525.58147
  21440254.480   112669376.43108  21440258.740    87794376.93648
  20765672.980   109124401.94208  20765674.660    85032037.26748
  20972144.740   110209380.39409  20972145.240    85877453.17648
 15 01 27 00 14 30.0000000  0  5G12G21G25G29G31
  24442265.820   128445143.53306  24442267.400   100087190.49245
  21800594.660   114562942.28508  21800595.760    89269818.12847
  21449545.420   112718200.33008  21449549.600    87832421.53248
  20774663.120   109171645.27608  20774664.780    85068850.25548
  20970388.940   110200153.48209  20970389.400    85870263.37248
 15 01 27 00 15  0.0000000  0  5G12G21G25G29G31
  24457831.680   128526941.86506  24457833.140   100150929.42945
  21788526.600   114499524.09708  21788527.600    89220401.36847
  21458892.200   112767317.59608  21458896.260    87870694.71748
  20783696.340   109219115.16508  20783698.020    85105839.77248
  20968740.220   110191489.30009  20968740.660    85863512.05849
 15 01 27 00 15 30.0000000  0  5G12G21G25G29G31
  24473423.120   128608874.37406  24473424.280   100214772.96745
  21776529.460   114436478.65608  21776530.360    89171275.06547
  21468294.540   112816726.85108  21468298.520    87909195.43448
  20792772.200   109266809.05008  20792773.860    85143003.83048
  20967198.320   110183386.61309  20967198.820    85857198.27648
 15 01 27 00 16  0.0000000  0  5G12G21G25G29G31
  24489040.280   128690942.56506  24489041.280   100278722.19845
  21764603.820   114373809.02308  21764604.680    89122441.60447
  21477752.740   112866429.78308  21477756.660    87947924.98048
  20801890.700   109314727.03308  20801892.380    85180342.51448
  20965763.720   110175847.83709  20965764.260    85851323.89848
 15 01 27 00 16 30.0000000  0  5G12G21G25G29G31
  24504682.800   128773145.09006  24504683.900   100342776.10044
  21752749.880   114311516.05908  21752750.740    89073901.63847
  21487266.600   112916425.64908  21487270.560    87986882.78748
  20811051.340   109362866.30008  20811052.980    85217853.62648
  20964436.360   110168872.52109  20964436.900    85845888.58348
 15 01 27 00 17  0.0000000  0  5G12G21G25G29G31
  24520351.380   128855485.14506  24520352.760   100406937.16645
  21740968.660   114249605.28308  21740969.520    89025659.48747
  21496836.900   112966718.20708  21496840.900    88026071.78548
  20820254.560   109411229.36608  20820256.160    85255539.12648
  20963216.980   110162464.68509  20963217.540    85840895.45948
 15 01 27 00 17 30.0000000  0  5G12G21G25G29G31
  24536044.860   128937955.94306  24536046.380   100471200.11945
  21729259.180   114188071.70008  21729260.080    88977711.25547
  21506462.480   113017301.24408  21506466.500    88065487.13548
  20829498.780   109459807.91008  20829500.380    85293392.53648
  20962104.500   110156618.56109  20962105.060    85836340.03548
 15 01 27 00 18  0.0000000  0  5G12G21G25G29G31
  24551763.780   129020560.46006  24551765.420   100535567.25345
  21717622.100   114126918.79708  21717623.120    88930059.65447
  21516143.800   113068177.11108  21516147.820    88105130.65548
  20838784.180   109508602.90108  20838785.760    85331414.59748
  20961099.400   110151336.70109  20961099.980    85832224.29649
 15 01 27 00 18 30.0000000  0  5G12G21G25G29G31
  24567507.800   129103296.73205  24567509.640   100600037.07744
  21706057.760   114066147.78808  21706058.820    88882705.63847
  21525880.780   113119345.27308  21525884.820    88145001.93848
  20848110.380   109557612.48608  20848111.980    85369603.88248
  20960201.680   110146619.05309  20960202.260    85828548.20348
 15 01 27 00 19  0.0000000  0  5G12G21G25G29G31
  24583276.880   129186164.12205  24583278.840   100664609.09744
  21694566.180   114005759.08808  21694567.240    88835649.51447
  21535673.280   113170805.09508  21535677.380    88185100.48448
  20857476.940   109606834.15208  20857478.540    85407958.42048
  20959411.280   110142465.25509  20959411.840    85825311.46748
 15 01 27 00 19 30.0000000  0  5G12G21G25G29G31
  24599070.980   129269162.82205  24599073.020   100729283.38744
  21683147.800   113945755.00908  21683148.820    88788893.10147
  21545521.360   113222557.23008  21545525.580    88225426.81748
  20866883.720   109656267.07208  20866885.320    85446477.57948
  20958728.320   110138876.12409  20958728.840    85822514.73948
 15 01 27 00 20  0.0000000  0  5G12G21G25G29G31
  24614890.300   129352293.58706  24614892.240   100794060.59244
  21671803.000   113886137.50908  21671803.960    88742437.91947
  21555425.280   113274602.91808  21555429.600    88265981.89248
  20876330.600   109705910.74308  20876332.220    85485160.95548
  20958153.040   110135852.97009  20958153.520    85820159.02748
 15 01 27 00 20 30.0000000  0  5G12G21G25G29G31
  24630734.720   129435556.41005  24630736.640   100858940.70245
  21660532.260   113826909.24508  21660533.160    88696286.03547
  21565385.160   113326942.64308  21565389.540    88306766.08748
  20885817.380   109755764.08208  20885819.000    85524007.70948
  20957685.620   110133396.75409  20957686.100    85818245.08748
 15 01 27 00 21  0.0000000  0  5G12G21G25G29G31
  24646604.420   129518952.43806  24646606.520   100923924.59544
  21649336.140   113768073.10108  21649337.000    88650439.69947
  21575401.300   113379577.94808  21575405.720    88347780.59848
  20895344.040   109805826.96108  20895345.680    85563017.74248
  20957326.400   110131509.10509  20957326.880    85816774.18048
 15 01 27 00 21 30.0000000  0  5G12G21G25G29G31
  24662498.460   129602475.61206  24662500.480   100989007.58844
  21638213.700   113709624.18108  21638214.540    88604895.09747
  21585472.640   113432503.09208  21585477.000    88389020.95648
  20904909.360   109856093.08508  20904911.020    85602186.14948
  20957074.320   110130184.45609  20957074.820    85815741.97948
 15 01 27 00 22  0.0000000  0  5G12G21G25G29G31
  24678417.260   129686128.44606  24678419.140   101054191.61844
  21627165.820   113651567.40108  21627166.680    88559656.05947
  21595599.800   113485721.33208  21595604.060    88430489.70148
  20914513.600   109906563.62308  20914515.240    85641513.83648
  20956930.080   110129426.37209  20956930.580    85815151.25748
 15 01 27 00 22 30.0000000  0  5G12G21G25G29G31
  24694361.000   129769912.20706  24694362.680   101119477.67145
  21616192.940   113593904.99508  21616193.860    88514724.32947
  21605782.900   113539233.54008  21605787.080    88472187.50448
  20924156.620   109957237.97508  20924158.240    85681000.34648
  20956893.780   110129235.72709  20956894.320    85815002.69448
 15 01 27 00 23  0.0000000  0  5G12G21G25G29G31
  24710329.340   129853825.17806  24710330.840   101184864.40045
  21605295.180   113536637.33208  21605296.180    88470100.18847
  21616021.760   113593038.92008  21616025.920    88514113.76448
  20933837.920   110008113.62108  20933839.540    85720643.70548
  20956965.400   110129612.02709  20956965.940    85815295.90748
 15 01 27 00 23 30.0000000  0  5G12G21G25G29G31
  24726322.280   129937867.64106  24726323.520   101250352.00145
  21594473.020   113479766.75208  21594474.060    88425785.46247
  21626316.540   113647138.38308  21626320.760    88556269.18048
  20943557.420   110059189.88808  20943559.040    85760443.38548
  20957145.140   110130556.32809  20957145.660    85816031.72248
 15 01 27 00 24  0.0000000  0  5G12G21G25G29G31
  24742340.020   130022041.41406  24742341.200   101315941.94245
  21583727.060   113423296.29608  21583728.100    88381782.52248
  21636667.700   113701534.17508  21636671.980    88598655.50948
  20953315.340   110110467.87508  20953316.940    85800400.25848
  20957433.420   110132070.94809  20957433.900    85817211.93449
 15 01 27 00 24 30.0000000  0  4G21G25G29G31
  21573039.900   113367134.63308  21573040.900    88338020.19848
  21647057.460   113756132.58808  21647061.720    88641199.71548
  20963093.500   110161852.35308  20963095.080    85840440.10348
  20957812.360   110134062.20709  20957812.860    85818763.55548
 15 01 27 00 25  0.0000000  0  4G21G25G29G31
  21562451.400   113311491.39308  21562452.340    88294661.83748
  21657525.540   113811142.29908  21657529.720    88684064.41248
  20972931.340   110213550.52508  20972932.880    85880724.39148
  20958321.720   110136738.76409  20958322.200    85820849.17648
 15 01 27 00 25 30.0000000  0  4G21G25G29G31
  21551933.840   113256220.89008  21551934.760    88251593.92548
  21668043.980   113866416.46808  21668048.020    88727135.18348
  20982800.600   110265414.19108  20982802.180    85921137.63348
  20958933.540   110139953.92909  20958934.040    85823354.49948
 15 01 27 00 26  0.0000000  0  4G21G25G29G31
  21541493.740   113201357.75308  21541494.660    88208843.43848
  21678619.040   113921988.53308  21678622.980    88770438.08148
  20992707.480   110317475.36508  20992709.080    85961704.77548
  20959654.240   110143741.25709  20959654.740    85826305.65548
 15 01 27 00 26 30.0000000  0  4G21G25G29G31
  21531132.020   113146906.70108  21531132.980    88166414.05648
  21689251.340   113977861.86508  21689255.260    88813975.73248
  21002652.300   110369735.97808  21002653.940    86002427.32948
  20960484.420   110148104.03409  20960484.940    85829705.21848
 15 01 27 00 27  0.0000000  0  4G21G25G29G31
  21520848.060   113092864.43408  21520849.040    88124303.20548
  21699940.100   114034032.00408  21699944.060    88857744.66148
  21012634.080   110422190.39408  21012635.700    86043300.89448
  20961423.300   110153038.01609  20961423.860    85833549.87548
 15 01 27 00 27 30.0000000  0  4G21G25G29G31
  21510641.180   113039227.09408  21510642.160    88082507.89148
  21710684.360   114090493.81008  21710688.420    88901740.86348
  21022651.480   110474832.05008  21022653.080    86084320.36448
  20962469.840   110158537.72109  20962470.400    85837835.35748
 15 01 27 00 28  0.0000000  0  4G21G25G29G31
  21500511.020   112985992.67808  21500511.940    88041026.53648
  21721483.500   114147243.87408  21721487.660    88945961.68248
  21032703.580   110527656.08108  21032705.160    86125481.94148
  20963623.460   110164599.96909  20963624.020    85842559.18548
 15 01 27 00 28 30.0000000  0  4G21G25G29G31
  21490458.520   112933166.29008  21490459.380    87999863.12948
  21732338.220   114204286.04908  21732342.440    88990410.12648
  21042790.800   110580664.82708  21042792.380    86166787.45948
  20964884.840   110171228.40309  20964885.360    85847724.19648
 15 01 27 00 29  0.0000000  0  4G21G25G29G31
  21480484.520   112880752.56608  21480485.360    87959021.27648
  21743249.180   114261623.56208  21743253.420    89035088.69548
  21052913.620   110633860.52408  21052915.160    86208238.64948
  20966254.540   110178426.28309  20966255.060    85853332.92448
 15 01 27 00 29 30.0000000  0  4G21G25G29G31
  21470588.080   112828746.41008  21470588.920    87918497.01348
  21754215.180   114319250.37808  21754219.500    89079992.69348
  21063070.540   110687235.49908  21063072.100    86249829.53148
  20967731.500   110186187.70709  20967732.020    85859380.78148
 15 01 27 00 30  0.0000000  0  4G21G25G29G31
  21460767.520   112777139.26308  21460768.380    87878283.66248
  21765234.440   114377156.96708  21765238.820    89125114.70348
  21073259.440   110740778.74508  21073261.080    86291551.53048
  20969313.780   110194502.77109  20969314.320    85865860.04948
 15 01 27 00 30 30.0000000  0  4G21G25G29G31
  21451025.900   112725946.95408  21451026.780    87838393.55948
  21776309.660   114435357.27808  21776314.080    89170465.57648
  21083482.860   110794503.22508  21083484.540    86333414.75548
  20971004.100   110203385.58609  20971004.680    85872781.71748
 15 01 27 00 31  0.0000000  0  4G21G25G29G31
  21441365.780   112675182.97008  21441366.720    87798837.21648
  21787443.140   114493863.67208  21787447.580    89216054.96148
  21093743.000   110848420.47708  21093744.660    86375428.19648
  20972804.680   110212847.80309  20972805.300    85880154.87148
 15 01 27 00 31 30.0000000  0  4G21G25G29G31
  21431785.640   112624839.11008  21431786.580    87759608.24948
  21798633.100   114552667.11708  21798637.560    89261875.81348
  21104037.800   110902519.81408  21104039.400    86417583.52048
  20974713.900   110222880.87209  20974714.560    85887972.84348
 15 01 27 00 32  0.0000000  0  4G21G25G29G31
  21422283.620   112574905.61308  21422284.500    87720699.03948
  21809877.560   114611756.82408  21809881.980    89307919.73348
  21114364.940   110956789.25408  21114366.520    86459871.39148
  20976729.660   110233473.56209  20976730.300    85896226.88348
 15 01 27 00 32 30.0000000  0  4G21G25G29G31
  21412861.680   112525392.92108  21412862.540    87682117.73148
  21821178.120   114671141.57908  21821182.460    89354193.55548
  21124725.860   111011236.35808  21124727.480    86502297.69648
  20978853.560   110244634.67209  20978854.200    85904923.84148
 15 01 27 00 33  0.0000000  0  4G21G25G29G31
  21403519.060   112476296.83808  21403519.840    87643861.05548
  21832533.820   114730816.07508  21832538.080    89400693.15448
  21135119.280   111065854.23808  21135120.960    86544857.07948
  20981084.620   110256358.67409  20981085.200    85914059.42248
 15 01 27 00 33 30.0000000  0  4G21G25G29G31
  21394257.120   112427624.99608  21394257.880    87605934.95048
  21843945.860   114790786.91508  21843950.080    89447423.65948
  21145546.280   111120648.45408  21145547.980    86587553.86048
  20983423.980   110268651.92909  20983424.520    85923638.57248
 15 01 27 00 34  0.0000000  0  4G21G25G29G31
  21385075.040   112379372.93508  21385075.820    87568335.95448
  21855413.220   114851048.55608  21855417.420    89494380.76147
  21156005.640   111175612.63808  21156007.340    86630383.08448
  20985870.540   110281508.63309  20985871.060    85933656.77348
 15 01 27 00 34 30.0000000  0  4G21G25G29G31
  21375973.820   112331545.77708  21375974.580    87531068.04748
  21866936.560   114911604.36908  21866940.740    89541567.10147
  21166497.700   111230748.80108  21166499.420    86673346.31648
  20988424.900   110294932.02709  20988425.420    85944116.55548
 15 01 27 00 35  0.0000000  0  4G21G25G29G31
  21366952.720   112284139.56908  21366953.440    87494128.15748
  21878515.060   114972449.84708  21878519.220    89588979.15747
  21177021.380   111286051.03408  21177023.100    86716438.96148
  20991086.160   110308917.12709  20991086.700    85955014.02948
 15 01 27 00 35 30.0000000  0  4G21G25G29G31
  21358011.340   112237152.46208  21358012.080    87457514.84148
  21890148.160   115033582.05808  21890152.320    89636614.63247
  21187575.900   111341515.58208  21187577.640    86759658.08548
  20993853.740   110323460.91809  20993854.300    85966346.85248
 15 01 27 00 36  0.0000000  0  4G21G25G29G31
  21349150.040   112190586.14808  21349150.780    87421229.41448
  21901835.980   115095001.63608  21901840.120    89684474.04147
  21198161.240   111397141.83508  21198162.960    86803003.21548
  20996727.740   110338563.81409  20996728.300    85978115.33048
 15 01 27 00 36 30.0000000  0  4G21G25G29G31
  21340371.960   112144457.06308  21340372.680    87385284.68348
  21913581.200   115156722.92108  21913585.300    89732568.53547
  21208779.880   111452943.07808  21208781.560    86846484.69948
  20999710.740   110354239.57409  20999711.300    85990330.20248
 15 01 27 00 37  0.0000000  0  4G21G25G29G31
  21331676.020   112098759.55008  21331676.720    87349676.24648
  21925382.580   115218739.67308  21925386.720    89780893.26847
  21219430.380   111508911.85208  21219432.080    86890096.72448
  21002801.580   110370481.86209  21002802.140    86002986.52348
 15 01 27 00 37 30.0000000  0  4G21G25G29G31
  21323060.240   112053483.44408  21323060.960    87314396.17748
  21937238.160   115281041.09808  21937242.320    89829439.81947
  21230110.560   111565036.29808  21230112.220    86933830.04748
  21005998.080   110387279.50909  21005998.660    86016075.59348
 15 01 27 00 38  0.0000000  0  4G21G25G29G31
  21314525.400   112008632.82008  21314526.180    87279447.64748
  21949148.460   115343630.00708  21949152.580    89878210.39047
  21240820.660   111621317.96408  21240822.280    86977685.88648
  21009300.740   110404635.09109  21009301.360    86029599.41148
 15 01 27 00 38 30.0000000  0  4G21G25G29G31
  21306072.760   111964214.31208  21306073.660    87244835.83348
  21961114.420   115406511.62008  21961118.540    89927209.03947
  21251561.540   111677761.49908  21251563.120    87021667.85348
  21012710.500   110422553.50409  21012711.140    86043561.80248
 15 01 27 00 39  0.0000000  0  4G21G25G29G31
  21297702.900   111920230.59308  21297703.840    87210562.81748
  21973136.400   115469687.65608  21973140.520    89976437.11147
  21262333.320   111734367.32508  21262334.820    87065776.27948
  21016227.560   110441035.80809  21016228.180    86057963.58948
 15 01 27 00 39 30.0000000  0  4G21G25G29G31
  21289415.780   111876681.38908  21289416.680    87176628.37948
  21985214.120   115533156.51608  21985218.220    90025893.35147
  21273135.440   111791132.83008  21273136.940    87110009.12848
  21019851.540   110460080.09309  21019852.160    86072803.28048
 15 01 27 00 40  0.0000000  0  4G21G25G29G31
  21281210.980   111833564.51908  21281211.800    87143030.83248
  21997347.040   115596915.36808  21997351.140    90075575.56547
  21283967.240   111848054.22608  21283968.740    87154363.45848
  21023581.880   110479683.25709  21023582.480    86088078.46048
 15 01 27 00 40 30.0000000  0  4G21G25G29G31
  21273088.020   111790877.73208  21273088.780    87109768.41348
  22009534.460   115660960.68208  22009538.580    90125480.99647
  21294827.800   111905126.87808  21294829.320    87198835.64648
  21027417.840   110499841.32609  21027418.420    86103786.03848
 15 01 27 00 41  0.0000000  0  4G21G25G29G31
  21265048.620   111748630.08708  21265049.280    87076848.18148
  22021777.900   115725300.44608  22021782.060    90175615.86947
  21305718.520   111962357.91108  21305720.040    87243431.24848
  21031360.780   110520561.62309  21031361.380    86119931.71248
 15 01 27 00 41 30.0000000  0  4G21G25G29G31
  21257090.680   111706810.81208  21257091.300    87044261.74048
  22034075.140   115789922.89108  22034079.360    90225971.01547
  21316636.880   112019734.41408  21316638.400    87288140.19948
  21035408.420   110541832.16209  21035409.060    86136506.15448
 15 01 27 00 42  0.0000000  0  5G16G21G25G29G31
  24572630.720   129130040.95806  24572633.520   100620813.02845
  21249215.700   111665427.83908  21249216.360    87012015.27648
  22046427.520   115854834.92308  22046431.780    90276551.81147
  21327584.060   112077262.37008  21327585.580    87332967.17448
  21039562.040   110563659.50109  21039562.700    86153514.46448
 15 01 27 00 42 30.0000000  0  5G16G21G25G29G31
  24555316.740   129039057.73906  24555319.280   100549917.06444
  21241416.300   111624442.20608  21241417.020    86980078.42648
  22058827.460   115919996.63008  22058831.700    90327327.15347
  21338552.320   112134901.23608  21338553.860    87377880.56648
  21043813.900   110586003.09009  21043814.600    86170925.04048
 15 01 27 00 43  0.0000000  0  5G16G21G25G29G31
  24538007.940   128948100.08006  24538010.000   100479041.01344
  21233708.580   111583938.11108  21233709.320    86948516.79948
  22071290.740   115985491.10408  22071294.900    90378361.79347
  21349557.200   112192732.69608  21349558.800    87422944.03348
  21048179.680   110608945.22909  21048180.340    86188802.02448
 15 01 27 00 43 30.0000000  0  5G16G21G25G29G31
  24520694.800   128857119.18006  24520696.600   100408146.83044
  21226083.400   111543867.48308  21226084.120    86917292.94548
  22083807.920   116051268.99508  22083812.040    90429617.29347
  21360589.280   112250707.01208  21360590.940    87468118.81848
  21052649.880   110632436.30409  21052650.540    86207106.74548
 15 01 27 00 44  0.0000000  0  5G16G21G25G29G31
  24503378.760   128766123.06506  24503380.400   100337240.78945
  21218542.080   111504237.40608  21218542.780    86886412.37848
  22096380.120   116117336.57008  22096384.380    90481098.50647
  21371649.600   112308829.46508  21371651.260    87513409.03148
  21057225.660   110656482.10409  21057226.280    86225843.72048
 15 01 27 00 44 30.0000000  0  5G16G21G25G29G31
  24486059.820   128675111.71806  24486061.440   100266322.88945
  21211084.400   111465047.09808  21211085.100    86855874.48248
  22109007.080   116183692.46808  22109011.560    90532804.37847
  21382737.660   112367097.65308  21382739.320    87558812.80848
  21061906.640   110681080.73809  21061907.240    86245011.47948
 15 01 27 00 45  0.0000000  0  5G16G21G25G29G31
  24468737.940   128584084.86806  24468739.500   100195392.89944
  21203710.320   111426296.21208  21203711.020    86825679.00348
  22121688.600   116250335.04108  22121693.160    90584733.64347
  21393852.940   112425508.76408  21393854.620    87604327.94448
  21066692.400   110706229.90109  21066692.960    86264608.22048
 15 01 27 00 45 30.0000000  0  5G16G21G25G29G31
  24451413.200   128493043.05305  24451414.640   100124451.25544
  21196419.980   111387985.35908  21196420.660    86795826.39848
  22134424.660   116317263.62208  22134429.160    90636885.77847
  21404995.340   112484061.92508  21404996.960    87649953.77148
  21071582.680   110731928.28309  21071583.200    86284632.91748
 15 01 27 00 46  0.0000000  0  5G16G21G25G29G31
  24434085.880   128401987.70006  24434087.320   100053499.05344
  21189213.580   111350115.64208  21189214.280    86766317.53848
  22147215.300   116384478.54708  22147219.620    90689261.02847
  21416164.680   112542756.40908  21416166.200    87695689.71848
  21076577.460   110758175.82709  21076577.960    86305085.53948
 15 01 27 00 46 30.0000000  0  5G16G21G25G29G31
  24416756.420   128310921.08005  24416757.880    99982538.08344
  21182091.300   111312687.94708  21182092.040    86737153.10748
  22160060.540   116451980.17408  22160064.680    90741859.68447
  21427360.760   112601591.55308  21427362.180    87741535.27248
  21081676.660   110784972.20409  21081677.180    86325965.82648
 15 01 27 00 47  0.0000000  0  5G16G21G25G29G31
  24399424.760   128219842.44806  24399426.100    99911567.72045
  21175053.080   111275701.72808  21175053.820    86708332.68848
  22172959.880   116519766.28008  22172963.960    90794680.01047
  21438583.060   112660564.73008  21438584.400    87787488.38748
  21086879.740   110812314.66309  21086880.320    86347271.63248
 15 01 27 00 47 30.0000000  0  5G16G21G25G29G31
  24382091.520   128128755.31506  24382092.800    99840590.77945
  21168099.440   111239160.12408  21168100.220    86679858.72248
  22185913.820   116587839.47908  22185917.900    90847724.05547
  21449831.900   112719677.46808  21449833.180    87833550.24848
  21092187.080   110840205.02509  21092187.700    86369004.38048
 15 01 27 00 48  0.0000000  0  5G16G21G25G29G31
  24364756.520   128037658.78106  24364757.760    99769606.48344
  21161230.160   111203061.63808  21161230.900    86651730.03948
  22198921.860   116656197.31608  22198926.080    90900989.89047
  21461106.600   112778926.45808  21461107.920    87879718.28948
  21097598.060   110868640.17709  21097598.760    86391161.62748
 15 01 27 00 48 30.0000000  0  5G16G21G25G29G31
  24347420.060   127946554.79606  24347421.340    99698616.39145
  21154445.460   111167407.59908  21154446.140    86623947.68648
  22211984.160   116724840.11108  22211988.480    90954477.78047
  21472407.140   112838311.76408  21472408.580    87925992.53748
  21103112.760   110897619.98009  21103113.460    86413743.28548
 15 01 27 00 49  0.0000000  0  5G16G21G25G29G31
  24330082.580   127855445.70806  24330083.960    99627622.31344
  21147745.520   111132199.23708  21147746.200    86596512.61548
  22225100.840   116793768.54308  22225105.180    91008188.24047
  21483733.580   112897833.18608  21483735.160    87972372.85348
  21108731.080   110927144.26609  21108731.760    86436749.21348
 15 01 27 00 49 30.0000000  0  5G16G21G25G29G31
  24312744.100   127764331.56706  24312745.580    99556624.31445
  21141130.400   111097436.90208  21141131.140    86569425.08948
  22238271.660   116862981.47708  22238275.980    91062120.39547
  21495085.580   112957488.62208  21495087.240    88018857.59648
  21114452.740   110957211.50909  21114453.360    86460178.22148
 15 01 27 00 50  0.0000000  0  5G16G21G25G29G31
  24295404.780   127673213.23506  24295406.320    99485623.05145
  21134600.160   111063120.64508  21134600.960    86542685.15748
  22251496.480   116932478.06808  22251500.720    91116273.58247
  21506462.840   113017276.60608  21506464.520    88065445.62748
  21120277.320   110987819.77009  21120277.920    86484028.80448
 15 01 27 00 50 30.0000000  0  5G16G21G25G29G31
  24278065.160   127582093.23506  24278066.720    99414620.47645
  21128155.120   111029252.02308  21128155.980    86516294.03348
  22264775.420   117002259.57408  22264779.640    91170648.76947
  21517865.440   113077197.66508  21517867.080    88112137.35448
  21126204.940   111018969.55509  21126205.540    86508301.35548
 15 01 27 00 51  0.0000000  0  5G16G21G25G29G31
  24260725.160   127490971.15606  24260726.760    99343616.30644
  21121795.120   110995830.10508  21121796.000    86490250.98848
  22278108.100   117072323.75308  22278112.320    91225244.21347
  21529292.880   113137249.02608  21529294.500    88158930.61448
  21132235.060   111050658.14209  21132235.680    86532993.75048
 15 01 27 00 51 30.0000000  0  5G16G21G25G29G31
  24243384.940   127399848.09306  24243386.600    99272611.37045
  21115520.200   110962855.30908  21115521.080    86464556.35248
  22291494.440   117142670.03808  22291498.740    91280059.49047
  21540744.820   113197429.44808  21540746.500    88205824.44148
  21138367.420   111082883.98009  21138368.060    86558104.78648
 15 01 27 00 52  0.0000000  0  5G16G21G25G29G31
  24226044.860   127308725.44105  24226046.380    99201606.74245
  21109330.500   110930328.15108  21109331.360    86439210.52348
  22304934.480   117213298.45908  22304938.920    91335094.60947
  21552221.260   113257738.63708  21552222.980    88252818.59748
  21144601.960   111115646.78709  21144602.640    86583634.24148
 15 01 27 00 52 30.0000000  0  5G16G21G25G29G31
  24208704.920   127217603.93306  24208706.360    99130602.98344
  21103226.080   110898249.08908  21103226.920    86414213.86148
  22318428.080   117284208.09708  22318432.660    91390348.86247
  21563721.740   113318174.22508  21563723.500    88299911.25548
  21150938.260   111148944.46008  21150939.020    86609580.47548
 15 01 27 00 53  0.0000000  0  5G16G21G25G29G31
  24191365.220   127126483.89605  24191366.740    99059600.40644
  21097206.820   110866617.68808  21097207.620    86389566.02548
  22331975.060   117355397.75208  22331979.620    91445821.31947
  21575246.100   113378735.27408  21575247.900    88347101.66948
  21157375.980   111182775.26708  21157376.820    86635942.13748
 15 01 27 00 53 30.0000000  0  5G16G21G25G29G31
  24174026.320   127035367.70306  24174027.880    98988600.81244
  21091272.920   110835434.84808  21091273.700    86365267.72348
  22345575.500   117426867.84308  22345580.000    91501512.29447
  21586794.260   113439421.36908  21586796.100    88394389.52748
  21163915.100   111217138.59309  21163915.940    86662718.74848
 15 01 27 00 54  0.0000000  0  5G16G21G25G29G31
  24156688.460   126944256.91206  24156690.060    98917605.42445
  21085424.560   110804701.61408  21085425.320    86341319.76048
  22359229.300   117498618.33908  22359233.660    91557421.75747
  21598366.080   113500231.57808  21598367.920    88441774.09548
  21170555.460   111252033.74709  21170556.240    86689909.76548
 15 01 27 00 54 30.0000000  0  5G16G21G25G29G31
  24139351.840   126853152.07006  24139353.320    98846614.67144
  21079661.760   110774417.71208  21079662.460    86317721.91848
  22372936.260   117570648.44008  22372940.480    91613549.10347
  21609961.240   113561164.60808  21609963.100    88489254.37048
  21177296.700   111287459.06809  21177297.460    86717513.90848
 15 01 27 00 55  0.0000000  0  5G16G21G25G29G31
  24122016.720   126762054.86606  24122017.980    98775629.85345
  21073984.680   110744584.32108  21073985.360    86294475.12948
  22386696.420   117642958.09408  22386700.400    91669894.27947
  21621579.780   113622220.42108  21621581.660    88536830.32548
  21184138.640   111323413.59809  21184139.380    86745530.41048
 15 01 27 00 55 30.0000000  0  5G16G21G25G29G31
  24104683.620   126670968.63806  24104684.820    98704653.58744
  21068393.680   110715203.29708  21068394.380    86271580.83848
  22400509.940   117715548.86808  22400513.840    91726458.50047
  21633221.780   113683399.77808  21633223.720    88584502.54048
  21191081.480   111359898.38208  21191082.220    86773960.10548
 15 01 27 00 56  0.0000000  0  5G16G21G25G29G31
  24087352.600   126579893.33206  24087353.820    98633685.84544
  21062888.500   110686273.45208  21062889.260    86249038.11048
  22414376.480   117788418.33508  22414380.420    91783239.88047
  21644886.820   113744699.79108  21644888.760    88632268.76948
  21198124.500   111396909.67808  21198125.260    86802800.07248
 15 01 27 00 56 30.0000000  0  5G16G21G25G29G31
  24070023.280   126488827.23206  24070024.560    98562725.28145
  21057468.880   110657793.15408  21057469.680    86226845.67648
  22428295.600   117861563.91208  22428299.640    91840236.42247
  21656574.240   113806117.16608  21656576.080    88680126.45348
  21205267.020   111434444.04708  21205267.820    86832047.62948
 15 01 27 00 57  0.0000000  0  5G16G21G25G29G31
  24052696.120   126397772.54706  24052697.480    98491773.59645
  21052134.920   110629763.20508  21052135.760    86205004.16548
  22442267.420   117934985.85408  22442271.560    91897448.31447
  21668283.900   113867651.69508  21668285.680    88728075.42848
  21212509.000   111472500.98808  21212509.820    86861702.38648
 15 01 27 00 57 30.0000000  0  5G16G21G25G29G31
  24035371.720   126306732.83606  24035373.240    98420833.60545
  21046887.100   110602185.95808  21046887.980    86183515.40448
  22456292.140   118008685.64508  22456296.400    91954876.70747
  21680016.000   113929304.16508  21680017.740    88776116.29948
  21219850.620   111511081.40108  21219851.440    86891765.04348
 15 01 27 00 58  0.0000000  0  5G16G21G25G29G31
  24018050.220   126215708.16706  24018051.820    98349905.32444
  21041725.220   110575060.18208  21041726.080    86162378.44648
  22470369.400   118082661.60408  22470373.720    92012520.29547
  21691770.240   113991073.21308  21691772.040    88824248.01748
  21227291.360   111550182.52508  21227292.140    86922233.44348
 15 01 27 00 58 30.0000000  0  6G16G18G21G25G29G31
  24000732.820   126124704.98106  24000734.480    98278993.80644
  24507916.760   128789973.81805  24507919.420   100355839.97443
  21036650.380   110548391.45508  21036651.140    86141597.62448
  22484500.000   118156918.39507  22484504.400    92070382.71147
  21703547.420   114052962.87008  21703549.240    88872473.70748
  21234831.900   111589808.30608  21234832.680    86953110.66148
 15 01 27 00 59  0.0000000  0  6G16G18G21G25G29G31
  23983420.980   126033731.06306  23983422.760    98208105.06544
  24492869.800   128710899.83405  24492871.580   100294223.92543
  21031663.760   110522186.49808  21031664.420    86121178.18348
  22498685.140   118231462.06108  22498689.540    92128468.67947
  21715348.540   114114978.36308  21715350.420    88920797.46248
  21242473.120   111629963.15208  21242473.880    86984400.14148
 15 01 27 00 59 30.0000000  0  6G16G18G21G25G29G31
  23966108.540   125942754.13906  23966110.380    98137214.00345
  24477806.420   128631740.70705  24477807.720   100232541.55244
  21026759.180   110496412.61208  21026759.760    86101094.64648
  22512918.400   118306258.61607  22512922.740    92186751.69447
  21727167.160   114177085.75608  21727169.060    88969192.82548
  21250208.440   111670612.37808  21250209.200    87016074.85648
 15 01 27 01 00  0.0000000  0  6G16G18G21G25G29G31
  23948800.860   125851801.82206  23948802.620    98066342.08444
  24462732.200   128552525.02205  24462733.680   100170815.15943
  21021941.540   110471095.67508  21021942.060    86081367.17048
  22527204.640   118381333.43408  22527208.860    92245251.55247
  21739008.040   114239309.98208  21739009.940    89017679.22748
  21258042.500   111711780.59108  21258043.260    87048153.97748
 15 01 27 01 00 30.0000000  0  6G16G18G21G25G29G31
  23931497.020   125760869.38506  23931498.720    97995485.67845
  24447646.680   128473249.35705  24447648.000   100109041.92243
  21017209.660   110446229.44608  21017210.160    86061990.89448
  22541542.620   118456679.88307  22541546.720    92303963.05147
  21750869.740   114301643.57908  21750871.660    89066250.84648
  21265973.860   111753460.21408  21265974.640    87080631.60348
 15 01 27 01 01  0.0000000  0  6G16G18G21G25G29G31
  23914198.120   125669962.49706  23914199.560    97924649.17945
  24432550.700   128393920.07206  24432552.040   100047226.98143
  21012564.380   110421818.39508  21012564.920    86042969.30048
  22555933.020   118532301.57508  22555937.020    92362889.03447
  21762753.000   114364090.35808  21762754.900    89114910.65848
  21274003.020   111795653.82108  21274003.840    87113509.73148
 15 01 27 01 01 30.0000000  0  6G16G18G21G25G29G31
  23896903.440   125579077.68107  23896904.680    97853829.88444
  24417444.200   128314535.32505  24417445.720    99985368.80644
  21008004.860   110397858.20808  21008005.460    86024299.03148
  22570374.880   118608193.57608  22570378.820    92422025.63346
  21774656.840   114426644.99708  21774658.660    89163654.51448
  21282128.860   111838355.27508  21282129.680    87146783.58748
 15 01 27 01 02  0.0000000  0  6G16G18G21G25G29G31
  23879614.240   125488221.98806  23879615.300    97783033.26544
  24402328.500   128235103.48805  24402330.120    99923473.88543
  21003532.280   110374354.79908  21003532.920    86005984.69048
  22584869.100   118684360.96608  22584873.040    92481376.82647
  21786582.140   114489312.25708  21786583.880    89212486.12448
  21290352.160   111881568.86608  21290352.960    87180456.50948
 15 01 27 01 02 30.0000000  0  6G16G18G21G25G29G31
  23862329.860   125397392.10506  23862330.940    97712256.75644
  24387203.520   128155621.94406  24387205.120    99861540.28944
  20999145.720   110351303.39208  20999146.380    85988022.56148
  22599414.600   118760798.19507  22599418.640    92540938.29947
  21798527.660   114552085.87008  21798529.340    89261400.61248
  21298671.640   111925288.00008  21298672.420    87214523.35648
 15 01 27 01 03  0.0000000  0  6G16G18G21G25G29G31
  23845050.520   125306588.68906  23845051.560    97641500.87044
  24372069.700   128076092.73405  24372071.440    99799569.55643
  20994845.120   110328703.51008  20994845.760    85970412.27148
  22614011.100   118837504.08507  22614015.300    92600709.12447
  21810493.200   114614964.82408  21810494.840    89310397.18748
  21307086.920   111969510.56308  21307087.660    87248982.48648
 15 01 27 01 03 30.0000000  0  6G16G18G21G25G29G31
  23827776.940   125215815.34506  23827778.000    97570768.42944
  24356927.740   127996520.36706  24356929.160    99737565.14343
  20990630.840   110306557.20908  20990631.480    85953155.41948
  22628658.940   118914480.14707  22628663.340    92660690.47146
  21822479.060   114677950.40508  21822480.640    89359476.84848
  21315598.020   112014236.76908  21315598.740    87283834.06748
 15 01 27 01 04  0.0000000  0  6G16G18G21G25G29G31
  23810509.080   125125072.23106  23810510.220    97500059.52745
  24341777.940   127916906.46406  24341779.140    99675528.40343
  20986502.700   110284863.67408  20986503.340    85936251.37648
  22643357.880   118991724.66707  22643362.420    92720880.99246
  21834484.700   114741040.37908  21834486.280    89408637.85548
  21324204.500   112059464.29808  21324205.260    87319076.28948
 15 01 27 01 04 30.0000000  0  6G16G18G21G25G29G31
  23793247.580   125034362.41006  23793248.660    97429376.56244
  24326620.880   127837254.72706  24326621.680    99613462.15643
  20982460.940   110263624.11008  20982461.560    85919701.07148
  22658108.160   119069238.45807  22658112.760    92781281.33746
  21846510.320   114804235.59408  21846511.920    89457880.87348
  21332906.280   112105192.59908  21332907.080    87354708.72148
 15 01 27 01 05  0.0000000  0  6G16G18G21G25G29G31
  23775992.440   124943686.17106  23775993.600    97358719.77545
  24311456.900   127757566.56506  24311457.420    99551367.51144
  20978505.380   110242837.46008  20978505.980    85903503.69448
  22672909.520   119147019.82207  22672913.980    92841890.16346
  21858555.560   114867534.04908  21858557.200    89507204.33648
  21341702.820   112151418.81108  21341703.660    87390729.13548
 15 01 27 01 05 30.0000000  0  6G16G18G21G25G29G31
  23758744.260   124853046.43407  23758745.480    97288091.42345
  24296286.580   127677846.44806  24296286.980    99489247.98644
  20974636.320   110222505.47008  20974636.900    85887660.58548
  22687762.060   119225069.73507  22687766.340    92902708.25046
  21870620.620   114930936.46508  21870622.280    89556608.81248
  21350594.200   112198142.98608  21350595.000    87427137.57448
 15 01 27 01 06  0.0000000  0  6G16G18G21G25G29G31
  23741502.920   124762442.88307  23741504.200    97217491.27845
  24281110.280   127598094.86005  24281110.700    99427103.91844
  20970853.380   110202626.11308  20970853.980    85872170.18348
  22702665.280   119303385.70707  22702669.360    92963733.66946
  21882704.980   114994440.30508  21882706.660    89606092.31148
  21359579.640   112245361.31708  21359580.400    87463931.07248
 15 01 27 01 06 30.0000000  0  6G16G18G21G25G29G31
  23724269.080   124671878.52907  23724270.440    97146921.68245
  24265928.560   127518315.91505  24265929.300    99364938.55944
  20967156.860   110183200.84008  20967157.460    85857033.61248
  22717619.160   119381968.48007  22717623.260    93024966.98446
  21894808.760   115058045.95608  21894810.400    89655655.14648
  21368659.000   112293073.56808  21368659.760    87501109.43348
 15 01 27 01 07  0.0000000  0  6G16G18G21G25G29G31
  23707042.760   124581353.55107  23707044.100    97076382.78145
  24250741.940   127438511.02006  24250742.920    99302752.96244
  20963546.640   110164229.00008  20963547.240    85842250.36548
  22732623.440   119460816.39307  22732627.640    93086406.90846
  21906931.520   115121751.61308  21906933.160    89705295.90848
  21377831.820   112341277.01008  21377832.580    87538670.55048
 15 01 27 01 07 30.0000000  0  6G16G18G21G25G29G31
  23689824.240   124490869.50307  23689825.500    97005875.74245
  24235550.780   127358682.59606  24235552.000    99240549.03244
  20960022.600   110145710.01108  20960023.200    85827819.99048
  22747677.920   119539928.65607  22747682.400    93148052.81347
  21919073.220   115185556.81408  21919074.840    89755014.23048
  21387097.720   112389969.69308  21387098.500    87576612.89148
 15 01 27 01 08  0.0000000  0  6G16G18G21G25G29G31
  23672613.660   124400427.47807  23672614.820    96935401.45844
  24220355.700   127278832.90005  24220357.360    99178328.50244
  20956584.680   110127643.47508  20956585.240    85813742.17448
  22762782.520   119619304.11407  22762787.160    93209903.81547
  21931233.560   115249460.01608  21931235.180    89804808.92448
  21396456.300   112439149.46808  21396457.080    87614934.78948
 15 01 27 01 08 30.0000000  0  6G16G18G21G25G29G31
  23655411.380   124310029.30407  23655412.520    96864961.35345
  24205157.120   127198964.63005  24205159.060    99116093.53343
  20953232.900   110110029.78908  20953233.480    85800017.23048
  22777937.300   119698942.65007  22777941.940    93271959.80546
  21943412.480   115313460.94308  21943414.180    89854679.76548
  21405907.300   112488814.99208  21405908.100    87653635.18948
 15 01 27 01 09  0.0000000  0  6G16G18G21G25G29G31
  23638217.840   124219676.83407  23638218.920    96794556.84544
  24189955.660   127119081.13505  24189957.840    99053846.66543
  20949967.300   110092869.00608  20949967.880    85786645.19948
  22793142.140   119778843.73007  22793146.580    93334220.36646
  21955609.820   115377558.89208  21955611.620    89904626.21248
  21415450.480   112538964.71708  21415451.240    87692712.88748
 15 01 27 01 09 30.0000000  0  6G16G18G21G25G29G31
  23621033.020   124129370.37107  23621034.140    96724188.20645
  24174751.520   127039183.36606  24174754.160    98991588.69344
  20946787.620   110076159.78708  20946788.220    85773625.03148
  22808396.600   119859005.30007  22808400.740    93396683.91146
  21967825.320   115441751.95108  21967827.180    89954646.76948
  21425085.180   112589595.20508  21425085.880    87732165.20748
 15 01 27 01 10  0.0000000  0  6G16G18G21G25G29G31
  23603857.600   124039113.19506  23603858.820    96653857.95145
  24159545.620   126959276.15306  24159548.240    98929323.38444
  20943694.200   110059903.90508  20943694.820    85760958.11648
  22823700.820   119939428.85207  22823704.720    93459351.60146
  21980059.300   115506041.55608  21980061.100    90004742.56947
  21434811.400   112640706.70808  21434812.060    87771992.34248
 15 01 27 01 10 30.0000000  0  6G16G18G21G25G29G31
  23586691.540   123948905.16907  23586692.800    96583566.01045
  24144337.980   126879359.97805  24144340.640    98867051.04144
  20940686.680   110044099.31308  20940687.300    85748642.85548
  22839054.260   120020111.75507  22839058.060    93522221.38146
  21992311.060   115570424.85208  21992312.840    90054911.36347
  21444628.380   112692295.44608  21444629.100    87812191.34948
 15 01 27 01 11  0.0000000  0  6G16G18G21G25G29G31
  23569535.100   123858747.70007  23569536.320    96513313.45045
  24129129.300   126799437.82805  24129132.040    98804774.09344
  20937765.060   110028746.18808  20937765.660    85736679.38948
  22854456.720   120101053.22207  22854460.640    93585292.64446
  22004580.540   115634901.24508  22004582.280    90105152.69647
  21454535.820   112744359.56508  21454536.600    87852760.78248
 15 01 27 01 11 30.0000000  0  6G16G18G21G25G29G31
  23552388.820   123768643.37207  23552389.980    96443102.30045
  24113920.080   126719513.05306  24113922.780    98742495.05944
  20934929.460   110013845.26408  20934930.100    85725068.28848
  22869908.420   120182253.48307  22869912.560    93648565.57146
  22016867.780   115699470.92708  22016869.480    90155466.72447
  21464533.540   112796898.10408  21464534.380    87893699.89548
 15 01 27 01 12  0.0000000  0  6G16G18G21G25G29G31
  23535252.860   123678593.52307  23535254.120    96372933.59345
  24098710.820   126639587.78105  24098713.440    98680215.63944
  20932179.800   109999395.96108  20932180.460    85713809.09548
  22885409.260   120263711.54107  22885413.580    93712039.36846
  22029172.520   115764132.64808  22029174.200    90205852.46247
  21474621.140   112849908.80508  21474622.000    87935006.92948
 15 01 27 01 12 30.0000000  0  6G16G18G21G25G29G31
  23518127.700   123588600.03407  23518128.880    96302808.80045
  24083501.960   126559664.91306  24083504.580    98617938.08844
  20929516.080   109985398.28808  20929516.760    85702901.82648
  22900959.180   120345427.10907  22900963.680    93775713.81446
  22041494.780   115828886.48008  22041496.460    90256309.98447
  21484798.340   112903390.18408  21484799.200    87976680.71648
 15 01 27 01 13  0.0000000  0  6G16G18G21G25G29G31
  23501013.200   123498662.84807  23501014.400    96232727.89445
  24068293.920   126479745.59305  24068296.520    98555663.30345
  20926937.900   109971849.94308  20926938.580    85692344.67748
  22916557.580   120427397.37207  22916562.260    93839586.74046
  22053834.060   115893729.96108  22053835.780    90306837.35647
  21495064.340   112957338.20708  21495065.180    88018718.13348
 15 01 27 01 13 30.0000000  0  6G16G18G21G25G29G31
  23483909.900   123408784.40207  23483911.140    96162692.76545
  24053087.220   126399832.95406  24053089.700    98493393.77244
  20924445.440   109958751.78008  20924446.100    85682138.32348
  22932204.500   120509622.39207  22932209.300    93903658.17646
  22066190.360   115958662.71308  22066192.100    90357434.29047
  21505418.920   113011751.70608  21505419.740    88061118.25348
 15 01 27 01 14  0.0000000  0  6G16G18G21G25G29G31
  23466818.040   123318966.10107  23466819.340    96092704.50045
  24037882.480   126319930.09806  24037884.660    98431131.81844
  20922038.680   109946104.02908  20922039.320    85672282.93748
  22947899.860   120592101.91007  22947904.700    93967927.92746
  22078563.620   116023684.48908  22078565.320    90408100.60547
  21515861.740   113066629.11408  21515862.580    88103879.86148
 15 01 27 01 14 30.0000000  0  7G16G18G21G25G27G29G31
  23449740.760   123229224.20207  23449742.040    96022775.75445
  24022682.940   126240054.41306  24022684.900    98368891.07444
  20919720.260   109933920.51508  20919720.900    85662789.30048
