     2.11           OBSERVATION DATA    M                   RINEX VERSION / TYPE
SPIDER V4,0,0,3554                      2015 03 16 00:52    PGM / RUN BY / DATE 
ABKD                                                        MARKER NAME         
ABKD                                                        MARKER NUMBER       
                                                            OBSERVER / AGENCY   
496503              LEICA GRX1200+GNSS  8.20/4.007          REC # / TYPE / VERS 
10301028            LEIAR25         NONE                    ANT # / TYPE        
  5126847.8297   206786.8373  3776118.0908                  APPROX POSITION XYZ 
        0.0000        0.0000        0.0000                  ANTENNA: DELTA H/E/N
     1     1                                                WAVELENGTH FACT L1/2
     4    C1    L1    P2    L2                              # / TYPES OF OBSERV 
    30.000                                                  INTERVAL            
  2015    02    26    00    00    0.0000000     GPS         TIME OF FIRST OBS   
  2015    02    26    23    59   30.0000000     GPS         TIME OF LAST OBS    
    16                                                      LEAP SECONDS        
    38                                                      # OF SATELLITES     
   G 1   822   822   822   822                              PRN / # OF OBS      
   G 2   930   930   930   930                              PRN / # OF OBS      
   G 3   827   827   826   826                              PRN / # OF OBS      
   G 4   836   836   836   836                              PRN / # OF OBS      
   G 5   666   666   666   666                              PRN / # OF OBS      
   G 6   736   736   736   736                              PRN / # OF OBS      
   G 7   705   705   704   704                              PRN / # OF OBS      
   G 9   784   784   782   782                              PRN / # OF OBS      
   G10   773   773   773   773                              PRN / # OF OBS      
   G11   788   788   788   788                              PRN / # OF OBS      
   G12   809   809   809   809                              PRN / # OF OBS      
   G13   811   811   811   811                              PRN / # OF OBS      
   G14   936   936   935   935                              PRN / # OF OBS      
   G15   723   723   723   723                              PRN / # OF OBS      
   G16   687   687   687   687                              PRN / # OF OBS      
   G17   933   933   933   933                              PRN / # OF OBS      
   G18   934   934   934   934                              PRN / # OF OBS      
   G19   772   772   772   772                              PRN / # OF OBS      
   G20   794   794   794   794                              PRN / # OF OBS      
   G21   711   711   710   710                              PRN / # OF OBS      
   G22   791   791   791   791                              PRN / # OF OBS      
   G23   717   717   716   716                              PRN / # OF OBS      
   G24   832   832   832   832                              PRN / # OF OBS      
   G25   847   847   847   847                              PRN / # OF OBS      
   G27   821   821   821   821                              PRN / # OF OBS      
   G28   910   910   910   910                              PRN / # OF OBS      
   G29   744   744   742   742                              PRN / # OF OBS      
   G30   688   688   688   688                              PRN / # OF OBS      
   G31   789   789   789   789                              PRN / # OF OBS      
   G32   735   735   732   732                              PRN / # OF OBS      
   R 3    30    30    30    30                              PRN / # OF OBS      
   R 4    27    27    27    24                              PRN / # OF OBS      
   R 9    30    30    30    30                              PRN / # OF OBS      
   R10    30    30    30    30                              PRN / # OF OBS      
   R16    30    30    30    30                              PRN / # OF OBS      
   R18    30    30    30    30                              PRN / # OF OBS      
   R19    30    30    30    30                              PRN / # OF OBS      
   R20    30    30    30    30                              PRN / # OF OBS      
BIT 2 OF LLI FLAGS DATA COLLECTED UNDER A/S CONDITION       COMMENT             
SNR is mapped to RINEX snr flag value [2-9]                 COMMENT             
Lx:     = 25dBHz -> 1; 26-27dBHz -> 2; 28-31dBHz -> 3       COMMENT             
       32-35dBHz -> 4; 36-38dBHz -> 5; 39-41dBHz -> 6       COMMENT             
       42-44dBHz -> 7; 45-48dBHz -> 8; >=49dBHz -> 9        COMMENT             
                                                            END OF HEADER       
 15 02 26 00 00  0.0000000  0 14G16G18G21G22G27G29G31R03R09R10R16R18
                                R19R20
  21740038.760   114244699.64409  21740035.220    89021833.46347
  22961676.520   120664449.00108  22961673.060    94024245.62046
  21232803.060   111579373.81108  21232798.980    86945054.88048
  24342367.340   127920011.35908  24342363.160    99677915.94445
  22875259.800   120210325.90108  22875258.280    93670386.71647
  23893229.820   125560192.71208  23893227.240    97839292.85546
  22691737.180   119245931.24609  22691733.740    92918915.81147
  22843977.160   122285602.30807  22843977.040    95111025.49207
  19675233.440   105064663.19308  19675233.740    81716974.97206
  22383467.880   119316481.47308  22383473.120    92801737.71905
  20855417.840   111405938.62808  20855419.700    86649099.19108
  21827723.540   116518169.29809  21827725.600    90625212.41308
  19928033.380   106601667.88109  19928031.900    82912460.63208
  22417992.460   119879094.84706  22417994.960    93239311.85307
 15 02 26 00 00 30.0000000  0 14G16G18G21G22G27G29G31R03R09R10R16R18
                                R19R20
  21726523.400   114173675.09109  21726519.700    88966489.64648
  22949218.100   120598979.59808  22949214.640    93973230.51646
  21239050.400   111612203.02608  21239046.220    86970636.08348
  24324753.960   127827453.13008  24324749.580    99605792.80845
  22862757.200   120144626.80408  22862756.380    93619192.62547
  23907808.160   125636802.19308  23907805.560    97898988.49745
  22708847.300   119335844.55609  22708843.700    92988978.11547
  22835644.360   122240996.26107  22835644.220    95076331.91507
  19674868.580   105062716.05208  19674869.120    81715460.52106
  22363119.220   119208011.00108  22363124.380    92717371.79706
  20876028.500   111516036.91408  20876030.320    86734731.16408
  21843061.040   116600041.71209  21843063.080    90688890.94208
  19928609.700   106604750.32809  19928608.120    82914858.09708
  22404619.780   119807585.43007  22404622.220    93183693.43807
 15 02 26 00 01  0.0000000  0 14G16G18G21G22G27G29G31R03R09R10R16R18
                                R19R20
  21713054.700   114102895.61509  21713050.920    88911336.81748
  22936805.900   120533753.00208  22936802.380    93922404.62846
  21245367.460   111645399.02508  21245363.240    86996503.10548
  24307131.760   127734848.82108  24307127.340    99533633.77545
  22850278.080   120079050.88508  22850277.780    93568094.52047
  23922389.460   125713427.52108  23922387.020    97958696.52445
  22726000.100   119425981.77009  22725996.180    93059214.89747
  22827426.280   122197004.31307  22827426.120    95042115.98107
  19674658.320   105061593.69708  19674658.960    81714587.58006
  22342851.460   119099971.91808  22342856.580    92633341.41106
  20896727.540   111626607.51008  20896729.520    86820730.50308
  21858404.540   116681946.34608  21858406.580    90752594.52608
  19929245.860   106608153.28609  19929244.320    82917504.84808
  22391294.800   119736330.52207  22391297.220    93128273.00007
 15 02 26 00 01 30.0000000  0 15G16G18G21G22G27G29G31R03R04R09R10R16
                                R18R19R20
  21699632.540   114032361.23409  21699628.760    88856374.98247
  22924439.960   120468769.73608  22924436.460    93871768.32246
  21251753.620   111678958.04108  21251749.320    87022652.99648
  24289500.860   127642198.62308  24289496.460    99461438.95245
  22837822.260   120013595.98108  22837822.260    93517090.71447
  23936973.340   125790066.57208  23936970.940    98018415.25744
  22743194.500   119516338.10509  22743190.280    93129622.42947
  22819323.000   122153627.57807  22819323.040    95008378.57707
  23565597.700   126192701.23207  23565597.640                  
  19674602.140   105061294.18808  19674602.920    81714354.62405
  22322664.960   118992366.61508  22322670.100    92549648.40805
  20917513.760   111737644.24708  20917516.040    86907092.40108
  21873753.380   116763879.70208  21873755.440    90816320.46308
  19929941.100   106611872.88609  19929939.740    82920397.87608
  22378016.960   119665327.56507  22378019.440    93073048.49907
 15 02 26 00 02  0.0000000  0 15G16G18G21G22G27G29G31R03R04R09R10R16
                                R18R19R20
  21686257.600   113962075.07609  21686253.780    88801606.55047
  22912121.060   120404033.72609  22912117.660    93821324.68946
  21258208.760   111712879.71808  21258204.400    87049085.47248
  24271861.940   127549506.14808  24271857.580    99389211.18545
  22825389.960   119948263.12608  22825389.780    93466182.03047
  23951560.060   125866720.11407  23951557.840    98078145.31043
  22760430.060   119606911.42409  22760425.740    93200199.02547
  22811335.420   122110869.75207  22811335.440    94975122.51906
  23545790.260   126086633.13807  23545790.240                  
  19674700.420   105061818.90408  19674701.080    81714762.72905
  22302560.760   118885200.35608  22302565.920    92466296.90406
  20938386.680   111849144.42208  20938389.200    86993814.74008
  21889107.560   116845841.45908  21889109.620    90880068.47107
  19930695.540   106615908.76509  19930694.260    82923536.88708
  22364786.320   119594577.52607  22364788.740    93018020.71607
 15 02 26 00 02 30.0000000  0 15G16G18G21G22G27G29G31R03R04R09R10R16
                                R18R19R20
  21672929.820   113892036.88309  21672925.980    88747031.35548
  22899849.160   120339544.71108  22899845.900    93771073.52346
  21264732.120   111747160.34608  21264727.760    87075797.65548
  24254215.000   127456771.69308  24254210.680    99316950.68345
  22812980.480   119883050.09808  22812979.980    93415366.71347
  23966149.040   125943385.22406  23966146.800    98137884.37444
  22777705.760   119697696.74409  22777701.600    93270940.82447
  22803463.640   122068731.62107  22803463.560    94942348.43406
  23526000.340   125980659.13807  23526000.080                  
  19674952.740   105063165.76108  19674953.240    81715810.27106
  22282539.240   118778474.99008  22282544.380    92383288.30906
  20959345.100   111961101.21808  20959347.740    87080892.23608
  21904466.460   116927828.17709  21904468.460    90943835.91007
  19931508.320   106620257.01009  19931507.200    82926918.86208
  22351602.520   119524077.85707  22351604.760    92963187.66907
 15 02 26 00 03  0.0000000  0 15G16G18G21G22G27G29G31R03R04R09R10R16
                                R18R19R20
  21659650.340   113822252.65309  21659646.460    88692654.03548
  22887625.520   120275309.21009  22887622.260    93721019.89746
  21271324.100   111781801.61808  21271319.720    87102790.85748
  24236561.340   127364001.51708  24236557.100    99244662.34945
  22800594.500   119817960.57008  22800593.740    93364647.61647
  23980740.980   126020066.06606  23980738.340    98197635.67144
  22795021.860   119788694.75709  22795018.060    93341848.35447
  22795708.860   122027219.55107  22795708.860    94910061.28906
  23506229.340   125874787.19306  23506229.180    97902613.95206
  19675359.760   105065338.82208  19675360.140    81717500.43005
  22262602.000   118672198.36108  22262607.100    92300628.73006
  20980389.160   112073514.51008  20980391.640    87168324.78608
  21919830.480   117009842.23108  21919832.500    91007624.61208
  19932379.860   106624919.54309  19932378.800    82930545.27308
  22338466.260   119453832.20607  22338468.300    92908552.17107
 15 02 26 00 03 30.0000000  0 15G16G18G21G22G27G29G31R03R04R09R10R16
                                R18R19R20
  21646419.680   113752725.11309  21646415.680    88638476.72948
  22875450.780   120211330.67408  22875447.500    93671166.50946
  21277984.580   111816802.67708  21277980.140    87130064.41948
  24218901.600   127271198.97308  24218897.460    99172348.75445
  22788232.080   119752995.36708  22788231.300    93314025.40047
  23995335.980   126096763.15606  23995333.600    98257399.60145
  22812378.140   119879903.43009  22812374.680    93412920.02947
  22788071.780   121986337.63107  22788071.680    94878264.27007
  23486478.380   125769022.64607  23486478.340    97820352.70306
  19675921.720   105068339.02908  19675921.960    81719833.91005
  22242750.040   118566375.80708  22242755.080    92218322.30506
  21001518.140   112186380.94608  21001520.300    87256109.78008
  21935199.520   117091883.22109  21935201.700    91071434.25508
  19933310.020   106629895.84209  19933308.920    82934415.73108
  22325377.540   119383841.18107  22325379.640    92854114.75507
 15 02 26 00 04  0.0000000  0 15G16G18G21G22G27G29G31R03R04R09R10R16
                                R18R19R20
  21633237.400   113683451.98409  21633233.360    88584497.67848
  22863324.560   120147606.88209  22863321.220    93621511.62546
  21284712.400   111852157.52608  21284707.900    87157613.65648
  24201235.400   127178362.22908  24201231.260    99100008.54445
  22775892.500   119688150.16608  22775891.940    93263496.70347
  24009933.100   126173471.58406  24009930.780    98317172.30745
  22829773.260   119971315.39309  22829770.060    93484150.10347
  22780551.940   121946083.72207  22780551.900    94846955.73406
  23466747.440   125663365.45407  23466747.680    97738174.93007
  19676637.720   105072162.17808  19676637.920    81722807.46006
  22222983.160   118461006.74408  22222988.100    92136368.59805
  21022730.420   112299692.01408  21022732.240    87344240.58708
  21950572.520   117173945.42408  21950574.760    91135260.39207
  19934297.760   106635180.14909  19934296.700    82938525.73308
  22312335.620   119314100.06207  22312337.640    92799871.68107
 15 02 26 00 04 30.0000000  0 15G16G18G21G22G27G29G31R03R04R09R10R16
                                R18R19R20
  21620104.980   113614440.89809  21620100.880    88530722.80448
  22851248.340   120084145.88308  22851244.900    93572061.50846
  21291508.320   111887870.63908  21291503.860    87185442.04848
  24183564.100   127085499.53508  24183560.020    99027648.12746
  22763576.840   119623430.38108  22763576.280    93213065.70447
  24024533.480   126250196.75007  24024530.980    98376958.11445
  22847207.640   120062933.22109  22847204.480    93555540.59847
  22773151.000   121906466.28807  22773150.940    94816142.19307
  23447038.360   125557825.43306  23447038.900    97656088.31806
  19677508.760   105076813.79308  19677509.080    81726425.38106
  22203303.160   118356101.02708  22203307.980    92054775.26206
  21044026.140   112413449.09208  21044027.740    87432718.30008
  21965950.220   117256033.17308  21965952.500    91199106.39607
  19935343.820   106640776.13809  19935342.900    82942878.17308
  22299341.480   119244614.17107  22299343.440    92745827.12207
 15 02 26 00 05  0.0000000  0 15G16G18G21G22G27G29G31R03R04R09R10R16
                                R18R19R20
  21607021.720   113545688.47109  21607017.700    88477149.48548
  22839221.540   120020944.72008  22839218.080    93522813.86946
  21298371.060   111923934.84708  21298366.680    87213544.02148
  24165887.140   126992607.59207  24165883.180    98955264.90745
  22751284.020   119558830.37208  22751283.480    93162728.05748
  24039136.060   126326933.24507  24039133.580    98436752.77145
  22864679.540   120154748.13609  22864676.260    93627084.65947
  22765868.460   121867482.37208  22765868.560    94785821.38007
  23427351.100   125452401.52307  23427351.660    97574091.98106
  19678533.960   105082288.30608  19678534.320    81730683.32706
  22183709.800   118251657.52308  22183714.440    91973541.43206
  21065403.320   112527642.11908  21065405.020    87521535.08008
  21981331.500   117338139.48709  21981333.640    91262966.85507
  19936446.920   106646676.90909  19936446.080    82947467.65408
  22286393.980   119175377.44107  22286395.920    92691976.34707
 15 02 26 00 05 30.0000000  0 15G16G18G21G22G27G29G31R03R04R09R10R16
                                R18R19R20
  21593989.440   113477203.96309  21593985.500    88423784.94248
  22827245.980   119958012.86908  22827242.540    93473776.08846
  21305301.580   111960355.16908  21305297.240    87241923.49648
  24148206.400   126899695.94008  24148202.520    98882866.32445
  22739015.380   119494357.21709  22739014.820    93112489.25748
  24053741.920   126403687.72807  24053739.440    98496561.46545
  22882189.780   120246764.67709  22882186.300    93698785.84647
  22758706.160   121829141.90707  22758706.160    94756001.02806
  23407687.820   125347105.45807  23407688.300    97492195.09006
  19679714.600   105088592.88008  19679714.940    81735586.87406
  22164205.160   118147687.06408  22164209.560    91892675.52806
  21086862.660   112642274.50708  21086864.620    87610693.58708
  21996717.480   117420270.22109  21996719.440    91326846.30807
  19937607.920   106652887.68009  19937607.060    82952298.26308
  22273494.320   119106396.79307  22273496.420    92638324.76307
 15 02 26 00 06  0.0000000  0 15G16G18G21G22G27G29G31R03R04R09R10R16
                                R18R19R20
  21581007.280   113408982.57509  21581003.340    88370625.41948
  22815320.820   119895345.85108  22815317.420    93424944.65146
  21312298.280   111997123.38108  21312294.040    87270574.04248
  24130521.180   126806760.37007  24130517.240    98810449.11345
  22726769.640   119430004.24709  22726768.940    93062344.10847
  24068349.860   126480453.36207  24068347.440    98556378.83445
  22899736.400   120338972.63209  22899732.760    93770636.18847
  22751663.240   121791440.88307  22751663.140    94726678.03507
  23388048.000   125241934.57007  23388048.240    97410395.54306
  19681049.400   105095720.47708  19681049.740    81741130.56106
  22144788.700   118044187.26508  22144793.080    91812175.69806
  21108402.120   112757335.08508  21108404.240    87700185.13407
  22012106.540   117502417.55308  22012108.420    91390738.65207
  19938825.420   106659400.01309  19938824.420    82957363.41108
  22260641.160   119037665.26407  22260643.500    92584866.93107
 15 02 26 00 06 30.0000000  0 15G16G18G21G22G27G29G31R03R04R09R10R16
                                R18R19R20
  21568075.900   113341027.88009  21568071.860    88317673.70848
  22803446.840   119832947.93309  22803443.400    93376322.89746
  21319361.160   112034239.22608  21319357.000    87299495.47248
  24112832.280   126713805.04408  24112828.200    98738016.47945
  22714546.980   119365772.90209  22714545.840    93012293.71847
  24082960.320   126557231.53807  24082957.800    98616205.93744
  22917319.180   120431370.94409  22917315.500    93842634.86047
  22744740.560   121754383.19207  22744740.300    94697855.40907
  23368432.600   125136895.10907  23368432.780    97328698.22606
  19682538.660   105103672.77008  19682539.040    81747315.65006
  22125461.640   117941163.96108  22125466.060    91732046.48706
  21130021.360   112872821.15008  21130023.420    87790007.60607
  22027498.680   117584581.75908  22027500.540    91454644.15007
  19940099.280   106666214.08009  19940098.340    82962663.24408
  22247834.720   118969184.04607  22247837.120    92531603.77507
 15 02 26 00 07  0.0000000  0 15G16G18G21G22G27G29G31R03R04R09R10R16
                                R18R19R20
  21555196.220   113273344.76209  21555192.140    88264933.63547
  22791625.140   119770824.62509  22791621.660    93327915.14146
  21326490.440   112071703.86109  21326486.280    87328688.69848
  24095140.700   126620835.43608  24095136.460    98665572.72845
  22702347.800   119301666.00508  22702346.280    92962340.32247
  24097573.560   126634024.35408  24097570.860    98676044.42144
  22934938.140   120523959.55809  22934934.580    93914781.81447
  22737939.040   121717974.31307  22737938.740    94669537.44406
  23348843.100   125031994.00908  23348843.180    97247108.50306
  19684182.760   105112452.31408  19684183.120    81754144.18205
  22106225.360   117838623.92208  22106229.840    91652293.13606
  21151720.060   112988731.42808  21151721.940    87880160.02707
  22042894.300   117666764.44808  22042896.180    91518564.01107
  19941429.700   106673330.97309  19941428.780    82968198.61908
  22235075.480   118900955.67507  22235078.060    92478537.27607
 15 02 26 00 07 30.0000000  0 15G16G18G21G22G27G29G31R03R04R09R10R16
                                R18R19R20
  21542368.480   113205934.40509  21542364.360    88212406.09448
  22779855.900   119708976.99108  22779852.440    93279722.20846
  21333685.640   112109514.61108  21333681.400    87358151.62848
  24077446.740   126527853.05208  24077442.420    98593118.98945
  22690171.960   119237682.43008  22690170.140    92912483.00347
  24112189.440   126710830.86408  24112186.700    98735893.61845
  22952592.520   120616734.31108  22952589.100    93987073.81347
  22731259.080   121682215.85207  22731258.660    94641725.33106
  23329280.040   124927234.75708  23329280.120    97165629.12806
  19685981.500   105122057.64508  19685981.840    81761614.98506
  22087080.440   117736570.33808  22087084.960    91572918.13306
  21173497.180   113105060.52308  21173498.940    87970638.19307
  22058292.980   117748963.26009  22058294.880    91582496.40407
  19942816.220   106680748.05709  19942815.200    82973967.46008
  22222363.340   118832978.89207  22222366.180    92425666.47007
 15 02 26 00 08  0.0000000  0 15G16G18G21G22G27G29G31R03R04R09R10R16
                                R18R19R20
  21529593.040   113138799.13809  21529589.020    88160092.90848
  22768139.600   119647407.54708  22768136.120    93231746.02646
  21340946.460   112147670.12008  21340942.140    87387883.19648
  24059750.860   126434860.61908  24059746.440    98520657.41746
  22678019.640   119173822.56108  22678017.920    92862722.10347
  24126807.920   126787651.67608  24126805.240    98795754.00945
  22970281.880   120709692.66208  22970278.620    94059508.86547
  22724701.220   121647110.70407  22724700.940    94614421.33906
  23309744.360   124822622.12308  23309744.260    97084263.75205
  19687934.980   105132489.25508  19687935.400    81769728.45006
  22068027.700   117635007.79608  22068032.180    91493925.05206
  21195351.860   113221804.42908  21195353.680    88061438.99007
  22073694.560   117831177.67108  22073696.420    91646440.94307
  19944258.680   106688464.19109  19944257.620    82979968.89408
  22209698.380   118765253.43807  22209701.360    92372991.13907
 15 02 26 00 08 30.0000000  0 15G16G18G21G22G27G29G31R03R04R09R10R16
                                R18R19R20
  21516869.820   113071938.04009  21516865.840    88107993.35448
  22756476.160   119586115.96108  22756472.620    93183986.37346
  21348271.960   112186165.46508  21348267.560    87417879.57448
  24042053.060   126341857.77708  24042048.540    98448187.73946
  22665890.380   119110083.29509  22665888.960    92813055.15947
  24141428.460   126864483.33808  24141425.940    98855622.82845
  22988004.960   120802828.46508  22988001.760    94132082.18747
  22718265.200   121612658.15907  22718265.020    94587624.91907
  23290236.300   124718157.46507  23290236.160    97003013.46106
  19690042.480   105143743.36408  19690043.000    81778481.64305
  22049067.180   117533937.03008  22049071.660    91415314.47906
  21217282.840   113338955.94008  21217284.720    88152556.81607
  22089098.160   117913403.00308  22089100.060    91710393.95907
  19945756.220   106696474.72909  19945755.120    82986199.31208
  22197079.740   118697775.93107  22197082.800    92320508.66707
 15 02 26 00 09  0.0000000  0 15G16G18G21G22G27G29G31R03R04R09R10R16
                                R18R19R20
  21504199.580   113005355.15909  21504195.560    88056110.60248
  22744866.440   119525106.57409  22744862.860    93136446.60346
  21355662.120   112225000.94208  21355657.720    87448140.98748
  24024354.200   126248848.90408  24024349.340    98375713.36245
  22653784.600   119046466.44009  22653783.380    92763483.59247
  24156051.340   126941327.38807  24156049.180    98915501.29845
  23005761.700   120896140.76109  23005758.460    94204793.04247
  22711951.880   121578862.75907  22711951.840    94561339.64606
  23270757.020   124613847.10507  23270756.880    96921883.22705
  19692304.320   105155821.53008  19692304.820    81787875.76805
  22030199.940   117433363.76008  22030204.460    91337090.84106
  21239289.740   113456512.71808  21239291.620    88243989.85307
  22104504.000   117995640.12408  22104505.860    91774356.13707
  19947308.780   106704779.80309  19947307.700    82992658.81608
  22184507.760   118630548.10407  22184510.740    92268220.37007
 15 02 26 00 09 30.0000000  0 15G16G18G21G22G27G29G31R03R04R09R10R16
                                R18R19R20
  21491583.380   112939056.23109  21491579.360    88004449.10848
  22733311.540   119464385.22709  22733307.960    93089131.28946
  21363117.380   112264178.99208  21363113.080    87478669.33748
  24006655.380   126155840.14708  24006650.360    98303239.07645
  22641702.800   118982975.79208  22641701.620    92714010.37747
  24170677.340   127018187.47907  24170675.260    98975392.23545
  23023552.200   120989630.14608  23023548.700    94277641.89247
  22705762.440   121545730.34407  22705762.480    94535570.01506
  23251308.160   124509699.41007  23251308.060    96840879.46005
  19694721.160   105168727.23608  19694721.660    81797913.51606
  22011427.700   117333296.72808  22011432.180    91259260.94406
  21261372.440   113574474.23108  21261374.280    88335737.68007
  22119912.560   118077891.91208  22119914.440    91838329.73307
  19948916.820   106713381.73309  19948915.760    82999349.20608
  22171983.220   118563573.28207  22171986.140    92216128.85207
 15 02 26 00 10  0.0000000  0 15G16G18G21G22G27G29G31R03R04R09R10R16
                                R18R19R20
  21479020.400   112873036.86009  21479016.320    87953005.44548
  22721810.700   119403947.80809  22721807.180    93042037.22046
  21370636.140   112303690.81008  21370631.960    87509457.76548
  23988955.760   126062827.40908  23988950.540    98230761.68546
  22629643.560   118919604.56608  22629642.460    92664630.21647
  24185305.120   127095056.82407  24185302.720    99035290.37144
  23041374.660   121083286.99908  23041370.840    94350621.24547
  22699696.100   121513256.85307  22699696.060    94510312.87806
  23231889.180   124405711.76407  23231889.180    96760000.23706
  19697291.660   105182453.14308  19697292.100    81808589.23006
  21992749.740   117233732.58108  21992754.140    91181822.17606
  21283528.780   113692829.50508  21283530.640    88427791.75307
  22135322.260   118160150.13708  22135324.200    91902308.33007
  19950578.800   106722272.13809  19950577.740    83006263.97008
  22159504.640   118496844.22607  22159507.480    92164228.48307
 15 02 26 00 10 30.0000000  0 15G16G18G21G22G27G29G31R03R04R09R10R16
                                R18R19R20
  21466512.080   112807304.47209  21466507.900    87901785.40248
  22710365.460   119343802.12209  22710361.780    92995170.45046
  21378219.200   112343540.41108  21378215.040    87540509.40548
  23971256.960   125969819.02008  23971251.480    98158287.66745
  22617608.020   118856358.42708  22617606.840    92615347.51947
  24199935.640   127171940.78607  24199933.180    99095199.94345
  23059229.460   121177113.91208  23059225.300    94423733.10747
  22693754.220   121481450.12307  22693754.180    94485574.33307
  23212501.980   124301894.65106  23212502.080    96679253.62606
  19700016.780   105197004.52308  19700017.100    81819906.96606
  21974168.000   117134681.58408  21974172.160    91104782.52006
  21305759.060   113811579.97808  21305761.020    88520153.21307
  22150734.060   118242419.54008  22150736.100    91966295.63507
  19952295.400   106731454.86309  19952294.340    83013406.10208
  22147073.040   118430366.58207  22147075.740    92112523.67907
 15 02 26 00 11  0.0000000  0 15G16G18G21G22G27G29G31R03R04R09R10R16
                                R18R19R20
  21454058.600   112741860.40509  21454054.320    87850790.02548
  22698976.020   119283949.66209  22698972.220    92948532.17746
  21385865.960   112383724.77708  21385861.820    87571821.89148
  23953559.160   125876816.55008  23953553.660    98085818.25145
  22605596.140   118793236.34108  22605594.900    92566161.49147
  24214568.760   127248838.14307  24214566.400    99155119.94945
  23077115.820   121271106.85408  23077111.520    94496974.34447
  22687937.220   121450311.37107  22687937.080    94461355.31606
  23193147.180   124198251.21007  23193147.300    96598642.09206
  19702896.200   105212379.81608  19702896.460    81831865.50506
  21955682.920   117036146.25008  21955687.000    91028143.93006
  21328062.260   113930720.29908  21328064.400    88612817.88307
  22166147.540   118324698.05308  22166149.620    92030289.99407
  19954066.220   106740927.70109  19954065.180    83020773.86208
  22134688.040   118364138.56007  22134690.720    92061013.02407
 15 02 26 00 11 30.0000000  0 15G16G18G21G22G27G29G31R03R04R09R10R16
                                R18R19R20
  21441659.700   112676703.42709  21441655.320    87800018.35848
  22687642.260   119224389.87509  22687638.420    92902121.97046
  21393575.600   112424239.14509  21393571.420    87603391.53748
  23935862.340   125783819.55608  23935857.000    98013353.12546
  22593607.380   118730235.20808  22593605.960    92517069.72347
  24229203.820   127325745.79407  24229201.540    99215047.99845
  23095032.520   121365259.86308  23095028.360    94570340.30347
  22682244.960   121419840.05908  22682244.660    94437655.41106
  23173825.200   124094782.69707  23173825.340    96518166.61306
  19705929.180   105228575.22608  19705929.440    81844461.93305
  21937294.860   116938127.87808  21937299.040    90951907.43406
  21350437.020   114050242.83908  21350439.320    88705779.85407
  22181561.960   118406981.39109  22181564.000    92094288.14007
  19955890.260   106750685.52909  19955889.400    83028363.29408
  22122349.140   118298157.00007  22122351.740    92009694.06607
 15 02 26 00 12  0.0000000  0 15G16G18G21G22G27G29G31R03R04R09R10R16
                                R18R19R20
  21429316.340   112611838.74309  21429311.900    87749474.45548
  22676365.040   119165127.61309  22676361.200    92855943.59146
  21401348.440   112465085.36409  21401344.200    87635219.76048
  23918167.620   125690833.44808  23918162.420    97940896.46646
  22581642.260   118667358.10508  22581640.800    92468074.59647
  24243841.360   127402666.76807  24243838.980    99274986.40244
  23112979.740   121459573.13309  23112975.640    94643831.13047
  22676678.300   121390041.26007  22676677.900    94414478.60106
  23154537.380   123991497.09107  23154537.400    96437833.42006
  19709116.180   105245593.43608  19709116.300    81857698.31006
  21919005.160   116840633.86908  21919009.540    90876078.77306
  21372883.220   114170146.66708  21372885.660    88799038.37407
  22196977.700   118489271.57508  22196979.620    92158291.62107
  19957767.860   106760730.24908  19957767.180    83036175.84808
  22110056.700   118232424.54507  22110059.140    91958568.84407
 15 02 26 00 12 30.0000000  0 15G16G18G21G22G27G29G31R03R04R09R10R16
                                R18R19R20
  21417028.860   112547268.09409  21417024.460    87699159.66548
  22665144.720   119106164.78608  22665141.020    92809998.54746
  21409183.700   112506259.46808  21409179.360    87667303.47148
  23900475.320   125597860.18108  23900470.120    97868449.81246
  22569700.540   118604604.14508  22569699.180    92419175.42747
  24258481.220   127479599.86707  24258478.920    99334934.24743
  23130956.780   121554042.73509  23130952.720    94717443.78647
  22671237.420   121360916.32807  22671237.000    94391825.90506
  23135284.260   123888397.92507  23135284.340    96357645.20507
  19712456.840   105263432.58308  19712456.900    81871573.18505
  21900814.260   116743666.65808  21900818.880    90800659.84106
  21395399.940   114290426.60708  21395402.380    88892589.42207
  22212394.360   118571566.60108  22212396.320    92222298.84007
  19959698.640   106771059.13608  19959698.000    83044209.42708
  22097810.340   118166939.60707  22097812.880    91907636.13107
 15 02 26 00 13  0.0000000  0 15G16G18G21G22G27G29G31R03R04R09R10R16
                                R18R19R20
  21404797.380   112482991.92909  21404793.100    87649074.34648
  22653981.620   119047502.88509  22653978.060    92764287.99146
  21417081.140   112547760.35409  21417076.700    87699641.82848
  23882785.740   125504901.24208  23882780.380    97796014.32145
  22557782.040   118541972.49608  22557780.960    92370371.57148
  24273123.300   127556544.27207  24273121.060    99394890.91643
  23148962.900   121648664.83309  23148958.860    94791175.26647
  22665922.720   121332466.66807  22665922.260    94369698.44206
  23116066.620   123785488.60107  23116066.760    96277604.64607
  19715950.920   105282091.23108  19715951.140    81886085.46505
  21882722.880   116647230.00608  21882727.620    90725653.57106
  21417986.140   114411077.44808  21417988.600    88986428.94007
  22227811.580   118653864.72008  22227813.660    92286308.46607
  19961682.180   106781669.86309  19961681.580    83052462.21908
  22085610.080   118101701.06407  22085612.820    91856895.06707
 15 02 26 00 13 30.0000000  0 15G16G18G21G22G27G29G31R03R04R09R10R16
                                R18R19R20
  21392622.740   112419014.41009  21392618.600    87599221.74648
  22642876.680   118989146.29209  22642873.120    92718815.33746
  21425040.780   112589588.12208  21425036.260    87732234.89548
  23865099.720   125411961.28408  23865094.400    97723593.64245
  22545887.120   118479464.90008  22545886.280    92321664.36447
  24287767.880   127633501.45006  24287765.600    99454857.57343
  23166997.780   121743438.22008  23166993.660    94865024.64547
  22660735.000   121304696.46407  22660734.480    94348099.44206
  23096885.680   123682775.60207  23096885.880    96197716.79007
  19719598.720   105301570.34408  19719599.100    81901235.87806
  21864732.120   116551329.61708  21864736.900    90651064.40206
  21440641.260   114532096.52308  21440643.600    89080554.86807
  22243229.520   118736166.60308  22243231.580    92350321.05007
  19963718.600   106792562.78909  19963717.880    83060934.49908
  22073456.420   118036710.40707  22073459.280    91806346.81007
 15 02 26 00 14  0.0000000  0 15G16G18G21G22G27G29G31R03R04R09R10R16
                                R18R19R20
  21380505.620   112355338.74909  21380501.580    87549604.35248
  22631830.400   118931097.50409  22631826.620    92673582.52446
  21433062.240   112631741.06009  21433057.640    87765081.33548
  23847417.920   125319043.47308  23847412.720    97651190.18845
  22534015.940   118417081.95908  22534015.200    92273054.28647
  24302414.900   127710472.11504  24302412.860    99514834.66744
  23185060.980   121838360.60608  23185056.720    94938990.11846
  22655674.680   121277608.17407  22655674.180    94327030.78106
  23077742.380   123580263.74407  23077742.440    96117985.37606
  19723400.180   105321869.71508  19723400.540    81917024.26506
  21846842.840   116455969.96008  21846847.740    90576895.79406
  21463364.620   114653480.32108  21463366.840    89174964.45807
  22258648.100   118818471.77408  22258650.080    92414336.17807
  19965807.540   106803736.86209  19965806.760    83069625.43208
  22061349.280   117971967.61607  22061352.180    91755991.31607
 15 02 26 00 14 30.0000000  0 15G16G18G21G22G27G29G31R03R04R09R10R16
                                R18R19R20
  21368445.980   112291964.83909  21368441.960    87500222.09148
  22620842.780   118873357.03509  22620839.020    92628589.97546
  21441144.860   112674215.58808  21441140.220    87798178.37448
  23829740.380   125226148.47108  23829735.480    97578804.50146
  22522168.200   118354821.80108  22522167.360    92224539.90047
  24317064.000   127787454.07504  24317062.020    99574820.62342
  23203151.500   121933426.87508  23203147.200    95013067.71646
  22650741.780   121251201.75808  22650741.320    94306492.52107
  23058637.160   123477956.11508  23058637.120    96038412.79606
  19727354.760   105342986.69808  19727355.040    81933448.57905
  21829055.500   116361153.46309  21829060.540    90503149.63806
  21486154.980   114775222.55708  21486157.140    89269652.84107
  22274066.720   118900777.41708  22274068.780    92478351.66007
  19967948.240   106815188.39909  19967947.520    83078532.19308
  22049288.120   117907470.76607  22049291.000    91705827.12707
 15 02 26 00 15  0.0000000  0  7G16G18G21G22G27G29G31
  21356448.060   112228915.23409  21356444.080    87451092.53448
  22609918.160   118815947.81409  22609914.520    92583855.52346
  21449292.160   112717030.21508  21449287.520    87831540.42348
  23812071.580   125133299.34908  23812066.940    97506454.58346
  22510347.840   118292705.31208  22510346.780    92176137.46347
  24331719.140   127864467.62104  24331718.260    99634314.15043
  23221272.740   122028655.00508  23221268.600    95087271.42847
 15 02 26 00 15 30.0000000  0  7G16G18G21G22G27G29G31
  21344505.080   112166154.34209  21344501.000    87402187.93848
  22599049.800   118758834.17309  22599046.280    92539351.40246
  21457496.660   112760145.65308  21457492.160    87865136.87048
  23794405.040   125040461.18108  23794400.560    97434113.19246
  22498547.640   118230694.33208  22498546.380    92127817.22448
  24346373.200   127941475.05005  24346371.340    99694318.94243
  23239416.920   122124003.85008  23239412.980    95161569.21247
 15 02 26 00 16  0.0000000  0  7G16G18G21G22G27G29G31
  21332619.080   112103692.78909  21332614.820    87353516.60148
  22588239.800   118702027.18209  22588236.320    92495086.22646
  21465759.680   112803568.72808  21465755.380    87898973.03648
  23776742.760   124947644.97108  23776738.220    97361788.91446
  22486769.120   118168797.29808  22486767.820    92079585.79148
  24361027.660   128018484.90904  24361023.220    99754316.71753
  23257585.160   122219479.36308  23257581.420    95235965.68447
 15 02 26 00 16 30.0000000  0  6G16G18G21G22G27G31
  21320793.940   112041550.79609  21320789.540    87305094.27348
  22577492.000   118645547.11109  22577488.500    92451075.79646
  21474084.440   112847316.10208  21474080.340    87933061.89948
  23759088.600   124854871.31308  23759083.940    97289497.79146
  22475015.640   118107032.64608  22475014.560    92031457.50748
  23275780.300   122315096.44908  23275776.800    95310472.48047
 15 02 26 00 17  0.0000000  0  6G16G18G21G22G27G31
  21309028.420   111979722.06109  21309023.900    87256916.03648
  22566805.220   118589388.00309  22566801.720    92407315.46846
  21482468.960   112891377.31008  21482465.000    87967395.30048
  23741441.480   124762134.69108  23741436.640    97217235.51646
  22463285.660   118045392.01808  22463284.840    91983425.85348
  23294000.240   122410843.73108  23293997.000    95385080.72647
 15 02 26 00 17 30.0000000  0  6G16G18G21G22G27G31
  21297322.580   111918207.13109  21297318.080    87208982.33148
  22556179.600   118533550.13809  22556176.040    92363805.44946
  21490912.480   112935748.34108  21490908.540    88001970.12548
  23723801.500   124669435.87308  23723796.440    97145002.71445
  22451579.060   117983873.54309  22451578.380    91935489.37747
  23312244.040   122506716.42808  23312241.060    95459786.69647
 15 02 26 00 18  0.0000000  0  6G16G18G21G22G27G31
  21285676.680   111857007.33209  21285672.240    87161294.17448
  22545615.480   118478035.25709  22545611.840    92320547.11547
  21499414.660   112980427.47508  21499410.640    88036785.02848
  23706169.060   124576777.07208  23706163.880    97072801.08846
  22439895.820   117922476.79609  22439895.000    91887647.76248
  23330511.140   122602711.36708  23330508.280    95534587.91847
 15 02 26 00 18 30.0000000  0  6G16G18G21G22G27G31
  21274091.700   111796127.68309  21274087.360    87113855.48848
  22535113.840   118422848.49809  22535110.160    92277544.46346
  21507975.720   113025415.90708  21507971.520    88071840.94648
  23688545.320   124484163.80708  23688539.940    97000634.94846
  22428236.300   117861204.48309  22428235.260    91839903.11748
  23348801.560   122698828.09608  23348798.580    95609484.03946
 15 02 26 00 19  0.0000000  0  6G16G18G21G22G27G31
  21262568.500   111735573.15009  21262564.280    87066670.14048
  22524675.420   118367994.43109  22524671.760    92234801.05646
  21516595.700   113070714.06008  21516591.420    88107138.21648
  23670931.300   124391601.21808  23670925.720    96928508.31146
  22416600.940   117800059.44409  22416599.640    91792257.64648
  23367115.240   122795066.25408  23367111.960    95684474.80746
 15 02 26 00 19 30.0000000  0  6G16G18G21G22G27G31
  21251106.920   111675343.09709  21251102.940    87019737.63348
  22514300.340   118313473.28009  22514296.580    92192317.04446
  21525273.920   113116318.17308  21525269.580    88142673.88248
  23653326.860   124299089.48508  23653321.100    96856421.27045
  22404989.180   117739039.20709  22404987.780    91744709.41648
  23385451.060   122891420.79208  23385447.660    95759556.23346
 15 02 26 00 20  0.0000000  0  6G16G18G21G22G27G31
  21239707.400   111615439.08009  21239703.580    86973059.19248
  22503988.900   118259286.26609  22503985.120    92150093.40346
  21534009.760   113162224.95609  21534005.400    88178445.40648
  23635732.360   124206630.27308  23635726.520    96784375.16645
  22393400.980   117678143.06009  22393399.580    91697257.88748
  23403808.240   122987887.74108  23403804.880    95834725.25346
 15 02 26 00 20 30.0000000  0  6G16G18G21G22G27G31
  21228370.300   111555862.88509  21228366.540    86926636.18748
  22493741.440   118205435.42109  22493737.700    92108131.71846
  21542802.980   113208433.00909  21542798.540    88214451.68448
  23618148.340   124114226.47808  23618142.520    96712372.25445
  22381836.400   117617370.83709  22381835.100    91649902.92248
  23422186.140   123084463.70308  23422182.820    95909979.23946
 15 02 26 00 21  0.0000000  0  6G16G18G21G22G27G31
  21217095.920   111496616.06709  21217092.220    86880469.84448
  22483558.200   118151922.27809  22483554.500    92066433.16746
  21551652.960   113254939.52909  21551648.500    88250690.53548
  23600575.200   124021879.80808  23600569.400    96640413.85346
  22370295.360   117556722.01309  22370294.220    91602644.11148
  23440584.000   123181145.52308  23440580.920    95985315.67946
 15 02 26 00 21 30.0000000  0  6G16G18G21G22G27G31
  21205885.200   111437703.68509  21205881.620    86834564.09448
  22473440.260   118098752.39709  22473436.640    92025002.12246
  21560560.100   113301746.64209  21560555.600    88287163.60748
  23583014.100   123929596.21408  23583008.540    96568504.58246
  22358778.340   117496199.79609  22358777.380    91555483.96848
  23459001.980   123277933.31008  23458999.080    96060734.69146
 15 02 26 00 22  0.0000000  0  7G16G18G21G22G27G29G31
  21194737.920   111379124.36509  21194734.400    86788917.87448
  22463387.280   118045923.95609  22463383.680    91983837.10746
  21569523.180   113348847.93508  21569518.640    88323865.89848
  23565464.840   123837374.54608  23565459.560    96496643.58046
  22347284.680   117435800.33908  22347283.700    91508419.46248
  24537071.040   128943177.59304  24537070.020   100475195.36743
  23477438.960   123374820.09908  23477436.060    96136230.85946
 15 02 26 00 22 30.0000000  0  7G16G18G21G22G27G29G31
  21183655.400   111320885.06709  21183651.820    86743536.59748
  22453400.760   117993444.19209  22453396.980    91942943.79747
  21578542.960   113396247.34609  21578538.420    88360800.49848
  23547928.880   123745222.67208  23547923.900    96424836.96246
  22335815.300   117375528.80508  22335814.100    91461454.64148
  24551755.840   129020347.14803                                
  23495895.260   123471808.02208  23495892.300    96211805.83346
 15 02 26 00 23  0.0000000  0  6G16G18G21G22G27G31
  21172637.100   111262983.28609  21172633.480    86698418.33848
  22443480.140   117941310.62509  22443476.220    91902320.25046
  21587618.120   113443937.73609  21587613.560    88397961.85148
  23530405.820   123653138.45408  23530400.980    96353083.04546
  22324369.380   117315380.58409  22324368.000    91414585.90948
  23514369.280   123568889.51808  23514366.320    96287453.73046
 15 02 26 00 23 30.0000000  0  7G16G18G19G21G22G27G31
  21161683.700   111205422.71709  21161680.000    86653565.94548
  22433626.040   117889526.80909  22433622.060    91861969.23146
  24545594.060   128987980.86207  24545593.340   100510101.18246
  21596748.620   113491918.79009  21596744.040    88435349.68648
  23512896.460   123561126.21508  23512891.520    96281385.23746
  22312947.300   117255357.32209  22312945.900    91367814.53648
  23532860.840   123666063.33008  23532857.960    96363173.55046
 15 02 26 00 24  0.0000000  0  7G16G18G19G21G22G27G31
  21150792.800   111148190.75709  21150789.080    86608969.62048
  22423836.080   117838080.19309  22423832.120    91821880.96946
  24530202.380   128907096.94007  24530201.340   100447074.77046
  21605931.420   113540174.83809  21605926.840    88472951.80548
  23495398.640   123469174.00608  23495393.320    96209734.20046
  22301546.320   117195444.57509  22301545.000    91321129.29248
  23551366.640   123763311.63408  23551363.740    96438951.41946
 15 02 26 00 24 30.0000000  0  7G16G18G19G21G22G27G31
  21139971.500   111091324.42309  21139967.820    86564658.20248
  22414117.340   117787007.91209  22414113.300    91782084.39646
  24514830.080   128826314.52207  24514828.840   100384127.45446
  21615172.780   113588738.59409  21615168.200    88510793.69448
  23477919.440   123377319.21008  23477913.780    96138159.07146
  22290172.960   117135677.10509  22290171.800    91274557.26148
  23569892.760   123860666.65208  23569889.900    96514812.44646
 15 02 26 00 25  0.0000000  0  7G16G18G19G21G22G27G31
  21129214.940   111034798.26909  21129211.320    86520611.83848
  22404464.960   117736284.40709  22404460.800    91742559.61446
  24499471.980   128745606.46807  24499470.480   100321238.05145
  21624467.220   113637581.13708  21624462.580    88548852.81948
  23460454.080   123285536.83608  23460448.040    96066640.36946
  22278821.980   117076027.66009  22278820.900    91228077.17248
  23588433.560   123958098.10208  23588430.480    96590733.02646
 15 02 26 00 25 30.0000000  0  7G16G18G19G21G22G27G31
  21118524.740   110978620.85209  21118521.180    86476837.23348
  22394880.680   117685918.84409  22394876.540    91703313.72346
  24484129.300   128664979.35807  24484127.760   100258411.77646
  21633815.320   113686706.06308  21633810.740    88587131.97848
  23443004.240   123193836.50208  23442998.000    95995185.58746
  22267494.620   117016502.74609  22267493.500    91181694.12448
  23606989.520   124055609.14808  23606986.000    96666715.62646
 15 02 26 00 26  0.0000000  0  7G16G18G19G21G22G27G31
  21107901.700   110922796.53709  21107898.220    86433337.78348
  22385365.120   117635914.95909  22385361.280    91664349.66747
  24468802.420   128584434.98808  24468800.520   100195649.93846
  21643217.440   113736114.84408  21643212.940    88625632.32548
  23425570.780   123102223.12408  23425564.580    95923798.55946
  22256191.460   116957104.61209  22256190.340    91135409.87748
  23625560.340   124153198.95108  23625556.580    96742759.59946
 15 02 26 00 26 30.0000000  0  7G16G18G19G21G22G27G31
  21097345.180   110867321.63109  21097341.660    86390110.58648
  22375917.720   117586269.03109  22375914.080    91625664.54047
  24453490.480   128503968.05808  24453487.520   100132948.44346
  21652671.940   113785799.02608  21652667.580    88664347.27847
  23408153.120   123010693.33408  23408147.100    95852476.68146
  22244911.420   116897827.45209  22244910.280    91089219.90448
  23644144.480   124250859.19708  23644140.620    96818858.46046
 15 02 26 00 27  0.0000000  0  7G16G18G19G21G22G27G31
  21086856.960   110812205.92009  21086853.520    86347163.26748
  22366540.400   117536991.02609  22366536.800    91587266.09547
  24438194.780   128423586.24508  24438190.920   100070313.28445
  21662180.200   113835765.55108  21662176.000    88703282.22948
  23390753.320   122919257.65908  23390747.640    95781228.12746
  22233656.000   116838679.33509  22233654.800    91043130.47048
  23662742.860   124348594.29708  23662738.940    96895015.64146
 15 02 26 00 27 30.0000000  0  7G16G18G19G21G22G27G31
  21076436.120   110757444.43609  21076432.780    86304491.97848
  22357232.200   117488075.85009  22357228.520    91549150.38647
  24422913.840   128343282.21108  24422909.180   100007738.75945
  21671740.300   113886004.59108  21671736.260    88742429.52248
  23373370.580   122827911.29808  23373365.200    95710049.17946
  22222423.740   116779653.04209  22222422.640    90997135.97548
  23681353.640   124446394.38008  23681349.720    96971223.45346
 15 02 26 00 28  0.0000000  0  7G16G18G19G21G22G27G31
  21066084.220   110703044.86609  21066080.820    86262102.71548
  22347994.500   117439531.14909  22347990.840    91511323.36247
  24407648.840   128263061.95108  24407643.540    99945229.49245
  21681353.180   113936520.75808  21681349.240    88781792.77648
  23356006.540   122736663.24808  23356001.260    95638946.82646
  22211215.720   116720754.57009  22211214.740    90951241.07448
  23699977.340   124544262.52308  23699973.480    97047484.31346
 15 02 26 00 28 30.0000000  0  7G16G18G19G21G22G27G31
  21055801.680   110649009.53309  21055798.120    86219997.25948
  22338827.720   117391359.09209  22338824.020    91473786.69547
  24392399.720   128182925.80008  24392393.940    99882785.78145
  21691018.480   113987312.10009  21691014.540    88821370.43748
  23338661.840   122645516.31908  23338656.340    95567923.27946
  22200031.980   116661984.08209  22200031.060    90905445.87748
  23718613.400   124642195.63008  23718609.500    97123795.79646
 15 02 26 00 29  0.0000000  0  7G16G18G19G21G22G27G31
  21045588.960   110595341.16109  21045585.280    86178177.75148
  22329732.380   117343562.46909  22329728.600    91436542.58147
  24377166.560   128102874.61008  24377160.580    99820408.29645
  21700735.920   114038377.20908  21700731.920    88861161.42248
  23321337.040   122554473.70908  23321331.340    95496981.01546
  22188872.820   116603342.33509  22188871.740    90859751.02148
  23737261.320   124740191.66508  23737257.440    97200156.31546
 15 02 26 00 29 30.0000000  0  7G16G18G19G21G22G27G31
  21035446.380   110542041.56509  21035442.680    86136645.59748
  22320708.780   117296143.13609  22320705.020    91399592.47247
  24361949.300   128022907.71508  24361943.300    99758096.45945
  21710504.960   114089713.64808  21710500.940    88901163.83648
  23304032.540   122463537.99808  23304026.780    95426122.05646
  22177738.280   116544829.16309  22177737.020    90814156.35348
  23755920.500   124838247.32908  23755916.780    97276563.28946
 15 02 26 00 30  0.0000000  0  7G16G18G19G21G22G27G31
  21025374.080   110489111.38909  21025370.360    86095401.30348
  22311756.980   117249101.50909  22311753.280    91362936.66747
  24346747.720   127943023.99808  24346741.860    99695849.43145
  21720325.200   114141319.30209  21720321.180    88941376.02648
  23286748.580   122372710.17008  23286742.740    95355347.14346
  22166628.000   116486443.29309  22166626.580    90768660.88948
  23774590.320   124936358.24808  23774586.820    97353013.31046
 15 02 26 00 30 30.0000000  0  7G16G18G19G21G22G27G31
  21015373.240   110436556.49709  21015369.440    86054449.44348
  22302878.120   117202443.41609  22302874.460    91326579.72747
  24331562.540   127863227.47207  24331557.120    99633670.32445
  21730197.000   114193195.76709  21730192.920    88981799.24748
  23269486.420   122281996.83108  23269480.640    95284661.45746
  22155542.620   116428188.78909  22155541.100    90723267.78648
  23793270.940   125034525.23508  23793267.580    97429507.02746
 15 02 26 00 31  0.0000000  0  7G16G18G19G21G22G27G31
  21005443.400   110384374.29709  21005439.460    86013787.99248
  22294071.680   117156165.83109  22294068.080    91290519.28047
  24316393.040   127783513.68407  24316388.140    99571555.71046
  21740119.100   114245336.36809  21740114.860    89022428.29748
  23252245.780   122191396.40908  23252240.000    95214063.74646
  22144481.380   116370061.17409  22144479.880    90677973.54248
  23811960.940   125132741.26908  23811957.620    97506038.96046
 15 02 26 00 31 30.0000000  0  7G16G18G19G21G22G27G31
  20995585.060   110332567.92909  20995581.040    85973419.40448
  22285338.320   117110272.02209  22285334.780    91254757.89147
  24301239.400   127703882.88307  24301234.960    99509505.75245
  21750091.360   114297740.43509  21750086.900    89063262.64048
  23235027.300   122100912.27108  23235021.460    95143556.64046
  22133444.320   116312061.27609  22133443.000    90632778.83348
  23830659.820   125231004.09808  23830656.540    97582607.36246
 15 02 26 00 32  0.0000000  0  7G16G18G19G21G22G27G31
  20985797.920   110281135.87009  20985793.840    85933342.47048
  22276677.740   117064760.52509  22276674.300    91219294.38647
  24286101.280   127624332.29808  24286096.980    99447518.31645
  21760112.640   114350402.41508  21760108.060    89104297.94648
  23217830.680   122010543.60908  23217824.860    95073139.51546
  22122430.840   116254185.85509  22122429.680    90587681.11048
  23849366.220   125329307.23508  23849363.180    97659207.16646
 15 02 26 00 32 30.0000000  0  7G16G18G19G21G22G27G31
  20976082.300   110230079.79209  20976078.180    85893558.51248
  22268090.260   117019632.83109  22268086.840    91184129.95647
  24270978.660   127544861.93708  24270974.500    99385593.38146
  21770182.560   114403320.48308  21770178.000    89145532.80448
  23200656.560   121920293.38008  23200650.860    95002814.69346
  22111441.040   116196434.83309  22111439.940    90542680.32648
  23868079.620   125427647.78808  23868076.940    97735836.12246
 15 02 26 00 33  0.0000000  0  7G16G18G19G21G22G27G31
  20966439.780   110179407.75009  20966435.580    85854073.80448
  22259577.240   116974896.40209  22259573.760    91149270.41147
  24255872.440   127465477.36408  24255868.460    99323735.30945
  21780301.920   114456498.73508  21780297.500    89186970.40047
  23183506.500   121830169.51909  23183500.880    94932588.33446
  22100476.100   116138814.14409  22100475.020    90497781.09448
  23886800.680   125526028.52108  23886798.220    97812496.38045
 15 02 26 00 33 30.0000000  0  7G16G18G19G21G22G27G31
  20956870.400   110129119.83009  20956866.080    85814888.41848
  22251138.860   116930552.00009  22251135.300    91114716.34247
  24240782.220   127386176.80308  24240777.860    99261942.67345
  21790470.060   114509933.32108  21790465.820    89228607.73748
  23166380.720   121740173.19608  23166375.080    94862461.36746
  22089535.700   116081322.34309  22089534.680    90452982.31148
  23905528.720   125624444.82508  23905526.160    97889184.39346
 15 02 26 00 34  0.0000000  0  7G16G18G19G21G22G27G31
  20947374.100   110079216.12909  20947369.720    85776002.41548
  22242774.900   116886599.07309  22242771.280    91080467.31847
  24225707.520   127306958.12608  24225702.760    99200213.86245
  21800686.300   114563620.27908  21800682.080    89270441.73048
  23149279.380   121650304.96108  23149273.620    94792434.18447
  22078619.440   116023957.34109  22078618.420    90408282.31348
  23924262.560   125722891.87608  23924259.900    97965896.35246
 15 02 26 00 34 30.0000000  0  7G16G18G19G21G22G27G31
  20937951.840   110029702.01809  20937947.480    85737419.99748
  22234486.260   116843042.33809  22234482.640    91046527.02647
  24210648.940   127227824.26008  24210643.820    99138551.16346
  21810950.920   114617561.07909  21810946.700    89312473.52948
  23132203.460   121560570.30908  23132197.660    94722511.11347
  22067727.880   115966722.48209  22067727.000    90363683.73848
  23943002.140   125821369.57308  23942999.640    98042632.15446
 15 02 26 00 35  0.0000000  0  7G16G18G19G21G22G27G31
  20928604.300   109980580.60609  20928599.880    85699143.56648
  22226273.740   116799885.51509  22226270.040    91012898.33047
  24195606.820   127148777.31508  24195601.300    99076956.18145
  21821263.880   114671756.00008  21821259.660    89354703.33148
  23115153.780   121470973.90108  23115148.100    94652695.74946
  22056861.360   115909619.26209  22056860.640    90319187.72248
  23961747.360   125919876.63708  23961744.880    98119390.84246
 15 02 26 00 35 30.0000000  0  7G16G18G19G21G22G27G31
  20919331.220   109931850.31009  20919326.820    85661171.91548
  22218136.920   116757126.32409  22218133.200    90979579.49847
  24180580.480   127069813.84308  24180574.820    99015426.19945
  21831624.120   114726199.00009  21831619.880    89397126.45548
  23098130.260   121381515.01508  23098124.680    94582987.54846
  22046019.280   115852644.22009  22046018.640    90274791.60048
  23980497.220   126018406.98808  23980494.340    98196167.70046
 15 02 26 00 36  0.0000000  0  7G16G18G19G21G22G27G31
  20910133.620   109883516.77709  20910129.340    85623509.42248
  22210076.900   116714770.71709  22210073.200    90946575.13947
  24165570.360   126990937.36607  24165565.060    98953964.03445
  21842031.820   114780891.44709  21842027.580    89439743.94148
  23081134.020   121292199.52808  23081128.480    94513391.09046
  22035202.380   115795801.07709  22035201.700    90230498.25248
  23999251.780   126116960.91908  23999248.260    98272962.94646
 15 02 26 00 36 30.0000000  0  7G16G18G19G21G22G27G31
  20901011.560   109835580.27809  20901007.400    85586156.30148
  22202093.660   116672818.69409  22202089.940    90913885.25547
  24150576.480   126912146.32508  24150571.720    98892568.44545
  21852486.260   114835829.97108  21852482.120    89482553.18148
  23064165.220   121203028.61808  23064159.700    94443907.27847
  22024410.380   115739088.51809  22024409.660    90186306.65248
  24018009.900   126215533.70008  24018005.840    98349772.85446
 15 02 26 00 37  0.0000000  0  7G16G18G19G21G22G27G31
  20891964.600   109788038.30309  20891960.460    85549110.61148
  22194186.640   116631267.05009  22194182.920    90881507.35147
  24135597.980   126833435.74708  24135593.760    98831235.56045
  21862986.400   114891008.65009  21862982.320    89525549.55248
  23047223.560   121114000.41408  23047218.100    94374534.67046
  22013642.360   115682501.89709  22013641.580    90142213.19548
  24036770.120   126314117.98408  24036765.860    98426591.73246
 15 02 26 00 37 30.0000000  0  7G16G18G19G21G22G27G31
  20882993.960   109740897.25109  20882989.820    85512377.33148
  22186357.040   116590122.22409  22186353.340    90849446.45647
  24120636.020   126754809.98608  24120632.140    98769968.75945
  21873532.720   114946429.95409  21873528.660    89568734.98148
  23030310.440   121025121.85208  23030304.960    94305278.67647
  22002899.240   115626046.03909  22002898.320    90098221.63048
  24055532.880   126412715.70308  24055528.660    98503421.07446
 15 02 26 00 38  0.0000000  0  7G16G18G19G21G22G27G31
  20874099.060   109694153.97509  20874094.880    85475954.00248
