     2.11           OBSERVATION DATA    G                   RINEX VERSION / TYPE
SPIDER V4,0,0,3554                      2015 03 17 00:00    PGM / RUN BY / DATE 
ABZH                                                        MARKER NAME         
ABZH                                                        MARKER NUMBER       
                                                            OBSERVER / AGENCY   
462405              LEICA GRX1200PRO    8.20/2.127          REC # / TYPE / VERS 
103261              LEIAT504                                ANT # / TYPE        
  5106694.6829   270584.9059  3799508.1083                  APPROX POSITION XYZ 
        0.0770        0.0000        0.0000                  ANTENNA: DELTA H/E/N
     1     1                                                WAVELENGTH FACT L1/2
     4    C1    L1    P2    L2                              # / TYPES OF OBSERV 
    30.000                                                  INTERVAL            
  2015    02    26    00    00    0.0000000     GPS         TIME OF FIRST OBS   
  2015    02    26    23    59   30.0000000     GPS         TIME OF LAST OBS    
    16                                                      LEAP SECONDS        
    30                                                      # OF SATELLITES     
   G 1   818   818   818   818                              PRN / # OF OBS      
   G 2   907   907   903   903                              PRN / # OF OBS      
   G 3   834   834   834   834                              PRN / # OF OBS      
   G 4   834   834   834   834                              PRN / # OF OBS      
   G 5   663   663   663   663                              PRN / # OF OBS      
   G 6   783   783   783   783                              PRN / # OF OBS      
   G 7   652   652   652   652                              PRN / # OF OBS      
   G 9   782   782   782   782                              PRN / # OF OBS      
   G10   768   768   768   768                              PRN / # OF OBS      
   G11   783   783   783   783                              PRN / # OF OBS      
   G12   810   810   810   810                              PRN / # OF OBS      
   G13   804   804   804   804                              PRN / # OF OBS      
   G14   901   901   901   901                              PRN / # OF OBS      
   G15   719   719   719   719                              PRN / # OF OBS      
   G16   680   680   680   680                              PRN / # OF OBS      
   G17   910   910   909   909                              PRN / # OF OBS      
   G18   912   912   912   912                              PRN / # OF OBS      
   G19   768   768   768   768                              PRN / # OF OBS      
   G20   788   788   788   788                              PRN / # OF OBS      
   G21   698   698   697   697                              PRN / # OF OBS      
   G22   755   755   754   754                              PRN / # OF OBS      
   G23   733   733   733   733                              PRN / # OF OBS      
   G24   827   827   827   827                              PRN / # OF OBS      
   G25   829   829   829   829                              PRN / # OF OBS      
   G27   816   816   816   816                              PRN / # OF OBS      
   G28   879   879   879   879                              PRN / # OF OBS      
   G29   745   745   745   745                              PRN / # OF OBS      
   G30   697   697   697   697                              PRN / # OF OBS      
   G31   819   819   818   818                              PRN / # OF OBS      
   G32   746   746   746   746                              PRN / # OF OBS      
BIT 2 OF LLI FLAGS DATA COLLECTED UNDER A/S CONDITION       COMMENT             
SNR is mapped to RINEX snr flag value [2-9]                 COMMENT             
Lx:     = 25dBHz -> 1; 26-27dBHz -> 2; 28-31dBHz -> 3       COMMENT             
       32-35dBHz -> 4; 36-38dBHz -> 5; 39-41dBHz -> 6       COMMENT             
       42-44dBHz -> 7; 45-48dBHz -> 8; >=49dBHz -> 9        COMMENT             
                                                            END OF HEADER       
 15 02 26 00 00  0.0000000  0  7G16G18G21G22G27G29G31
  21755269.180   114324719.50108  21755267.960    89084195.48046
  22937272.280   120536198.30407  22937271.100    93924305.97144
  21207594.580   111446667.59108  21207593.180    86841556.74248
  24356153.560   127992464.67805  24356152.920    99734392.72244
  22925950.620   120476692.73707  22925952.420    93877970.00046
  23825620.780   125204470.01006  23825620.860    97561919.79844
  22736794.300   119482651.58108  22736793.340    93103357.84845
 15 02 26 00 00 30.0000000  0  7G16G18G21G22G27G29G31
  21741658.840   114253196.90208  21741657.620    89028463.59146
  22924671.760   120469983.11806  22924670.780    93872709.70644
  21213648.480   111478481.26008  21213647.140    86866346.61648
  24338407.680   127899209.32505  24338406.400    99661726.36644
  22913252.640   120409964.71707  22913254.480    93825974.15046
  23840163.220   125280889.76606  23840163.000    97621467.65444
  22753929.460   119572696.68508  22753928.360    93173522.84745
 15 02 26 00 01  0.0000000  0  7G16G18G21G22G27G29G31
  21728096.060   114181924.02308  21728094.820    88972926.29146
  22912117.660   120404012.42807  22912117.160    93821304.01044
  21219772.260   111510661.99408  21219770.920    86891422.51248
  24320653.160   127805908.64005  24320651.700    99589024.69543
  22900577.420   120343356.41707  22900579.300    93774071.59146
  23854709.880   125357331.51906  23854709.420    97681032.62845
  22771106.500   119662961.75307  22771105.240    93243859.24246
 15 02 26 00 01 30.0000000  0  7G16G18G21G22G27G29G31
  21714581.560   114110904.72308  21714580.340    88917586.58546
  22899611.180   120338290.67607  22899610.860    93770092.24745
  21225965.900   111543209.87108  21225964.560    86916784.49248
  24302890.740   127712566.54105  24302889.060    99516290.72443
  22887925.400   120276869.60307  22887927.260    93722263.70746
  23869260.820   125433797.01706  23869260.340    97740616.06744
  22788325.040   119753445.68207  22788323.800    93314366.17846
 15 02 26 00 02  0.0000000  0  7G16G18G21G22G27G29G31
  21701114.840   114040136.82608  21701113.660    88862442.77546
  22887151.900   120272816.43907  22887151.680    93719073.39644
  21232228.380   111576119.31208  21232226.980    86942428.21547
  24285120.060   127619181.49906  24285118.280    99443523.26044
  22875295.720   120210500.13207  22875297.540    93670547.24646
  23883815.380   125510281.66206  23883814.860    97800214.47944
  22805583.740   119844141.18807  22805582.540    93385037.97746
 15 02 26 00 02 30.0000000  0  7G16G18G21G22G27G29G31
  21687696.860   113969625.30408  21687695.760    88807498.73846
  22874740.720   120207594.64107  22874740.420    93668251.24244
  21238559.900   111609391.72408  21238558.480    86968354.77647
  24267342.140   127525758.80605  24267340.380    99370726.49544
  22862688.880   120144250.83207  22862690.680    93618924.43646
  23898374.140   125586787.87706  23898373.460    97859829.68544
  22822882.540   119935048.34607  22822881.640    93455874.72146
 15 02 26 00 03  0.0000000  0  7G16G18G21G22G27G29G31
  21674327.920   113899371.27108  21674326.880    88752755.34846
  22862377.860   120142626.97907  22862377.300    93617627.08844
  21244959.900   111643023.97208  21244958.460    86994561.72047
  24249557.300   127432299.99105  24249555.620    99297901.54944
  22850104.660   120078120.51507  22850106.520    93567394.32846
  23912936.760   125663314.70406  23912936.100    97919460.93844
  22840220.840   120026163.00207  22840220.200    93526873.15745
 15 02 26 00 03 30.0000000  0  7G16G18G21G22G27G29G31
  21661008.320   113829376.07908  21661007.240    88698213.64746
  22850063.620   120077915.42907  22850063.040    93567202.51444
  21251427.940   111677013.83108  21251426.500    87021047.32847
  24231766.020   127338806.99306  24231764.540    99225049.96344
  22837543.000   120012108.68507  22837544.860    93515956.57246
  23927502.920   125739861.37706  23927502.340    97979107.69244
  22857598.140   120117481.70807  22857597.540    93598030.58246
 15 02 26 00 04  0.0000000  0  7G16G18G21G22G27G29G31
  21647738.500   113759642.54408  21647737.380    88643875.83946
  22837798.640   120013462.87907  22837798.200    93516979.76245
  21257963.840   111711360.38008  21257962.420    87047810.87147
  24213968.500   127245282.92205  24213967.460    99152174.15744
  22825004.000   119946216.11907  22825005.820    93464611.74745
  23942072.900   125816428.09206  23942072.480    98038770.03244
  22875013.960   120209002.15807  22875013.340    93669345.18546
 15 02 26 00 04 30.0000000  0  7G16G18G21G22G27G29G31
  21634518.720   113690172.07908  21634517.600    88589743.01746
  22825583.340   119949271.09207  22825582.860    93466960.21045
  21264567.300   111746061.84908  21264565.880    87074850.97748
  24196165.800   127151729.83305  24196164.700    99079275.72244
  22812487.600   119880442.00607  22812489.360    93413359.19246
  23956646.600   125893013.98006  23956646.340    98098447.31544
  22892467.420   120300720.65607  22892466.860    93740814.12745
 15 02 26 00 05  0.0000000  0  7G16G18G21G22G27G29G31
  21621349.660   113620968.13308  21621348.540    88535817.88146
  22813418.420   119885344.02407  22813417.820    93417146.91945
  21271238.280   111781117.99608  21271236.860    87102167.46148
  24178358.360   127058151.26405  24178356.900    99006357.50244
  22799993.960   119814787.56906  22799995.760    93362199.92546
  23971224.100   125969620.46106  23971224.000    98158140.66245
  22909958.260   120392635.32607  22909957.660    93812435.92445
 15 02 26 00 05 30.0000000  0  7G16G18G21G22G27G29G31
  21608231.840   113552033.27208  21608230.600    88482102.40546
  22801304.340   119821684.32207  22801303.720    93367541.96645
  21277976.440   111816527.03208  21277974.980    87129758.91847
  24160546.560   126964550.05705  24160544.960    98933421.59944
  22787522.940   119749253.17206  22787524.940    93311134.17246
  23985805.600   126046247.43005  23985805.640    98217849.99844
  22927485.980   120484743.83207  22927485.440    93884208.78546
 15 02 26 00 06  0.0000000  0  7G16G18G21G22G27G29G31
  21595165.000   113483366.29308  21595163.640    88428595.66846
  22789240.960   119758291.15307  22789240.300    93318144.70444
  21284780.920   111852284.40908  21284779.340    87157621.81147
  24142730.360   126870925.57506  24142728.560    98860467.51343
  22775074.220   119683835.75006  22775076.360    93260159.58646
  24000390.520   126122891.69205  24000390.500    98277572.75643
  22945049.360   120577039.65207  22945048.820    93956127.58545
 15 02 26 00 06 30.0000000  0  7G16G18G21G22G27G29G31
  21582149.640   113414969.67408  21582148.120    88375299.60146
  22777228.960   119695167.62507  22777228.260    93268957.58644
  21291651.420   111888388.71208  21291649.780    87185755.03248
  24124910.240   126777280.82705  24124908.380    98787497.65544
  22762648.000   119618535.63606  22762650.100    93209276.39746
  24014978.920   126199553.49705  24014978.740    98337309.21344
  22962647.980   120669520.59607  22962647.500    94028190.63745
 15 02 26 00 07  0.0000000  0  7G16G18G21G22G27G29G31
  21569186.880   113346850.02008  21569185.340    88322219.35647
  22765269.620   119632320.99007  22765268.880    93219986.16844
  21298588.420   111924842.85608  21298586.820    87214160.85948
  24107087.600   126683622.92905  24107085.840    98714517.57744
  22750244.880   119553357.40507  22750247.040    93158488.19146
  24029571.140   126276236.50705  24029570.900    98397062.17943
  22980282.160   120762188.23007  22980281.560    94100399.16945
 15 02 26 00 07 30.0000000  0  7G16G18G21G22G27G29G31
  21556276.780   113279007.22608  21556275.280    88269354.84546
  22753362.880   119569750.99307  22753362.220    93171230.34545
  21305591.180   111961642.87908  21305589.680    87242836.19747
  24089262.520   126589952.14205  24089260.840    98641527.40344
  22737864.440   119488298.69206  22737866.700    93107793.11546
  24044167.060   126352938.70005  24044166.780    98456830.14243
  22997950.880   120855037.13207  22997950.040    94172748.93846
 15 02 26 00 08  0.0000000  0  7G16G18G21G22G27G29G31
  21543419.380   113211441.65108  21543418.000    88216706.35546
  22741508.940   119507458.21707  22741508.440    93122690.53444
  21312659.160   111998785.48308  21312657.660    87271778.48447
  24071435.180   126496269.20905  24071433.480    98568527.77543
  22725506.460   119423357.86007  22725508.740    93057189.90346
  24058766.360   126429658.46806  24058766.060    98516611.72644
  23015653.180   120948062.81807  23015652.140    94245236.46846
 15 02 26 00 08 30.0000000  0  7G16G18G21G22G27G29G31
  21530615.320   113144156.19208  21530614.020    88164276.13847
  22729708.500   119445446.07707  22729708.100    93074369.40045
  21319792.100   112036269.52508  21319790.600    87300986.83047
  24053606.280   126402577.62505  24053604.420    98495521.41944
  22713171.220   119358535.68907  22713173.460    93006679.12745
  24073369.080   126506396.35805  24073368.860    98576407.46244
  23033388.460   121041262.83507  23033387.460    94317859.85545
 15 02 26 00 09  0.0000000  0  7G16G18G21G22G27G29G31
  21517865.360   113077154.69008  21517864.020    88112067.17747
  22717962.300   119383718.68307  22717961.880    93026270.15945
  21326990.060   112074095.09908  21326988.520    87330461.30447
  24035776.480   126308881.44105  24035774.420    98422511.49344
  22700859.040   119293833.72107  22700861.080    92956262.03046
  24087975.400   126583153.45105  24087975.340    98636218.15544
  23051156.700   121134636.07907  23051155.780    94390618.19645
 15 02 26 00 09 30.0000000  0  7G16G18G21G22G27G29G31
  21505169.640   113010438.48808  21505168.340    88060080.53947
  22706270.540   119322277.45507  22706269.900    92978393.88545
  21334252.680   112112260.29108  21334251.100    87360200.41447
  24017946.140   126215182.41205  24017944.000    98349499.33444
  22688569.640   119229251.44307  22688571.420    92905938.18546
  24102585.260   126659929.14805  24102585.280    98696043.33145
  23068957.220   121228178.65007  23068956.460    94463508.49346
 15 02 26 00 10  0.0000000  0  7G16G18G21G22G27G29G31
  21492528.280   112944007.71908  21492526.940    88008316.30346
  22694633.320   119261122.83907  22694632.380    92930740.95445
  21341579.080   112150760.79108  21341577.420    87390200.80447
  24000115.280   126121480.99305  24000113.020    98276485.27744
  22676302.520   119164786.59807  22676304.080    92855705.86145
  24117198.420   126736721.10205  24117198.460    98755881.21744
  23086789.100   121321885.46507  23086788.380    94536526.77445
 15 02 26 00 10 30.0000000  0  7G16G18G21G22G27G29G31
  21479942.240   112877867.27008  21479940.800    87956778.28247
  22683051.540   119200260.04807  22683050.480    92883315.42145
  21348969.500   112189598.08608  21348967.840    87420463.63147
  23982284.900   126027782.87805  23982282.760    98203473.79944
  22664058.260   119100442.29107  22664059.740    92805567.44846
  24131815.240   126813532.09005  24131815.200    98815733.93544
  23104652.360   121415756.58907  23104651.480    94609673.10145
 15 02 26 00 11  0.0000000  0  7G16G18G21G22G27G29G31
  21467411.800   112812018.98008  21467410.260    87905467.92447
  22671525.640   119139691.00807  22671524.520    92836118.77945
  21356423.580   112228769.64808  21356421.940    87450986.93147
  23964455.580   125934090.13905  23964453.600    98130466.50644
  22651836.900   119036217.99307  22651838.200    92755522.55946
  24146435.540   126890361.47305  24146435.480    98875600.96943
  23122546.260   121509788.43407  23122545.280    94682944.63545
 15 02 26 00 11 30.0000000  0  7G16G18G21G22G27G29G31
  21454937.020   112746463.58708  21454935.460    87854385.80446
  22660055.860   119079417.21207  22660054.780    92789152.19745
  21363940.720   112268272.71408  21363939.100    87481768.53847
  23946627.600   125840404.28105  23946625.660    98057464.60344
  22639638.140   118972112.54407  22639639.480    92705570.27946
  24161059.100   126967208.08806  24161059.040    98935481.39844
  23140469.920   121603976.97507  23140468.820    94756338.28945
 15 02 26 00 12  0.0000000  0  7G16G18G21G22G27G29G31
  21442518.360   112681203.53808  21442516.900    87803533.81347
  22648642.620   119019440.75907  22648641.600    92742417.29744
  21371520.840   112308106.39008  21371519.240    87512807.77247
  23928801.680   125746728.08906  23928799.620    97984470.21343
  22627461.960   118908126.38807  22627463.420    92655710.96246
  24175686.100   127044072.04906  24175685.840    98995375.39644
  23158422.740   121698319.68907  23158421.540    94829852.05845
 15 02 26 00 12 30.0000000  0  7G16G18G21G22G27G29G31
  21430156.920   112616244.13408  21430155.680    87752916.11747
  22637286.980   118959767.02007  22637286.140    92695918.30844
  21379163.780   112348270.24008  21379162.200    87544104.27547
  23910978.660   125653066.80405  23910976.300    97911487.44443
  22615308.980   118844262.10007  22615310.500    92605946.59846
  24190316.760   127120955.85606  24190316.440    99055284.81744
  23176404.680   121792816.09707  23176403.500    94903485.61645
 15 02 26 00 13  0.0000000  0  7G16G18G21G22G27G29G31
  21417852.740   112551585.67608  21417851.660    87702532.90747
  22625989.300   118900397.36107  22625988.620    92649656.25045
  21386869.360   112388763.04408  21386867.800    87575657.10748
  23893158.760   125559421.91906  23893156.180    97838517.43344
  22603179.060   118780518.74607  22603180.600    92556276.46446
  24204950.740   127197858.36605  24204950.540    99115208.85344
  23194415.020   121887462.27807  23194414.020    94977235.85045
 15 02 26 00 13 30.0000000  0  7G16G18G21G22G27G29G31
  21405605.980   112487228.64408  21405604.940    87652384.57447
  22614749.580   118841332.44707  22614748.940    92603631.64545
  21394636.880   112429581.17008  21394635.300    87607463.44548
  23875342.160   125465794.27906  23875339.420    97765560.85744
  22591071.680   118716894.43907  22591073.380    92506699.07846
  24219587.980   127274777.44706  24219587.660    99175145.78944
  23212452.920   121982253.28307  23212452.100    95051098.97144
 15 02 26 00 14  0.0000000  0  7G16G18G21G22G27G29G31
  21393417.560   112423178.23808  21393416.540    87602475.17347
  22603568.740   118782576.73007  22603568.000    92557847.99145
  21402466.320   112470724.96308  21402464.720    87639523.53747
  23857529.780   125372189.12306  23857526.900    97692621.81743
  22578987.540   118653391.79907  22578989.200    92457216.50446
  24234228.740   127351715.77206  24234228.520    99235097.73744
  23230518.400   122077188.77007  23230517.580    95125074.64945
 15 02 26 00 14 30.0000000  0  7G16G18G21G22G27G29G31
  21381287.540   112359434.33208  21381286.500    87552804.59547
  22592446.820   118724130.75407  22592445.940    92512305.68045
  21410357.020   112512190.79008  21410355.480    87671834.57847
  23839721.660   125278607.00206  23839718.500    97619700.73144
  22566926.160   118590008.87807  22566927.800    92407827.23646
  24248872.740   127428671.03706  24248872.540    99295062.82344
  23248610.600   122172263.61307  23248609.680    95199158.92545
 15 02 26 00 15  0.0000000  0  7G16G18G21G22G27G29G31
  21369216.180   112295998.59708  21369215.080    87503374.16047
  22581384.180   118665996.46407  22581383.260    92467006.25445
  21418308.500   112553976.24408  21418306.980    87704394.66347
  23821918.400   125185050.11606  23821915.160    97546799.30044
  22554887.520   118526745.68607  22554889.140    92358531.23746
  24263519.860   127505642.69305  24263519.740    99355040.78544
  23266728.820   122267474.88207  23266727.800    95273349.50645
 15 02 26 00 15 30.0000000  0  7G16G18G21G22G27G29G31
  21357204.020   112232873.93108  21357202.840    87454186.11747
  22570381.400   118608176.75407  22570380.500    92421951.96345
  21426320.660   112596080.62108  21426319.160    87737203.27747
  23804120.440   125091521.94306  23804117.280    97473920.25045
  22542871.700   118463602.64907  22542873.280    92309328.86445
  24278170.300   127582631.47905  24278169.860    99415032.05644
  23284872.540   122362819.98507  23284871.420    95347644.34545
 15 02 26 00 16  0.0000000  0  7G16G18G21G22G27G29G31
  21345251.660   112170063.41908  21345250.420    87405242.86347
  22559439.140   118550675.09507  22559438.260    92377145.48545
  21434393.340   112638503.15308  21434391.840    87770259.79147
  23786328.640   124998025.96806  23786325.320    97401066.27845
  22530878.900   118400580.59807  22530880.440    92260220.78146
  24292824.240   127659638.44905  24292823.580    99475037.45244
  23303041.440   122458297.11907  23303040.160    95422042.09345
 15 02 26 00 16 30.0000000  0  7G16G18G21G22G27G29G31
  21333359.440   112107569.18908  21333358.200    87356546.06547
  22548557.780   118493493.61407  22548556.860    92332588.49745
  21442526.360   112681242.44108  21442524.860    87803563.13947
  23768543.500   124904564.69706  23768540.120    97328239.35044
  22518909.260   118337679.93407  22518910.800    92211207.29646
  24307481.440   127736662.96705  24307480.900    99535056.55943
  23321234.720   122553903.23307  23321233.320    95496540.32745
 15 02 26 00 17  0.0000000  0  7G16G18G21G22G27G29G31
  21321527.460   112045391.38908  21321526.180    87308095.83147
  22537737.580   118436632.86407  22537736.540    92288281.43644
  21450718.860   112724294.46608  21450717.400    87837110.16947
  23750765.160   124811139.04806  23750761.780    97255440.18644
  22506962.340   118274898.73207  22506963.980    92162286.89246
  24322141.800   127813703.56606  24322141.240    99595088.20743
  23339451.560   122649633.35007  23339450.220    95571135.20445
 15 02 26 00 17 30.0000000  0  7G16G18G21G22G27G29G31
  21309757.000   111983536.87008  21309755.680    87259897.50747
  22526979.620   118380099.36307  22526978.500    92244229.35745
  21458971.260   112767661.53008  21458969.940    87870902.68747
  23732994.980   124717756.05606  23732991.660    97182674.25544
  22495038.980   118212241.46707  22495040.740    92113463.06546
  24336805.800   127890764.33905  24336805.300    99655135.52943
  23357692.120   122745488.99906  23357690.960    95645827.90845
 15 02 26 00 18  0.0000000  0  7G16G18G21G22G27G29G31
  21298047.860   111922004.97408  21298046.500    87211950.58347
  22516283.840   118323892.89107  22516282.780    92200432.11044
  21467282.920   112811339.92708  21467281.700    87904937.80147
  23715232.860   124624415.88706  23715229.680    97109941.69745
  22483138.680   118149705.75707  22483140.640    92064733.95146
  24351473.020   127967842.73705  24351472.980    99715196.60144
  23375955.540   122841464.94307  23375954.640    95720614.32145
 15 02 26 00 18 30.0000000  0  7G16G18G21G22G27G29G31
  21286399.940   111860794.95208  21286398.540    87164254.45947
  22505650.140   118268012.78507  22505649.180    92156889.19445
  21475653.000   112855325.11208  21475651.800    87939211.98447
  23697478.880   124531118.33906  23697475.860    97037242.36544
  22471260.980   118087288.57907  22471263.100    92016097.22047
  24366143.140   128044935.77305  24366143.360    99775269.07843
  23394240.760   122937554.94807  23394240.020    95795489.63844
 15 02 26 00 19  0.0000000  0  7G16G18G21G22G27G29G31
  21274813.720   111799909.35908  21274812.300    87116811.14747
  22495078.980   118212461.20407  22495078.140    92113602.26545
  21484081.080   112899615.09508  21484079.920    87973723.65547
  23679733.460   124437866.05606  23679730.540    96964578.27644
  22459406.100   118024990.30407  22459408.140    91967553.12846
  24380816.120   128122043.50005  24380816.620    99835353.02144
  23412547.380   123033756.32407  23412546.640    95870451.71544
 15 02 26 00 19 30.0000000  0  7G16G18G21G22G27G29G31
  21263290.360   111739354.04808  21263289.000    87069625.19847
  22484571.740   118157244.81208  22484570.820    92070576.50745
  21492567.700   112944212.57108  21492566.540    88008474.93547
  23661997.980   124344665.78706  23661995.140    96891954.73944
  22447574.600   117962815.01107  22447576.520    91919104.85346
  24395492.700   128199169.96304  24395493.640    99895451.56644
  23430875.640   123130070.40307  23430874.660    95945501.62544
 15 02 26 00 20  0.0000000  0  7G16G18G21G22G27G29G31
  21251829.920   111679129.05108  21251828.560    87022696.62947
  22474128.220   118102363.30807  22474127.200    92027811.71545
  21501111.980   112989112.80308  21501110.740    88043462.13047
  23644272.580   124251517.58206  23644269.680    96819371.72945
  22435766.080   117900760.42207  22435767.940    91870750.65146
  24410172.460   128276312.45505  24410173.600    99955562.55144
  23449224.260   123226491.75707  23449222.960    96020635.12744
 15 02 26 00 20 30.0000000  0  7G16G18G21G22G27G29G31
  21240432.600   111619235.80908  21240431.260    86976026.57247
  22463748.700   118047818.44407  22463747.740    91985309.22645
  21509713.560   113034314.03808  21509712.220    88078683.87047
  23626557.660   124158424.04606  23626554.540    96746831.35144
  22423980.500   117838826.21107  22423982.260    91822490.22746
  24424855.280   128353470.43005  24424856.280   100015685.63045
  23467592.520   123323016.60807  23467590.920    96095849.25844
 15 02 26 00 21  0.0000000  0  7G16G18G21G22G27G29G31
  21229099.700   111559681.21408  21229098.380    86929620.39747
  22453434.540   117993616.97507  22453433.640    91943074.30945
  21518372.920   113079818.76908  21518371.420    88114142.11047
  23608854.460   124065392.14506  23608851.060    96674338.97844
  22412218.720   117777017.06707  22412220.320    91774327.27046
  24439541.780   128430648.40804  24439542.800   100075824.32143
  23485980.660   123419647.01806  23485978.900    96171145.65844
 15 02 26 00 21 30.0000000  0  7G16G18G21G22G27G29G31
  21217830.860   111500463.40708  21217829.600    86883476.65947
  22443185.440   117939757.56007  22443184.620    91901105.96445
  21527089.140   113125622.26308  21527087.500    88149833.14647
  23591162.740   123972420.86706  23591159.220    96601893.85744
  22400480.040   117715329.26807  22400481.440    91726258.85546
  24454231.460   128507843.16905  24454232.380   100135976.06044
  23504387.400   123516376.21906  23504385.900    96246519.05045
 15 02 26 00 22  0.0000000  0  7G16G18G21G22G27G29G31
  21206626.280   111441582.66908  21206624.980    86837595.56047
  22433001.360   117886240.00807  22433000.600    91859403.98845
  21535861.220   113171719.71308  21535859.540    88185753.23347
  23573482.580   123879510.72106  23573478.980    96529496.38144
  22388764.000   117653760.70708  22388765.260    91678283.37346
  24468924.020   128585051.86305  24468924.600   100196138.66444
  23522811.820   123613198.98106  23522810.780    96321965.32745
 15 02 26 00 22 30.0000000  0  7G16G18G21G22G27G29G31
  21195487.360   111383047.06008  21195486.020    86791983.40347
  22422883.920   117833072.69407  22422883.080    91817974.92045
  21544690.180   113218116.25008  21544688.480    88221906.38147
  23555815.660   123786670.70806  23555812.140    96457153.56145
  22377071.780   117592317.71608  22377073.000    91630405.72646
  24483620.340   128662280.70804  24483620.700   100256317.02044
  23541254.800   123710118.46206  23541254.200    96397486.95844
 15 02 26 00 23  0.0000000  0  7G16G18G21G22G27G29G31
  21184414.180   111324857.12708  21184412.880    86746640.59147
  22412833.280   117780256.11907  22412832.220    91776819.15245
  21553575.300   113264807.69208  21553573.480    88258289.32547
  23538162.220   123693901.69106  23538158.800    96384866.03444
  22365403.160   117530998.64908  22365404.420    91582624.64746
  24498319.860   128739540.21605  24498321.600   100316517.82944
  23559715.500   123807130.02206  23559715.000    96473080.36245
 15 02 26 00 23 30.0000000  0  7G16G18G21G22G27G29G31
  21173404.780   111267002.40308  21173403.540    86701558.99547
  22402847.320   117727779.73408  22402846.240    91735928.47345
  21562513.800   113311779.68208  21562511.900    88294890.86947
  23520520.420   123601193.85806  23520517.020    96312626.18044
  22353755.780   117469791.07008  22353757.080    91534930.43646
  24513021.060   128816793.41705  24513021.940   100376715.13943
  23578191.100   123904218.42907  23578190.380    96548733.64044
 15 02 26 00 24  0.0000000  0  7G16G18G21G22G27G29G31
  21162463.840   111209507.67508  21162462.660    86656757.90847
  22392930.900   117675668.28008  22392929.720    91695322.15345
  21571509.820   113359053.87308  21571507.880    88331727.90047
  23502895.060   123508572.51506  23502891.840    96240453.73644
  22342133.980   117408717.91708  22342135.260    91487340.97646
  24527727.220   128894075.00205  24527728.040   100436934.51244
  23596685.080   124001403.21007  23596684.200    96624462.00045
 15 02 26 00 24 30.0000000  0  7G16G18G21G22G27G29G31
  21151588.840   111152359.13208  21151587.640    86612226.57747
  22383081.380   117623908.13508  22383080.140    91654989.58744
  21580559.880   113406612.16808  21580557.900    88368786.30247
  23485283.640   123416024.32506  23485280.680    96168338.29444
  22330534.720   117347763.18908  22330535.820    91439843.80746
  24542435.780   128971369.17205  24542436.240   100497163.75242
  23615193.800   124098665.60607  23615192.820    96700250.83444
 15 02 26 00 25  0.0000000  0  7G16G18G21G22G27G29G31
  21140781.320   111095565.59708  21140780.140    86567971.88647
  22373300.320   117572507.98208  22373299.140    91614937.53045
  21589665.040   113454459.92508  21589663.060    88406070.26747
  23467687.860   123323558.45806  23467685.120    96096287.01644
  22318959.180   117286933.94407  22318960.320    91392444.40746
  24557147.940   129048682.48305  24557148.180   100557407.86743
  23633717.880   124196009.73606  23633716.860    96776103.36444
 15 02 26 00 25 30.0000000  0  7G16G18G19G21G22G27G31
  21130039.420   111039116.28708  21130038.140    86523985.39647
  22363585.720   117521457.54108  22363584.680    91575157.97745
  24545258.760   128986204.89905  24545258.540   100508732.56044
  21598822.240   113502581.44608  21598820.280    88443567.55447
  23450105.820   123231165.19406  23450103.340    96024292.29844
  22307405.100   117226217.23008  22307406.420    91345132.69246
  23652254.120   124293419.31706  23652253.180    96852006.90644
 15 02 26 00 26  0.0000000  0  7G16G18G19G21G22G27G31
  21119366.700   110983030.85108  21119365.440    86480282.47247
  22353941.240   117470775.95507  22353940.360    91535665.83145
  24529802.420   128904982.40805  24529801.860   100445442.35344
  21608034.740   113550993.45508  21608032.760    88481291.20247
  23432541.540   123138864.82406  23432539.100    95952369.94144
  22295875.900   117165630.75408  22295877.300    91297922.46346
  23670805.420   124390908.79106  23670804.540    96927972.71745
 15 02 26 00 26 30.0000000  0  7G16G18G19G21G22G27G31
  21108762.360   110927304.25608  21108761.020    86436859.14947
  22344365.920   117420458.06307  22344365.220    91496457.10845
  24514360.780   128823836.96505  24514360.180   100382212.14945
  21617300.700   113599686.15708  21617298.720    88519233.56147
  23414994.020   123046652.48006  23414991.540    95880516.19845
  22284370.160   117105167.33108  22284371.540    91250808.12646
  23689370.140   124488468.50606  23689369.580    97003993.25044
 15 02 26 00 27  0.0000000  0  7G16G18G19G21G22G27G31
  21098226.780   110871939.18108  21098225.400    86393717.53847
  22334860.380   117370506.80407  22334859.800    91457534.05645
  24498934.160   128742769.35605  24498933.300   100319042.63343
  21626620.000   113648659.47208  21626618.060    88557394.58947
  23397464.080   122954531.66907  23397461.560    95808733.77944
  22272887.960   117044827.94708  22272889.260    91203790.43246
  23707947.820   124586095.84306  23707947.780    97080066.45444
 15 02 26 00 27 30.0000000  0  7G16G18G19G21G22G27G31
  21087760.380   110816937.82008  21087758.900    86350859.32647
  22325425.080   117320924.12308  22325424.520    91418898.21245
  24483522.240   128661779.27205  24483521.040   100255933.51044
  21635992.080   113697910.68908  21635990.320    88595772.15747
  23379952.060   122862504.66006  23379949.460    95737024.46044
  22261429.280   116984612.52107  22261430.600    91156869.33146
  23726537.920   124683788.00806  23726538.140    97156190.18544
 15 02 26 00 28  0.0000000  0  7G16G18G19G21G22G27G31
  21077363.000   110762299.25608  21077361.540    86308283.83447
  22316059.840   117271709.15508  22316059.160    91380548.90945
  24468124.800   128580864.24905  24468123.360   100192882.88344
  21645416.340   113747435.88808  21645414.700    88634363.21547
  23362457.980   122770572.01306  23362455.260    95665388.65845
  22249993.720   116924518.57908  22249995.040    91110042.90146
  23745139.480   124781539.54506  23745139.780    97232360.20545
 15 02 26 00 28 30.0000000  0  7G16G18G19G21G22G27G31
  21067036.140   110708031.24309  21067034.680    86265997.07147
  22306766.000   117222869.42108  22306765.100    91342491.97345
  24452742.720   128500029.98505  24452741.000   100129895.14544
  21654893.420   113797238.46308  21654891.800    88673170.42347
  23344983.280   122678741.72707  23344980.700    95593832.63644
  22238582.360   116864551.62707  22238583.660    91063315.41646
  23763752.900   124879352.69006  23763753.240    97308578.19145
 15 02 26 00 29  0.0000000  0  7G16G18G19G21G22G27G31
  21056779.880   110654134.03108  21056778.400    86223999.24147
  22297543.560   117174405.28208  22297542.580    91304727.73245
  24437375.640   128419274.81705  24437373.920   100066969.11244
  21664422.500   113847314.64708  21664420.940    88712190.82647
  23327528.200   122587014.59707  23327525.660    95522356.96445
  22227194.840   116804710.10707  22227196.180    91016685.67346
  23782377.220   124977222.93506  23782377.440    97384840.69345
 15 02 26 00 29 30.0000000  0  7G16G18G19G21G22G27G31
  21046594.220   110600607.74209  21046592.740    86182290.44947
  22288392.620   117126316.85708  22288391.580    91267256.23045
  24422023.160   128338596.39605  24422021.440   100004102.79144
  21674002.840   113897660.21808  21674001.400    88751421.14347
  23310092.920   122495391.52207  23310090.280    95450962.37845
  22215830.860   116744992.05508  22215832.220    90970152.13446
  23801011.340   125075145.22706  23801011.360    97461143.75544
 15 02 26 00 30  0.0000000  0  7G16G18G19G21G22G27G31
  21036479.640   110547455.14508  21036478.140    86140872.83947
  22279313.660   117078606.67608  22279312.580    91230079.48845
  24406685.480   128257995.82905  24406683.640    99941297.20443
  21683634.520   113948275.24308  21683633.140    88790861.41647
  23292678.000   122403875.53106  23292675.380    95379651.25645
  22204490.500   116685398.44208  22204491.920    90923715.56146
  23819654.940   125173117.49906  23819654.640    97537485.74644
 15 02 26 00 30 30.0000000  0  7G16G18G19G21G22G27G31
  21026436.840   110494679.85309  21026435.380    86099749.23347
  22270307.380   117031278.35308  22270306.200    91193200.28345
  24391362.820   128177474.80205  24391361.160    99878553.57145
  21693317.380   113999159.14408  21693316.020    88830511.21147
  23275284.280   122312471.04707  23275281.780    95308427.00144
  22193174.160   116625931.05207  22193175.600    90877377.34146
  23838307.760   125271138.19406  23838307.340    97613865.46344
 15 02 26 00 31  0.0000000  0  7G16G18G19G21G22G27G31
  21016466.900   110442287.70708  21016465.560    86058924.19047
  22261374.780   116984337.23307  22261373.620    91156622.78845
  24376055.940   128097037.28205  24376054.620    99815875.00743
  21703051.740   114050313.57508  21703050.380    88870371.80247
  23257912.980   122221184.83206  23257910.600    95237294.90245
  22181882.600   116566593.83307  22181884.020    90831140.54946
  23856970.340   125369208.71107  23856969.440    97690284.01844
 15 02 26 00 31 30.0000000  0  7G16G18G19G21G22G27G31
  21006569.780   110390278.22708  21006568.560    86018397.32647
  22252515.780   116937782.98208  22252514.660    91120346.75445
  24360764.280   128016680.08105  24360763.140    99753259.01844
  21712836.740   114101734.32008  21712835.400    88910439.92247
  23240564.100   122130016.74607  23240561.740    95166254.86344
  22170615.320   116507384.09707  22170616.840    90785003.10946
  23875641.280   125467323.16606  23875640.020    97766736.79344
 15 02 26 00 32  0.0000000  0  7G16G18G19G21G22G27G31
  20996743.280   110338639.88908  20996742.120    85978159.66947
  22243728.180   116891604.15808  22243727.160    91084363.26345
  24345485.740   127936390.27005  24345484.540    99690695.57845
  21722669.440   114153405.91208  21722668.100    88950703.49447
  23223235.580   122038955.87806  23223233.240    95095298.35745
  22159369.740   116448288.62207  22159371.220    90738954.69546
  23894317.280   125565465.09706  23894315.840    97843210.96344
 15 02 26 00 32 30.0000000  0  7G16G18G19G21G22G27G31
  20986990.300   110287387.99308  20986989.240    85938223.12647
  22235014.940   116845815.83608  22235014.000    91048684.05145
  24330222.560   127856181.53605  24330221.060    99628195.29944
  21732552.140   114205340.02508  21732550.860    88991171.63347
  23205930.720   121948018.80807  23205928.420    95024438.32344
  22148148.540   116389320.95207  22148150.000    90693005.86746
  23913000.180   125663645.18506  23912998.940    97919714.91145
 15 02 26 00 33  0.0000000  0  7G16G18G19G21G22G27G31
  20977311.240   110236524.48408  20977310.220    85898589.22747
  22226376.320   116800419.38708  22226375.340    91013310.21745
  24314974.640   127776053.41505  24314973.120    99565757.77744
  21742484.440   114257534.76908  21742483.240    89031842.85447
  23188649.840   121857207.39407  23188647.600    94953676.22445
  22136951.620   116330480.95307  22136953.080    90647156.54446
  23931689.560   125761860.15306  23931688.540    97996245.99244
 15 02 26 00 33 30.0000000  0  7G16G18G19G21G22G27G31
  20967706.000   110186048.65908  20967704.920    85859257.41647
  22217812.240   116755414.75108  22217811.160    90978241.66545
  24299741.620   127696003.22605  24299740.180    99503381.07244
  21752465.540   114309985.44608  21752464.280    89072713.51447
  23171393.040   121766521.97806  23171390.660    94883012.27944
  22125778.640   116271766.42108  22125780.080    90601404.95046
  23950384.520   125860104.55506  23950383.780    98072800.03644
 15 02 26 00 34  0.0000000  0  7G16G18G19G21G22G27G31
  20958175.480   110135965.64108  20958174.340    85820231.68547
  22209323.540   116710806.41308  22209322.420    90943481.93745
  24284524.040   127616033.94304  24284522.220    99441067.35144
  21762495.520   114362693.16808  21762494.320    89113784.45847
  23154161.180   121675968.06807  23154158.860    94812450.83245
  22114630.220   116213180.33508  22114631.620    90555753.47146
  23969085.440   125958378.59506  23969084.780    98149377.20044
 15 02 26 00 34 30.0000000  0  7G16G18G19G21G22G27G31
  20948720.520   110086279.57508  20948719.340    85781515.27047
  22200910.840   116666597.85908  22200909.840    90909033.72245
  24269322.120   127536147.29605  24269320.140    99378818.06544
  21772574.480   114415658.18908  21772573.280    89155055.91347
  23136955.240   121585550.03007  23136952.800    94741995.22045
  22103506.600   116154724.77608  22103507.880    90510203.69146
  23987791.840   126056680.94306  23987791.200    98225976.37644
 15 02 26 00 35  0.0000000  0  7G16G18G19G21G22G27G31
  20939340.260   110036985.85508  20939339.020    85743104.57547
  22192573.500   116622785.08908  22192572.500    90874893.91145
  24254134.840   127456337.74005  24254132.820    99316628.80944
  21782701.040   114468873.08308  21782699.740    89196522.06247
  23119774.580   121495264.76407  23119771.960    94671643.07744
  22092406.600   116096393.64608  22092407.800    90464750.86446
  24006501.960   126155002.61206  24006501.340    98302590.61244
 15 02 26 00 35 30.0000000  0  7G16G18G19G21G22G27G31
  20930035.440   109988088.95608  20930034.300    85705003.10047
  22184312.200   116579371.87408  22184311.260    90841065.43545
  24238962.700   127376607.71905  24238960.640    99254501.56941
  21792875.120   114522337.94208  21792873.720    89238182.98547
  23102620.160   121405117.51307  23102617.600    94601398.50045
  22081330.820   116038189.50908  22081331.920    90419397.00046
  24025215.660   126253343.59906  24025215.080    98379219.90944
 15 02 26 00 36  0.0000000  0  7G16G18G19G21G22G27G31
  20920806.120   109939588.39408  20920805.000    85667210.45848
  22176126.920   116536358.04508  22176126.140    90807548.17845
  24223805.320   127296954.86605  24223802.980    99192434.44144
  21803095.860   114576047.96508  21803094.360    89280034.95147
  23085491.980   121315108.07507  23085489.440    94531261.29645
  22070278.740   115980110.01308  22070279.880    90374140.26046
  24043931.840   126351698.08006  24043931.580    98455859.70345
 15 02 26 00 36 30.0000000  0  7G16G18G19G21G22G27G31
  20911654.520   109891496.01008  20911653.320    85629735.87347
  22168019.880   116493755.14708  22168019.160    90774351.11845
  24208664.260   127217388.98905  24208661.880    99130435.02643
  21813364.800   114630011.37008  21813363.320    89322084.35447
  23068392.420   121225249.27807  23068389.940    94461241.44245
  22059252.260   115922165.43808  22059253.460    90328988.66046
  24062652.000   126450072.81506  24062651.760    98532515.30744
 15 02 26 00 37  0.0000000  0  7G16G18G19G21G22G27G31
  20902578.680   109843801.69109  20902577.360    85592571.46947
  22159988.980   116451552.32808  22159988.260    90741465.82545
  24193537.480   127137897.69405  24193535.100    99068493.82044
  21823679.440   114684214.62208  21823677.840    89364320.65247
  23051319.640   121135531.47107  23051317.260    94391331.49844
  22048249.040   115864343.56108  22048250.340    90283932.64947
  24081373.140   126548452.91406  24081372.940    98609175.08743
 15 02 26 00 37 30.0000000  0  7G16G18G19G21G22G27G31
  20893579.560   109796510.57108  20893578.060    85555721.23747
  22152035.220   116409754.83208  22152034.360    90708896.34745
  24178425.660   127058484.06805  24178423.020    99006613.05043
  21834039.880   114738658.97608  21834038.200    89406744.82246
  23034274.840   121045960.46107  23034272.520    94321535.93445
  22037269.860   115806647.98708  22037271.240    90238975.07047
  24100095.380   126646839.03406  24100095.300    98685839.53245
 15 02 26 00 38  0.0000000  0  7G16G18G19G21G22G27G31
  20884658.340   109749629.21708  20884656.880    85519190.31647
  22144159.860   116368369.48308  22144158.980    90676648.03645
  24163329.620   126979153.64005  24163327.040    98944797.16144
  21844446.720   114793347.28708  21844445.000    89449359.09447
  23017259.500   120956544.15407  23017257.140    94251860.91044
  22026315.680   115749083.71908  22026317.140    90194119.80247
  24118819.180   126745233.03806  24118819.020    98762510.13344
 15 02 26 00 38 30.0000000  0  7G16G18G19G21G22G27G31
  20875815.320   109703158.78409  20875813.880    85482979.58748
  22136362.900   116327396.71008  22136362.040    90644721.21045
  24148249.200   126899905.23005  24148246.720    98883045.14544
  21854899.440   114848276.65108  21854897.700    89492161.19247
  23000273.760   120867283.94507  23000271.520    94182307.52145
  22015386.360   115691649.63408  22015387.820    90149365.98847
  24137543.880   126843631.14706  24137543.420    98839183.96644
 15 02 26 00 39  0.0000000  0  7G16G18G19G21G22G27G31
  20867050.660   109657100.24709  20867049.260    85447089.82648
  22128644.720   116286837.30308  22128643.780    90613116.49045
  24133184.000   126820737.67406  24133181.760    98821356.19844
  21865397.580   114903444.48408  21865395.860    89535149.10547
  22983318.000   120778181.40007  22983315.940    94112876.99945
  22004481.720   115634345.16708  22004483.140    90104713.16547
  24156268.560   126942029.46806  24156267.820    98915857.89244
 15 02 26 00 39 30.0000000  0  7G16G18G19G21G22G27G31
  20858363.800   109611450.51908  20858362.420    85411518.60748
  22121004.600   116246687.81808  22121003.560    90581831.18545
  24118133.460   126741646.14806  24118131.320    98759726.47844
  21875939.600   114958843.38608  21875937.980    89578317.07746
  22966391.900   120689234.55707  22966389.900    94043567.77745
  21993600.760   115577165.53908  21993602.280    90060157.62447
  24174991.720   127040419.88406  24174990.520    98992525.69544
 15 02 26 00 40  0.0000000  0  7G16G18G19G21G22G27G31
  20849756.700   109566219.99008  20849755.320    85376274.03948
  22113444.340   116206958.48108  22113443.380    90550873.27646
  24103098.980   126662639.26206  24103096.800    98698162.68744
  21886527.100   115014481.28908  21886525.520    89621671.28547
  22949497.560   120600454.38707  22949495.580    93974388.45745
  21982745.200   115520119.48808  21982746.760    90015706.16547
  24193714.400   127138808.24906  24193712.860    99069191.90944
 15 02 26 00 40 30.0000000  0  7G16G18G19G21G22G27G31
  20841228.700   109521405.52808  20841227.440    85341353.69248
  22105963.500   116167646.14108  22105962.560    90520240.28645
  24088079.620   126583712.23406  24088077.280    98636661.10744
  21897158.720   115070350.92408  21897157.140    89665206.05746
  22932634.520   120511838.50907  22932632.500    93905337.12745
  21971914.180   115463202.28608  21971915.720    89971355.10447
  24212435.260   127237186.66506  24212433.760    99145850.34744
 15 02 26 00 41  0.0000000  0  7G16G18G19G21G22G27G31
  20832779.980   109477007.23109  20832778.760    85306757.60848
  22098561.880   116128750.00808  22098560.880    90489931.62346
  24073075.340   126504863.27306  24073072.900    98575220.40544
  21907833.540   115126447.58708  21907831.900    89708917.74146
  22915802.800   120423387.33907  22915800.760    93836414.16445
  21961107.260   115406411.85308  21961108.800    89927102.83147
  24231153.320   127335549.94106  24231152.040    99222496.97844
 15 02 26 00 41 30.0000000  0  7G16G18G19G21G22G27G31
  20824412.460   109433035.77409  20824411.240    85272494.13548
  22091241.420   116090281.14108  22091240.540    90459955.89545
  24058087.420   126426100.93006  24058085.100    98513847.13744
  21918553.080   115182779.27308  21918551.440    89752812.55946
  22899004.720   120335113.06407  22899002.700    93767629.02945
  21950326.260   115349757.62008  21950327.800    89882956.68447
  24249869.800   127433904.83706  24249868.720    99299137.10244
 15 02 26 00 42  0.0000000  0  7G16G18G19G21G22G27G31
  20816125.200   109389485.80309  20816123.880    85238559.08248
  22084001.160   116052233.41008  22084000.360    90430308.32345
  24043114.660   126347418.00406  24043112.260    98452535.78244
  21929315.440   115239335.87808  21929313.900    89796882.62646
  22882239.520   120247010.97807  22882237.440    93698978.07145
  21939569.800   115293232.34608  21939571.320    89838911.03447
  24268582.620   127532240.93106  24268581.640    99375762.56644
 15 02 26 00 42 30.0000000  0  7G16G18G19G21G22G27G31
  20807919.640   109346365.20208  20807918.260    85204958.61648
  22076842.500   116014614.60508  22076841.640    90400994.97946
  24028157.940   126268820.53206  24028155.520    98391291.02044
  21940121.560   115296122.44008  21940120.120    89841131.89547
  22865508.680   120159089.49407  22865506.500    93630467.84345
  21928839.080   115236842.37908  21928840.600    89794970.81247
  24287292.400   127630561.15806  24287291.760    99452375.65644
 15 02 26 00 43  0.0000000  0  7G16G18G19G21G22G27G31
  20799794.960   109303669.46309  20799793.520    85171689.20148
  22069764.480   115977419.98208  22069763.600    90372012.15545
  24013216.360   126190302.16206  24013213.760    98330107.85844
  21950969.960   115353131.16908  21950968.560    89885554.27646
  22848811.460   120071344.89307  22848809.160    93562095.43245
  21918132.920   115180581.53808  21918134.520    89751131.21547
  24305997.200   127728856.52806  24305997.180    99528969.38744
 15 02 26 00 43 30.0000000  0  7G16G18G19G21G22G27G31
  20791751.400   109261400.31209  20791750.040    85138752.20448
  22062767.540   115940650.80108  22062766.600    90343360.85545
  23998289.940   126111863.13306  23998287.240    98268986.53043
  21961860.140   115410359.52008  21961858.780    89930147.79246
  22832148.360   119983779.69807  22832146.040    93493862.82545
  21907451.400   115124449.86408  21907453.020    89707392.26247
  24324696.680   127827124.02306  24324697.000    99605541.40844
 15 02 26 00 44  0.0000000  0  7G16G18G19G21G22G27G31
  20783790.980   109219568.16708  20783789.680    85106155.73648
  22055853.440   115904317.27008  22055852.600    90315049.03045
  23983380.100   126033512.21706  23983377.840    98207933.88944
  21972793.380   115467814.14708  21972792.080    89974917.63746
  22815521.520   119896405.32707  22815519.120    93425778.92045
  21896796.160   115068456.27308  21896797.820    89663760.89947
  24343392.080   127925369.76906  24343392.660    99682096.42944
 15 02 26 00 44 30.0000000  0  7G16G18G19G21G22G27G31
  20775912.480   109178166.54909  20775911.200    85073894.73948
  22049020.960   115868412.88908  22049020.180    90287071.60045
  23968485.400   125955240.86605  23968483.400    98146943.26044
  21983767.780   115525485.13408  21983766.520    90019856.06747
  22798929.940   119809216.19307  22798927.460    93357839.33845
  21886165.700   115012592.81908  21886167.360    89620230.94447
  24362081.360   128023582.46206  24362081.820    99758625.71843
 15 02 26 00 45  0.0000000  0  7G16G18G19G21G22G27G31
  20768117.580   109137204.14709  20768116.300    85041975.98248
  22042271.620   115832945.04908  22042270.840    90259434.32545
  23953606.980   125877055.69905  23953604.980    98086019.80343
  21994784.200   115583377.20408  21994782.980    90064966.77046
  22782375.420   119722221.39607  22782372.800    93290051.21045
  21875561.200   114956866.08908  21875562.900    89576807.53147
  24380765.100   128121765.58506  24380765.020    99835131.98044
 15 02 26 00 45 30.0000000  0  7G16G18G19G21G22G27G31
  20760405.340   109096675.88408  20760404.040    85010395.51148
  22035604.440   115797908.92908  22035603.600    90232133.45845
  23938743.860   125798950.71105  23938742.180    98025158.83542
  22005841.180   115641482.49108  22005840.000    90110243.61546
  22765857.160   119635416.97007  22765854.280    93222411.39845
  21864981.580   114901269.82908  21864983.240    89533485.78047
  24399441.460   128219909.98505  24399441.140    99911608.04643
 15 02 26 00 46  0.0000000  0  7G16G18G19G21G22G27G31
  20752776.380   109056585.63608  20752775.100    84979156.35348
  22029020.200   115763308.35208  22029019.300    90205171.97545
  23923896.300   125720927.56005  23923895.140    97964361.57044
  22016938.720   115699800.54608  22016937.520    90155686.24846
  22749375.980   119548807.61407  22749373.080    93154923.60745
  21854427.280   114845806.25908  21854428.840    89490267.42447
  24418110.380   128318014.79506  24418110.000    99988053.23743
 15 02 26 00 46 30.0000000  0  7G16G18G19G21G22G27G31
  20745230.580   109016932.32608  20745229.420    84948257.67648
  22022518.600   115729141.71408  22022517.540    90178548.61946
  23909064.040   125642983.73405  23909062.880    97903626.15444
  22028075.980   115758327.04608  22028074.660    90201291.31846
  22732931.920   119462393.59807  22732928.960    93087588.03245
  21843897.760   114790472.89008  21843899.280    89447150.51347
  24436770.620   128416074.83705  24436770.100   100064463.56743
 15 02 26 00 47  0.0000000  0  7G16G18G19G21G22G27G31
  20737769.700   108977725.53908  20737768.600    84917706.92648
  22016101.300   115695418.27508  22016100.240    90152270.62545
  23894248.200   125565126.58605  23894247.300    97842958.28644
  22039253.960   115817067.61408  22039252.580    90247063.17746
  22716526.920   119376184.88007  22716523.920    93020412.41645
  21833394.560   114735277.84408  21833396.060    89404141.38047
  24455423.040   128514094.47505  24455422.440   100140842.45743
 15 02 26 00 47 30.0000000  0  7G16G18G19G21G22G27G31
  20730393.900   108938965.42508  20730392.780    84887504.24048
  22009768.280   115662137.69108  22009767.140    90126337.71945
  23879448.480   125487354.65505  23879447.720    97782356.77643
  22050472.040   115876018.84608  22050470.600    90292999.19646
  22700161.200   119290182.47507  22700158.280    92953397.57045
  21822917.420   114680219.61008  21822918.920    89361238.88347
  24474066.880   128612069.27706  24474066.600   100217186.35744
 15 02 26 00 48  0.0000000  0  7G16G18G19G21G22G27G31
  20723102.040   108900646.58108  20723100.880    84857645.40348
  22003518.380   115629293.92508  22003517.120    90100745.17345
  23864663.800   125409660.95705  23864663.080    97721816.21044
  22061728.520   115935171.65108  22061727.040    90339092.29146
  22683833.800   119204381.70107  22683831.040    92886539.84645
  21812464.940   114625291.18108  21812466.380    89318437.51047
  24492700.300   128709989.47205  24492700.560   100293487.68443
 15 02 26 00 48 30.0000000  0  7G16G18G19G21G22G27G31
  20715895.880   108862777.88108  20715894.700    84828137.32548
  21997353.180   115596895.35108  21997351.900    90075499.54245
  23849895.600   125332052.94106  23849894.520    97661342.44644
  22073024.320   115994531.66508  22073022.920    90385346.83146
  22667546.600   119118792.16007  22667543.920    92819846.69345
  21802038.500   114570499.88008  21802039.860    89275743.00347
  24511324.360   128807859.42906  24511324.600   100369749.89843
 15 02 26 00 49  0.0000000  0  7G16G18G19G21G22G27G31
  20708774.720   108825356.06909  20708773.580    84798977.47148
  21991272.180   115564939.04708  21991270.880    90050598.53645
  23835142.800   125254525.11906  23835141.380    97600931.17245
  22084358.240   116054091.97108  22084356.820    90431757.45746
  22651299.200   119033411.94407  22651296.640    92753316.67945
  21791637.320   114515841.16608  21791638.500    89233151.81047
  24529937.560   128905671.40706  24529937.840   100445966.91744
 15 02 26 00 49 30.0000000  0  7G16G18G19G21G22G27G31
  20701740.400   108788390.17908  20701739.220    84770172.88048
  21985276.880   115533433.14708  21985275.600    90026048.49245
  23820406.720   125177085.67106  23820405.420    97540588.76844
  22095731.540   116113858.51208  22095729.940    90478328.79846
  22635093.680   118948251.15107  22635091.200    92686957.62845
  21781262.860   114461322.74008  21781263.940    89190669.93647
  24548540.680   129003430.09805  24548540.740   100522142.38244
 15 02 26 00 50  0.0000000  0  7G16G18G19G21G22G27G31
  20694792.180   108751876.86608  20694790.980    84741720.94948
  21979366.640   115502374.71808  21979365.360    90001847.12145
  23805686.400   125099729.49906  23805685.100    97480311.24644
  22107142.760   116173824.37608  22107141.020    90525055.43346
  22618929.480   118863307.25507  22618926.840    92620767.58745
  21770914.180   114406940.10708  21770915.260    89148293.84847
  24567132.260   129101127.96306  24567131.920   100598270.40443
 15 02 26 00 50 30.0000000  0  7G16G18G19G21G22G27G31
  20687930.880   108715820.35209  20687929.640    84713624.96248
  21973542.020   115471766.57508  21973540.760    89977996.63446
  23790982.260   125022458.39607  23790980.840    97420100.01745
  22118591.840   116233989.44008  22118590.060    90571937.29746
  22602807.360   118778584.92107  22602804.620    92554750.19545
  21760591.680   114352695.32308  21760592.860    89106025.19247
  24585712.180   129198763.88106  24585711.360   100674350.27542
 15 02 26 00 51  0.0000000  0  7G16G18G19G21G22G27G31
  20681156.580   108680220.98609  20681155.260    84685885.19348
  21967803.080   115441608.55708  21967801.900    89954496.87846
  23776294.120   124945271.14807  23776292.620    97359954.15245
  22130078.300   116294350.81608  22130076.360    90618972.13946
  22586727.620   118694085.04707  22586724.820    92488906.15545
  21750295.240   114298587.46008  21750296.360    89063863.22147
  24604279.580   129296333.98005  24604278.580   100750378.77445
 15 02 26 00 51 30.0000000  0  7G16G18G19G21G22G27G31
  20674470.080   108645083.04209  20674468.780    84658504.97448
  21962150.560   115411904.97108  21962149.420    89931351.23445
  23761622.440   124868170.92806  23761620.900    97299876.08544
  22141602.400   116354910.00808  22141600.260    90666161.11246
  22570691.320   118609813.56908  22570688.380    92423240.07345
  21740025.540   114244619.65208  21740026.460    89021810.39546
  24622834.160   129393838.32305  24622833.580   100826356.07144
 15 02 26 00 52  0.0000000  0  7G16G18G19G21G22G27G31
  20667870.860   108610403.95708  20667869.660    84631482.31348
  21956584.020   115382653.07308  21956582.920    89908557.55645
  23746966.540   124791153.55907  23746964.980    97239862.57444
  22153162.880   116415660.59608  22153160.680    90713499.22046
  22554698.200   118525768.98808  22554695.080    92357750.80945
  21729781.720   114190788.09308  21729782.580    88979863.73447
  24641374.640   129491269.93105  24641374.960   100902276.65141
 15 02 26 00 52 30.0000000  0  7G16G18G19G21G22G27G31
  20661359.860   108576188.20209  20661358.660    84604820.68448
  21951104.120   115353856.47508  21951103.160    89886118.65046
  23732326.960   124714221.95006  23732325.440    97179915.87344
  22164760.000   116476603.36808  22164757.820    90760987.08846
  22538749.300   118441956.43508  22538745.960    92292442.33045
  21719564.380   114137095.71708  21719565.400    88938025.53147
  24659901.300   129588628.90905  24659902.220   100978140.64742
 15 02 26 00 53  0.0000000  0  7G16G18G19G21G22G27G31
  20654937.680   108542439.34309  20654936.420    84578522.87548
  21945711.520   115325518.77708  21945710.760    89864037.34045
  23717703.840   124637377.41106  23717702.400    97120037.00044
  22176393.580   116537738.00708  22176391.400    90808624.45946
  22522845.380   118358380.46208  22522841.980    92227318.22245
  21709373.900   114083544.82708  21709375.120    88896297.57547
  24678414.180   129685914.24306  24678415.300   101053947.24543
 15 02 26 00 53 30.0000000  0  7G16G18G19G21G22G27G31
  20648604.000   108509155.13309  20648602.580    84552587.11348
  21940405.680   115297636.35808  21940404.960    89842310.77945
  23703096.780   124560616.72706  23703095.380    97060223.48244
  22188062.680   116599059.76808  22188060.580    90856407.62946
  22506986.040   118275039.41707  22506982.740    92162377.15845
  21699209.560   114030131.59808  21699210.960    88854676.89047
  24696912.000   129783119.38806  24696912.940   101129691.36243
 15 02 26 00 54  0.0000000  0  6G16G18G19G21G22G27
  20642358.540   108476335.04309  20642357.120    84527013.01748
  21935186.500   115270209.02708  21935185.700    89820938.84445
  23688505.160   124483938.02706  23688503.960    97000473.88444
  22199766.640   116660564.59008  22199764.600    90904333.46646
  22491171.660   118191934.44108  22491168.400    92097620.04345
  21689071.160   113976854.51408  21689072.660    88813162.27947
 15 02 26 00 54 30.0000000  0  6G16G18G19G21G22G27
  20636203.240   108443988.83909  20636201.840    84501808.17848
  21930055.740   115243246.03408  21930054.860    89799928.72745
  23673930.860   124407349.55006  23673929.720    96940794.57044
  22211506.660   116722258.73808  22211504.720    90952406.83046
