     2.11           OBSERVATION DATA    M                   RINEX VERSION / TYPE
SPIDER V4,0,0,3554                      2015 03 13 04:04    PGM / RUN BY / DATE 
ADJF                                                        MARKER NAME         
ADJF                                                        MARKER NUMBER       
                                                            OBSERVER / AGENCY   
496631              LEICA GRX1200+GNSS  8.20/4.007          REC # / TYPE / VERS 
103293              LEIAT504                                ANT # / TYPE        
  5273000.2084   285396.0090  3566759.2257                  APPROX POSITION XYZ 
        0.0480        0.0000        0.0000                  ANTENNA: DELTA H/E/N
     1     1                                                WAVELENGTH FACT L1/2
     4    C1    L1    P2    L2                              # / TYPES OF OBSERV 
    30.000                                                  INTERVAL            
  2015    02    26    00    00    0.0000000     GPS         TIME OF FIRST OBS   
  2015    02    26    23    59   30.0000000     GPS         TIME OF LAST OBS    
    16                                                      LEAP SECONDS        
    38                                                      # OF SATELLITES     
   G 1   834   834   834   834                              PRN / # OF OBS      
   G 2   932   932   931   931                              PRN / # OF OBS      
   G 3   853   853   853   853                              PRN / # OF OBS      
   G 4   853   853   853   853                              PRN / # OF OBS      
   G 5   667   667   667   667                              PRN / # OF OBS      
   G 6   760   760   760   760                              PRN / # OF OBS      
   G 7   657   657   657   657                              PRN / # OF OBS      
   G 9   799   799   799   799                              PRN / # OF OBS      
   G10   781   781   781   781                              PRN / # OF OBS      
   G11   798   798   798   798                              PRN / # OF OBS      
   G12   828   827   827   827                              PRN / # OF OBS      
   G13   822   820   820   820                              PRN / # OF OBS      
   G14   937   937   937   937                              PRN / # OF OBS      
   G15   727   727   726   726                              PRN / # OF OBS      
   G16   687   687   687   687                              PRN / # OF OBS      
   G17   935   935   935   935                              PRN / # OF OBS      
   G18   930   930   930   930                              PRN / # OF OBS      
   G19   779   779   779   779                              PRN / # OF OBS      
   G20   803   803   803   803                              PRN / # OF OBS      
   G21   725   725   725   725                              PRN / # OF OBS      
   G22   731   731   731   731                              PRN / # OF OBS      
   G23   740   740   740   740                              PRN / # OF OBS      
   G24   843   841   839   839                              PRN / # OF OBS      
   G25   870   870   869   869                              PRN / # OF OBS      
   G27   831   831   831   831                              PRN / # OF OBS      
   G28   898   898   898   898                              PRN / # OF OBS      
   G29   766   766   766   766                              PRN / # OF OBS      
   G30   704   704   704   704                              PRN / # OF OBS      
   G31   812   812   812   812                              PRN / # OF OBS      
   G32   754   754   753   753                              PRN / # OF OBS      
   R 3    30    30    30    30                              PRN / # OF OBS      
   R 4    30    30    30    30                              PRN / # OF OBS      
   R 9    30    30    30    30                              PRN / # OF OBS      
   R10    30    30    30    30                              PRN / # OF OBS      
   R16    30    30    30    30                              PRN / # OF OBS      
   R18    30    30    30    30                              PRN / # OF OBS      
   R19    30    30    30    30                              PRN / # OF OBS      
   R20    30    30    30    30                              PRN / # OF OBS      
BIT 2 OF LLI FLAGS DATA COLLECTED UNDER A/S CONDITION       COMMENT             
SNR is mapped to RINEX snr flag value [2-9]                 COMMENT             
Lx:     = 25dBHz -> 1; 26-27dBHz -> 2; 28-31dBHz -> 3       COMMENT             
       32-35dBHz -> 4; 36-38dBHz -> 5; 39-41dBHz -> 6       COMMENT             
       42-44dBHz -> 7; 45-48dBHz -> 8; >=49dBHz -> 9        COMMENT             
                                                            END OF HEADER       
 15 02 26 00 00  0.0000000  0 16G16G18G21G22G25G27G29G31R03R04R09R10
                                R16R18R19R20
  21917081.320   115175057.95809  21917078.260    89746792.97947
  22765069.800   119631327.17808  22765067.200    93219232.17846
  21263060.140   111738426.45609  21263056.780    87069003.38649
  24082631.240   126555118.59007  24082628.120    98614396.78745
  24743705.480   130029346.12106  24743706.640   101321699.15244
  22986684.540   120795856.62508  22986684.540    94126650.81347
  23911851.220   125658064.04107  23911849.560    97915574.59945
  22520930.960   118348332.48408  22520928.360    92219489.99748
  22851562.400   122326209.66604  22851565.040    95142621.54006
  23423919.960   125434028.19204  23423923.280    97559809.03505
  19729554.200   105354734.78008  19729557.020    81942585.22306
  22624380.860   120600684.67007  22624387.900    93800553.21405
  20671209.580   110421929.46808  20671214.160    85883760.76308
  21957342.900   117210151.15007  21957347.580    91163638.59207
  20063299.040   107325373.57608  20063300.780    83475356.77708
  22456604.900   120085559.04205  22456610.660    93399908.47107
 15 02 26 00 00 30.0000000  0 16G16G18G21G22G25G27G29G31R03R04R09R10
                                R16R18R19R20
  21903010.520   115101115.37609  21903007.420    89689175.39348
  22753331.300   119569641.08608  22753328.720    93171165.11646
  21270077.880   111775304.90009  21270074.480    87097739.83749
  24065189.100   126463460.04607  24065185.720    98542974.74945
  24762309.620   130127111.27406  24762311.000   101397879.74645
  22974756.180   120733172.45708  22974756.140    94077806.02547
  23925706.300   125730872.48107  23925704.620    97972308.42845
  22537324.420   118434480.90008  22537321.760    92286618.61848
  22844364.660   122287679.04604  22844367.280    95112653.29306
  23404700.380   125331109.21005  23404703.680    97479760.98906
  19727899.440   105345898.12308  19727902.140    81935712.25706
  22603556.520   120489679.18707  22603563.460    93714215.62805
  20690959.960   110527432.51508  20690964.540    85965818.67408
  21972197.540   117289446.56907  21972202.160    91225312.78807
  20064427.620   107331410.60808  20064429.320    83480052.25008
  22444261.160   120019551.46905  22444266.620    93348569.27607
 15 02 26 00 01  0.0000000  0 16G16G18G21G22G25G27G29G31R03R04R09R10
                                R16R18R19R20
  21888981.700   115027393.42109  21888978.640    89631729.71848
  22741643.260   119508219.97708  22741640.680    93123304.53046
  21277162.340   111812533.79109  21277158.840    87126749.36549
  24047742.660   126371779.23407  24047739.640    98471535.37446
  24780942.420   130225028.15006  24780944.020   101474178.51045
  22962848.660   120670598.11508  22962848.700    94029046.82447
  23939563.440   125803691.92207  23939561.560    98029050.85346
  22553764.620   118520875.00808  22553762.120    92353938.67548
  22837283.140   122249770.84204  22837285.840    95083169.16406
  23385502.040   125228302.88305  23385505.060    97399800.55005
  19726398.880   105337884.99208  19726401.480    81929479.81306
  22582808.540   120379080.69607  22582815.440    93628194.60005
  20710805.140   110633442.06508  20710809.760    86048270.52908
  21987053.440   117368748.67107  21987058.080    91286992.19707
  20065609.920   107337735.20708  20065611.620    83484971.38908
  22431964.820   119953797.67505  22431970.120    93297427.45307
 15 02 26 00 01 30.0000000  0 16G16G18G21G22G25G27G29G31R03R04R09R10
                                R16R18R19R20
  21874994.320   114953889.17209  21874991.260    89574453.69048
  22730005.200   119447061.35608  22730002.700    93075648.46646
  21284312.140   111850106.29909  21284308.640    87156026.65049
  24030291.440   126280073.38407  24030288.660    98400076.49245
  24799603.020   130323090.32307  24799603.960   101550590.62344
  22950961.020   120608128.34408  22950961.040    93980369.10647
  23953421.620   125876517.48307  23953420.000    98085798.01046
  22570250.100   118607506.95508  22570247.700    92421444.07148
  22830317.460   122212483.12405  22830320.180    95054167.63406
  23366324.620   125125608.22505  23366327.380    97319926.91506
  19725051.660   105330690.70408  19725054.220    81923884.24506
  22562136.820   120268888.64107  22562143.580    93542489.66105
  20730743.440   110739948.94608  20730748.100    86131109.19808
  22001909.420   117448051.09507  22001914.160    91348671.83207
  20066844.680   107344340.39908  20066846.360    83490108.76508
  22419714.680   119888291.89005  22419720.060    93246478.53407
 15 02 26 00 02  0.0000000  0 16G16G18G21G22G25G27G29G31R03R04R09R10
                                R16R18R19R20
  21861049.300   114880607.52609  21861046.200    89517351.11748
  22718418.160   119386170.87408  22718415.600    93028201.36646
  21291527.600   111888023.71609  21291524.080    87185572.70049
  24012836.320   126188347.94307  24012833.820    98328602.34946
  24818291.740   130421299.35606  24818292.760   101627117.05645
  22939093.740   120545765.88208  22939093.880    93931775.01047
  23967281.480   125949351.73407  23967280.080    98142551.95946
  22586780.820   118694376.45208  22586778.420    92489134.57148
  22823468.560   122175821.14104  22823471.340    95025652.77906
  23347169.200   125023032.47904  23347172.220    97240145.83106
  19723858.380   105324318.75708  19723861.040    81918928.28406
  22541542.580   120159110.04407  22541549.340    93457106.33605
  20750774.640   110846952.21808  20750779.380    86214333.95308
  22016765.780   117527355.45307  22016770.600    91410352.99407
  20068132.140   107351227.54308  20068133.840    83495465.43508
  22407511.580   119823036.66805  22407517.120    93195724.50607
 15 02 26 00 02 30.0000000  0 15G16G18G21G22G27G29G31R03R04R09R10R16
                                R18R19R20
  21847146.840   114807549.53209  21847143.680    89460422.81248
  22706882.280   119325549.42908  22706879.620    92980963.89046
  21298808.160   111926283.40309  21298804.660    87215385.44749
  23995378.040   126096604.55707  23995375.060    98257114.13745
  22927246.740   120483509.55608  22927247.000    93883263.60547
  23981142.900   126022193.18407  23981141.460    98199311.49446
  22603356.100   118781479.68408  22603353.540    92557007.20348
  22816737.000   122139786.79505  22816739.820    94997626.09306
  23328036.680   124920579.16705  23328040.080    97160460.01706
  19722819.000   105318768.60108  19722821.740    81914611.49206
  22521026.460   120049748.01907  22521033.260    93372047.00905
  20770897.780   110954446.39908  20770902.560    86297940.52108
  22031622.200   117606659.75707  22031626.960    91472034.09907
  20069471.840   107358393.82408  20069473.480    83501039.20808
  22395355.060   119758030.37305  22395360.880    93145164.09407
 15 02 26 00 03  0.0000000  0 15G16G18G21G22G27G29G31R03R04R09R10R16
                                R18R19R20
  21833286.540   114734713.31709  21833283.500    89403667.32848
  22695397.320   119265195.64108  22695394.600    92933934.96846
  21306152.660   111964879.09809  21306149.220    87245460.01349
  23977915.940   126004841.56607  23977912.620    98185610.66445
  22915419.140   120421354.96708  22915419.260    93834831.46447
  23995004.980   126095038.14407  23995003.420    98256073.80646
  22619974.460   118868809.49508  22619971.820    92625056.38448
  22810122.320   122104378.07704  22810125.040    94970086.00406
  23308927.140   124818248.34105  23308930.380    97080869.37305
  19721932.820   105314036.56908  19721935.640    81910931.00806
  22500588.460   119940802.40807  22500595.340    93287311.53705
  20791111.320   111062423.32208  20791116.100    86381922.55208
  22046477.580   117685958.44507  22046482.260    91533710.84207
  20070862.540   107365833.03708  20070864.140    83506825.26108
  22383244.340   119693268.51805  22383250.380    93094793.79307
 15 02 26 00 03 30.0000000  0 15G16G18G21G22G27G29G31R03R04R09R10R16
                                R18R19R20
  21819470.240   114662108.33309  21819467.300    89347092.03448
  22683965.220   119205119.55808  22683962.520    92887122.45446
  21313562.160   112003816.51709  21313558.780    87275800.86149
  23960452.060   125913069.09607  23960448.880    98114099.81046
  22903612.280   120359309.60108  22903612.440    93786484.45547
  24008868.880   126167894.05007  24008867.540    98312844.58545
  22636636.780   118956370.52808  22636634.200    92693285.74248
  22803626.440   122069605.73804  22803629.200    94943040.87106
  23289842.700   124716052.14604  23289845.600    97001383.44005
  19721201.400   105310130.69608  19721204.220    81907893.10906
  22480230.840   119832285.33607  22480237.760    93202909.39705
  20811415.920   111170886.41808  20811420.600    86466282.73208
  22061333.180   117765258.10807  22061337.760    91595388.34907
  20072305.420   107373551.38708  20072306.960    83512828.42808
  22371180.720   119628758.26505  22371186.660    93044619.18707
 15 02 26 00 04  0.0000000  0 15G16G18G21G22G27G29G31R03R04R09R10R16
                                R18R19R20
  21805697.240   114589730.72709  21805694.260    89290693.89748
  22672585.260   119145317.28608  22672582.420    92840523.28546
  21321035.200   112043087.91209  21321031.900    87306401.94649
  23942985.640   125821283.69007  23942982.900    98042578.91146
  22891825.080   120297367.32908  22891825.160    93738217.75947
  24022733.640   126240754.53607  24022732.420    98369618.94945
  22653341.460   119044153.77808  22653338.860    92761688.25147
  22797248.680   122035465.80704  22797251.580    94916487.61106
  23270782.900   124613988.85305  23270786.160    96922000.92906
  19720623.640   105307045.38908  19720626.440    81905493.41506
  22459953.280   119724194.59707  22459960.280    93118838.84905
  20831809.580   111279825.54508  20831814.240    86551013.13508
  22076187.560   117844551.46607  22076192.180    91657060.94407
  20073799.100   107381541.34608  20073800.580    83519042.83308
  22359162.880   119564492.94405  22359168.720    92994635.08207
 15 02 26 00 04 30.0000000  0 15G16G18G21G22G27G29G31R03R04R09R10R16
                                R18R19R20
  21791968.040   114517583.26809  21791964.940    89234475.10448
  22661258.000   119085791.96208  22661255.180    92794139.92946
  21328571.740   112082692.76309  21328568.440    87337262.87549
  23925517.580   125729488.83807  23925514.720    97971050.61945
  22880057.500   120235528.58308  22880057.520    93690031.73847
  24036599.540   126313620.22707  24036598.080    98426397.42445
  22670087.960   119132156.95308  22670085.340    92830262.13248
  22790989.700   122001961.50805  22790992.580    94890428.72706
  23251748.700   124512063.40805  23251752.300    96842725.68006
  19720199.700   105304781.53808  19720202.500    81903732.63406
  22439756.640   119616535.13007  22439763.720    93035103.71905
  20852291.740   111389237.09208  20852296.340    86636110.99608
  22091040.660   117923838.10107  22091045.380    91718728.31007
  20075343.260   107389801.53408  20075344.780    83525467.42908
  22347190.920   119500472.77205  22347196.460    92944841.63807
 15 02 26 00 05  0.0000000  0 15G16G18G21G22G27G29G31R03R04R09R10R16
                                R18R19R20
  21778283.600   114445671.08709  21778280.560    89178439.64948
  22649984.540   119026549.04908  22649981.640    92747976.63446
  21336171.980   112122632.26209  21336168.680    87368384.56449
  23908048.720   125637689.59807  23908045.380    97899518.85445
  22868310.120   120173796.06608  22868310.200    93641928.50647
  24050467.140   126386494.26607  24050465.580    98483182.38746
  22686876.300   119220379.68108  22686873.520    92899007.10547
  22784850.660   121969098.38305  22784853.480    94864868.54906
  23232742.000   124410283.47805  23232745.540    96763563.55806
  19719930.160   105303342.39408  19719933.040    81902613.29107
  22419642.280   119509314.32307  22419649.520    92951709.79106
  20872862.000   111499119.62808  20872866.600    86721575.17408
  22105892.840   118003119.75807  22105897.560    91780391.80307
  20076938.260   107398333.52908  20076939.760    83532103.42808
  22335264.940   119436699.97305  22335270.500    92895240.60707
 15 02 26 00 05 30.0000000  0 15G16G18G21G22G27G29G31R03R04R09R10R16
                                R18R19R20
  21764644.200   114373995.54009  21764641.200    89122588.58648
  22638765.060   118967589.97908  22638762.200    92702034.51446
  21343835.300   112162903.38809  21343832.000    87399764.66349
  23890579.100   125545887.73607  23890575.620    97827985.08345
  22856582.780   120112168.78808  22856582.940    93593907.26547
  24064336.200   126459375.55707  24064334.600    98539972.98745
  22703705.740   119308818.61208  22703702.880    92967920.53347
  22778831.940   121936878.02205  22778834.460    94839808.29406
  23213763.320   124308652.53405  23213766.380    96684517.27005
  19719814.960   105302727.43808  19719817.920    81902134.98006
  22399610.780   119402535.04407  22399618.120    92868659.25906
  20893519.600   111609468.45008  20893524.120    86807402.02108
  22120743.660   118082394.38507  22120748.480    91842049.83607
  20078583.520   107407134.41908  20078585.000    83538948.56608
  22323384.980   119373173.23905  22323390.540    92845830.95507
 15 02 26 00 06  0.0000000  0 15G16G18G21G22G27G29G31R03R04R09R10R16
                                R18R19R20
  21751049.760   114302556.34709  21751046.760    89066921.69248
  22627599.560   118908914.71508  22627596.620    92656313.54546
  21351561.020   112203502.28709  21351557.700    87431400.17449
  23873109.140   125454083.58808  23873105.880    97756449.53146
  22844875.140   120050644.44408  22844875.220    93545966.24247
  24078206.200   126532261.83207  24078204.600    98596767.47946
  22720575.180   119397467.96808  22720572.300    93036997.93948
  22772933.340   121905300.79205  22772935.600    94815248.24606
  23194812.300   124207172.58604  23194815.280    96605588.47005
  19719853.700   105302934.45408  19719856.680    81902295.99006
  22379662.480   119296199.48107  22379669.940    92785953.84006
  20914263.180   111720276.96608  20914267.740    86893586.41008
  22135592.560   118161658.81107  22135597.440    91903699.93207
  20080278.280   107416200.19908  20080279.760    83545999.73308
  22311550.460   119309889.85705  22311556.160    92796610.59407
 15 02 26 00 06 30.0000000  0 15G16G18G21G22G27G29G31R03R04R09R10R16
                                R18R19R20
  21737501.620   114231360.34309  21737498.580    89011444.28548
  22616489.500   118850530.70308  22616486.540    92610819.51846
  21359349.640   112244431.79809  21359346.320    87463293.29849
  23855640.480   125362284.55008  23855637.360    97684917.93646
  22833187.920   119989227.56508  22833187.980    93498108.94647
  24092077.760   126605157.92107  24092076.560    98653569.57146
  22737484.980   119486329.96408  22737482.260    93106241.01947
  22767155.900   121874373.64105  22767158.300    94791193.82306
  23175891.500   124105853.31905  23175894.800    96526784.65206
  19720047.380   105303968.66008  19720050.280    81903100.36206
  22359799.100   119190316.65907  22359806.620    92703600.55906
  20935092.880   111831545.72508  20935097.500    86980128.75708
  22150440.240   118240916.75607  22150445.040    91965344.98207
  20082023.140   107425534.24608  20082024.620    83553259.55508
  22299762.280   119246854.10805  22299768.060    92747582.79707
 15 02 26 00 07  0.0000000  0 15G16G18G21G22G27G29G31R03R04R09R10R16
                                R18R19R20
  21723999.300   114160405.17009  21723996.220    88956154.54448
  22605434.480   118792436.07608  22605431.480    92565550.99446
  21367200.000   112285685.68709  21367196.680    87495439.18949
  23838172.340   125270488.75007  23838169.300    97613388.88046
  22821520.240   119927913.51608  22821520.240    93450331.79047
  24105950.160   126678058.57106  24105949.120    98710375.24646
  22754433.940   119575397.10008  22754431.180    93175643.96047
  22761499.220   121844094.37404  22761501.840    94767643.31806
  23157000.900   124004694.05804  23157004.220    96448105.24506
  19720395.160   105305825.45708  19720397.920    81904544.52606
  22340020.560   119084886.03107  22340028.020    92621598.97206
  20956007.100   111943265.98808  20956011.760    87067022.27908
  22165285.620   118320162.57907  22165290.340    92026980.60107
  20083816.940   107435130.09908  20083818.460    83560723.00108
  22288019.520   119184060.85105  22288025.360    92698743.61307
 15 02 26 00 07 30.0000000  0 15G16G18G21G22G27G29G31R03R04R09R10R16
                                R18R19R20
  21710544.420   114089699.14909  21710541.360    88901058.94948
  22594436.060   118734638.97508  22594432.960    92520514.30146
  21375112.940   112327268.28609  21375109.620    87527841.21449
  23820706.240   125178704.86607  23820702.780    97541869.08145
  22809873.260   119866708.21808  22809873.240    93402639.37847
  24119824.620   126750970.28307  24119823.460    98767189.52645
  22771422.520   119664672.45908  22771419.740    93245209.15947
  22755965.400   121814471.68905  22755967.960    94744603.46806
  23138142.120   123903705.71905  23138145.620    96369558.81406
  19720898.100   105308510.94408  19720900.780    81906633.22506
  22320328.800   118979917.96007  22320336.220    92539957.15306
  20977006.240   112055439.60908  20977010.940    87154268.40508
  22180129.740   118399401.32407  22180134.300    92088610.73207
  20085660.500   107444992.32208  20085662.120    83568393.62108
  22276323.340   119121515.85905  22276329.180    92650097.53207
 15 02 26 00 08  0.0000000  0 15G16G18G21G22G27G29G31R03R04R09R10R16
                                R18R19R20
  21697135.460   114019234.54109  21697132.340    88846151.46848
  22583492.820   118677131.72208  22583489.620    92475703.46446
  21383086.220   112369168.02109  21383082.900    87560490.35849
  23803241.080   125086925.61807  23803237.460    97470352.89146
  22798245.120   119805601.80908  22798245.080    93355024.01147
  24133699.580   126823883.44307  24133697.860    98824004.99245
  22788448.320   119754143.30308  22788445.560    93314926.67748
  22750552.700   121785497.89005  22750555.320    94722068.31006
  23119314.200   123802882.63905  23119317.540    96291140.92706
  19721554.440   105312015.57908  19721557.080    81909359.04806
  22300722.800   118875406.84607  22300730.100    92458670.74806
  20998087.620   112168052.29508  20998092.280    87241856.03508
  22194970.540   118478622.25007  22194975.000    92150226.98907
  20087551.720   107455109.33808  20087553.420    83576262.41108
  22264671.700   119059208.28705  22264677.380    92601636.10907
 15 02 26 00 08 30.0000000  0 15G16G18G21G22G27G29G31R03R04R09R10R16
                                R18R19R20
  21683774.080   113949020.06009  21683770.900    88791438.88548
  22572606.480   118619923.52408  22572603.180    92431125.65646
  21391120.720   112411389.47209  21391117.360    87593390.19049
  23785778.780   124995160.34207  23785775.000    97398847.56446
  22786636.960   119744600.59208  22786636.920    93307490.61647
  24147576.000   126896804.53307  24147573.740    98880826.62245
  22805511.940   119843813.04508  22805509.220    93384799.17447
  22745262.940   121757181.84905  22745265.440    94700044.72406
  23100519.340   123702236.11505  23100522.020    96212860.26206
  19722365.300   105316345.65208  19722368.040    81912726.87406
  22281204.540   118771363.15807  22281211.660    92377747.89006
  21019251.680   112281106.52808  21019256.240    87329787.08708
  22209808.940   118557830.64207  22209813.500    92211833.50407
  20089491.540   107465486.22208  20089493.280    83584333.32108
  22253065.520   118997144.30805  22253071.100    92553364.16007
 15 02 26 00 09  0.0000000  0 15G16G18G21G22G27G29G31R03R04R09R10R16
                                R18R19R20
  21670460.500   113879056.64909  21670457.300    88736921.94448
  22561777.180   118563015.45808  22561773.920    92386781.72046
  21399215.840   112453929.64109  21399212.480    87626538.37849
  23768319.180   124903410.13707  23768315.780    97327354.02946
  22775048.560   119683703.16808  22775048.520    93260038.10747
  24161453.680   126969731.95307  24161451.380    98937653.17545
  22822612.580   119933677.58308  22822609.860    93454823.46947
  22740096.420   121729524.68005  22740098.920    94678533.61606
  23081758.060   123601769.22305  23081760.840    96134719.38506
  19723330.420   105321499.75008  19723333.300    81916735.61106
  22261774.460   118667789.44207  22261781.360    92297190.56606
  21040497.280   112394596.75507  21040501.920    87418057.23708
  22224644.560   118637024.29307  22224649.300    92273428.54907
  20091479.320   107476119.76408  20091481.100    83592603.85208
  22241504.440   118935322.26905  22241510.140    92505280.39607
 15 02 26 00 09 30.0000000  0 15G16G18G21G22G27G29G31R03R04R09R10R16
                                R18R19R20
  21657195.440   113809348.40409  21657192.280    88682603.83748
  22551005.740   118506411.63708  22551002.620    92342674.86346
  21407371.720   112496789.22909  21407368.400    87659935.46248
  23750863.340   124811679.59608  23750860.040    97255875.79046
  22763480.320   119622911.52808  22763480.200    93212668.01247
  24175332.860   127042667.85607  24175331.040    98994486.31445
  22839750.100   120023735.82208  22839747.360    93524998.69647
  22735053.580   121702530.28105  22735056.120    94657537.99706
  23063031.520   123501488.56005  23063034.420    96056723.36606
  19724450.320   105327479.95908  19724453.260    81921386.88006
  22242433.840   118564692.72707  22242440.580    92217004.24806
  21061824.140   112508520.70407  21061828.800    87506664.73308
  22239477.700   118716204.52207  22239482.620    92335013.15107
  20093515.200   107487010.51508  20093517.020    83601074.43408
  22229988.840   118873743.44305  22229994.540    92457385.79507
 15 02 26 00 10  0.0000000  0 15G16G18G21G22G27G29G31R03R04R09R10R16
                                R18R19R20
  21643979.020   113739895.81109  21643975.920    88628484.93748
  22540292.300   118450112.75708  22540289.300    92298805.61547
  21415587.600   112539964.12009  21415584.320    87693578.23249
  23733411.440   124719969.45307  23733407.840    97184413.41045
  22751931.780   119562223.55408  22751931.620    93165378.69547
  24189213.380   127115610.36307  24189211.960    99051324.58846
  22856923.500   120113982.93208  22856920.800    93595321.08847
  22730134.560   121676199.26005  22730137.140    94637058.33706
  23044339.920   123401396.52505  23044343.040    95978874.07006
  19725724.560   105334284.14808  19725727.480    81926679.01706
  22223182.980   118462074.56507  22223189.600    92137190.13206
  21083231.020   112622872.28108  21083235.700    87595604.82608
  22254307.740   118795368.15207  22254312.680    92396584.85007
  20095598.520   107498154.90508  20095600.400    83609742.29408
  22218518.440   118812405.42605  22218523.860    92409678.46307
 15 02 26 00 10 30.0000000  0 15G16G18G21G22G27G29G31R03R04R09R10R16
                                R18R19R20
  21630811.460   113670699.93109  21630808.360    88574566.07448
  22529637.140   118394120.08408  22529634.320    92255174.97646
  21423863.020   112583451.85309  21423859.760    87727464.77348
  23715963.880   124628281.72508  23715960.140    97112968.51246
  22740402.780   119501638.41508  22740402.660    93118169.51347
  24203095.060   127188558.55307  24203093.680    99108167.33546
  22874132.180   120204415.11908  22874129.540    93665787.70747
  22725339.700   121650532.75305  22725342.480    94617095.51706
  23025684.460   123301497.07105  23025687.460    95901174.52206
  19727152.880   105341911.38808  19727155.820    81932611.30906
  22204022.640   118359938.83207  22204029.240    92057751.24206
  21104716.960   112737646.40907  21104721.660    87684873.58008
  22269134.420   118874513.57907  22269139.300    92458142.37407
  20097728.780   107509550.23608  20097730.600    83618605.33608
  22207092.820   118751306.99805  22207097.960    92362157.47607
 15 02 26 00 11  0.0000000  0 15G16G18G21G22G27G29G31R03R04R09R10R16
                                R18R19R20
  21617693.800   113601766.09209  21617690.700    88520851.40048
  22519041.260   118338438.97608  22519038.500    92211787.11246
  21432198.140   112627253.20509  21432194.880    87761595.69648
  23698521.560   124536621.81707  23698517.840    97041545.30346
  22728893.760   119441158.81408  22728893.800    93071042.57847
  24216978.340   127261515.38807  24216976.500    99165016.81945
  22891376.020   120295032.22508  22891373.380    93736398.41347
  22720670.020   121625535.75905  22720673.100    94597653.43606
  23007066.380   123201797.43105  23007068.960    95823630.33906
  19728735.840   105350364.30308  19728738.720    81939185.79006
  22184953.920   118258291.95007  22184960.560    91978692.57006
  21126281.740   112852841.63007  21126286.460    87774469.84508
  22283958.080   118953642.83107  22283962.740    92519687.34607
  20099906.220   107521198.12308  20099908.000    83627664.81408
  22195712.300   118690450.08305  22195717.340    92314824.33007
 15 02 26 00 11 30.0000000  0 15G16G18G21G22G27G29G31R03R04R09R10R16
                                R18R19R20
  21604625.920   113533094.10309  21604622.920    88467340.76648
  22508504.720   118283069.82808  22508502.040    92168642.33446
  21440592.220   112671364.36409  21440588.960    87795968.03048
  23681084.640   124444990.45007  23681080.880    96970144.32746
  22717404.480   119380782.59708  22717404.560    93023996.19147
  24230862.900   127334478.77507  24230861.100    99221871.37645
  22908654.160   120385829.26708  22908651.440    93807149.33847
  22716125.460   121601208.57504  22716128.640    94578732.31106
  22988485.660   123102299.73205  22988488.360    95746243.28306
  19730472.980   105359640.46208  19730475.840    81946400.57006
  22165977.220   118157136.31807  22165984.060    91900015.97406
  21147924.080   112968451.39307  21147928.900    87864388.52608
  22298778.080   119032752.82707  22298782.560    92581217.33207
  20102130.100   107533094.47808  20102131.860    83636917.53408
  22184376.480   118629832.35105  22184381.600    92267677.22207
 15 02 26 00 12  0.0000000  0 15G16G18G21G22G27G29G31R03R04R09R10R16
                                R18R19R20
  21591608.460   113464687.10209  21591605.500    88414036.61948
  22498028.100   118228015.30208  22498025.560    92125742.71846
  21449045.200   112715784.94509  21449041.920    87830581.47248
  23663653.760   124353390.95407  23663650.000    96898768.16246
  22705935.080   119320510.60108  22705935.220    92977031.03047
  24244748.740   127407449.73506  24244746.960    99278731.87245
  22925966.160   120476804.32508  22925963.440    93878038.97147
  22711706.580   121577553.82704  22711709.600    94560334.20106
  22969943.920   123003009.94705  22969947.020    95669017.96406
  19732364.500   105369740.68608  19732367.320    81954256.29706
  22147093.640   118056477.17007  22147100.800    91821725.54606
  21169643.480   113084472.53207  21169648.320    87954627.17308
  22313594.440   119111843.62707  22313598.780    92642732.38807
  20104400.380   107545238.92908  20104402.160    83646363.22508
  22173085.280   118569454.14205  22173090.780    92220716.43407
 15 02 26 00 12 30.0000000  0 15G16G18G21G22G27G29G31R03R04R09R10R16
                                R18R19R20
  21578642.040   113396547.91809  21578639.040    88360941.14748
  22487611.940   118173278.26408  22487609.480    92083090.48947
  21457556.460   112760511.88609  21457553.160    87865433.62848
  23646229.420   124261826.20408  23646225.660    96827419.06846
  22694485.560   119260342.78908  22694485.580    92930147.02547
  24258635.980   127480428.32807  24258634.280    99335598.27545
  22943311.460   120567954.43908  22943308.780    93949065.00147
  22707413.660   121554573.65104  22707416.380    94542460.74706
  22951441.680   122903932.55005  22951445.000    95591957.79506
  19734410.200   105380664.37208  19734413.060    81962752.49006
  22128303.840   117956318.04207  22128311.280    91743824.02106
  21191439.100   113200900.86207  21191443.940    88045182.51408
  22328406.980   119190914.34207  22328411.400    92704231.81907
  20106716.740   107557629.68108  20106718.480    83656000.47308
  22161838.780   118509314.61105  22161844.480    92173941.27308
 15 02 26 00 13  0.0000000  0 15G16G18G21G22G27G29G31R03R04R09R10R16
                                R18R19R20
  21565726.400   113328675.71409  21565723.380    88308053.72848
  22477256.200   118118858.76408  22477253.840    92040685.69847
  21466125.560   112805542.71109  21466122.240    87900522.57649
  23628811.800   124170296.57407  23628808.180    96756097.36946
  22683055.520   119200276.92208  22683055.300    92883342.45747
  24272524.320   127553412.45007  24272523.040    99392468.99745
  22960689.080   120659274.47208  22960686.580    94020223.43247
  22703246.740   121532267.88504  22703249.500    94525111.83306
  22932979.440   122805069.60605  22932982.820    95515064.44006
  19736609.600   105392409.07508  19736612.520    81971887.24806
  22109608.420   117856661.42407  22109616.060    91666313.32606
  21213309.720   113317729.79107  21213314.640    88136049.43608
  22343215.220   119269962.04807  22343219.740    92765713.35107
  20109078.420   107570263.05808  20109080.120    83665826.42808
  22150636.320   118449411.04505  22150642.240    92127349.65107
 15 02 26 00 13 30.0000000  0 15G16G18G21G22G27G29G31R03R04R09R10R16
                                R18R19R20
  21552862.200   113261073.95209  21552859.200    88255377.03348
  22466961.600   118064760.39208  22466959.360    91998531.13447
  21474752.320   112850876.62809  21474748.960    87935847.70448
  23611401.580   124078805.81508  23611397.900    96684805.93846
  22671644.960   119140313.87708  22671644.680    92836618.02347
  24286414.100   127626402.97207  24286412.700    99449344.73645
  22978098.700   120750762.41208  22978096.080    94091512.71747
  22699206.360   121510639.75204  22699209.120    94508289.99306
  22914558.300   122706426.90105  22914561.800    95438342.35706
  19738962.840   105404975.24208  19738965.740    81981660.92806
  22091008.200   117757512.17607  22091015.960    91589197.26706
  21235254.680   113434955.83407  21235259.580    88227225.22608
  22358019.200   119348986.79507  22358023.700    92827177.03707
  20111485.340   107583138.55108  20111487.120    83675840.69808
  22139478.240   118389743.94505  22139484.060    92080941.94407
 15 02 26 00 14  0.0000000  0 15G16G18G21G22G27G29G31R03R04R09R10R16
                                R18R19R20
  21540050.340   113193746.97109  21540047.320    88202914.45448
  22456728.820   118010986.62508  22456726.540    91956629.50647
  21483436.640   112896512.92709  21483433.260    87971408.45548
  23593999.720   123987358.33707  23593995.780    96613548.20646
  22660254.240   119080455.21008  22660253.980    92789974.91648
  24300305.500   127699401.76007  24300303.740    99506226.91345
  22995540.020   120842416.98808  22995537.380    94162931.83547
  22695293.340   121489692.57305  22695296.160    94491997.77006
  22896179.640   122608010.35905  22896183.240    95361796.18706
  19741470.080   105418364.06608  19741472.980    81992074.44206
  22072504.280   117658875.97707  22072512.100    91512480.24606
  21257273.600   113552576.57607  21257278.380    88318708.00708
  22372819.040   119427989.38307  22372823.620    92888623.47807
  20113937.560   107596256.14108  20113939.380    83686043.27408
  22128364.640   118330314.14605  22128370.180    92034718.78607
 15 02 26 00 14 30.0000000  0 15G16G18G21G22G27G29G31R03R04R09R10R16
                                R18R19R20
  21527290.920   113126695.64909  21527287.800    88150666.67448
  22446558.040   117957538.80008  22446555.860    91914981.87347
  21492177.960   112942448.86009  21492174.560    88007202.69148
  23576606.260   123895955.62907  23576602.420    96542325.38846
  22648883.100   119020699.82408  22648883.040    92743412.30647
  24314198.180   127772407.70306  24314196.480    99563114.65545
  23013012.220   120934234.02108  23013009.500    94234477.55847
  22691507.760   121469427.02604  22691510.660    94476235.70706
  22877844.180   122509823.93605  22877847.840    95285429.01706
  19744131.120   105432574.06008  19744134.000    82003126.65206
  22054097.280   117560756.20507  22054105.000    91436164.87806
  21279365.380   113670586.56807  21279370.140    88410493.53708
  22387614.460   119506968.07807  22387619.120    92950051.33507
  20116434.460   107609612.95208  20116436.360    83696431.90808
  22117295.200   118271120.42905  22117300.420    91988679.24107
 15 02 26 00 15  0.0000000  0  7G16G18G21G22G27G29G31
  21514584.980   113059925.24909  21514581.740    88098637.80048
  22436450.320   117904422.41208  22436448.140    91873592.49047
  21500976.500   112988685.44809  21500973.060    88043231.20248
  23559222.460   123804603.57408  23559218.720    96471142.05146
  22637532.320   118961051.13308  22637532.360    92696932.82748
  24328092.460   127845423.88006  24328091.260    99620010.31545
  23030515.480   121026214.05008  23030512.700    94306150.28647
 15 02 26 00 15 30.0000000  0  7G16G18G21G22G27G29G31
  21501932.060   112993433.76409  21501928.840    88046826.25948
  22426405.280   117851635.26608  22426403.040    91832459.66147
  21509831.140   113035216.91609  21509827.700    88079489.48948
  23541848.080   123713300.69407  23541844.260    96399997.01846
  22626200.980   118901504.42108  22626200.960    92650532.80847
  24341988.020   127918446.28107  24341986.660    99676910.92145
  23048048.320   121118349.55208  23048045.580    94377944.15447
 15 02 26 00 16  0.0000000  0  7G16G18G21G22G27G29G31
  21489332.460   112927222.38709  21489329.240    87995232.98948
  22416423.120   117799178.84708  22416420.880    91791584.54047
  21518741.360   113082040.49909  21518737.940    88115975.40248
  23524483.320   123622048.61308  23524479.500    96328891.56746
  22614888.800   118842058.51608  22614888.720    92604211.33647
  24355884.720   127991474.01406  24355883.260    99733815.65045
  23065610.020   121210636.86108  23065607.180    94449856.32547
 15 02 26 00 16 30.0000000  0  7G16G18G21G22G27G29G31
  21476787.120   112861296.22509  21476783.880    87943861.95348
  22406504.860   117747058.12908  22406502.640    91750971.00747
  21527707.420   113129157.55909  21527704.040    88152689.99748
  23507129.280   123530852.71208  23507125.340    96257829.88146
  22603596.380   118782716.53308  22603596.220    92557970.85047
  24369782.940   128064509.66606  24369781.380    99790726.53545
  23083200.560   121303075.68808  23083197.740    94521886.55547
 15 02 26 00 17  0.0000000  0  7G16G18G21G22G27G29G31
  21464296.620   112795658.31509  21464293.360    87892715.52848
  22396651.140   117695276.41708  22396648.960    91710621.63047
  21536729.080   113176566.86309  21536725.720    88189632.30948
  23489786.700   123439716.82108  23489782.720    96186814.93746
  22592323.880   118723479.23508  22592323.700    92511811.93147
  24383682.960   128137554.62807  24383681.340    99847644.66145
  23100819.500   121395663.94308  23100816.820    94594033.20647
 15 02 26 00 17 30.0000000  0  7G16G18G21G22G27G29G31
  21451861.220   112730309.84209  21451858.000    87841794.63748
  22386862.060   117643834.42608  22386859.940    91670536.96947
  21545805.700   113224264.87309  21545802.360    88226799.58748
  23472455.660   123348642.27408  23472451.720    96115847.83446
  22581071.040   118664345.26908  22581070.820    92465733.53548
  24397584.420   128210607.49306  24397583.120    99904568.95745
  23118466.120   121488397.40708  23118463.520    94666293.02247
 15 02 26 00 18  0.0000000  0  7G16G18G21G22G27G29G31
  21439480.860   112665250.86609  21439477.700    87791099.34648
  22377137.740   117592732.46708  22377135.580    91630717.27347
  21554936.660   113272248.42509  21554933.340    88264189.37148
  23455136.620   123257630.02608  23455132.480    96044929.23046
  22569837.560   118605312.74408  22569837.200    92419734.16547
  24411487.060   128283666.49606  24411485.900    99961498.00945
  23136139.460   121581271.44908  23136136.880    94738662.37247
 15 02 26 00 18 30.0000000  0  7G16G18G21G22G27G29G31
  21427156.900   112600488.23209  21427153.720    87740634.95648
  22367479.420   117541977.39508  22367477.240    91591167.87147
  21564122.520   113320520.45309  21564119.220    88301803.94048
  23437830.800   123166687.35108  23437826.660    95974064.86946
  22558624.220   118546386.10008  22558623.720    92373817.31447
  24425391.780   128356736.28506  24425390.420   100018435.50545
  23153839.880   121674287.41308  23153837.220    94811142.32447
 15 02 26 00 19  0.0000000  0  7G16G18G21G22G27G29G31
  21414888.700   112536018.33209  21414885.500    87690398.67248
  22357886.320   117491565.05208  22357884.120    91551885.54147
  21573361.700   113369072.63309  21573358.420    88339636.80548
  23420537.460   123075810.74108  23420533.460    95903251.99846
  22547429.800   118487559.26308  22547429.240    92327978.22347
  24439297.520   128429810.82106  24439295.900   100075376.70845
  23171565.560   121767436.29108  23171562.900    94883725.82647
 15 02 26 00 19 30.0000000  0  7G16G18G21G22G27G29G31
  21402677.600   112471848.64509  21402674.420    87640396.32448
  22348359.960   117441503.54509  22348357.740    91512876.58947
  21582654.980   113417909.13009  21582651.700    88377691.22348
  23403258.440   122985008.53608  23403254.440    95832497.07446
  22536255.380   118428837.75708  22536254.860    92282221.22047
  24453205.200   128502895.93707  24453203.660   100132326.12245
  23189317.140   121860721.02908  23189314.500    94956415.21247
 15 02 26 00 20  0.0000000  0  7G16G18G21G22G27G29G31
  21390523.300   112407977.44809  21390520.160    87590626.56348
  22338899.940   117391790.70708  22338897.700    91474139.32147
  21592001.100   113467023.30709  21591997.840    88415962.00548
  23385993.200   122894279.02708  23385988.940    95761798.80146
  22525100.260   118370217.40308  22525099.900    92236543.03247
  24467114.100   128575987.18406  24467112.200   100189280.33144
  23207093.140   121954134.26408  23207090.560    95029204.70747
 15 02 26 00 20 30.0000000  0  7G16G18G21G22G27G29G31
  21378426.740   112344409.61009  21378423.620    87541093.17848
  22329507.180   117342431.48608  22329504.880    91435677.59347
  21601400.360   113516416.62209  21601397.080    88454450.30048
  23368742.880   122803628.11308  23368738.540    95691161.76946
  22513964.960   118311700.97708  22513964.780    92190945.82848
  24481024.560   128649087.52306  24481022.340   100246241.65745
  23224893.540   122047675.58508  23224890.780    95102094.01347
 15 02 26 00 21  0.0000000  0  7G16G18G21G22G27G29G31
  21366388.580   112281148.53409  21366385.440    87491798.84048
  22320182.380   117293429.05008  22320179.900    91397493.89147
  21610852.480   113566087.99509  21610849.240    88493155.26848
  23351508.280   122713059.34508  23351504.020    95620588.75046
  22502849.680   118253289.60508  22502849.680    92145430.50048
  24494936.920   128722198.07006  24494935.180   100303210.88545
  23242717.900   122141343.52608  23242715.040    95175081.99647
 15 02 26 00 21 30.0000000  0  7G16G18G21G22G27G29G31
  21354408.480   112218192.41809  21354405.320    87442742.13648
  22310925.200   117244781.97509  22310922.620    91359587.09447
  21620356.600   113616032.55709  21620353.340    88532073.10748
  23334289.020   122622571.69908  23334284.600    95550078.92746
  22491753.660   118194979.38208  22491753.620    92099993.98548
  24508850.820   128795315.72506  24508849.120   100360185.67745
  23260565.060   122235131.25808  23260562.340    95248163.31547
 15 02 26 00 22  0.0000000  0  7G16G18G21G22G27G29G31
  21342487.360   112155546.37509  21342484.220    87393927.04248
  22301736.500   117196494.71309  22301733.860    91321960.65947
  21629912.720   113666250.21709  21629909.400    88571203.74848
  23317086.160   122532170.53208  23317081.800    95479636.50546
  22480677.340   118136772.82308  22480677.200    92054638.23348
  24522766.480   128868442.52606  24522764.940   100417167.61045
  23278434.940   122329038.29708  23278432.460    95321337.59147
 15 02 26 00 22 30.0000000  0  7G16G18G21G22G27G29G31
  21330625.640   112093212.72709  21330622.520    87345355.37048
  22292616.680   117148569.74309  22292614.060    91284616.53747
  21639520.640   113716740.17209  21639517.280    88610546.56648
  23299900.340   122441858.99808  23299896.220    95409263.93446
  22469620.760   118078670.26008  22469620.440    92009363.50747
  24536683.940   128941579.13506  24536682.740   100474157.13745
  23296327.140   122423061.87508  23296324.640    95394602.67847
 15 02 26 00 23  0.0000000  0  7G16G18G21G22G27G29G31
  21318823.380   112031191.72609  21318820.300    87297027.33048
  22283565.760   117101007.12908  22283563.180    91247554.77347
  21649179.520   113767497.85509  21649176.120    88650098.01848
  23282731.820   122351637.64308  23282727.700    95338961.60446
  22458583.600   118020669.62208  22458583.120    91964168.21047
  24550602.900   129014723.63506  24550601.820   100531152.84545
  23314240.500   122517197.14108  23314237.960    95467954.79047
 15 02 26 00 23 30.0000000  0  6G16G18G21G22G27G31
  21307088.320   111969523.78509  21307085.300    87248974.39348
  22274591.420   117053846.94609  22274588.860    91210806.58847
  21658896.240   113818559.54809  21658892.800    88689886.35648
  23265588.220   122261547.50408  23265584.020    95268761.54146
  22447573.060   117962809.08608  22447572.560    91919082.08047
  23332181.880   122611479.45608  23332179.060    95541421.51146
 15 02 26 00 24  0.0000000  0  6G16G18G21G22G27G31
  21295407.620   111908141.40009  21295404.580    87201143.96748
  22265680.820   117007021.57909  22265678.200    91174319.30047
  21668657.380   113869854.50409  21668653.920    88729856.44948
  23248456.760   122171521.54208  23248452.480    95198611.47946
  22436575.940   117905019.16608  22436575.600    91874050.99248
  23350137.320   122705835.99608  23350134.420    95614946.04247
 15 02 26 00 24 30.0000000  0  6G16G18G21G22G27G31
  21283787.080   111847075.21009  21283784.060    87153559.92748
  22256839.820   116960561.64509  22256837.100    91138116.76247
  21678467.860   113921408.91109  21678464.420    88770028.72048
  23231343.520   122081590.87108  23231339.120    95128535.65146
  22425597.700   117847328.03908  22425597.460    91829096.87948
  23368111.840   122800292.42908  23368108.960    95688548.43147
 15 02 26 00 25  0.0000000  0  6G16G18G21G22G27G31
  21272228.160   111786332.74409  21272225.120    87106228.13748
  22248069.740   116914474.31709  22248066.920    91102204.57047
  21688328.460   113973226.67409  21688325.040    88810406.19648
  23214249.920   121991763.28708  23214245.600    95058540.16746
  22414639.340   117789741.24008  22414639.140    91784224.05748
  23386105.800   122894851.38208  23386103.040    95762230.69547
 15 02 26 00 25 30.0000000  0  6G16G18G21G22G27G31
  21260730.960   111725914.37409  21260727.840    87059148.88848
  22239370.680   116868760.37209  22239367.800    91066583.32647
  21698238.260   114025303.03809  21698234.940    88850985.17548
  23197176.080   121902040.14608  23197171.960    94988626.08447
  22403700.400   117732256.81408  22403700.260    91739431.01048
  23404118.280   122989507.66408  23404115.640    95835988.79347
 15 02 26 00 26  0.0000000  0  6G16G18G21G22G27G31
  21249296.680   111665826.57509  21249293.460    87012327.22848
  22230743.780   116823425.50109  22230740.820    91031257.46047
  21708197.940   114077641.46709  21708194.660    88891768.36748
  23180123.500   121812428.50408  23180119.260    94918798.86047
  22392781.740   117674879.00308  22392781.580    91694721.03148
  23422149.460   123084262.43508  23422146.980    95909823.62347
 15 02 26 00 26 30.0000000  0  7G16G18G19G21G22G27G31
  21237924.180   111606063.60509  21237920.940    86965758.68348
  22222187.780   116778463.68809  22222184.820    90996222.29747
  24547602.300   128998525.79406  24547597.320   100518312.98945
  21718205.480   114130231.25309  21718202.140    88932747.41048
  23163091.060   121722922.77208  23163086.680    94849054.15046
  22381881.860   117617599.77808  22381881.720    91650087.87648
  23440197.440   123179105.18908  23440194.940    95983727.03947
 15 02 26 00 27  0.0000000  0  7G16G18G19G21G22G27G31
  21226602.600   111546568.33809  21226599.360    86919398.73448
  22213691.860   116733817.86909  22213689.000    90961433.35947
  24532990.620   128921743.05206  24532986.800   100458482.35245
  21728249.420   114183012.37809  21728246.060    88973875.55748
  23146068.020   121633466.57908  23146063.680    94779348.06647
  22370989.460   117560360.07408  22370989.300    91605485.52148
  23458250.280   123273973.38008  23458247.660    96057650.26646
 15 02 26 00 27 30.0000000  0  7G16G18G19G21G22G27G31
  21215361.020   111487493.61209  21215357.840    86873366.49048
  22205285.080   116689640.47009  22205282.300    90927009.43047
  24518409.680   128845119.73506  24518406.100   100398775.91445
  21738357.860   114236132.59609  21738354.500    89015267.93748
  23129083.540   121544212.78408  23129079.220    94709799.69746
  22360133.240   117503310.22908  22360132.980    91561031.11148
  23476336.200   123369014.72008  23476333.400    96131708.42647
 15 02 26 00 28  0.0000000  0  7G16G18G19G21G22G27G31
  21204180.220   111428738.16409  21204177.060    86827583.02248
  22196948.180   116645830.08209  22196945.420    90892871.47447
  24503839.520   128768552.66506  24503835.880   100339113.26645
  21748510.940   114289487.49109  21748507.560    89056843.17848
  23112118.620   121455061.46208  23112114.340    94640331.14347
  22349293.560   117446347.20608  22349293.300    91516644.34748
  23494434.860   123464123.30208  23494432.140    96205818.95446
 15 02 26 00 28 30.0000000  0  7G16G18G19G21G22G27G31
  21193062.800   111370315.81709  21193059.660    86782059.11549
  22188683.700   116602400.08109  22188681.000    90859029.92147
  24489282.280   128692053.39506  24489278.540   100279503.43545
  21758710.460   114343086.39109  21758707.080    89098608.55948
  23095175.860   121366026.73808  23095171.600    94570953.47746
  22338472.580   117389482.38808  22338472.340    91472334.11048
  23512547.920   123559307.36008  23512545.140    96279988.30747
 15 02 26 00 29  0.0000000  0  7G16G18G19G21G22G27G31
  21182010.360   111312234.98909  21182007.260    86736801.33649
  22180493.160   116559358.81009  22180490.440    90825491.27847
  24474739.140   128615628.18707  24474735.340   100219951.36444
  21768957.220   114396933.47109  21768953.820    89140567.32048
  23078257.000   121277117.45008  23078252.760    94501673.54946
  22327671.480   117332722.10108  22327671.180    91428105.32148
  23530676.040   123654570.30408  23530673.180    96354219.14647
 15 02 26 00 29 30.0000000  0  7G16G18G19G21G22G27G31
  21171023.180   111254496.95309  21171020.120    86691810.65449
  22172376.780   116516707.31309  22172374.120    90792256.36047
  24460209.760   128539275.61406  24460206.040   100160455.89045
  21779250.580   114451025.56609  21779247.160    89182717.00348
  23061362.420   121188335.54408  23061357.980    94432492.86447
  22316890.040   117276065.37508  22316889.720    91383957.23748
  23548818.320   123749908.30908  23548815.600    96428508.43247
 15 02 26 00 30  0.0000000  0  7G16G18G19G21G22G27G31
  21160101.240   111197101.71809  21160098.200    86647087.10149
  22164334.540   116474445.18009  22164331.940    90759324.83647
  24445693.840   128462993.70906  24445689.980   100101015.45845
  21789590.040   114505359.76609  21789586.640    89225055.34548
  23044492.020   121099681.26208  23044487.480    94363411.64647
  22306127.900   117219510.13708  22306127.580    91339888.23948
  23566973.920   123845316.18108  23566971.040    96502852.19046
 15 02 26 00 30 30.0000000  0  7G16G18G19G21G22G27G31
  21149245.740   111140055.73109  21149242.700    86602635.68449
  22156367.620   116432578.65409  22156365.000    90726701.58547
  24431192.160   128386786.88706  24431188.300   100041633.56045
  21799975.960   114559938.18609  21799972.600    89267583.98148
  23027647.260   121011161.82108  23027642.800    94294435.48547
  22295385.940   117163060.86908  22295385.620    91295901.80348
  23585143.100   123940795.18608  23585140.060    96577251.39246
 15 02 26 00 31  0.0000000  0  7G16G18G19G21G22G27G31
  21138456.480   111083357.83409  21138453.420    86558455.50349
  22148475.620   116391105.81209  22148472.900    90694385.09347
  24416704.100   128310651.69106  24416700.200    99982307.47845
  21810407.320   114614755.33509  21810403.960    89310298.63648
  23010828.140   120922776.84308  23010823.840    94225564.10247
  22284663.500   117106714.18708  22284663.240    91251995.31448
  23603324.640   124036339.57108  23603321.680    96651701.48947
 15 02 26 00 31 30.0000000  0  7G16G18G19G21G22G27G31
  21127734.700   111027014.54409  21127731.640    86514551.64348
  22140659.800   116350033.17709  22140656.900    90662380.45747
  24402230.240   128234591.79506  24402226.520    99923040.05145
  21820884.560   114669813.79909  21820881.220    89353201.34048
  22994035.940   120834533.10808  22994031.760    94156802.78947
  22273961.380   117050474.24808  22273961.180    91208172.00748
  23621518.820   124131950.31208  23621515.880    96726203.32846
 15 02 26 00 32  0.0000000  0  7G16G18G19G21G22G27G31
  21117080.420   110971025.99909  21117077.360    86470924.20748
  22132920.120   116309360.71609  22132917.140    90630687.64747
  24387770.420   128158605.61906  24387766.980    99863830.09146
  21831406.980   114725109.58709  21831403.680    89396288.96548
  22977270.680   120746431.28808  22977266.300    94088152.04747
  22263279.220   116994339.20308  22263279.060    91164430.41648
  23639724.700   124227622.44708  23639721.640    96800753.00946
 15 02 26 00 32 30.0000000  0  7G16G18G19G21G22G27G31
  21106493.040   110915388.92309  21106489.920    86427570.64749
  22125255.920   116269084.72909  22125252.860    90599303.76947
  24373323.760   128082688.07106  24373320.400    99804673.58345
  21841973.220   114780635.69209  21841969.960    89439556.05848
  22960532.080   120658469.34808  22960527.580    94019610.29447
  22252616.040   116938303.85308  22252615.860    91120766.52348
  23657940.680   124323348.02408  23657937.520    96875344.30646
 15 02 26 00 33  0.0000000  0  7G16G18G19G21G22G27G31
  21095974.620   110860114.37609  21095971.480    86384499.56849
  22117669.100   116229215.45609  22117666.020    90568236.80447
  24358891.740   128006847.52007  24358888.280    99745577.08344
  21852584.660   114836399.12809  21852581.420    89483008.08248
  22943822.180   120570658.14208  22943817.760    93951186.00447
  22241973.500   116882376.91708  22241973.220    91077187.09748
  23676167.900   124419132.61408  23676164.900    96949981.58146
 15 02 26 00 33 30.0000000  0  7G16G18G19G21G22G27G31
  21085524.240   110805197.35309  21085521.100    86341707.08449
  22110158.800   116189748.34509  22110155.740    90537483.22047
  24344473.000   127931076.78506  24344469.580    99686534.98445
  21863239.540   114892390.79009  21863236.320    89526637.94848
  22927140.160   120482993.60808  22927135.760    93882876.01347
  22231350.280   116826551.67208  22231350.020    91033686.92048
  23694404.500   124514966.41008  23694401.380    97024657.22146
 15 02 26 00 34  0.0000000  0  7G16G18G19G21G22G27G31
  21075142.720   110750642.09509  21075139.580    86299196.49149
  22102725.620   116150686.74109  22102722.720    90507045.61548
  24330067.920   127855377.66006  24330064.280    99627548.66545
  21873937.820   114948610.67009  21873934.660    89570445.63948
  22910486.900   120395480.32308  22910482.460    93814683.86747
  22220746.760   116770829.93008  22220746.540    90990267.39548
  23712650.260   124610848.58108  23712647.180    97099370.52846
 15 02 26 00 34 30.0000000  0  7G16G18G19G21G22G27G31
  21064831.320   110696455.23009  21064828.180    86256972.96449
  22095370.700   116112036.40209  22095367.980    90476928.47547
  24315677.180   127779754.02906  24315673.400    99568621.18945
  21884680.020   115005061.38309  21884676.920    89614433.21148
  22893863.720   120308124.97808  22893859.400    93746614.79747
  22210163.820   116715216.13608  22210163.560    90946931.98648
  23730905.540   124706780.08108  23730902.360    97174122.31546
 15 02 26 00 35  0.0000000  0  7G16G18G19G21G22G27G31
  21054589.760   110642635.42709  21054586.660    86215035.45649
  22088093.840   116073796.33409  22088091.180    90447131.03047
  24301300.340   127704203.32506  24301296.760    99509750.54945
  21895465.320   115061738.58309  21895462.220    89658597.25748
  22877270.580   120220927.68008  22877266.300    93678668.86647
  22199600.860   116659707.10208  22199600.520    90903678.19548
  23749169.120   124802754.97508  23749165.960    97248907.89246
 15 02 26 00 35 30.0000000  0  7G16G18G19G21G22G27G31
  21044417.920   110589182.04209  21044414.880    86173383.46949
  22080894.740   116035965.02609  22080892.100    90417652.09547
  24286936.960   127628722.78906  24286933.260    99450934.55946
  21906292.720   115118637.09609  21906289.640    89702933.76148
  22860707.520   120133888.51508  22860703.260    93610846.17247
  22189057.240   116604300.12308  22189056.880    90860503.94248
  23767439.880   124898768.20408  23767436.860    97323723.31946
 15 02 26 00 36  0.0000000  0  7G16G18G19G21G22G27G31
  21034316.540   110536098.75009  21034313.480    86132019.86949
  22073774.140   115998546.17309  22073771.520    90388494.55547
  24272587.220   127553313.85706  24272583.340    99392174.39046
  21917162.060   115175756.09909  21917158.980    89747442.07348
  22844175.320   120047011.32508  22844171.040    93543149.68947
  22178533.320   116548996.75008  22178533.020    90817410.42148
  23785717.500   124994817.78708  23785714.780    97398567.06646
 15 02 26 00 36 30.0000000  0  7G16G18G19G21G22G27G31
  21024286.540   110483390.77109  21024283.500    86090948.72149
  22066732.900   115961544.46409  22066730.360    90359662.06847
  24258251.620   127477979.47907  24258247.760    99333472.29846
  21928073.640   115233097.02109  21928070.560    89792123.31348
  22827675.180   119960302.09708  22827670.760    93475584.07147
  22168029.740   116493800.35908  22168029.500    90774400.25848
  23804002.000   125090903.71708  23803999.300    97473439.15846
 15 02 26 00 37  0.0000000  0  7G16G18G19G21G22G27G31
  21014328.220   110431059.43609  21014325.220    86050171.05349
  22059771.060   115924960.28209  22059768.600    90331154.91447
