     2.11           OBSERVATION DATA    G                   RINEX VERSION / TYPE
SPIDER V4,0,0,3554                      2015 03 16 01:08    PGM / RUN BY / DATE 
AKET                                                        MARKER NAME         
AKET                                                        MARKER NUMBER       
                                                            OBSERVER / AGENCY   
496661              LEICA GRX1200+GNSS  8.20/4.007          REC # / TYPE / VERS 
10271023            LEIAR25         NONE                    ANT # / TYPE        
  5151584.4739   350346.6892  3733756.9574                  APPROX POSITION XYZ 
        0.0480        0.0000        0.0000                  ANTENNA: DELTA H/E/N
     1     1                                                WAVELENGTH FACT L1/2
     4    C1    L1    P2    L2                              # / TYPES OF OBSERV 
    30.000                                                  INTERVAL            
  2015    02    26    00    00    0.0000000     GPS         TIME OF FIRST OBS   
  2015    02    26    20    59   30.0000000     GPS         TIME OF LAST OBS    
    16                                                      LEAP SECONDS        
    29                                                      # OF SATELLITES     
   G 1   125   125   125   125                              PRN / # OF OBS      
   G 2   780   780   778   778                              PRN / # OF OBS      
   G 3   322   322   322   322                              PRN / # OF OBS      
   G 4     5     5     2     2                              PRN / # OF OBS      
   G 5   595   595   591   591                              PRN / # OF OBS      
   G 6   672   672   670   670                              PRN / # OF OBS      
   G 7   575   575   575   575                              PRN / # OF OBS      
   G 9   619   619   619   619                              PRN / # OF OBS      
   G10   688   688   688   688                              PRN / # OF OBS      
   G11     9     9     9     9                              PRN / # OF OBS      
   G12   639   639   639   639                              PRN / # OF OBS      
   G13   758   758   752   752                              PRN / # OF OBS      
   G14   376   376   376   376                              PRN / # OF OBS      
   G15   650   650   647   647                              PRN / # OF OBS      
   G16     1     1     1     1                              PRN / # OF OBS      
   G17   586   585   584   584                              PRN / # OF OBS      
   G18   353   353   353   353                              PRN / # OF OBS      
   G20   633   633   630   630                              PRN / # OF OBS      
   G21     1     1     1     1                              PRN / # OF OBS      
   G22    97    97    97    97                              PRN / # OF OBS      
   G23   434   434   434   434                              PRN / # OF OBS      
   G24   773   773   772   772                              PRN / # OF OBS      
   G25   487   487   487   487                              PRN / # OF OBS      
   G27     1     1     1     1                              PRN / # OF OBS      
   G28   520   520   520   520                              PRN / # OF OBS      
   G29   283   283   283   283                              PRN / # OF OBS      
   G30   625   625   625   625                              PRN / # OF OBS      
   G31   179   179   179   179                              PRN / # OF OBS      
   G32    72    72    72    72                              PRN / # OF OBS      
BIT 2 OF LLI FLAGS DATA COLLECTED UNDER A/S CONDITION       COMMENT             
SNR is mapped to RINEX snr flag value [2-9]                 COMMENT             
Lx:     = 25dBHz -> 1; 26-27dBHz -> 2; 28-31dBHz -> 3       COMMENT             
       32-35dBHz -> 4; 36-38dBHz -> 5; 39-41dBHz -> 6       COMMENT             
       42-44dBHz -> 7; 45-48dBHz -> 8; >=49dBHz -> 9        COMMENT             
                                                            END OF HEADER       
 15 02 26 00 00  0.0000000  0  6G16G18G21G27G29G31
  21836698.640   114752632.56709  21836693.960    89417626.88547
  22838732.420   120018356.47608  22838728.800    93520779.73845
  21199030.720   111401659.14508  21199025.520    86806472.34148
  23007764.700   120906639.77208  23007764.180    94212966.02847
  23781364.540   124971899.03808  23781362.240    97380682.47246
  22701172.260   119295460.60409  22701168.920    92957480.86148
 15 02 26 07 57 30.0000000  0 11G01G03G04G06G09G11G17G20G23G31G32
  21484343.380   112900985.94509  21484344.400    87974799.40048
  20865870.020   109650885.92609  20865869.860    85442248.50348
  23907321.460   125633822.85605  23907328.060    97896476.45543
  23515478.420   123574672.66108  23515480.540    96291962.31546
  21466810.760   112808851.82809  21466811.220    87903001.42648
  23262184.080   122243601.92307  23262182.780    95254748.19745
  21911059.600   115143395.32309  21911058.180    89722121.35148
  23248544.600   122171926.45308  23248542.220    95198891.00246
  20515234.420   107808284.36009  20515229.660    84006435.14248
  24455968.440   128516979.62308  24455967.880   100143097.14245
  23979080.360   126010917.70608  23979080.340    98190324.24945
 15 02 26 07 58  0.0000000  0 11G01G03G04G06G09G11G17G20G23G31G32
  21496808.660   112966491.44409  21496809.520    88025842.54248
  20871375.040   109679814.79909  20871374.920    85464790.42348
  23926166.920   125732854.83504  23926168.860    97973657.31341
  23497102.040   123478104.40008  23497104.180    96216714.26047
  21453043.260   112736502.43309  21453043.560    87846625.24248
  23282280.660   122349210.06907  23282279.480    95337040.11045
  21913208.980   115154690.99809  21913207.480    89730923.10048
  23234209.700   122096596.01308  23234207.340    95140191.92446
  20512190.040   107792286.27709  20512185.320    83993969.07049
  24465225.700   128565626.71908  24465225.000   100181003.83245
  23994028.820   126089472.49608  23994028.640    98251535.63046
 15 02 26 07 58 30.0000000  0 11G01G03G04G06G09G11G17G20G23G31G32
  21509341.200   113032350.16509  21509342.000    88077160.94448
  20876912.240   109708913.20209  20876912.220    85487464.44648
  23945040.560   125832035.89404                                
  23478740.720   123381615.05708  23478742.800    96141527.71846
  21439348.200   112664533.98209  21439348.360    87790545.91148
  23302407.600   122454977.44807  23302406.500    95419456.09844
  21915463.680   115166540.11809  21915462.280    89740156.11748
  23219889.020   122021340.04508  23219886.480    95081550.89645
  20509232.840   107776746.05709  20509228.140    83981859.76748
  24474573.480   128614749.74808  24474572.720   100219281.35745
  24008974.240   126168011.34508  24008974.140    98312734.58446
 15 02 26 07 59  0.0000000  0 12G01G03G04G06G09G10G11G17G20G23G31G32
  21521945.080   113098584.19909  21521945.940    88128771.78548
  20882485.900   109738203.75109  20882486.140    85510288.17448
  23963946.520   125931387.02204                                
  23460399.140   123285229.51708  23460400.900    96066422.06346
  21425730.220   112592970.59909  21425730.200    87734782.20348
  24398347.160   128214164.04808  24398345.420    99907150.14944
  23322568.840   122560924.83307  23322567.580    95502012.38344
  21917828.060   115178964.88509  21917826.620    89749837.69648
  23205586.700   121946181.42408  23205584.260    95022985.73546
  20506366.940   107761685.78809  20506362.200    83970124.46348
  24484015.820   128664370.11308  24484015.360   100257946.43746
  24023920.980   126246556.85508  24023920.980    98373938.72546
 15 02 26 07 59 30.0000000  0 12G01G03G04G06G09G10G11G17G20G23G31G32
  21534618.000   113165181.24209  21534619.020    88180665.49748
  20888094.020   109767674.64909  20888094.400    85533252.45948
  23982882.560   126030895.76403                                
  23442075.480   123188938.28308  23442076.840    95991389.91346
  21412187.400   112521802.04009  21412187.340    87679326.15248
  24382078.820   128128672.88508  24382078.140    99840533.69545
  23342761.740   122667038.39506  23342760.420    95584698.10444
  21920299.840   115191953.02009  21920298.320    89759958.26648
  23191300.800   121871109.02608  23191298.320    94964487.74546
  20503590.180   107747093.76609  20503585.360    83958754.02448
  24493550.540   128714474.59508  24493549.840   100296988.82445
  24038866.680   126325097.18508  24038866.880    98435138.81146
 15 02 26 08 00  0.0000000  0 11G01G03G06G09G10G11G17G20G23G31G32
  21547362.120   113232152.68309  21547363.400    88232850.94648
  20893738.760   109797337.71909  20893739.100    85556366.47648
  23423772.500   123092755.77908  23423773.580    95916442.46846
  21398722.140   112451041.72809  21398722.220    87624188.23948
  24365826.400   128043265.51308  24365825.380    99773982.35245
  23362988.220   122773328.51306  23362986.780    95667521.47642
  21922881.040   115205516.06709  21922879.320    89770526.80448
  23177033.620   121796135.12208  23177031.160    94906066.48945
  20500904.780   107732981.82209  20500899.820    83947757.67848
  24503179.360   128765074.34408  24503179.200   100336417.05446
  24053813.660   126403644.25608  24053813.880    98496344.15946
 15 02 26 08 00 30.0000000  0 11G01G03G06G09G10G11G17G20G23G31G32
  21560176.480   113299492.71309  21560177.900    88285323.61448
  20899419.040   109827187.64209  20899419.260    85579626.10748
  23405489.700   122996678.90308  23405490.780    95841577.36846
  21385333.820   112380685.82909  21385333.880    87569365.43848
  24349588.540   127957937.27105  24349588.200    99707492.90645
  23383246.880   122879787.87806  23383245.260    95750476.69244
  21925570.440   115219647.68209  21925568.440    89781538.40548
  23162784.120   121721254.94408  23162781.760    94847718.29645
  20498309.660   107719344.49009  20498304.620    83937131.16748
  24512901.260   128816162.54508  24512901.160   100376225.94846
  24068761.040   126482192.74208  24068761.120    98557550.63445
 15 02 26 08 01  0.0000000  0 11G01G03G06G09G10G11G17G20G23G31G32
  21573061.720   113367205.36109  21573063.240    88338086.63448
  20905135.680   109857229.02709  20905135.900    85603034.92248
  23387228.340   122900714.68008  23387229.520    95766800.00846
  21372023.720   112310740.51909  21372023.720    87514862.58448
  24333366.560   127872693.13607  24333366.740    99641068.97043
  23403538.820   122986425.48605  23403537.120    95833568.09844
  21928368.820   115234352.25709  21928366.600    89792996.46448
  23148553.660   121646474.18708  23148551.160    94789447.51945
  20495805.860   107706186.57509  20495800.740    83926878.23048
  24522717.180   128867742.70508  24522716.760   100416418.22946
  24083709.620   126560747.20408  24083709.720    98618761.77646
 15 02 26 08 01 30.0000000  0 11G01G03G06G09G10G11G17G20G23G31G32
  21586011.500   113435256.74309  21586013.080    88391113.61448
  20910882.360   109887428.55409  20910882.740    85626566.97248
  23368982.400   122804832.03108  23368983.780    95692086.27447
  21358785.600   112241173.88409  21358785.660    87460654.81749
  24317154.300   127787500.21207  24317154.760    99574684.82444
  23423855.680   123093195.92705  23423855.820    95916773.14442
  21931269.660   115249595.59909  21931267.260    89804874.33948
  23134335.740   121571759.38008  23134333.180    94731228.17546
  20493386.880   107693474.50809  20493381.640    83916972.70848
  24532620.020   128919780.45708  24532619.260   100456966.96945
  24098653.000   126639274.29408  24098652.960    98679951.58445
 15 02 26 08 02  0.0000000  0 10G01G03G06G09G10G17G20G23G31G32
  21599033.040   113503685.01909  21599034.640    88444434.28348
  20916666.600   109917824.98009  20916667.120    85650252.45548
  23350759.820   122709072.20708  23350761.420    95617468.23447
  21345627.160   112172026.03009  21345627.180    87406773.37448
  24300959.880   127702398.23107  24300960.580    99508371.55344
  21934280.220   115265415.81709  21934277.800    89817201.72548
  23120137.800   121497150.01608  23120135.480    94673091.03646
  20491060.100   107681246.89209  20491054.840    83907444.68749
  24542616.920   128972313.16008  24542615.520   100497901.50646
  24113598.540   126717812.82308  24113598.560    98741150.32645
 15 02 26 08 02 30.0000000  0 10G01G03G06G09G10G17G20G23G31G32
  21612124.720   113572481.70809  21612126.180    88498042.03948
  20922486.800   109948410.35609  20922487.380    85674085.17548
  23332559.580   122613429.65808  23332561.480    95542941.56647
  21332547.180   112103290.59409  21332547.200    87353213.30348
  24284780.760   127617379.14606  24284782.340    99442123.12644
  21937398.900   115281804.30009  21937396.480    89829971.92248
  23105958.480   121422638.44708  23105956.260    94615030.09445
  20488823.980   107669495.43909  20488818.640    83898287.69948
  24552706.000   129025331.60708  24552704.460   100539214.48945
  24128544.780   126796354.95108  24128544.700    98802351.84945
 15 02 26 08 03  0.0000000  0 10G01G03G06G09G10G17G20G23G31G32
  21625284.220   113641634.59609  21625285.600    88551927.35748
  20928340.720   109979173.12109  20928341.340    85698056.11748
  23314379.920   122517895.22008  23314382.260    95468499.13747
  21319543.740   112034957.40509  21319543.780    87299966.67648
  24268616.100   127532432.59508  24268617.420    99375930.95644
  21940623.320   115298748.57809  21940620.860    89843175.20748
  23091795.740   121348213.77608  23091793.500    94557036.80746
  20486676.240   107658208.70309  20486670.840    83889492.83449
  24562884.980   129078822.89708  24562884.100   100580895.91046
  24143489.500   126874889.08008  24143489.520    98863547.16545
 15 02 26 08 03 30.0000000  0 10G01G03G06G09G10G17G20G23G31G32
  21638512.260   113711147.85509  21638513.660    88606093.46248
  20934229.200   110010118.01509  20934229.900    85722168.96648
  23296222.220   122422476.00508  23296224.760    95394146.49547
  21306617.980   111967032.60109  21306618.020    87247038.27448
  24252465.780   127447563.30506  24252466.880    99309799.13344
  21943954.240   115316252.89409  21943951.620    89856814.87848
  23077650.460   121273881.32608  23077648.360    94499115.44846
  20484617.800   107647391.35709  20484612.340    83881063.71749
  24573154.680   129132790.69708  24573153.980   100622948.66846
  24158433.480   126953420.01008  24158433.720    98924739.97046
 15 02 26 08 04  0.0000000  0 10G01G03G06G09G10G17G20G23G31G32
  21651808.880   113781021.89209  21651810.280    88660540.69748
  20940152.620   110041246.13309  20940153.380    85746424.60248
  23278087.160   122327175.46608  23278089.640    95319886.34147
  21293770.360   111899518.62809  21293770.440    87194430.00348
  24236331.260   127362773.33708  24236331.340    99243728.80344
  21947391.760   115334317.44309  21947389.060    89870891.12048
  23063523.180   121199642.53608  23063521.420    94441267.06345
  20482648.640   107637043.73509  20482643.240    83873000.62649
  24583515.240   129187234.59408  24583514.780   100665372.43246
  24173376.900   127031948.78208  24173377.600    98985931.08846
 15 02 26 08 04 30.0000000  0 10G01G03G06G09G10G17G20G23G31G32
  21665173.880   113851255.30709  21665175.240    88715267.97648
  20946110.940   110072556.66509  20946111.600    85770822.37648
  23259975.020   122231995.18408  23259977.400    95245719.89847
  21281001.100   111832416.08609  21281001.240    87142142.33748
  24220211.280   127278061.82108  24220210.900    99177719.95242
  21950935.540   115352940.50109  21950932.880    89885402.54048
  23049413.980   121125497.40408  23049411.940    94383491.57046
  20480768.720   107627165.14609  20480763.400    83865303.01248
  24593966.140   129242152.53908  24593965.080   100708165.58045
  24188319.680   127110474.58507  24188320.900    99047119.84946
 15 02 26 08 05  0.0000000  0 10G01G03G06G09G10G17G20G23G31G32
  21678606.440   113921843.57109  21678607.720    88770271.76948
  20952103.300   110104045.78809  20952103.820    85795359.32348
  23241885.480   122136933.82308  23241887.680    95171646.11446
  21268309.680   111765722.49009  21268309.840    87090173.33648
  24204106.080   127193426.00607  24204105.880    99111769.83246
  21954584.780   115372117.35509  21954582.300    89900345.50848
  23035321.920   121051442.26708  23035319.580    94325786.26646
  20478977.180   107617751.31209  20478971.980    83857967.54749
  24604505.880   129297539.29608  24604505.180   100751324.00946
  24203261.300   127188993.75908  24203262.820    99108303.47046
 15 02 26 08 05 30.0000000  0 10G01G03G06G09G10G17G20G23G31G32
  21692107.940   113992794.30609  21692109.220    88825558.00948
  20958131.200   110135721.84409  20958131.620    85820041.92048
  23223820.600   122042002.07008  23223822.600    95097673.33447
  21255697.880   111699447.44009  21255698.040    87038530.47748
  24188016.260   127108873.90408  24188015.800    99045885.22944
  21958340.840   115391855.43409  21958338.560    89915725.78848
  23021248.700   120977485.99608  23021246.260    94268158.00146
  20477275.740   107608810.36909  20477270.560    83851000.56049
  24615136.160   129353401.69808  24615134.840   100794853.15145
  24218203.400   127267514.53608  24218204.940    99169488.37046
 15 02 26 08 06  0.0000000  0 10G01G03G06G09G10G17G20G23G31G32
  21705676.580   114064097.93209  21705677.860    88881119.22448
  20964192.900   110167575.92509  20964193.340    85844863.23948
  23205779.200   121947193.38708  23205780.920    95023796.45446
  21243164.260   111633583.38309  21243164.480    86987207.86948
  24171941.080   127024397.68207  24171940.140    98980059.42146
  21962201.840   115412145.02109  21962199.820    89931535.79948
  23007192.820   120903620.73608  23007190.120    94210600.62146
  20475662.580   107600333.23409  20475657.400    83844394.98048
  24625854.780   129409729.40308  24625853.700   100838744.80446
  24233144.220   127346028.01408  24233145.600    99230667.57645
 15 02 26 08 06 30.0000000  0 10G01G03G06G09G10G17G20G23G31G32
  21719312.660   114135755.85609  21719314.000    88936956.52048
  20970288.940   110199610.18509  20970289.320    85869824.96748
  23187762.060   121852512.30908  23187763.600    94950018.99547
  21230709.660   111568133.75209  21230709.860    86936208.18849
  24155880.780   126939999.85308  24155880.180    98914295.00344
  21966168.100   115432987.53709  21966166.120    89947776.68448
  22993154.440   120829848.58008  22993151.900    94153115.85746
  20474138.120   107592321.70909  20474132.880    83838152.21149
  24636662.420   129466523.34908  24636661.380   100882999.75545
  24248084.100   127424536.38908  24248085.400    99291842.83145
 15 02 26 08 07  0.0000000  0 10G01G03G06G09G10G17G20G23G31G32
  21733016.920   114207772.44109  21733018.380    88993073.28048
  20976420.300   110231829.64009  20976420.540    85894931.00048
  23169770.540   121757966.33608  23169772.020    94876346.82747
  21218335.160   111503104.83309  21218335.300    86885536.33549
  24139835.940   126855685.84307  24139835.700    98848595.75145
  21970240.140   115454386.81709  21970238.460    89964451.38648
  22979134.720   120756175.44508  22979132.420    94095708.23946
  20472703.140   107584780.56309  20472697.920    83832275.98849
  24647559.500   129523787.11608  24647558.900   100927620.80846
  24263023.900   127503044.74508  24263025.100    99353018.04945
 15 02 26 08 07 30.0000000  0 10G01G03G06G09G10G17G20G23G31G32
  21746787.260   114280136.29009  21746788.840    89049460.63948
  20982584.920   110264223.74109  20982584.960    85920173.12048
  23151803.100   121663547.43708  23151804.660    94802773.68647
  21206038.940   111438487.22709  21206038.920    86835184.98549
  24123805.720   126771446.00407  24123805.800    98782954.26246
  21974415.940   115476331.04609  21974414.340    89981550.73448
  22965131.800   120682590.83908  22965129.660    94038369.63646
  20471355.580   107577698.75109  20471350.380    83826757.67949
  24658543.500   129581508.46508  24658542.920   100972598.46646
  24277961.640   127581542.51308  24277962.720    99414185.03046
 15 02 26 08 08  0.0000000  0  9G01G03G06G09G10G17G20G23G32
  21760625.520   114352857.05009  21760627.220    89106126.10548
  20988784.680   110296802.91409  20988784.540    85945559.44548
  23133862.240   121569268.25408  23133864.040    94729309.36747
  21193823.220   111374292.72009  21193823.180    86785163.31048
  24107791.580   126687290.78108  24107791.360    98717378.73144
  21978697.240   115498829.74509  21978695.780    89999082.13048
  22951147.900   120609106.06508  22951146.040    93981108.82746
  20470097.280   107571086.12709  20470092.100    83821604.97149
  24292899.180   127660040.18608  24292900.300    99475351.91046
 15 02 26 08 08 30.0000000  0  9G01G03G06G09G10G17G20G23G32
  21774530.300   114425926.99409  21774532.000    89163063.67248
  20995018.200   110329560.17309  20995018.020    85971084.54948
  23115947.180   121475124.25708  23115949.040    94655950.41647
  21181686.840   111310515.43709  21181686.840    86735466.75448
  24091792.320   126603213.97007  24091792.060    98651864.30645
  21983082.780   115521875.16709  21983081.100    90017039.56748
  22937181.800   120535714.38908  22937179.980    93923920.52346
  20468926.940   107564935.74109  20468921.740    83816812.45649
  24307835.400   127738530.74108  24307836.560    99536513.25145
 15 02 26 08 09  0.0000000  0  9G01G03G06G09G10G17G20G23G32
  21788502.060   114499349.25609  21788503.840    89220275.76348
  21001286.260   110362499.42109  21001286.220    85996751.45948
  23098059.260   121381121.90708  23098061.080    94582701.83347
  21169630.780   111247160.50009  21169630.720    86686099.28848
  24075808.700   126519219.82208  24075808.040    98586414.29445
  21987572.880   115545469.62709  21987570.840    90035424.84048
  22923234.440   120462420.28708  22923232.580    93866808.27846
  20467845.180   107559250.83109  20467839.880    83812382.64149
  24322771.120   127817018.18208  24322772.260    99597672.16546
 15 02 26 08 09 30.0000000  0  9G01G03G06G09G10G17G20G23G32
  21802538.920   114573113.88209  21802540.880    89277754.62948
  21007587.160   110395611.55709  21007587.400    86022553.07448
  23080197.060   121287254.39808  23080198.740    94509558.32647
  21157653.500   111184219.99509  21157653.440    86637054.75448
  24059839.360   126435299.75608  24059839.260    98521022.15844
  21992165.480   115569603.15109  21992163.300    90054230.13948
  22909304.220   120389215.32008  22909302.080    93809765.45346
  20466850.200   107554022.16009  20466844.940    83808308.34849
  24337704.620   127895493.36608  24337705.760    99658821.54045
 15 02 26 08 10  0.0000000  0  9G01G03G06G09G10G17G20G23G32
  21816642.580   114647229.22309  21816644.640    89335506.76748
  21013922.740   110428905.77709  21013923.120    86048496.57948
  23062362.780   121193533.40508  23062364.320    94436529.00547
  21145757.020   111121704.15409  21145757.020    86588341.11648
  24043885.820   126351463.19908  24043885.400    98455694.96244
  21996862.100   115594283.78009  21996859.700    90073461.77948
  22895392.740   120316109.07708  22895390.500    93752799.59646
  20465943.480   107549257.93709  20465938.360    83804595.95749
  24352637.600   127973965.58108  24352638.600    99719968.60845
 15 02 26 08 10 30.0000000  0  9G01G03G06G09G10G17G20G23G32
  21830811.720   114721688.27209  21830813.720    89393526.75548
  21020291.820   110462375.95209  21020292.280    86074577.18848
  23044555.540   121099955.21208  23044556.980    94363610.93547
  21133940.400   111059608.16409  21133940.440    86539954.63248
  24027947.280   126267704.93607  24027946.920    98390428.81844
  22001661.240   115619504.32208  22001659.020    90093114.11948
  22881498.940   120243095.82408  22881496.480    93695906.18346
  20465123.940   107544951.89209  20465119.020    83801240.58949
  24367568.800   128052428.66808  24367569.660    99781108.57445
 15 02 26 08 11  0.0000000  0  9G01G03G06G09G10G17G20G23G32
  21845047.380   114796497.17309  21845049.400    89451819.32548
  21026695.820   110496029.06309  21026696.280    86100800.35448
  23026777.140   121006529.25808  23026778.560    94290811.49847
  21122205.280   110997940.01009  21122205.260    86491901.52348
  24012025.160   126184032.19808  24012023.840    98325229.29444
  22006564.000   115645270.19908  22006562.300    90113191.37348
  22867624.300   120170183.08708  22867621.680    93639091.08646
  20464392.800   107541110.13009  20464387.920    83798246.99449
  24382499.520   128130889.54808  24382500.160    99842246.81545
 15 02 26 08 11 30.0000000  0  9G01G03G06G09G10G17G20G23G32
  21859349.420   114871654.54909  21859351.440    89510383.45248
  21033134.560   110529864.59109  21033135.060    86127165.67448
  23009027.900   120913257.46708  23009029.420    94218132.19447
  21110551.700   110936700.31509  21110551.680    86444182.29148
  23996118.960   126100444.85507  23996117.880    98260096.45145
  22011570.500   115671580.29109  22011569.080    90133692.71448
  22853768.680   120097370.52708  22853765.880    93582354.04546
  20463749.960   107537731.95209  20463745.120    83795614.64949
  24397429.660   128209347.81908  24397430.240    99903383.03045
 15 02 26 08 12  0.0000000  0  9G01G03G06G09G10G17G20G23G32
  21873715.980   114947150.71909  21873717.920    89569211.58148
  21039606.320   110563873.83309  21039606.860    86153666.35448
  22991306.760   120820133.53308  22991308.460    94145568.09747
  21098978.300   110875881.45609  21098978.240    86396790.96048
  23980227.520   126016934.87208  23980226.280    98195023.75144
  22016678.660   115698424.06609  22016677.360    90154609.90548
  22839930.560   120024650.45508  22839927.700    93525689.08246
  20463193.700   107534808.33909  20463188.780    83793336.50949
  24412357.580   128287794.84908  24412358.380    99964510.42445
 15 02 26 08 12 30.0000000  0  9G01G03G06G09G10G17G20G23G32
  21888147.840   115022990.30809  21888149.740    89628307.29148
  21046112.040   110598062.24209  21046112.700    86180306.63648
  22973615.340   120727165.39208  22973617.120    94073125.39647
  21087486.200   110815489.83709  21087486.080    86349732.56248
  23964351.820   125933507.90407  23964350.740    98130015.77245
  22021889.440   115725805.94909  22021887.960    90175946.39148
  22826111.160   119952028.62209  22826108.080    93469100.63846
  20462724.880   107532343.89009  20462719.800    83791416.14149
  24427284.420   128366236.04308  24427285.360   100025633.30845
 15 02 26 08 13  0.0000000  0  9G01G03G06G09G10G17G20G23G32
  21902645.460   115099175.47109  21902647.340    89687672.28848
  21052652.400   110632432.99109  21052653.240    86207089.01148
  22955954.740   120634358.59908  22955956.680    94000808.44347
  21076076.180   110755529.74309  21076076.040    86303010.41748
  23948492.100   125850167.42208  23948491.320    98065075.27744
  22027203.060   115753727.59209  22027201.280    90197703.49748
  22812311.020   119879508.60408  22812307.760    93412591.54646
  20462343.860   107530340.84709  20462338.580    83789855.31649
  24442210.720   128444674.59508  24442211.980   100086754.14246
 15 02 26 08 13 30.0000000  0  9G01G03G06G09G10G17G20G23G32
  21917207.580   115175699.46309  21917209.420    89747301.30548
  21059226.340   110666980.24309  21059227.420    86234008.91348
  22938324.320   120541709.79408  22938326.320    93928614.55847
  21064747.380   110695996.28209  21064747.200    86256620.71548
  23932647.960   125766908.20108  23932648.020    98000198.13845
  22032618.020   115782182.01909  22032616.000    90219875.74048
  22798529.260   119807085.25308  22798526.040    93356157.75646
  20462049.480   107528793.41509  20462044.060    83788649.51749
  24457135.500   128523104.77508  24457136.960   100147868.43146
 15 02 26 08 14  0.0000000  0  9G01G03G06G09G10G17G20G23G32
  21931833.900   115252560.93409  21931835.780    89807193.29448
  21065833.940   110701703.60509  21065835.140    86261066.03048
  22920724.360   120449221.04608  22920726.380    93856545.41547
  21053499.940   110636890.13609  21053499.720    86210563.98448
  23916819.600   125683730.41707  23916819.560    97935384.26244
  22038133.920   115811167.41509  22038131.760    90242461.71848
  22784765.780   119734758.39708  22784762.920    93299799.16746
  20461841.520   107527700.32009  20461836.100    83787797.74049
  24472058.700   128601526.05508  24472060.340   100208975.78546
 15 02 26 08 14 30.0000000  0  9G01G03G06G09G10G17G20G23G32
  21946524.480   115329760.49709  21946526.480    89867348.72548
  21072475.560   110736604.63909  21072476.640    86288261.61548
  22903155.660   120356896.34408  22903157.680    93784604.08147
  21042334.300   110578213.82909  21042334.020    86164842.19948
  23901007.140   125600635.84908  23901007.520    97870635.32446
  22043750.800   115840683.82209  22043748.560    90265461.48248
  22771021.020   119662529.98408  22771018.340    93243517.27246
  20461720.140   107527062.42509  20461714.700    83787300.67048
  24486980.620   128679940.17808  24486982.320   100270077.57845
 15 02 26 08 15  0.0000000  0  9G01G03G06G09G10G17G20G23G32
  21961279.200   115407297.20009  21961281.280    89927766.86148
  21079151.100   110771683.38309  21079151.900    86315595.67448
  22885618.560   120264738.23608  22885620.600    93712792.57647
  21031250.540   110519968.31909  21031250.320    86119456.11648
  23885210.860   125517624.98108  23885209.960    97805951.45544
  22049468.380   115870729.92109  22049466.140    90288873.98448
  22757295.200   119590400.81208  22757292.760    93187312.70846
  20461685.300   107526879.63109  20461679.860    83787158.22849
  24501901.100   128758347.14108  24501902.740   100331173.78245
 15 02 26 08 15 30.0000000  0  9G01G03G06G09G10G17G20G23G32
  21976098.180   115485171.31909  21976100.260    89988447.93148
  21085860.700   110806941.21109  21085861.140    86343069.28248
  22868113.920   120172750.52408  22868115.980    93641113.84347
  21020249.180   110462155.95009  21020249.020    86074407.53549
  23869430.720   125434699.62807  23869430.400    97741334.47145
  22055286.780   115901305.62809  22055284.560    90312699.18948
  22743588.640   119518372.92908  22743586.480    93131187.07146
  20461737.020   107527151.97009  20461731.700    83787370.43649
  24516820.360   128836748.35608  24516821.860   100392265.52545
 15 02 26 08 16  0.0000000  0  9G01G03G06G09G10G17G20G23G32
  21990980.520   115563378.25209  21990982.620    90049388.33348
  21092603.620   110842374.47709  21092603.840    86370679.58548
  22850641.420   120080931.95408  22850643.480    93569566.90947
  21009329.620   110404773.92409  21009329.580    86029694.29948
  23853666.440   125351856.74408  23853665.160    97676781.40144
  22061204.840   115932405.73409  22061202.740    90336932.98848
  22729900.680   119446442.91008  22729898.800    93075137.72246
  20461874.560   107527875.21009  20461869.380    83787933.99249
  24531737.840   128915140.25308  24531739.380   100453349.95644
 15 02 26 08 16 30.0000000  0  9G01G03G06G09G10G17G20G23G32
  22005927.080   115641922.84709  22005929.100    90110591.85047
  21099381.000   110877989.06409  21099381.200    86398431.18648
  22833202.660   119989290.96908  22833204.700    93498158.34447
  20998493.280   110347829.05909  20998493.320    85985321.70548
  23837918.540   125269102.43008  23837917.760    97612297.63845
  22067223.460   115964034.88609  22067221.720    90361579.01448
  22716232.620   119374617.23708  22716230.940    93019169.69646
  20462098.940   107529054.85009  20462093.940    83788853.18949
  24546654.740   128993528.65208  24546656.280   100514431.69545
 15 02 26 08 17  0.0000000  0  9G01G03G06G09G10G17G20G23G32
  22020935.860   115720794.31809  22020937.760    90172050.07647
  21106190.940   110913775.28809  21106191.220    86426316.51748
  22815796.260   119897820.26108  22815798.400    93426882.47647
  20987738.400   110291312.49309  20987738.560    85941282.84748
  23822186.060   125186427.72906  23822184.420    97547875.64345
  22073340.680   115996181.70909  22073339.040    90386628.44448
  22702582.640   119302886.48708  22702580.860    92963275.59846
  20462408.160   107530680.15909  20462403.220    83790119.65249
  24561569.140   129071903.94108  24561570.740   100575503.20545
 15 02 26 08 17 30.0000000  0  9G01G03G06G09G10G17G20G23G32
  22036007.840   115799997.50609  22036009.700    90233766.78447
  21113034.600   110949739.04809  21113034.920    86454340.18948
  22798423.980   119806528.25608  22798425.980    93355745.83647
  20977066.340   110235231.05409  20977066.580    85897583.05748
  23806470.140   125103838.70808  23806469.300    97483520.63845
  22079557.340   116028850.44909  22079555.660    90412084.56448
  22688951.940   119231256.90608  22688950.360    92907460.35546
  20462803.240   107532756.53409  20462798.300    83791737.60249
  24576482.200   129150272.04108  24576483.940   100636569.11144
 15 02 26 08 18  0.0000000  0  9G01G03G06G09G10G17G20G23G32
  22051142.820   115879532.00609  22051144.700    90295741.64747
  21119912.180   110985880.97209  21119912.460    86482502.70148
  22781086.340   119715418.01408  22781088.220    93284750.84747
  20966477.300   110179586.14009  20966477.640    85854223.41548
  23790770.440   125021336.52208  23790769.240    97419233.16845
  22085873.240   116062040.19109  22085871.560    90437946.66848
  22675340.920   119159730.12908  22675339.160    92851725.19846
  20463284.160   107535283.65709  20463279.240    83793706.78749
  24591394.080   129228633.54508  24591395.760   100697629.87745
 15 02 26 08 18 30.0000000  0  9G01G03G06G09G10G17G20G23G32
  22066340.500   115959396.01909  22066342.360    90357973.26847
  21126823.440   111022200.40109  21126823.760    86510803.52848
  22763783.680   119624491.31308  22763785.380    93213898.88447
  20955971.440   110124377.93609  20955971.780    85811204.06348
  23775087.120   124938920.82908  23775086.420    97355013.29245
  22092287.880   116095748.85309  22092286.320    90464213.11548
  22661749.480   119088305.91808  22661747.460    92796069.98346
  20463850.620   107538260.26109  20463845.680    83796026.21549
  24606304.660   129306987.86608  24606306.140   100758685.06545
 15 02 26 08 19  0.0000000  0  9G01G03G06G09G10G17G20G23G32
  22081599.800   116039583.69309  22081601.620    90420457.11547
  21133767.560   111058692.66009  21133767.980    86539239.02748
  22746515.600   119533745.99608  22746517.060    93143188.23747
  20945548.080   110069602.52809  20945548.360    85768521.94448
  23759419.720   124856587.53707  23759418.800    97290857.43345
  22098800.020   116129970.01209  22098798.440    90490878.90848
  22648176.640   119016979.76808  22648174.360    92740491.17546
  20464501.640   107541680.94309  20464496.660    83798691.67849
  24621212.940   129385330.38708  24621214.420   100819731.04145
 15 02 26 08 19 30.0000000  0  9G01G03G06G09G10G17G20G23G32
  22096921.380   116120098.48309  22096923.260    90483195.84948
  21140745.460   111095362.21109  21140745.980    86567812.67148
  22729283.340   119443189.02308  22729284.560    93072624.36247
  20935208.100   110015265.21709  20935208.220    85726181.18648
  23743769.080   124774341.76008  23743767.800    97226769.81945
  22105410.280   116164706.47109  22105408.620    90517946.23448
  22634623.420   118945756.88808  22634621.000    92684992.82946
  20465237.780   107545549.03009  20465232.740    83801705.76649
  24636119.860   129463665.66608  24636121.280   100880771.36545
 15 02 26 08 20  0.0000000  0  9G01G03G06G09G10G17G20G23G32
  22112305.320   116200940.88209  22112307.220    90546189.86048
  21147757.480   111132210.81109  21147758.060    86596525.84348
  22712087.660   119352824.53708  22712088.660    93002210.46947
  20924951.940   109961368.43009  20924952.060    85684183.70448
  23728135.060   124692185.31308  23728134.020    97162751.94144
  22112118.540   116199958.11909  22112116.760    90545415.00748
  22621090.180   118874639.22408  22621087.520    92629576.48446
  20466059.160   107549865.50509  20466054.140    83805069.25048
  24651025.640   129541995.33508  24651027.020   100941807.31845
 15 02 26 08 20 30.0000000  0  9G01G03G06G09G10G17G20G23G32
  22127750.840   116282107.13009  22127752.700    90609436.21848
  21154803.120   111169235.79409  21154803.680    86625376.46148
  22694928.500   119262652.37208  22694929.520    92931946.45047
  20914779.200   109907910.26009  20914779.300    85642528.00449
  23712517.580   124610115.93707  23712517.120    97098801.86046
  22118924.020   116235720.68809  22118922.000    90573281.91548
  22607576.520   118803624.75008  22607573.800    92574240.55946
  20466965.220   107554627.13809  20466960.180    83808779.60449
  24665929.740   129620316.77808  24665931.280   101002836.86445
 15 02 26 08 21  0.0000000  0  9G01G03G06G09G10G17G20G23G32
  22143257.320   116363593.84909  22143259.120    90672932.30348
  21161881.920   111206434.98209  21161882.560    86654362.82248
  22677805.940   119172672.86108  22677807.160    92861832.56647
  20904689.720   109854889.32009  20904689.760    85601212.98748
  23696916.520   124528131.78708  23696915.700    97034918.12744
  22125826.040   116271990.35609  22125823.820    90601543.96448
  22594082.180   118732711.91708  22594079.400    92518983.81046
  20467955.320   107559830.84509  20467950.460    83812834.43749
  24680831.980   129698627.87408  24680833.680   101063858.34345
 15 02 26 08 21 30.0000000  0  9G01G03G06G09G10G17G20G23G32
  22158824.640   116445400.63309  22158826.580    90736677.77848
  21168994.100   111243809.16209  21168994.780    86683485.53548
  22660720.660   119082889.26908  22660722.140    92791871.32447
  20894683.560   109802306.99609  20894683.580    85560239.75848
  23681331.940   124446234.14007  23681331.700    96971101.83946
  22132824.280   116308766.01409  22132822.000    90630200.27148
  22580607.420   118661901.82208  22580604.580    92463807.11746
  20469029.480   107565476.29809  20469024.800    83817233.47749
  24695732.520   129776929.50208  24695734.260   101124872.44445
 15 02 26 08 22  0.0000000  0  9G01G03G06G09G10G17G20G23G32
  22174453.380   116527530.04309  22174455.460    90800674.64448
  21176140.260   111281362.10009  21176140.920    86712747.54148
  22643673.860   118993307.81008  22643675.540    92722067.59147
  20884761.760   109750167.76909  20884761.820    85519611.79748
  23665764.680   124364427.16408  23665763.960    96907356.12645
  22139919.160   116346049.54209  22139916.900    90659252.33648
  22567152.980   118591198.66508  22567150.140    92408713.76446
  20470188.280   107571566.27409  20470183.680    83821978.90148
  24710631.860   129855225.32907  24710633.640   101185882.02544
 15 02 26 08 22 30.0000000  0  9G01G03G06G09G10G17G20G23G32
  22190143.620   116609982.37709  22190145.760    90864923.15548
  21183320.600   111319095.27509  21183321.280    86742149.99448
  22626666.280   118903932.44708  22626668.100    92652424.46747
  20874924.700   109698473.76409  20874924.800    85479330.77148
  23650214.740   124282712.51308  23650214.900    96843682.58545
  22147110.460   116383840.79408  22147108.520    90688700.02048
  22553719.260   118520604.46808  22553716.500    92353705.34246
  20471432.020   107578101.75409  20471427.280    83827071.46648
  24725530.260   129933517.01607  24725532.140   101246888.35444
 15 02 26 08 23  0.0000000  0  9G01G03G06G09G10G17G20G23G32
  22205893.520   116692748.33409  22205895.680    90929416.04548
  21190533.720   111357000.65509  21190534.440    86771686.61948
  22609696.880   118814757.61908  22609698.540    92582937.59947
  20865171.060   109647217.58609  20865171.000    85439390.89648
  23634680.820   124201082.90507  23634681.340    96780075.15446
  22154396.360   116422129.76009  22154394.640    90718535.52748
  22540304.920   118450111.78808  22540302.300    92298775.99346
  20472758.840   107585073.62809  20472753.940    83832504.07349
  24740426.300   130011796.39208  24740428.060   101307885.10944
 15 02 26 08 23 30.0000000  0  9G01G03G06G09G10G17G20G23G32
  22221703.200   116775828.90008  22221705.460    90994154.06548
  21197780.100   111395080.44709  21197780.860    86801359.17048
  22592766.520   118725788.07908  22592767.840    92513610.68347
  20855501.300   109596402.08109  20855501.140    85399794.40949
  23619164.060   124119540.88507  23619163.680    96716535.83144
  22161777.140   116460916.89509  22161775.640    90748759.22248
  22526910.420   118379722.97108  22526907.800    92243927.56046
  20474168.940   107592482.85009  20474163.920    83838277.47049
  24755320.600   130090065.77308  24755322.180   101368874.10444
 15 02 26 08 24  0.0000000  0  9G01G03G06G09G10G17G20G23G32
  22237572.220   116859221.44208  22237574.620    91059135.18248
  21205059.420   111433333.33509  21205060.140    86831166.58448
  22575875.360   118637024.88408  22575876.360    92444444.57347
  20845915.260   109546026.47809  20845914.980    85360540.69249
  23603664.060   124038085.48307  23603664.100    96653064.17246
  22169252.300   116500199.07609  22169250.900    90779368.66448
  22513535.620   118309437.46308  22513533.100    92189159.63346
  20475661.860   107600327.47709  20475656.740    83844390.14649
  24770212.800   130168323.82708  24770214.420   101429854.27545
 15 02 26 08 24 30.0000000  0  9G01G03G06G09G10G17G20G23G32
  22253502.160   116942933.92808  22253504.680    91124365.61948
  21212373.380   111471768.48809  21212374.040    86861116.03648
  22559025.740   118548479.78308  22559026.460    92375448.41747
  20836414.720   109496100.57209  20836414.420    85321637.39749
  23588181.920   123956726.14408  23588181.540    96589667.23746
  22176823.220   116539983.50009  22176821.800    90810369.47648
  22500182.200   118239264.87508  22500179.820    92134479.72346
  20477239.140   107608615.68509  20477233.980    83850848.46949
  24785104.560   130246579.75508  24785106.420   101490832.77044
 15 02 26 08 25  0.0000000  0  9G01G03G06G09G10G17G20G23G32
  22269490.660   117026954.02608  22269493.220    91189835.75548
  21219719.820   111510374.92409  21219720.620    86891198.94148
  22542216.000   118460144.24408  22542216.700    92306615.54647
  20826997.780   109446613.92409  20826997.440    85283076.38149
  23572715.800   123875452.13308  23572715.800    96526337.00745
  22184487.220   116580257.25909  22184485.660    90841751.57148
  22486848.320   118169194.84108  22486845.860    92079879.72646
  20478898.480   107617335.40209  20478893.320    83857643.04649
  24799993.860   130324822.72408  24799995.800   101551801.17344
 15 02 26 08 25 30.0000000  0  9G01G03G06G09G10G17G20G23G32
  22285538.100   117111283.97908  22285540.720    91255547.32748
  21227099.460   111549156.14009  21227100.460    86921418.02148
  22525447.240   118372024.23908  22525448.020    92237950.61747
  20817665.140   109397570.54109  20817664.840    85244860.75849
  23557266.880   123794267.64508  23557266.760    96463076.37046
  22192244.600   116621021.80909  22192243.040    90873516.10648
  22473534.660   118099231.36208  22473532.240    92025362.74546
  20480640.340   107626488.83309  20480635.200    83864775.57349
  24814881.340   130403056.04008  24814883.220   101612762.05945
 15 02 26 08 26  0.0000000  0  9G01G03G06G09G10G17G20G23G32
  22301645.060   117195926.65108  22301647.800    91321502.58348
  21234513.240   111588116.30609  21234514.300    86951776.56148
  22508720.780   118284126.44308  22508721.940    92169458.84848
  20808417.740   109348975.16309  20808417.480    85206994.22949
  23541835.960   123713177.21108  23541834.980    96399888.97644
  22200095.800   116662279.41809  22200094.020    90905664.84848
  22460242.040   118029378.49808  22460239.740    91970931.93847
  20482465.420   107636079.48309  20482460.280    83872248.79049
  24829767.780   130481284.07208  24829769.540   101673718.82945
 15 02 26 08 26 30.0000000  0  9G01G03G06G09G10G17G20G23G32
  22317809.840   117280872.70509  22317812.560    91387694.25548
  21241959.740   111627247.50409  21241960.720    86982268.38348
  22492035.500   118196445.40608  22492037.140    92101135.98348
  20799254.160   109300820.32009  20799253.800    85169470.97549
  23526421.700   123632173.43208  23526420.900    96336769.22944
  22208038.940   116704020.00209  22208037.040    90938189.93948
  22446969.200   117959629.56008  22446966.800    91916582.12346
  20484371.920   107646098.34809  20484366.860    83880055.70049
  24844651.680   130559498.87407  24844653.440   101734665.28144
 15 02 26 08 27  0.0000000  0  9G01G03G06G09G10G17G20G23G32
  22334033.200   117366126.42009  22334035.800    91454125.67047
  21249439.920   111666555.27809  21249440.740    87012897.79248
  22475393.000   118108989.19808  22475394.880    92032988.28848
  20790175.560   109253112.03109  20790175.200    85132295.68349
  23511024.960   123551262.16408  23511024.580    96273721.47946
  22216074.580   116746247.04709  22216072.720    90971094.06548
  22433717.260   117889990.31708  22433714.840    91862317.76947
  20486360.760   107656549.92509  20486355.760    83888199.76949
  24859534.140   130637705.94908  24859535.800   101795605.69344
 15 02 26 08 27 30.0000000  0  9G01G03G06G09G10G17G20G23G32
  22350314.680   117451685.60709  22350317.220    91520795.10848
  21256953.540   111706038.85009  21256954.300    87043664.17548
  22458793.640   118021759.50908  22458795.560    91965017.12448
  20781181.880   109205849.99409  20781181.440    85095468.10849
  23495645.540   123470442.98408  23495644.920    96210745.48945
  22224202.240   116788957.98409  22224200.380    91004375.25148
  22420486.120   117820460.23309  22420483.660    91808138.48346
  20488431.640   107667432.50909  20488426.620    83896679.69949
  24874415.040   130715904.62107  24874416.660   101856539.59244
 15 02 26 08 28  0.0000000  0  9G01G03G06G09G10G17G20G23G32
  22366654.260   117537550.28509  22366656.860    91587702.56948
  21264500.840   111745699.56409  21264501.620    87074568.59148
  22442238.220   117934760.13908  22442239.980    91897225.41648
  20772273.400   109159035.98709  20772273.020    85058989.65648
  23480283.840   123389717.46008  23480283.420    96147842.54645
  22232421.780   116832151.75009  22232419.960    91038032.68648
  22407276.180   117751041.60608  22407273.780    91754046.04647
  20490584.540   107678746.06209  20490579.480    83905495.43848
  24889294.560   130794096.29307  24889296.140   101917468.01945
 15 02 26 08 28 30.0000000  0  9G01G03G06G09G10G17G20G23G32
  22383051.100   117623715.73009  22383053.740    91654844.40548
  21272081.200   111785534.13609  21272082.060    87105608.47448
  22425726.540   117847990.27309  22425728.040    91829612.55248
  20763449.680   109112667.13809  20763449.280    85022858.06949
  23464939.440   123309082.79508  23464938.620    96085010.35446
  22240732.200   116875823.28109  22240730.460    91072062.38948
  22394086.920   117681731.50008  22394084.720    91700038.19646
  20492818.520   107690486.09809  20492813.620    83914643.51849
  24904172.120   130872277.55008  24904173.680   101978388.32544
 15 02 26 08 29  0.0000000  0  9G01G03G06G09G10G17G20G23G32
  22399504.500   117710177.98209  22399507.000    91722217.52748
  21279694.160   111825539.96409  21279695.000    87136781.81248
  22409258.580   117761449.90808  22409259.800    91762178.52348
  20754710.260   109066741.25209  20754709.920    84987071.66249
  23449611.900   123228536.62808  23449610.720    96022247.12545
  22249132.620   116919967.65509  22249130.880    91106460.54348
  22380917.800   117612527.55508  22380915.760    91646113.03647
  20495132.940   107702649.10309  20495128.220    83924121.17249
  24919047.160   130950445.88508  24919048.900   102039298.57045
 15 02 26 08 29 30.0000000  0  9G01G03G06G09G10G17G20G23G32
  22416016.020   117796945.73109  22416018.300    91789828.70448
  21287341.620   111865727.17609  21287342.320    87168096.49148
  22392836.640   117675151.57608  22392837.740    91694933.09748
  20746057.100   109021268.86009  20746056.780    84951638.62549
  23434303.060   123148089.63108  23434302.380    95959561.27544
  22257624.580   116964592.93509  22257622.820    91141233.44148
  22367771.000   117543440.43108  22367768.980    91592278.94047
  20497529.540   107715244.02009  20497524.920    83933935.38349
  24933921.680   131028611.43408  24933923.360   102100206.65745
 15 02 26 08 30  0.0000000  0  9G01G03G06G09G10G17G20G23G32
  22432583.420   117884007.30609  22432585.460    91857668.83548
  21295021.600   111906085.52009  21295022.220    87199544.50748
  22376459.240   117589087.48009  22376460.340    91627870.18147
  20737488.280   108976240.01909  20737488.060    84916551.21949
  23419011.280   123067732.05708  23419011.120    95896945.02645
  22266205.780   117009686.77009  22266203.920    91176371.44448
  22354644.660   117474460.49709  22354642.560    91538528.34847
  20500006.160   107728259.43209  20500001.760    83944077.25448
  24948793.760   131106764.04608  24948795.460   102161104.67645
 15 02 26 08 30 30.0000000  0  9G01G03G06G09G10G17G20G23G32
  22449207.500   117971366.99209  22449209.440    91925741.24448
  21302735.220   111946620.65309  21302735.720    87231130.28248
  22360127.920   117503265.86608  22360129.100    91560996.20947
  20729005.080   108931660.81009  20729004.940    84881814.17149
  23403737.840   122987469.87408  23403737.200    95834403.04146
  22274876.640   117055252.44709  22274874.760    91211877.12948
  22341539.900   117405594.01108  22341537.840    91484866.16247
  20502563.720   107741699.87909  20502559.400    83954550.31148
  24963664.440   131184909.33508  24963666.260   102221996.95744
 15 02 26 08 31  0.0000000  0  9G01G03G06G09G10G17G20G23G32
  22465887.360   118059019.99909  22465889.320    91994042.21047
  21310481.900   111987329.29009  21310482.300    87262851.24548
  22343842.500   117417685.90809  22343843.860    91494310.55048
  20720606.920   108887528.17609  20720606.760    84847425.09749
  23388482.180   122907300.07208  23388480.660    95771933.04145
  22283636.120   117101284.75309  22283634.360    91247746.38847
  22328456.080   117336837.79709  22328453.980    91431289.90547
  20505201.360   107755560.89909  20505197.140    83965351.09248
  24978533.020   131263043.99508  24978535.140   102282880.97944
 15 02 26 08 31 30.0000000  0  9G01G03G06G09G10G17G20G23G32
  22482623.660   118146969.43109  22482625.600    92062574.16448
  21318262.540   112028215.98809  21318262.860    87294710.97748
  22327604.360   117332354.63708  22327605.940    91427818.66248
  20712294.740   108843847.05709  20712294.660    84813387.87049
  23373244.880   122827227.63908  23373243.720    95709539.02745
  22292484.880   117147786.06209  22292483.320    91283981.13848
  22315394.340   117268197.37308  22315392.040    91377803.87747
  20507919.700   107769845.79109  20507915.420    83976482.16248
  24993400.480   131341172.69908  24993402.680   102343760.34744
 15 02 26 08 32  0.0000000  0  9G01G03G06G09G10G17G20G23G32
  22499415.100   118235208.55809  22499417.000    92131331.85347
  21326076.060   112069275.55709  21326076.260    87326705.40548
  22311413.020   117247269.34608  22311414.780    91361518.44048
  20704067.600   108800612.47209  20704067.440    84779698.57549
  23358025.140   122747247.81208  23358024.280    95647217.11046
  22301421.580   117194748.66709  22301420.120    91320575.33248
  22302353.560   117199667.74808  22302351.240    91324404.19047
  20510717.540   107784548.25609  20510713.120    83987938.60248
  25008265.820   131419290.15707  25008267.720   102404630.96045
 15 02 26 08 32 30.0000000  0  9G01G03G06G09G10G17G20G23G32
  22516262.240   118323740.62609  22516264.100    92200317.81747
  21333923.380   112110512.68409  21333923.460    87358838.19948
  22295269.940   117162437.22208  22295271.680    91295415.50648
  20695926.320   108757829.42609  20695926.220    84746361.15249
  23342823.960   122667365.76308  23342822.820    95584971.37846
  22310446.500   117242174.93409  22310445.280    91357530.80848
  22289334.780   117131254.15708  22289332.520    91271094.90847
  20513595.540   107799671.87209  20513591.040    83999723.22848
  25023129.800   131497401.17007  25023131.620   102465496.55244
 15 02 26 08 33  0.0000000  0  9G01G03G06G09G10G17G20G23G32
  22533164.100   118412560.25809  22533165.940    92269527.85347
  21341803.660   112151923.45709  21341803.780    87391106.29448
  22279174.780   117077856.86908  22279176.460    91229508.74448
  20687870.300   108715494.21909  20687870.040    84713372.67349
  23327640.880   122587577.86008  23327639.580    95522799.00945
  22319558.540   117290058.69109  22319557.380    91394842.78348
  22276337.400   117062953.15508  22276335.300    91217873.36747
  20516552.660   107815211.15109  20516548.060    84011831.73048
  25037991.780   131575501.88207  25037993.920   102526354.06844
 15 02 26 08 33 30.0000000  0  8G01G03G06G09G10G17G20G23
  22550122.940   118501679.44809  22550124.760    92338971.31447
  21349719.420   112193521.46909  21349719.560    87423520.29348
  22263130.540   116993544.28109  22263132.200    91163810.63848
  20679902.100   108673620.66409  20679901.900    84680743.95049
  23312478.320   122507897.94908  23312476.880    95460710.75946
  22328759.720   117338411.26309  22328758.660    91432520.05948
  22263364.140   116994778.96508  22263362.160    91164750.61747
  20519591.280   107831178.62409  20519586.480    84024273.90248
 15 02 26 08 34  0.0000000  0  8G01G03G06G09G10G17G20G23
  22567133.660   118591071.51709  22567135.540    92408627.40447
  21357665.940   112235281.49409  21357666.160    87456060.53548
  22247132.900   116909476.76508  22247134.620    91098303.49248
  20672017.000   108632183.72409  20672016.720    84648455.43049
  23297331.480   122428301.07008  23297329.900    95398687.21046
  22338044.980   117387205.16609  22338043.780    91470541.24348
  22250410.360   116926706.96708  22250408.540    91111707.51647
  20522706.260   107847547.74909  20522701.460    84037029.04448
 15 02 26 08 34 30.0000000  0  8G01G03G06G09G10G17G20G23
  22584198.780   118680749.37009  22584200.840    92478506.16847
  21365646.040   112277218.03309  21365646.420    87488738.33748
  22231185.160   116825671.38508  22231186.920    91033000.60148
  20664217.780   108591198.13709  20664217.540    84616518.60849
  23282203.280   122348802.07608  23282201.440    95336739.95045
  22347416.540   117436452.64109  22347415.120    91508915.86248
  22237479.000   116858751.99109  22237477.220    91058755.57647
  20525900.120   107864331.82809  20525895.540    84050107.53148
 15 02 26 08 35  0.0000000  0  8G01G03G06G09G10G17G20G23
  22601317.220   118770707.21609  22601319.400    92548603.11147
  21373658.980   112319326.75809  21373659.520    87521550.30248
  22215287.000   116742126.24809  22215288.780    90967900.49648
  20656503.580   108550659.71309  20656503.360    84584930.23849
  23267093.040   122269397.28108  23267091.660    95274866.12145
  22356873.160   117486146.94509  22356871.760    91547638.64748
  22224569.240   116790910.15809  22224567.240    91005891.80547
  20529171.780   107881525.25609  20529167.480    84063504.99348
 15 02 26 08 35 30.0000000  0  8G01G03G06G09G10G17G20G23
  22618489.520   118860947.88909  22618491.740    92618920.43748
  21381705.500   112361612.12909  21381706.300    87554499.90548
  22199439.820   116658848.29209  22199441.600    90903008.60648
  20648875.320   108510573.07009  20648875.080    84553693.88749
  23252001.620   122190091.62608  23252000.660    95213069.54345
  22366415.180   117536289.92009  22366413.780    91586711.04648
  22211682.020   116723186.61109  22211679.700    90953120.21247
  20532521.920   107899130.77009  20532517.820    84077223.55748
 15 02 26 08 36  0.0000000  0  8G01G03G06G09G10G17G20G23
  22635714.780   118951466.96008  22635717.060    92689454.68448
  21389785.080   112404071.31509  21389786.080    87587584.94248
  22183643.480   116575837.16408  22183645.100    90838324.61148
  20641332.360   108470935.44909  20641332.300    84522807.43749
  23236928.580   122110882.51308  23236927.940    95151348.15946
  22376041.700   117586876.52609  22376040.160    91626129.13848
  22198816.860   116655578.81709  22198814.220    90900438.81747
  20535949.860   107917144.68509  20535945.740    84091260.35148
 15 02 26 08 36 30.0000000  0  8G01G03G06G09G10G17G20G23
  22652992.760   119042263.14209  22652995.120    92760204.86848
  21397897.900   112446704.53509  21397899.060    87620805.60048
  22167898.380   116493095.61108  22167899.860    90773850.67248
  20633874.960   108431747.28109  20633874.980    84492271.19249
  23221874.120   122031770.63608  23221873.320    95089702.49246
  22385752.140   117637904.28709  22385750.380    91665890.98048
  22185973.880   116588087.83208  22185971.060    90847848.44147
  20539455.400   107935565.92809  20539451.160    84105614.54848
 15 02 26 08 37  0.0000000  0  8G01G03G06G09G10G17G20G23
  22670324.160   119133339.90409  22670326.600    92831173.68148
  21406044.920   112489516.87009  21406046.040    87654165.82848
  22152205.920   116410631.14809  22152207.380    90709592.65948
  20626504.140   108393013.68609  20626504.240    84462089.16849
  23206839.120   121952761.34408  23206838.420    95028136.86245
  22395547.020   117689376.06409  22395545.040    91705998.82648
  22173154.040   116520719.00708  22173151.100    90795353.27847
  20543039.180   107954398.14609  20543034.740    84120288.97748
 15 02 26 08 37 30.0000000  0  8G01G03G06G09G10G17G20G23
  22687707.260   119224688.19609  22687709.780    92902354.08448
  21414224.720   112532500.89009  21414225.720    87687659.83948
  22136565.240   116328438.91508  22136566.640    90645546.76748
  20619218.480   108354727.33709  20619218.560    84432255.64149
  23191822.400   121873847.51908  23191822.300    94966645.59545
  22405424.400   117741282.09609  22405422.580    91746445.03948
  22160356.040   116453465.50508  22160353.160    90742947.96447
  20546699.460   107973632.38509  20546694.820    84135276.67048
 15 02 26 08 38  0.0000000  0  8G01G03G06G09G10G17G20G23
  22705142.880   119316312.33209  22705145.420    92973749.42547
  21422438.300   112575662.56909  21422439.120    87721292.28448
  22120977.980   116246527.29209  22120979.300    90581719.53348
  20612019.080   108316894.19009  20612019.100    84402775.25249
  23176825.100   121795035.34308  23176824.900    94905233.46746
  22415384.860   117793625.52809  22415383.300    91787232.07248
  22147581.100   116386333.96108  22147578.520    90690637.70347
  20550437.140   107993273.39109  20550432.300    84150581.33048
 15 02 26 08 38 30.0000000  0  8G01G03G06G09G10G17G20G23
  22722630.160   119408208.10509  22722632.720    93045356.45147
  21430685.160   112618999.28109  21430685.760    87755061.11748
  22105444.140   116164896.16509  22105445.420    90518110.87348
  20604905.440   108279511.72509  20604905.360    84373646.04949
  23161846.800   121716322.89108  23161846.160    94843899.06646
  22425427.660   117846401.36609  22425426.280    91828356.05048
  22134828.860   116319322.04608  22134826.740    90638420.64247
  20554251.460   108013317.37509  20554246.380    84166199.99748
 15 02 26 08 39  0.0000000  0  8G01G03G06G09G10G17G20G23
  22740168.740   119500373.70709  22740171.320    93117173.73047
  21438965.340   112662510.87209  21438965.720    87788966.23348
  22089964.120   116083547.86709  22089965.400    90454722.59048
  20597877.600   108242579.82209  20597877.360    84344867.92649
  23146887.400   121637710.24308  23146886.700    94782642.49645
  22435552.280   117899607.12908  22435550.980    91869815.02947
