     2.11           OBSERVATION DATA    G                   RINEX VERSION / TYPE
SPIDER V4,0,0,3554                      2015 04 17 03:38    PGM / RUN BY / DATE 
CABS                                                        MARKER NAME         
CABS                                                        MARKER NUMBER       
                                                            OBSERVER / AGENCY   
462287              LEICA GRX1200PRO    8.10/2.127          REC # / TYPE / VERS 
103298              LEIAT504                                ANT # / TYPE        
  5116912.3402   671231.6412  3737143.4301                  APPROX POSITION XYZ 
        0.0600        0.0000        0.0000                  ANTENNA: DELTA H/E/N
     1     1                                                WAVELENGTH FACT L1/2
     4    C1    L1    P2    L2                              # / TYPES OF OBSERV 
    30.000                                                  INTERVAL            
  2015    02    26    00    00    0.0000000     GPS         TIME OF FIRST OBS   
  2015    02    26    23    59   30.0000000     GPS         TIME OF LAST OBS    
    16                                                      LEAP SECONDS        
    30                                                      # OF SATELLITES     
   G 1   802   802   802   802                              PRN / # OF OBS      
   G 2   939   939   939   939                              PRN / # OF OBS      
   G 3   848   848   847   847                              PRN / # OF OBS      
   G 4   831   831   831   831                              PRN / # OF OBS      
   G 5   674   674   674   674                              PRN / # OF OBS      
   G 6   839   839   839   839                              PRN / # OF OBS      
   G 7   673   673   673   673                              PRN / # OF OBS      
   G 9   806   806   806   806                              PRN / # OF OBS      
   G10   753   753   752   752                              PRN / # OF OBS      
   G11   770   770   770   770                              PRN / # OF OBS      
   G12   826   826   826   826                              PRN / # OF OBS      
   G13   791   791   791   791                              PRN / # OF OBS      
   G14   940   940   939   939                              PRN / # OF OBS      
   G15   689   689   689   689                              PRN / # OF OBS      
   G16   664   664   664   664                              PRN / # OF OBS      
   G17   942   942   942   942                              PRN / # OF OBS      
   G18   899   899   899   899                              PRN / # OF OBS      
   G19   750   750   750   750                              PRN / # OF OBS      
   G20   774   774   774   774                              PRN / # OF OBS      
   G21   716   716   715   715                              PRN / # OF OBS      
   G22   666   666   666   666                              PRN / # OF OBS      
   G23   755   755   755   755                              PRN / # OF OBS      
   G24   804   804   804   804                              PRN / # OF OBS      
   G25   855   855   854   854                              PRN / # OF OBS      
   G27   799   799   799   799                              PRN / # OF OBS      
   G28   875   875   875   875                              PRN / # OF OBS      
   G29   765   765   765   765                              PRN / # OF OBS      
   G30   720   720   720   720                              PRN / # OF OBS      
   G31   871   871   871   871                              PRN / # OF OBS      
   G32   767   767   767   767                              PRN / # OF OBS      
BIT 2 OF LLI FLAGS DATA COLLECTED UNDER A/S CONDITION       COMMENT             
SNR is mapped to RINEX snr flag value [2-9]                 COMMENT             
Lx:     = 25dBHz -> 1; 26-27dBHz -> 2; 28-31dBHz -> 3       COMMENT             
       32-35dBHz -> 4; 36-38dBHz -> 5; 39-41dBHz -> 6       COMMENT             
       42-44dBHz -> 7; 45-48dBHz -> 8; >=49dBHz -> 9        COMMENT             
                                                            END OF HEADER       
 15 02 26 00 00  0.0000000  0  8G16G18G21G22G25G27G29G31
  21983836.840   115525849.91008  21983837.860    90020148.29747
  22661398.820   119086489.50708  22661400.180    92794687.20146
  21110634.660   110937357.33608  21110635.120    86444783.92448
  24232394.700   127342108.04906  24232395.860    99227628.11145
  24608683.540   129319687.64205  24608687.480   100768694.76344
  23286291.780   122370300.89907  23286295.300    95353501.64946
  23484838.000   123414077.48407  23484839.780    96167036.98346
  22851141.980   120083593.12208  22851142.840    93571652.61946
 15 02 26 00 00 30.0000000  0  8G16G18G21G22G25G27G29G31
  21969336.240   115449648.70108  21969337.200    89960770.73747
  22648635.240   119019416.70707  22648636.800    92742422.70446
  21116257.340   110966904.53508  21116257.800    86467807.71949
  24214117.060   127246059.37506  24214118.320    99152785.10944
  24628095.980   129421701.18905  24628099.940   100848185.79544
  23273047.620   122300702.58907  23273051.260    95299269.22646
  23498590.300   123486346.97606  23498592.140    96223350.87946
  22867827.540   120171276.70708  22867828.460    93639977.47246
 15 02 26 00 01  0.0000000  0  8G16G18G21G22G25G27G29G31
  21954883.100   115373696.81408  21954883.960    89901587.44447
  22635922.300   118952609.67008  22635923.940    92690365.29346
  21121946.600   110996801.45408  21121947.000    86491104.01848
  24195834.260   127149982.73606  24195835.440    99077920.27945
  24647535.280   129523856.11205  24647539.520   100927787.00945
  23259819.980   122231190.97907  23259823.740    95245104.38546
  23512351.440   123558662.81406  23512353.140    96279700.85845
  22884553.100   120259170.54408  22884554.080    93708466.16846
 15 02 26 00 01 30.0000000  0  8G16G18G21G22G25G27G29G31
  21940477.740   115297996.31708  21940478.580    89842600.05547
  22623260.500   118886070.77808  22623261.940    92638516.82446
  21127702.020   111027046.31408  21127702.420    86514671.43948
  24177546.560   127053880.15806  24177547.680    99003035.27445
  24667001.120   129626150.57405  24667005.600   101007496.95644
  23246608.800   122161765.94107  23246612.640    95191006.98546
  23526121.340   123631024.93707  23526122.920    96336086.88845
  22901318.020   120347271.57108  22901319.140    93777116.30246
 15 02 26 00 02  0.0000000  0  8G16G18G21G22G25G27G29G31
  21926120.200   115222547.08808  21926121.060    89783808.44747
  22610649.840   118819800.59008  22610650.960    92586877.72546
  21133522.920   111057635.43108  21133523.360    86538507.11348
  24159254.080   126957751.92206  24159255.060    98928130.26045
  24686492.780   129728580.81405  24686497.460   101087312.72544
  23233413.660   122092425.22307  23233417.600    95136975.27946
  23539899.700   123703430.92507  23539901.160    96392507.11945
  22918121.440   120435574.37808  22918122.580    93845923.67047
 15 02 26 00 02 30.0000000  0  8G16G18G21G22G25G27G29G31
  21911811.040   115147352.00208  21911811.900    89725214.87647
  22598090.740   118753801.71208  22598091.620    92535450.06646
  21139409.160   111088568.02608  21139409.620    86562610.43148
  24140957.420   126861601.25306  24140958.080    98853207.74345
  24706010.080   129831145.96105  24706014.940   101167233.59844
  23220234.720   122023169.49707  23220238.700    95083009.80346
  23553686.500   123775880.83807  23553687.840    96448961.55345
  22934962.940   120524076.79808  22934964.020    93914886.58447
 15 02 26 00 03  0.0000000  0  8G16G18G21G22G25G27G29G31
  21897551.160   115072415.88708  21897552.040    89666823.09747
  22585584.160   118688079.33508  22585584.960    92484237.84146
  21145360.860   111119844.52508  21145361.320    86586981.72848
  24122657.380   126765433.15006  24122657.780    98778271.66345
  24725553.160   129933846.83205  24725558.220   101247260.17344
  23207072.360   121954001.17507  23207076.400    95029112.41346
  23567482.180   123848377.53107  23567483.400    96505452.46245
  22951842.340   120612778.16808  22951843.260    93984004.50846
 15 02 26 00 03 30.0000000  0  8G16G18G21G22G25G27G29G31
  21883340.020   114997735.91908  21883340.960    89608630.92647
  22573129.720   118622631.17608  22573130.540    92433239.29446
  21151376.780   111151458.44808  21151377.240    86611615.95748
  24104353.480   126669245.25706  24104353.760    98703320.14645
  24745121.140   130036677.06405  24745126.140   101327387.62644
  23193925.780   121884915.53807  23193929.800    94975279.47446
  23581285.840   123920916.08807  23581287.000    96561975.97945
  22968758.080   120701670.73508  22968758.940    94053271.42746
 15 02 26 00 04  0.0000000  0  8G16G18G21G22G25G27G29G31
  21869178.760   114923317.98008  21869179.740    89550642.92947
  22560728.480   118557462.96908  22560729.420    92382458.88146
  21157457.300   111183411.84108  21157457.780    86636514.70548
  24086046.880   126573043.77906  24086047.000    98628358.03745
  24764714.240   130139638.67405  24764719.040   101407617.39743
  23180795.600   121815916.27107  23180799.580    94921513.81446
  23595098.080   123993499.54507  23595099.420    96618534.49246
  22985710.320   120790755.02307  22985711.080    94122687.74846
 15 02 26 00 04 30.0000000  0  8G16G18G21G22G25G27G29G31
  21855067.900   114849164.79708  21855068.880    89492861.23647
  22548381.060   118492577.68808  22548382.160    92331898.92646
  21163602.320   111215704.15508  21163602.800    86661677.54548
  24067738.220   126476831.92006  24067738.560    98553387.85045
  24784332.220   130242730.53905  24784336.780   101487948.71244
  23167681.900   121747003.86407  23167685.860    94867815.84046
  23608918.860   124066128.46206  23608920.540    96675128.43546
  23002698.540   120880028.59608  23002699.220    94192251.54446
 15 02 26 00 05  0.0000000  0  8G16G18G21G22G25G27G29G31
  21841007.840   114775278.42808  21841008.740    89435287.44247
  22536088.040   118427977.62308  22536089.240    92281561.22946
  21169811.480   111248333.54508  21169811.960    86687103.04848
  24049427.940   126380611.59506  24049428.360    98478411.05145
  24803974.580   130345950.76305  24803978.980   101568380.01244
  23154584.760   121678177.95007  23154588.580    94814185.27846
  23622748.160   124138802.71806  23622750.220    96731757.71346
  23019722.040   120969487.90208  23019722.780    94261960.08646
 15 02 26 00 05 30.0000000  0  7G16G18G21G22G27G29G31
  21826998.360   114701658.25508  21826999.280    89377921.08247
  22523849.260   118363662.19008  22523850.540    92231445.30746
  21176083.840   111281295.08008  21176084.340    86712787.35748
  24031116.060   126284382.48206  24031116.360    98403427.36144
  23141503.620   121609435.71207  23141507.240    94760619.91246
  23636585.480   124211519.11406  23636587.840    96788419.83346
  23036779.820   121059127.39108  23036780.680    94331809.02846
 15 02 26 00 06  0.0000000  0  7G16G18G21G22G27G29G31
  21813041.800   114628316.21108  21813042.760    89320771.44247
  22511667.020   118299643.39308  22511668.240    92181560.54346
  21182421.000   111314597.13808  21182421.500    86738737.01048
  24012804.880   126188156.84106  24012805.160    98328446.43345
  23128440.280   121540787.06307  23128443.760    94707127.47946
  23650432.720   124284287.41307  23650435.340    96845122.37846
  23053873.140   121148953.39707  23053874.120    94401803.30847
 15 02 26 00 06 30.0000000  0  7G16G18G21G22G27G29G31
  21799136.020   114555240.78908  21799136.960    89263829.55647
  22499539.100   118235910.23108  22499540.240    92131898.35146
  21188820.020   111348224.26808  21188820.520    86764939.96748
  23994492.380   126091923.64406  23994492.420    98253459.59745
  23115392.120   121472218.32707  23115395.500    94653697.31646
  23664287.340   124357093.97206  23664290.040    96901854.74946
  23070998.920   121238949.62808  23070999.940    94471930.21746
 15 02 26 00 07  0.0000000  0  7G16G18G21G22G27G29G31
  21785282.640   114482440.51208  21785283.540    89207102.08047
  22487467.160   118172471.71608  22487468.260    92082465.76746
  21195281.820   111382181.19308  21195282.300    86791399.91048
  23976180.180   125995691.86606  23976180.040    98178473.86645
  23102360.380   121403735.85307  23102363.740    94600334.37446
  23678150.400   124429944.25306  23678153.000    96958621.17746
  23088157.740   121329119.36608  23088158.740    94542192.34246
 15 02 26 00 07 30.0000000  0  7G16G18G21G22G27G29G31
  21771482.040   114409917.70708  21771482.880    89150590.80947
  22475451.620   118109329.86108  22475452.660    92033264.32946
  21201806.080   111416466.26408  21201806.500    86818115.55448
  23957868.740   125899463.97206  23957868.280    98103491.14245
  23089345.020   121335339.64607  23089348.380    94547038.64246
  23692021.940   124502838.56806  23692024.320    97015421.93446
  23105348.960   121419459.53708  23105349.960    94612587.26446
 15 02 26 00 08  0.0000000  0  7G16G18G21G22G27G29G31
  21757734.840   114337675.62508  21757735.640    89094298.28547
  22463493.080   118046487.87108  22463494.080    91984296.56446
  21208392.680   111451078.95408  21208393.060    86845086.48348
  23939558.580   125803243.51806  23939557.860    98028514.23945
  23076346.320   121267030.88807  23076349.640    94493811.05746
  23705902.120   124575778.29807  23705904.340    97072258.05846
  23122572.260   121509968.24807  23122573.180    94683113.52046
 15 02 26 00 08 30.0000000  0  7G16G18G21G22G27G29G31
  21744041.280   114265715.59208  21744042.080    89038225.53447
  22451591.840   117983947.47108  22451592.900    91935563.79846
  21215041.080   111486016.47408  21215041.420    86872310.52348
  23921250.080   125707032.26106  23921249.300    97953544.50045
  23063364.080   121198808.62707  23063367.400    94440650.87646
  23719790.660   124648762.21207  23719792.760    97129128.59546
  23139826.800   121600641.37307  23139827.660    94753767.88546
 15 02 26 00 09  0.0000000  0  7G16G18G21G22G27G29G31
  21730401.940   114194040.61608  21730402.780    88982374.91147
  22439748.660   117921711.79408  22439749.760    91887068.47446
  21221751.160   111521278.01708  21221751.440    86899787.05248
  23902943.840   125610833.40306  23902943.100    97878584.41645
  23050398.480   121130673.65107  23050401.720    94387558.69746
  23733687.640   124721790.70606  23733689.620    97186033.91846
  23157112.220   121691476.83407  23157113.020    94824548.73146
 15 02 26 00 09 30.0000000  0  7G16G18G21G22G27G29G31
  21716817.780   114122655.32108  21716818.640    88926750.01448
  22427964.420   117859785.32608  22427965.580    91838814.09446
  21228523.140   111556864.80408  21228523.400    86927517.01048
  23884640.740   125514651.81806  23884640.140    97803637.78245
  23037449.900   121062628.51107  23037453.160    94334536.52546
  23747593.460   124794866.26507  23747595.360    97242975.88145
  23174428.340   121782473.92207  23174429.100    94895455.53646
 15 02 26 00 10  0.0000000  0  7G16G18G21G22G27G29G31
  21703288.560   114051558.84508  21703289.440    88871350.17147
  22416239.000   117798167.35608  22416240.240    91790800.10746
  21235356.020   111592771.49508  21235356.240    86955496.24748
  23866340.680   125418486.79006  23866340.420    97728704.02645
  23024517.760   120994669.92707  23024521.080    94281581.79446
  23761507.600   124867985.58306  23761509.420    97299951.96546
  23191773.960   121873626.28507  23191774.800    94966483.33546
 15 02 26 00 10 30.0000000  0  7G16G18G21G22G27G29G31
  21689815.040   113980755.01708  21689815.880    88816178.36148
  22404573.060   117736861.85708  22404574.400    91743029.60146
  21242249.780   111628998.40608  21242250.020    86983725.00948
  23848044.640   125322342.92606  23848044.560    97653786.77745
  23011602.400   120926799.90107  23011605.820    94228696.07446
  23775430.240   124941150.29306  23775432.300    97356963.40746
  23209148.920   121964932.80507  23209149.900    95037631.24646
 15 02 26 00 11  0.0000000  0  7G16G18G21G22G27G29G31
  21676397.200   113910243.65008  21676398.000    88761234.43448
  22392966.520   117675868.54208  22392967.900    91695502.35646
  21249203.580   111665540.86608  21249203.840    87012199.65248
  23829752.640   125226220.01606  23829752.880    97578885.87446
  22998703.440   120859015.76407  22998706.900    94175877.28046
  23789360.960   125014357.69306  23789363.360    97414008.14245
  23226552.160   122056387.70307  23226553.280    95108894.78946
 15 02 26 00 11 30.0000000  0  7G16G18G21G22G27G29G31
  21663035.480   113840027.17408  21663036.200    88706520.30047
  22381419.940   117615190.41508  22381421.300    91648220.71046
  21256217.200   111702397.74608  21256217.500    87040919.30048
  23811465.520   125130121.31906  23811465.740    97504003.82445
  22985820.920   120791317.98007  22985824.440    94123125.77246
  23803299.900   125087608.19506  23803302.400    97471086.45545
  23243983.160   122147988.51507  23243984.440    95180272.02746
 15 02 26 00 12  0.0000000  0  7G16G18G21G22G27G29G31
  21649729.660   113770104.70808  21649730.380    88652035.26747
  22369933.020   117554826.01508  22369934.260    91601183.51646
  21263289.820   111739564.67308  21263290.160    87069880.54248
  23793183.060   125034045.91006  23793183.320    97429139.92445
  22972954.260   120723703.53007  22972957.820    94070439.19447
  23817246.840   125160898.65306  23817249.120    97528195.90145
  23261440.860   122239729.18207  23261442.220    95251758.26146
 15 02 26 00 12 30.0000000  0  7G16G18G21G22G27G29G31
  21636481.100   113700483.21308  21636481.860    88597784.75948
  22358507.080   117494782.26608  22358508.180    91554396.18246
  21270421.640   111777042.84508  21270422.040    87099084.31248
  23774906.440   124938000.77506  23774906.480    97354299.61645
  22960104.340   120656176.66307  22960107.920    94017820.87147
  23831202.220   125234233.09906  23831204.320    97585339.62346
  23278925.440   122331610.80507  23278926.820    95323354.30446
 15 02 26 00 13  0.0000000  0  7G16G18G21G22G27G29G31
  21623290.220   113631164.95208  21623291.040    88543770.53648
  22347142.740   117435062.26708  22347143.660    91507861.11946
  21277612.820   111814832.90108  21277613.240    87128531.11148
  23756636.320   124841989.14806  23756636.080    97279485.40345
  22947271.260   120588738.29107  22947274.860    93965271.50647
  23845166.160   125307612.35407  23845168.040    97642518.25146
  23296436.460   122423631.18507  23296437.820    95395058.48246
 15 02 26 00 13 30.0000000  0  7G16G18G21G22G27G29G31
  21610157.720   113562153.21708  21610158.580    88489995.16048
  22335840.660   117375669.29908  22335841.380    91461580.89346
  21284863.160   111852933.92608  21284863.620    87158220.22248
  23738373.300   124746014.62506  23738372.860    97204700.09946
  22934455.140   120521389.23907  22934458.800    93912791.72947
  23859138.660   125381037.03707  23859140.380    97699732.25746
  23313973.420   122515788.03307  23313974.740    95466869.00046
 15 02 26 00 14  0.0000000  0  7G16G18G21G22G27G29G31
  21597084.160   113493451.33708  21597085.060    88436461.23648
  22324601.340   117316605.86608  22324601.880    91415557.45346
  21292172.400   111891344.31508  21292172.860    87188150.39348
  23720117.820   124650080.40306  23720117.400    97129946.21146
  22921656.160   120454130.28207  22921659.840    93860382.17147
  23873119.740   125454507.84806  23873121.380    97756982.25246
  23331535.840   122608079.11007  23331537.140    95538784.09246
 15 02 26 00 14 30.0000000  0  7G16G18G21G22G27G29G31
  21584069.860   113425060.82108  21584070.780    88383169.92148
  22313425.080   117257873.82908  22313425.500    91369792.24446
  21299540.120   111930062.00808  21299540.620    87218320.01748
  23701870.320   124554188.54707  23701870.040    97055225.32145
  22908874.240   120386960.98307  22908877.940    93808042.46447
  23887109.240   125528024.11807  23887111.100    97814267.61046
  23349123.060   122700500.59507  23349124.300    95610800.81846
 15 02 26 00 15  0.0000000  0  7G16G18G21G22G27G29G31
  21571114.900   113356982.32008  21571115.860    88330121.74848
  22302312.000   117199473.97408  22302312.400    91324285.87846
  21306965.640   111969083.47308  21306966.160    87248726.35448
  23683630.940   124458340.10307  23683630.840    96980538.29146
  22896109.220   120319880.32107  22896112.900    93755771.84147
  23901106.880   125601584.18606  23901109.180    97871587.13546
  23366734.300   122793048.47007  23366735.460    95682916.03346
 15 02 26 00 15 30.0000000  0  7G16G18G21G22G27G29G31
  21558219.800   113289218.01508  21558220.720    88277318.40048
  22291262.400   117141408.29908  22291262.980    91279039.91647
  21314448.660   112008407.19508  21314449.240    87279368.20748
  23665400.320   124362537.75806  23665400.380    96905887.14646
  22883361.000   120252887.85507  22883364.620    93703569.93547
  23915112.840   125675188.07006  23915115.440    97928940.81345
  23384368.880   122885719.23107  23384369.980    95755126.98146
 15 02 26 00 16  0.0000000  0  7G16G18G21G22G27G29G31
  21545384.320   113221767.22808  21545385.240    88224759.35348
  22280276.220   117083676.29008  22280277.040    91234053.94347
  21321988.380   112048028.59708  21321988.960    87310242.02348
  23647178.420   124266781.06906  23647178.580    96831271.57146
  22870629.020   120185980.64907  22870632.580    93651434.45847
  23929126.760   125748832.89706  23929129.480    97986326.39045
  23402025.860   122978507.27707  23402026.860    95827429.34446
 15 02 26 00 16 30.0000000  0  7G16G18G21G22G27G29G31
  21532609.620   113154635.77108  21532610.480    88172449.12548
  22269354.520   117026283.60408  22269355.680    91189332.38047
  21329585.160   112087949.85308  21329585.740    87341349.49748
  23628966.380   124171076.03507  23628966.600    96756696.26246
  22857914.020   120119162.68307  22857917.520    93599368.51547
  23943149.260   125822521.85706  23943152.000    98043746.32545
  23419705.180   123071412.94107  23419706.240    95899823.34746
 15 02 26 00 17  0.0000000  0  7G16G18G21G22G27G29G31
  21519895.740   113087823.78308  21519896.560    88120387.84248
  22258497.440   116969230.58508  22258498.860    91144875.49046
  21337238.240   112128166.87108  21337238.800    87372687.43548
  23610764.360   124075423.53807  23610764.520    96682161.88846
  22845215.560   120052431.98907  22845219.060    93547370.57347
  23957180.080   125896253.27406  23957182.660    98101199.36046
  23437405.940   123164431.18107  23437407.040    95972305.06846
 15 02 26 00 17 30.0000000  0  7G16G18G21G22G27G29G31
  21507243.660   113021336.41008  21507244.420    88068579.50948
  22247706.000   116912521.81108  22247707.460    91100686.83746
  21344947.680   112168680.19408  21344948.260    87404256.25648
  23592573.300   123979828.70407  23592573.360    96607672.45246
  22832534.220   119985791.24207  22832537.720    93495442.73147
  23971219.540   125970029.52606  23971221.860    98158687.32045
  23455128.040   123257561.61807  23455129.280    96044874.22646
 15 02 26 00 18  0.0000000  0  7G16G18G21G22G27G29G31
  21494653.940   112955176.87408  21494654.700    88017026.63348
  22236980.860   116856160.80408  22236982.140    91056769.17946
  21352713.560   112209489.87708  21352714.080    87436056.01148
  23574393.940   123884295.54607  23574393.860    96533231.07145
  22819870.260   119919241.95607  22819873.760    93443586.15947
  23985267.640   126043851.90206  23985269.780    98216211.23945
  23472871.280   123350802.75607  23472872.580    96117529.63346
 15 02 26 00 18 30.0000000  0  7G16G18G21G22G27G29G31
  21482126.620   112889345.31108  21482127.440    87965729.32348
  22226322.000   116800147.56008  22226323.040    91013122.51246
  21360535.100   112250592.22108  21360535.600    87468083.81448
  23556226.340   123788824.50807  23556226.180    96458838.07545
  22807223.240   119852781.85107  22807226.760    93391799.08047
  23999324.020   126117718.15706  23999326.000    98273769.31145
  23490634.640   123444149.16707  23490635.900    96190267.07845
 15 02 26 00 19  0.0000000  0  7G16G18G21G22G27G29G31
  21469662.300   112823844.85108  21469663.160    87914690.00648
  22215729.840   116744484.63408  22215730.660    90969748.81446
  21368412.040   112291985.72508  21368412.540    87500338.49548
  23538071.060   123693418.77906  23538070.920    96384495.97345
  22794593.400   119786411.87507  22794596.940    93340082.23447
  24013388.860   126191628.96906  24013390.820    98331362.15646
  23508417.560   123537598.48807  23508418.800    96263084.70246
 15 02 26 00 19 30.0000000  0  7G16G18G21G22G27G29G31
  21457261.380   112758677.62209  21457262.260    87863910.35248
  22205204.860   116689174.81808  22205205.520    90926650.26246
  21376344.160   112333669.30008  21376344.680    87532819.19848
  23519928.720   123598081.24306  23519928.580    96310207.00646
  22781980.760   119720132.30607  22781984.360    93288435.84247
  24027462.080   126265584.58106  24027464.240    98388989.86745
  23526219.540   123631148.24607  23526220.800    96335980.59945
 15 02 26 00 20  0.0000000  0  7G16G18G21G22G27G29G31
  21444924.160   112693845.05909  21444925.000    87813391.47648
  22194747.140   116634218.98408  22194747.760    90883827.54346
  21384330.820   112375639.52908  21384331.340    87565523.27248
  23501799.580   123502813.15906  23501799.480    96235972.16145
  22769385.240   119653942.28407  22769388.820    93236859.22647
  24041543.520   126339583.52107  24041545.820    98446651.36845
  23544039.820   123724794.22907  23544041.100    96408951.47246
 15 02 26 00 20 30.0000000  0  7G16G18G21G22G27G29G31
  21432650.960   112629349.06508  21432651.780    87763134.86448
  22184357.040   116579619.07608  22184357.740    90841282.16646
  21392371.740   112417895.04308  21392372.300    87598449.65148
  23483684.260   123407617.42406  23483684.140    96161793.68745
  22756806.800   119587841.73907  22756810.280    93185352.32247
  24055633.300   126413625.74106  24055635.520    98504346.63545
  23561877.620   123818532.96507  23561878.980    96481994.61546
 15 02 26 00 21  0.0000000  0  7G16G18G21G22G27G29G31
  21420442.440   112565192.88308  21420443.220    87713143.03448
  22174035.200   116525378.09508  22174036.080    90799016.47746
  21400466.720   112460434.64708  21400467.300    87631597.39148
  23465583.540   123312497.29907  23465583.200    96087674.13745
  22744245.600   119521831.80608  22744249.040    93133916.02347
  24069731.320   126487712.16905  24069733.620    98562076.29945
  23579732.760   123912362.75406  23579734.080    96555108.72146
 15 02 26 00 21 30.0000000  0  7G16G18G21G22G27G29G31
  21408299.180   112501379.71109  21408299.960    87663418.48648
  22163782.440   116471499.57308  22163783.400    90757033.21846
  21408615.760   112503258.57008  21408616.420    87664966.68148
  23447498.020   123217456.73006  23447497.420    96013616.58345
  22731701.840   119455913.72908  22731705.260    93082551.30247
  24083838.040   126561844.34006  24083840.580    98619841.57145
  23597604.800   124006281.74307  23597606.160    96628292.31345
 15 02 26 00 22  0.0000000  0  7G16G18G21G22G27G29G31
  21396221.320   112437910.12309  21396222.080    87613961.67048
  22153598.700   116417983.34808  22153599.640    90715332.27447
  21416818.060   112546362.29108  21416818.780    87698553.99648
  23429427.900   123122496.37107  23429426.920    95939621.53546
  22719175.240   119390085.64708  22719178.620    93031256.69647
  24097953.140   126636019.67806  24097955.440    98677640.58745
  23615493.000   124100284.87107  23615494.260    96701541.48546
 15 02 26 00 22 30.0000000  0  7G16G18G21G22G27G29G31
  21384209.020   112374784.88909  21384209.760    87564773.17748
  22143484.140   116364830.37208  22143484.980    90673914.38147
  21425073.220   112589743.52108  21425073.940    87732357.55448
  23411373.280   123027617.77707  23411372.140    95865690.19545
  22706665.520   119324346.55907  22706668.880    92980031.44347
  24112076.400   126710237.34506  24112078.240    98735472.51545
  23633396.480   124194367.85206  23633397.600    96774852.87246
 15 02 26 00 23  0.0000000  0  7G16G18G21G22G27G29G31
  21372263.200   112312009.11809  21372263.940    87515856.98848
  22133439.580   116312045.47408  22133440.320    90632783.30447
  21433381.300   112633402.62608  21433381.980    87766377.63648
  23393335.140   122932826.21507  23393333.900    95791826.66046
  22694173.240   119258699.31607  22694176.640    92928877.76047
  24126208.300   126784499.97706  24126209.940    98793339.45045
  23651315.240   124288530.49407  23651316.200    96848226.33546
 15 02 26 00 23 30.0000000  0  7G16G18G21G22G27G29G31
  21360384.140   112249584.24209  21360384.840    87467214.22948
  22123465.180   116259629.74808  22123465.940    90591939.88647
  21441741.800   112677337.04008  21441742.400    87800612.24248
  23375313.740   122838123.66007  23375312.600    95718032.48246
  22681698.360   119193143.32907  22681701.760    92877795.18547
  24140348.520   126858806.63607  24140349.940    98851240.69145
  23669248.460   124382769.17707  23669249.320    96921659.04645
 15 02 26 00 24  0.0000000  0  7G16G18G21G22G27G29G31
  21348572.700   112187514.81409  21348573.420    87418848.44148
  22113561.820   116207587.60008  22113562.700    90551387.57947
  21450154.940   112721548.17908  21450155.460    87835062.48448
  23357310.120   122743515.07106  23357309.200    95644311.54246
  22669241.320   119127681.33107  22669244.720    92826785.84447
  24154497.600   126933159.62007  24154498.980    98909178.06145
  23687195.960   124477083.18806  23687196.820    96995150.45246
 15 02 26 00 24 30.0000000  0  7G16G18G21G22G27G29G31
  21336828.740   112125800.06609  21336829.480    87370759.03148
  22103729.360   116155918.23908  22103730.400    90511125.74147
  21458619.740   112766030.92408  21458620.240    87869724.37048
  23339324.360   122649000.05806  23339323.680    95570663.50846
  22656801.580   119062310.27507  22656804.980    92775847.37147
  24168654.980   127007556.20807  24168656.360    98967149.45145
  23705156.580   124571466.69907  23705157.440    97068696.01245
 15 02 26 00 25  0.0000000  0  7G16G18G21G22G27G29G31
  21325153.360   112064445.66709  21325154.140    87322950.40648
  22093968.900   116104626.93108  22093970.000    90471158.50047
  21467136.620   112810787.37808  21467137.120    87904599.52548
  23321357.580   122554584.48807  23321357.100    95497092.95946
  22644379.820   118997034.00807  22644383.280    92724982.76447
  24182821.060   127081999.74706  24182822.740    99025157.34946
  23723130.500   124665920.43007  23723131.480    97142296.29246
 15 02 26 00 25 30.0000000  0  7G16G18G21G22G27G29G31
  21313546.340   112003450.22809  21313547.100    87275421.49148
  22084280.240   116053712.66508  22084281.320    90431485.05547
  21475704.340   112855811.19308  21475704.900    87939683.01748
  23303409.660   122460267.86007  23303409.300    95423599.50646
  22631975.460   118931848.95607  22631978.880    92674189.22947
  24196995.240   127156486.37505  24196997.080    99083198.92246
  23741116.520   124760437.46407  23741117.520    97215945.90046
 15 02 26 00 26  0.0000000  0  7G16G18G21G22G27G29G31
  21302008.500   111942818.48009  21302009.260    87228175.97548
  22074664.120   116003179.38008  22074665.120    90392108.48147
  21484323.320   112901104.14108  21484323.860    87974976.22748
  23285481.660   122366055.37907  23285481.280    95350187.20546
  22619588.980   118866757.85808  22619592.400    92623468.90147
  24211178.180   127231018.81905  24211180.420    99141276.13046
  23759114.400   124855017.13006  23759115.460    97289644.30446
 15 02 26 00 26 30.0000000  0  7G16G18G21G22G27G29G31
  21290539.800   111882550.19709  21290540.580    87181213.67448
  22065120.420   115953026.58508  22065121.280    90353028.39347
  21492992.540   112946661.18408  21492993.080    88010475.22248
  23267573.420   122271946.93807  23267573.160    95276855.96046
  22607220.000   118801758.35107  22607223.360    92572819.95347
  24225369.400   127305594.74905  24225371.900    99199387.23046
  23777123.300   124949654.45706  23777124.360    97363387.66146
 15 02 26 00 27  0.0000000  0  7G16G18G21G22G27G29G31
  21279140.780   111822648.42309  21279141.640    87134536.96848
  22055649.680   115903257.35808  22055650.440    90314247.19247
  21501712.040   112992482.55508  21501712.600    88046180.18648
  23249685.620   122177946.24807  23249685.520    95203608.70446
  22594868.700   118736851.73908  22594872.060    92522243.39547
  24239569.160   127380214.92505  24239571.840    99257532.76345
  23795142.680   125044347.04606  23795143.840    97437174.05346
 15 02 26 00 27 30.0000000  0  7G16G18G21G22G27G29G31
  21267811.820   111763114.60209  21267812.740    87088146.98148
  22046252.100   115853872.67908  22046252.820    90275765.63847
  21510481.160   113038564.69908  21510481.720    88082088.35348
  23231818.460   122084054.65507  23231818.600    95130446.44746
  22582534.920   118672037.13608  22582538.260    92471738.53147
  24253777.260   127454877.94605  24253779.440    99315711.81046
  23813171.780   125139091.20706  23813173.060    97511000.63445
 15 02 26 00 28  0.0000000  0  7G16G18G21G22G27G29G31
  21256553.960   111703954.36909  21256554.940    87042048.09848
  22036928.720   115804878.08608  22036929.440    90237588.04847
  21519300.380   113084910.24208  21519300.980    88118201.75848
  23213973.380   121990279.13906  23213973.760    95057374.63846
  22570219.420   118607318.57808  22570222.740    92421308.50547
  24267994.320   127529588.16606  24267996.140    99373927.47145
  23831210.820   125233887.90906  23831212.400    97584868.17745
 15 02 26 00 28 30.0000000  0  7G16G18G21G22G27G29G31
  21245367.020   111645166.58209  21245368.020    86996239.43748
  22027679.240   115756271.93308  22027680.000    90199713.13147
  21528168.720   113131513.67008  21528169.320    88154516.12448
  23196150.320   121896618.77307  23196150.800    94984392.55146
  22557921.580   118542692.73508  22557924.880    92370950.72447
  24282219.700   127604342.14305  24282221.280    99432177.27945
  23849258.620   125328730.44006  23849260.400    97658771.42545
 15 02 26 00 29  0.0000000  0  7G16G18G21G22G27G29G31
  21234251.640   111586754.70809  21234252.620    86950723.69348
  22018504.340   115708057.62908  22018505.160    90162143.55147
  21537085.920   113178374.30108  21537086.600    88191030.90148
  23178350.080   121803077.32107  23178350.440    94911503.12346
  22545641.660   118478161.09708  22545644.920    92320666.34547
  24296453.620   127679140.82606  24296454.720    99490462.02044
  23867315.000   125423617.22306  23867316.740    97732709.14845
 15 02 26 00 29 30.0000000  0  7G16G18G21G22G27G29G31
  21223208.800   111528723.92709  21223209.740    86905504.89848
  22009405.020   115660240.15308  22009405.880    90124883.18947
  21546052.260   113225492.99508  21546052.960    88227746.76348
  23160573.680   121709660.59907  23160573.760    94838710.89346
  22533380.240   118413726.88908  22533383.480    92270457.88547
  24310696.420   127753987.35007  24310697.540    99548783.83944
  23885379.920   125518548.28806  23885381.540    97806681.36145
 15 02 26 00 30  0.0000000  0  7G16G18G21G22G27G29G31
  21212238.520   111471074.52209  21212239.420    86860583.29248
  22000381.200   115612819.29608  22000382.060    90087931.88047
  21555067.280   113272867.25808  21555067.980    88264661.76948
  23142821.140   121616369.11607  23142820.940    94766016.24746
  22521136.980   118349388.44408  22521140.240    92220324.04547
  24324947.660   127828879.91407  24324948.780    99607141.67143
  23903452.460   125613518.92006  23903453.800    97880684.43945
 15 02 26 00 30 30.0000000  0  7G16G18G21G22G27G29G31
  21201340.580   111413805.17709  21201341.460    86815957.83548
  21991432.540   115565793.56108  21991433.400    90051288.45647
  21564129.860   113320491.50908  21564130.580    88301771.57548
  23125092.240   121523202.12207  23125091.800    94693418.62446
  22508911.360   118285142.65608  22508914.660    92170262.41247
  24339207.020   127903814.65206  24339208.260    99665532.44344
  23921531.220   125708522.44206  23921532.280    97954713.11045
 15 02 26 00 31  0.0000000  0  7G16G18G21G22G27G29G31
  21190516.320   111356923.14609  21190517.160    86771634.17548
  21982560.280   115519169.54108  21982561.120    90014958.05347
  21573240.640   113368368.86808  21573241.340    88339078.60848
  23107388.480   121430167.76807  23107387.900    94620924.33446
  22496704.380   118220994.87708  22496707.720    92120277.14047
  24353475.420   127978797.10006  24353477.120    99723960.25545
  23939616.700   125803561.53706  23939617.620    98028769.49745
 15 02 26 00 31 30.0000000  0  7G16G18G21G22G27G29G31
  21179765.080   111300424.98809  21179765.920    86727609.64248
  21973763.760   115472943.66808  21973764.580    89978937.90547
  21582398.240   113416492.02108  21582398.900    88376577.16648
  23089709.220   121337262.70307  23089708.660    94548530.80146
  22484514.920   118156939.36308  22484518.320    92070363.76047
  24367751.840   128053821.40804  24367754.220    99782420.76146
  23957707.220   125898627.27006  23957708.060    98102846.65245
 15 02 26 00 32  0.0000000  0  7G16G18G21G22G27G29G31
  21169088.700   111244320.40109  21169089.520    86683891.79048
  21965044.780   115427125.57608  21965045.660    89943235.51247
  21591603.700   113464866.72108  21591604.340    88414271.73648
  23072056.400   121244497.16207  23072055.920    94476245.99346
  22472344.600   118092984.17308  22472348.040    92020528.56647
  24382037.920   128128895.20406  24382040.320    99840919.86844
  23975803.540   125993724.29406  23975804.540    98176948.20146
 15 02 26 00 32 30.0000000  0  7G16G18G21G22G27G29G31
  21158485.880   111188602.43909  21158486.720    86640475.19948
  21956401.940   115381707.83708  21956402.940    89907845.08047
  21600855.020   113513482.40008  21600855.620    88452154.08548
  23054428.980   121151865.34307  23054428.620    94404065.37646
  22460191.780   118029120.58408  22460195.260    91970764.74447
  24396331.660   128204009.77505  24396334.080    99899450.60845
  23993903.460   126088840.96406  23993904.720    98251065.03846
 15 02 26 00 33  0.0000000  0  7G16G18G21G22G27G29G31
  21147958.040   111133278.38509  21147958.900    86597365.55448
  21947836.580   115336696.95808  21947837.580    89872771.68247
  21610152.800   113562342.41108  21610153.340    88490226.82148
  23036828.420   121059374.32807  23036828.000    94331994.47346
  22448057.380   117965353.76808  22448060.880    91921076.33147
  24410634.360   128279169.72805  24410636.620    99958016.84845
  24012007.460   126183979.11206  24012009.040    98325198.64046
 15 02 26 00 33 30.0000000  0  7G16G18G21G22G27G29G31
  21137506.000   111078352.42109  21137506.840    86554566.10148
  21939349.600   115292097.60008  21939350.500    89838018.94247
  21619497.100   113611446.97308  21619497.600    88528490.11648
  23019255.680   120967029.15007  23019255.100    94260037.19846
  22435941.940   117901686.42008  22435945.380    91871465.43147
  24424946.040   128354377.52006  24424948.420   100016620.21445
  24030115.520   126279138.13806  24030117.320    98399348.49646
 15 02 26 00 34  0.0000000  0  7G16G18G21G22G27G29G31
  21127129.380   111023822.78809  21127130.240    86512075.48348
  21930940.440   115247907.11608  21930941.240    89803584.81347
  21628886.820   113660790.18508  21628887.300    88566939.37448
  23001710.420   120874828.34707  23001709.720    94188192.43745
  22423844.660   117838114.54808  22423848.000    91821928.92647
  24439266.160   128429628.45106  24439268.400   100075257.28345
  24048226.240   126374311.16006  24048228.220    98473509.26045
 15 02 26 00 34 30.0000000  0  7G16G18G21G22G27G29G31
  21116829.540   110969696.64809  21116830.380    86469899.27448
  21922610.300   115204131.78808  21922611.080    89769474.17647
  21638322.580   113710375.37808  21638323.040    88605577.18948
  22984194.020   120782779.07807  22984193.180    94116465.76446
  22411766.500   117774643.34708  22411769.740    91772470.85747
  24453595.180   128504928.01406  24453597.440   100133932.24744
  24066340.000   126469499.82906  24066342.100    98547682.22646
 15 02 26 00 35  0.0000000  0  7G16G18G21G22G27G29G31
  21106606.380   110915973.68009  21106607.220    86428037.22148
  21914359.160   115160771.70008  21914359.940    89735687.10647
  21647803.780   113760199.32108  21647804.200    88644401.03648
  22966706.680   120690882.45707  22966705.800    94044858.02646
  22399707.100   117711270.88808  22399710.240    91723089.73447
  24467932.940   128580274.09004  24467935.280   100192643.54246
  24084455.860   126564699.24806  24084458.040    98621863.54846
 15 02 26 00 35 30.0000000  0  7G16G18G21G22G27G29G31
  21096459.820   110862653.49609  21096460.720    86386489.03648
  21906186.760   115117825.57908  21906187.580    89702222.60347
  21657329.500   113810257.23008  21657329.900    88683407.20248
  22949248.420   120599138.75207  22949247.640    93973369.43146
  22387666.040   117647994.93208  22387669.160    91673783.80747
  24482279.060   128655664.35506  24482281.560   100251389.05845
  24102572.860   126659904.49406  24102575.080    98696049.40846
 15 02 26 00 36  0.0000000  0  7G16G18G21G22G27G29G31
  21086390.300   110809738.04809  21086391.220    86345256.22348
  21898093.500   115075295.47608  21898094.440    89669082.26947
  21666899.260   113860546.73708  21666899.680    88722593.82748
  22931819.680   120507550.09507  22931819.060    93902001.65447
  22375643.380   117584815.55608  22375646.500    91624553.13947
  24496633.640   128731098.10105  24496636.120   100310168.60844
  24120690.400   126755112.10006  24120692.580    98770237.10746
 15 02 26 00 36 30.0000000  0  7G16G18G21G22G27G29G31
  21076399.340   110757235.35109  21076400.280    86304345.03548
  21890080.820   115033188.86908  21890081.880    89636271.93647
  21676513.920   113911072.19008  21676514.360    88761964.30948
  22914422.060   120416125.21907  22914421.660    93830761.51646
  22363640.280   117521739.18408  22363643.480    91575402.72747
  24510997.640   128806581.40406  24511000.160   100368986.73045
  24138808.980   126850324.70106  24138811.020    98844428.70146
 15 02 26 00 37  0.0000000  0  7G16G18G21G22G27G29G31
  21066485.780   110705139.41809  21066486.740    86263750.80348
  21882147.380   114991498.87008  21882148.580    89603786.22847
  21686171.680   113961824.18808  21686172.180    88801511.31448
  22897054.580   120324858.58707  22897054.400    93759644.67047
  22351655.260   117458757.78408  22351658.540    91526326.31447
  24525369.660   128882106.30605  24525372.180   100427837.30545
  24156926.540   126945531.67106  24156928.300    98918615.91045
 15 02 26 00 37 30.0000000  0  7G16G18G21G22G27G29G31
  21056651.460   110653459.74409  21056652.440    86223480.92748
  21874295.040   114950234.84908  21874296.320    89571632.46147
  21695873.620   114012808.26308  21695874.160    88841239.16348
  22879719.140   120233760.15907  22879719.100    93688658.91346
  22339689.820   117395879.26608  22339693.200    91477330.07747
  24539751.000   128957679.95906  24539753.500   100486725.79045
  24175043.880   127040737.75306  24175045.440    98992802.42845
 15 02 26 00 38  0.0000000  0  7G16G18G21G22G27G29G31
  21046896.240   110602195.60609  21046897.200    86183534.85048
  21866523.720   114909396.07408  21866524.940    89539810.04747
  21705618.860   114064019.97408  21705619.460    88881144.39248
  22862415.840   120142830.37307  22862415.780    93617804.56047
  22327743.540   117333101.31708  22327746.960    91428412.20247
  24554141.200   129033300.18806  24554143.700   100545650.63145
  24193159.860   127135937.46606  24193161.280    99066983.96545
 15 02 26 00 38 30.0000000  0  7G16G18G19G21G22G27G31
  21037222.860   110551361.42509  21037223.800    86143923.80448
  21858835.920   114868996.07908  21858837.100    89508329.53947
  24540700.840   128962256.00705  24540701.260   100490065.10845
  21715409.380   114115469.71708  21715410.040    88921235.09748
  22845147.420   120052083.84507  22845147.160    93547092.99947
  22315818.740   117270436.16008  22315822.160    91379582.21647
  24211276.340   127231140.14506  24211277.700    99141167.81245
 15 02 26 00 39  0.0000000  0  7G16G18G19G21G22G27G31
  21027616.780   110500880.93209  21027617.660    86104588.35748
  21851216.980   114828958.20808  21851218.140    89477131.20247
  24525361.040   128881644.80405  24525360.720   100427251.22244
  21725229.960   114167077.57608  21725230.720    88961449.01348
  22827899.400   119961444.68107  22827898.880    93476465.09346
  22303900.580   117207805.92208  22303903.980    91330779.44747
  24229377.800   127326264.49006  24229379.200    99215290.63945
 15 02 26 00 39 30.0000000  0  7G16G18G19G21G22G27G31
  21018103.120   110450886.40609  21018103.960    86065631.58748
  21843691.980   114789414.14508  21843693.100    89446317.66347
  24510042.540   128801146.03405  24510042.100   100364524.93945
  21735105.000   114218971.53208  21735105.800    89001885.85448
  22810697.060   119871046.21507  22810696.300    93406024.73846
  22292013.940   117145341.22808  22292017.360    91282105.66847
  24247488.600   127421437.77506  24247490.020    99289451.59245
 15 02 26 00 40  0.0000000  0  7G16G18G19G21G22G27G31
  21008668.760   110401308.50909  21008669.560    86026999.46048
  21836247.660   114750294.19208  21836248.760    89415834.58747
  24494731.820   128720688.49305  24494731.520   100301830.76145
  21745020.820   114271079.76408  21745021.660    89042489.66948
  22793527.360   119780819.51907  22793526.420    93335718.23246
  22280145.320   117082971.09308  22280148.740    91233505.57347
  24265594.600   127516585.97306  24265596.000    99363592.97345
 15 02 26 00 40 30.0000000  0  7G16G18G19G21G22G27G31
  20999315.140   110352154.97809  20999315.920    85988698.00948
  21828885.520   114711605.84308  21828886.600    89385687.83047
  24479430.080   128640278.28705  24479429.980   100239173.48644
  21754978.120   114323405.84708  21754978.980    89083263.24048
  22776391.840   119690772.93807  22776390.920    93265552.07546
  22268295.860   117020701.64008  22268299.280    91184983.94248
  24283696.340   127611711.88406  24283697.880    99437717.00246
 15 02 26 00 41  0.0000000  0  7G16G18G19G21G22G27G31
  20990042.960   110303429.26509  20990043.760    85950729.92148
  21821605.960   114673351.51308  21821607.080    89355879.26947
  24464137.680   128559916.85205  24464137.620   100176554.19945
  21764976.700   114375948.47208  21764977.520    89124205.53548
  22759291.340   119600910.13207  22759290.540    93195529.12646
  22256465.820   116958534.22608  22256469.240    91136541.80948
  24301793.560   127706813.65606  24301795.180    99511822.22245
 15 02 26 00 41 30.0000000  0  7G16G18G19G21G22G27G31
  20980852.540   110255133.09809  20980853.360    85913096.54648
  21814409.380   114635532.99908  21814410.500    89326410.30947
  24448854.520   128479603.49906  24448854.500   100113972.39145
  21775016.280   114428706.58408  21775017.100    89165315.75348
  22742226.480   119511234.14708  22742225.880    93125651.74746
  22244655.260   116896469.27808  22244658.660    91088179.52248
  24319885.840   127801888.99806  24319887.520    99585906.83845
 15 02 26 00 42  0.0000000  0  7G16G18G19G21G22G27G31
  20971744.440   110207269.65409  20971745.300    85875800.35648
  21807296.160   114598152.54708  21807297.280    89297282.69447
  24433580.880   128399339.65305  24433580.880   100051429.18245
  21785096.580   114481678.68508  21785097.380    89206592.71448
  22725198.040   119421748.71808  22725197.540    93055922.86047
  22232864.460   116834508.18208  22232867.840    91039898.16947
  24337972.760   127896935.82306  24337974.460    99659969.24045
 15 02 26 00 42 30.0000000  0  7G16G18G19G21G22G27G31
  20962719.360   110159842.46209  20962720.200    85838844.10948
  21800266.860   114561213.34208  21800268.000    89268498.90247
  24418316.880   128319126.81005  24418316.940    99988925.68245
  21795217.700   114534865.37408  21795218.480    89248036.88148
  22708206.700   119332457.75108  22708206.240    92986345.50447
  22221093.800   116772652.84408  22221097.160    90991699.21448
  24356054.100   127991952.67906  24356055.720    99734008.27345
 15 02 26 00 43  0.0000000  0  7G16G18G19G21G22G27G31
  20953777.200   110112850.80009  20953777.920    85802227.22748
  21793321.280   114524714.24008  21793322.480    89240058.05247
  24403062.120   128238962.34806  24403062.060    99926459.87845
  21805378.900   114588262.68808  21805379.660    89289645.17648
  22691252.380   119243361.20008  22691251.900    92916919.64847
  22209342.820   116710900.95108  22209346.180    90943580.87348
  24374128.640   128086934.25006  24374130.260    99808019.82745
 15 02 26 00 43 30.0000000  0  7G16G18G19G21G22G27G31
  20944918.600   110066298.48509  20944919.300    85765952.69648
  21786459.960   114488658.36008  21786461.300    89211962.56947
  24387817.000   128158848.48306  24387816.820    99864033.51645
  21815580.100   114641870.14308  21815580.840    89331417.21548
  22674335.780   119154463.46708  22674335.360    92847648.69847
  22197611.960   116649254.64708  22197615.300    90895544.80048
  24392196.280   128181879.42206  24392197.920    99882003.01345
 15 02 26 00 44  0.0000000  0  7G16G18G19G21G22G27G31
  20936143.580   110020185.42809  20936144.280    85730020.44448
  21779682.880   114453045.19408  21779684.300    89184212.05747
  24372581.120   128078783.41206  24372580.840    99801645.16645
  21825820.560   114695683.89008  21825821.260    89373350.00248
  22657457.120   119065765.35508  22657456.780    92778533.29247
  22185900.840   116587712.32008  22185904.180    90847589.74648
  24410256.160   128276783.81506  24410257.880    99955954.41446
 15 02 26 00 44 30.0000000  0  7G16G18G19G21G22G27G31
  20927452.540   109974513.75409  20927453.280    85694432.13148
  21772990.480   114417876.67408  21772991.900    89156808.02147
  24357354.540   127998767.07306  24357354.180    99739294.79444
  21836100.020   114749702.65408  21836100.680    89415442.54648
  22640616.900   118977269.78007  22640616.700    92709575.71647
  22174209.680   116526274.74608  22174213.000    90799716.33147
  24428307.700   128371644.67306  24428309.520   100029871.90045
 15 02 26 00 45  0.0000000  0  7G16G18G19G21G22G27G31
  20918846.060   109929286.67509  20918846.860    85659190.25148
  21766383.120   114383154.44708  21766384.400    89129751.74947
  24342137.500   127918800.57306  24342137.060    99676983.26244
  21846418.320   114803925.59408  21846418.920    89457694.18548
  22623815.840   118888980.20308  22623815.740    92640778.65246
  22162538.640   116464942.98608  22162541.980    90751925.35448
  24446350.560   128466459.83006  24446352.320   100103753.75045
 15 02 26 00 45 30.0000000  0  7G16G18G19G21G22G27G31
  20910324.420   109884505.46509  20910325.260    85624295.80648
  21759861.000   114348879.85508  21759862.100    89103044.28247
  24326930.000   127838884.16706  24326929.600    99614710.75445
  21856775.180   114858351.22408  21856775.780    89500103.76348
  22607054.420   118800898.85008  22607054.280    92572143.84547
  22150887.760   116403717.13808  22150891.080    90704216.90847
  24464384.220   128561226.36506  24464385.860   100177597.72245
 15 02 26 00 46  0.0000000  0  7G16G18G19G21G22G27G31
  20901888.280   109840173.42309  20901889.120    85589751.35448
  21753424.660   114315055.91108  21753425.600    89076687.97947
  24311732.160   127759018.77106  24311731.780    99552477.98845
  21867170.420   114912978.55008  21867171.000    89542670.50748
  22590333.420   118713029.71808  22590333.160    92503674.39546
  22139257.360   116342598.91508  22139260.640    90656592.32948
  24482408.240   128655942.87206  24482409.840   100251402.69846
 15 02 26 00 46 30.0000000  0  7G16G18G19G21G22G27G31
  20893538.360   109796294.31809  20893539.220    85555559.84748
  21747074.600   114281685.64508  21747075.420    89050685.18447
  24296544.360   127679206.68506  24296544.120    99490286.75545
  21877604.140   114967808.07908  21877604.700    89585394.81148
  22573653.760   118625377.78608  22573653.340    92435374.19946
  22127647.860   116281590.73108  22127651.120    90609053.49448
  24500422.560   128750608.71806  24500424.180   100325168.20845
 15 02 26 00 47  0.0000000  0  7G16G18G19G21G22G27G31
  20885274.840   109752869.01809  20885275.660    85521721.94748
  21740810.860   114248769.39308  21740811.660    89025036.16147
  24281366.340   127599446.46806  24281366.300    99428135.94746
  21888075.760   115022836.69008  21888076.300    89628274.24448
  22557015.640   118537944.13008  22557015.080    92367244.09547
  22116059.160   116220691.96908  22116062.420    90561599.92447
  24518426.260   128845219.61706  24518428.100   100398890.88045
 15 02 26 00 47 30.0000000  0  7G16G18G19G21G22G27G31
  20877097.880   109709898.82109  20877098.700    85488238.67748
  21734633.540   114216307.75108  21734634.380    88999741.37947
  24266198.100   127519737.74106  24266198.140    99366025.25646
  21898584.820   115078062.13108  21898585.340    89671307.05148
  22540419.520   118450730.80008  22540418.800    92299285.66046
  22104491.220   116159902.31508  22104494.500    90514231.36548
  24536418.780   128939772.13106  24536420.920   100472568.07745
 15 02 26 00 48  0.0000000  0  7G16G18G19G21G22G27G31
  20869007.480   109667383.66109  20869008.320    85455109.97848
  21728542.520   114184299.77208  21728543.480    88974800.09947
  24251039.340   127440078.72906  24251039.540    99303953.32745
  21909130.620   115133480.71608  21909131.120    89714490.36448
  22523865.460   118363738.28008  22523864.640    92231499.30446
  22092943.700   116099220.10608  22092947.020    90466946.53848
  24554399.340   129034261.73806  24554401.740   100546196.25546
 15 02 26 00 48 30.0000000  0  7G16G18G19G21G22G27G31
  20861004.120   109625325.83309  20861004.980    85422337.64748
  21722538.200   114152747.09608  21722539.260    88950213.60647
  24235890.320   127360470.26706  24235890.580    99241920.78345
  21919712.980   115189091.45908  21919713.460    89757823.40848
  22507354.000   118276969.54408  22507353.220    92163887.31847
  22081416.800   116038646.17908  22081420.180    90419746.08448
  24572367.500   129128686.16806  24572370.120   100619773.62045
 15 02 26 00 49  0.0000000  0  7G16G18G19G21G22G27G31
  20853088.180   109583727.46909  20853089.100    85389923.33548
  21716621.000   114121651.94008  21716622.080    88925983.61947
  24220751.000   127280912.17306  24220751.180    99179927.46845
  21930331.620   115244892.85208  21930332.080    89801305.01348
  22490885.740   118190427.86708  22490885.020    92096452.25847
  22069910.760   115978181.42108  22069914.100    90372630.70048
  24590323.020   129223042.95506  24590325.580   100693298.29745
 15 02 26 00 49 30.0000000  0  7G16G18G19G21G22G27G31
  20845260.400   109542592.20009  20845261.360    85357869.88149
  21710791.320   114091016.79908  21710792.420    88902112.08847
  24205621.800   127201407.09406  24205621.780    99117975.46145
  21940986.640   115300885.46708  21940987.120    89844935.61648
  22474461.480   118104117.76408  22474460.900    92029197.64247
  22058425.960   115917828.11308  22058429.240    90325602.15948
  24608265.680   129317331.41806  24608268.080   100766769.70245
 15 02 26 00 50  0.0000000  0  7G16G18G19G21G22G27G31
  20837520.980   109501921.05009  20837521.900    85326178.07748
  21705049.420   114060842.98208  21705050.560    88878600.03147
  24190502.480   127121954.32106  24190502.360    99056064.21745
  21951677.580   115357066.71508  21951678.040    89888713.21248
  22458081.480   118018041.01708  22458081.140    91962124.86647
  22046962.360   115857586.24208  22046965.560    90278660.44948
  24626194.800   129411548.15806  24626196.840   100840185.23345
 15 02 26 00 50 30.0000000  0  7G16G18G19G21G22G27G31
  20829870.480   109461717.11409  20829871.320    85294850.33648
  21699395.500   114031131.83608  21699396.780    88855448.50247
  24175393.180   127042554.34806  24175392.960    98994194.12545
  21962404.140   115413435.33908  21962404.640    89932636.81148
  22441746.500   117932200.94208  22441746.360    91895236.50147
  22035520.100   115797456.72008  22035523.260    90231806.28548
  24644109.900   129505690.86506  24644111.520   100913543.03745
 15 02 26 00 51  0.0000000  0  7G16G18G19G21G22G27G31
  20822309.020   109421981.36109  20822309.820    85263887.40548
  21693829.680   114001883.66008  21693831.080    88832657.72547
  24160293.840   126963206.59906  24160293.580    98932364.74145
  21973165.960   115469989.17708  21973166.500    89976704.73548
  22425456.880   117846599.02408  22425456.820    91828533.70347
  22024099.160   115737439.31008  22024102.300    90185039.48448
  24662010.340   129599756.22106  24662011.560   100986840.60245
 15 02 26 00 51 30.0000000  0  7G16G18G19G21G22G27G31
  20814836.800   109382714.55609  20814837.600    85233289.89649
  21688352.120   113973099.04508  21688353.560    88810228.15947
  24145204.380   126883910.72006  24145204.000    98870575.77345
  21983962.600   115526726.19508  21983963.200    90020915.39648
  22409213.060   117761237.45708  22409212.960    91762018.19647
  22012699.480   115677533.66608  22012702.640    90138359.76548
  24679895.280   129693740.75406  24679896.220   101060075.16845
 15 02 26 00 52  0.0000000  0  7G16G18G19G21G22G27G31
  20807454.500   109343920.31309  20807455.280    85203060.61448
  21682963.400   113944781.27008  21682964.840    88788162.36847
  24130125.100   126804668.64006  24130124.660    98808828.73345
  21994794.080   115583646.21408  21994794.740    90065268.64748
  22393015.960   117676120.81208  22393015.720    91695693.54647
  22001321.560   115617742.24308  22001324.740    90091769.05648
  24697764.560   129787643.60806  24697765.400   101133246.07845
 15 02 26 00 52 30.0000000  0  6G16G18G19G21G22G27
  20800161.160   109305593.52609  20800161.920    85173195.58148
  21677662.360   113916924.09008  21677663.800    88766455.48147
  24115054.760   126725473.54506  24115054.360    98747118.29145
  22005658.720   115640740.39308  22005659.380    90109757.61448
  22376864.700   117591244.54608  22376864.220    91629556.22447
  21989964.080   115558058.44508  21989967.340    90045262.21148
 15 02 26 00 53  0.0000000  0  6G16G18G19G21G22G27
  20792960.200   109267752.13909  20792960.920    85143708.78648
  21672452.380   113889545.24808  21672453.800    88745121.32247
  24099996.240   126646341.17206  24099996.020    98685456.70045
  22016559.260   115698022.82808  22016559.880    90154393.27248
  22360762.760   117506627.36508  22360761.960    91563620.78847
  21978630.280   115498498.95808  21978633.560    89998852.22648
 15 02 26 00 53 30.0000000  0  6G16G18G19G21G22G27
  20785849.660   109230385.95709  20785850.360    85114592.27349
  21667331.200   113862633.00808  21667332.560    88724150.75447
  24084947.540   126567260.14506  24084947.480    98623835.14745
  22027493.220   115755480.83408  22027493.760    90199165.73848
  22344708.220   117422259.58708  22344707.180    91497879.67647
  21967317.920   115439052.13708  21967321.220    89952530.03348
 15 02 26 00 54  0.0000000  0  6G16G18G19G21G22G27
  20778829.780   109193496.31009  20778830.520    85085847.09749
  21662299.060   113836188.78608  21662300.340    88703544.87347
  24069908.700   126488230.54406  24069908.660    98562253.66046
