     2.11           OBSERVATION DATA    G                   RINEX VERSION / TYPE
SPIDER V4,0,0,3554                      2015 03 24 00:16    PGM / RUN BY / DATE 
CBEJ                                                        MARKER NAME         
CBEJ                                                        MARKER NUMBER       
                                                            OBSERVER / AGENCY   
496519              LEICA GRX1200+GNSS  8.10/4.007          REC # / TYPE / VERS 
                    LEIAR25         NONE                    ANT # / TYPE        
  5095766.4657   453329.2088  3797108.6657                  APPROX POSITION XYZ 
        0.0730        0.0000        0.0000                  ANTENNA: DELTA H/E/N
     1     1                                                WAVELENGTH FACT L1/2
     4    C1    L1    P2    L2                              # / TYPES OF OBSERV 
    30.000                                                  INTERVAL            
  2015    02    26    10    12    0.0000000     GPS         TIME OF FIRST OBS   
  2015    02    26    23    59   30.0000000     GPS         TIME OF LAST OBS    
    16                                                      LEAP SECONDS        
    25                                                      # OF SATELLITES     
   G 2   801   801   800   800                              PRN / # OF OBS      
   G 3    70    70    70    70                              PRN / # OF OBS      
   G 5   639   639   639   639                              PRN / # OF OBS      
   G 6   408   408   404   404                              PRN / # OF OBS      
   G 7   440   439   440   439                              PRN / # OF OBS      
   G 9   352   352   351   351                              PRN / # OF OBS      
   G10   501   501   501   501                              PRN / # OF OBS      
   G12   817   817   817   817                              PRN / # OF OBS      
   G13   800   800   800   800                              PRN / # OF OBS      
   G14   437   437   437   437                              PRN / # OF OBS      
   G15   698   698   697   697                              PRN / # OF OBS      
   G16   173   173   173   173                              PRN / # OF OBS      
   G17   411   410   411   410                              PRN / # OF OBS      
   G18   410   409   409   409                              PRN / # OF OBS      
   G20   435   435   435   435                              PRN / # OF OBS      
   G21   381   377   374   374                              PRN / # OF OBS      
   G22    74    74    74    74                              PRN / # OF OBS      
   G23   167   167   165   165                              PRN / # OF OBS      
   G24   822   821   820   820                              PRN / # OF OBS      
   G25   843   843   843   843                              PRN / # OF OBS      
   G27   117   116   116   116                              PRN / # OF OBS      
   G28   568   568   568   568                              PRN / # OF OBS      
   G29   688   688   686   686                              PRN / # OF OBS      
   G30   577   576   566   566                              PRN / # OF OBS      
   G31   469   469   469   469                              PRN / # OF OBS      
BIT 2 OF LLI FLAGS DATA COLLECTED UNDER A/S CONDITION       COMMENT             
SNR is mapped to RINEX snr flag value [2-9]                 COMMENT             
Lx:     = 25dBHz -> 1; 26-27dBHz -> 2; 28-31dBHz -> 3       COMMENT             
       32-35dBHz -> 4; 36-38dBHz -> 5; 39-41dBHz -> 6       COMMENT             
       42-44dBHz -> 7; 45-48dBHz -> 8; >=49dBHz -> 9        COMMENT             
                                                            END OF HEADER       
 15 02 26 10 12  0.0000000  0  9G02G03G06G07G09G10G20G23G30
  22818934.160   119914309.91108  22818932.100    93439710.88747
  23499501.680   123490714.19708  23499506.760    96226550.25847
  20680553.980   108677046.97909  20680556.640    84683421.68249
  21050184.880   110619468.69509  21050183.900    86196985.80348
  20618309.020   108349944.18509  20618309.020    84428527.54549
  20832382.000   109474908.19909  20832381.380    85305119.92748
  20312269.580   106741698.00708  20312267.280    83175338.33748
  22183290.480   116573975.40508  22183288.500    90836852.51744
  22724571.240   119418429.02008  22724575.440    93053338.82047
 15 02 26 10 12 30.0000000  0  9G02G03G06G07G09G10G20G23G30
  22804459.700   119838246.14908  22804457.600    93380440.45847
  23514479.620   123569424.41208  23514484.880    96287882.77847
  20682572.840   108687657.05609  20682575.680    84691689.27049
  21039516.980   110563407.54809  21039516.020    86153301.85048
  20624365.980   108381774.00109  20624365.900    84453329.98949
  20823089.900   109426076.18909  20823089.000    85267069.06148
  20306640.960   106712120.41008  20306638.960    83152290.87648
  22195962.640   116640566.94608  22195959.980    90888741.95444
  22705265.100   119316974.72708  22705269.000    92974283.66047
 15 02 26 10 13  0.0000000  0  9G02G03G06G07G09G10G20G23G30
  22790055.580   119762551.83008  22790053.200    93321457.89047
  23529491.440   123648313.07008  23529496.700    96349354.33547
  20684704.420   108698859.80609  20684707.360    84700418.68049
  21028938.340   110507815.32209  21028937.500    86109983.27148
  20630473.400   108413869.62909  20630473.360    84478339.56149
  20813848.360   109377510.59209  20813847.500    85229225.75448
  20301073.260   106682862.59609  20301071.520    83129492.57748
  22208657.560   116707278.38708  22208654.100    90940724.82344
  22686001.000   119215740.95108  22686004.500    92895400.32747
 15 02 26 10 13 30.0000000  0  9G02G03G06G07G09G10G20G23G30
  22775723.960   119687237.93108  22775721.300    93262771.77247
  23544538.840   123727388.49008  23544544.240    96410971.42447
  20686950.480   108710663.70609  20686953.380    84709616.50849
  21018450.920   110452702.66209  21018450.180    86067038.38248
  20636632.640   108446238.48009  20636632.820    84503562.01649
  20804659.020   109329221.60009  20804658.420    85191597.96148
  20295568.400   106653934.59009  20295566.700    83106951.28648
  22221376.720   116774117.65808  22221373.100    90992807.31344
  22666781.040   119114739.15108  22666784.380    92816697.74047
 15 02 26 10 14  0.0000000  0  9G02G03G06G07G09G10G20G23G30
  22761464.400   119612302.47608  22761461.340    93204380.52247
  23559621.120   123806645.77808  23559626.160    96472730.19346
  20689310.240   108723063.92109  20689313.040    84719279.00349
  21008054.100   110398066.55709  21008053.400    86024464.83549
  20642842.720   108478874.55409  20642843.220    84528992.71149
  20795522.000   109281205.92609  20795521.080    85154183.21948
  20290125.720   106625333.21109  20290124.000    83084664.50749
  22234119.020   116841078.78408  22234115.440    91044984.77445
  22647604.680   119013967.39608  22647608.220    92738174.40148
 15 02 26 10 14 30.0000000  0  9G02G03G06G07G09G10G20G23G30
  22747278.480   119537754.42709  22747275.280    93146291.18546
  23574739.480   123886091.25208  23574743.900    96534635.54445
  20691784.920   108736066.92609  20691787.380    84729411.19248
  20997749.480   110343915.36609  20997748.820    85982269.12248
  20649104.800   108511783.26609  20649105.740    84554635.84049
  20786438.360   109233471.84809  20786437.540    85116987.82648
  20284746.680   106597066.52209  20284745.100    83062638.52648
  22246885.380   116908167.38607  22246882.120    91097261.52344
  22628473.840   118913435.07509  22628477.560    92659837.60547
 15 02 26 10 15  0.0000000  0  9G02G03G06G07G09G10G20G23G30
  22733165.460   119463589.67808  22733162.260    93088500.51947
  23589892.200   123965718.25608  23589896.120    96596682.39646
  20694373.040   108749666.06709  20694375.100    84740007.89949
  20987536.200   110290244.51509  20987535.680    85940447.70248
  20655417.500   108544956.96709  20655418.560    84580485.45549
  20777407.440   109186014.05109  20777406.660    85080007.71048
  20279430.440   106569129.54009  20279428.940    83040869.44948
  22259674.520   116975375.88207  22259671.440    91149631.70645
  22609388.160   118813138.60809  22609391.620    92581684.60747
 15 02 26 10 15 30.0000000  0  9G02G03G06G07G09G10G20G23G30
  22719126.380   119389813.21008  22719123.300    93031012.39547
  23605079.640   124045528.83908  23605084.120    96658872.33646
  20697074.940   108763863.45709  20697076.720    84751070.77149
  20977415.040   110237058.15309  20977414.680    85899003.80048
  20661780.880   108578396.73909  20661781.940    84606542.39349
  20768430.060   109138836.53909  20768429.080    85043246.06448
  20274177.700   106541526.20709  20274176.180    83019360.36948
  22272486.700   117042705.66407  22272483.480    91202096.42845
  22590348.600   118713083.09809  22590351.540    92503719.37947
 15 02 26 10 16  0.0000000  0  9G02G03G06G07G09G10G20G23G30
  22705161.760   119316428.18208  22705158.700    92973829.28147
  23620302.220   124125523.36908  23620306.540    96721205.58945
  20699890.620   108778659.45609  20699892.420    84762600.11349
  20967386.480   110184358.27509  20967386.100    85857938.98248
  20668194.920   108612102.00609  20668195.780    84632806.22949
  20759506.240   109091941.44909  20759505.400    85006704.42848
  20268988.840   106514258.64809  20268987.260    82998112.91248
  22285321.960   117110156.24307  22285318.600    91254655.27644
  22571355.580   118613271.95509  22571358.260    92425944.54447
 15 02 26 10 16 30.0000000  0  9G02G03G06G07G09G10G20G23G30
  22691272.460   119243439.17408  22691269.000    92916954.75747
  23635560.140   124205703.57608  23635564.800    96783683.51846
  20702820.600   108794055.75109  20702822.360    84774597.19949
  20957451.380   110132148.68509  20957450.780    85817256.22448
  20674659.520   108646073.51909  20674660.360    84659277.52249
  20750636.980   109045332.27209  20750636.160    84970385.60648
  20263864.520   106487329.94909  20263862.760    82977129.50848
  22298180.280   117177728.79507  22298176.940    91307309.13144
  22552409.820   118513710.00309  22552412.400    92348363.87048
 15 02 26 10 17  0.0000000  0  9G02G03G06G07G09G10G20G23G30
  22677457.720   119170842.01808  22677453.600    92860385.55347
  23650851.980   124286062.66708  23650856.860    96846300.81947
  20705863.620   108810045.54209  20705865.200    84787056.73349
  20947608.580   110080424.66109  20947607.880    85776951.82148
  20681173.220   108680303.44009  20681174.180    84685950.16649
  20741820.980   108999004.04209  20741820.240    84934285.68648
  20258803.680   106460735.16809  20258801.880    82956406.28249
  22311060.520   117245415.64008  22311057.480    91360052.10345
  22533510.680   118414393.34309  22533512.700    92270974.34847
 15 02 26 10 17 30.0000000  0  9G02G03G06G07G09G10G20G23G30
  22663718.200   119098640.20809  22663713.720    92804124.40746
  23666178.160   124366601.75008  23666183.220    96909058.40146
  20709019.760   108826629.87909  20709021.280    84799979.55748
  20937858.640   110029189.35809  20937858.020    85737028.21448
  20687736.200   108714792.01509  20687737.100    84712824.35948
  20733059.040   108952959.49709  20733058.040    84898406.83948
  20253806.900   106434477.31409  20253805.120    82935945.59048
  22323962.660   117313217.24108  22323959.820    91412884.44744
  22514658.820   118315326.28409  22514660.560    92193779.32147
 15 02 26 10 18  0.0000000  0  9G02G03G06G07G09G10G20G23G30
  22650055.660   119026842.90508  22650051.100    92748178.45847
  23681539.820   124447326.78808  23681545.020    96971960.88947
  20712289.960   108843814.74909  20712291.580    84813370.34248
  20928203.280   109978450.23809  20928202.620    85697491.26048
  20694349.500   108749544.32409  20694350.180    84739904.07249
  20724352.800   108907206.51009  20724351.680    84862755.18148
  20248875.700   106408563.96209  20248873.900    82915753.35349
  22336887.820   117381139.05708  22336885.360    91465810.48745
  22495855.880   118216517.85709  22495857.920    92116785.81347
 15 02 26 10 18 30.0000000  0  9G02G03G06G07G09G10G20G23G30
  22636469.840   118955449.64908  22636465.640    92692547.37447
  23696936.260   124528234.70208  23696941.540    97035005.89647
  20715673.500   108861596.89109  20715675.400    84827226.53649
  20918642.260   109928206.43409  20918641.420    85658340.27448
  20701012.060   108784556.36009  20701012.700    84767186.16849
  20715701.620   108861743.58009  20715700.440    84827329.51348
  20244009.900   106382993.86009  20244008.020    82895828.60049
  22349835.380   117449177.39708  22349833.040    91518827.32345
  22477102.020   118117968.04909  22477104.240    92039993.82348
 15 02 26 10 19  0.0000000  0  9G02G03G06G07G09G10G20G23G30
  22622960.080   118884456.31108  22622956.500    92637227.90647
  23712366.320   124609318.73508  23712371.360    97098188.09847
  20719169.060   108879969.43309  20719171.520    84841542.79849
  20909174.540   109878453.02509  20909173.720    85619571.37049
  20707722.480   108819820.33909  20707723.180    84794664.56249
  20707104.720   108816565.66909  20707103.180    84792125.96248
  20239208.500   106357762.07809  20239206.600    82876167.45749
  22362803.940   117517324.66808  22362801.300    91571929.06245
  22458396.880   118019673.09409  22458399.320    91963400.42148
 15 02 26 10 19 30.0000000  0  9G02G03G06G07G09G10G20G23G30
  22609527.520   118813868.13108  22609524.500    92582224.15247
  23727830.400   124690581.47908  23727835.180    97161509.53646
  20722777.540   108898934.85009  20722780.540    84856321.03149
  20899801.040   109829194.39009  20899800.440    85581188.01649
  20714481.320   108855337.97809  20714481.960    84822340.63449
  20698562.720   108771677.25609  20698561.000    84757147.99248
  20234472.200   106332872.29609  20234470.380    82856772.81249
  22375793.660   117585582.54407  22375790.460    91625116.98144
  22439741.500   117921638.58909  22439744.420    91887009.96748
 15 02 26 10 20  0.0000000  0  9G02G03G06G07G09G10G20G23G30
  22596173.480   118743692.27709  22596170.620    92527541.67047
  23743329.120   124772027.24808  23743334.060    97224973.63546
  20726500.040   108918497.42709  20726503.220    84871564.57749
  20890523.000   109780437.09909  20890522.420    85543195.32448
  20721289.160   108891112.81909  20721289.660    84850217.11849
  20690076.820   108727084.71509  20690075.260    84722400.54748
  20229802.280   106308331.11009  20229800.560    82837649.79749
  22388805.140   117653955.26407  22388801.420    91678394.37844
  22421137.060   117823872.18809  22421140.340    91810828.40948
 15 02 26 10 20 30.0000000  0  9G02G03G06G07G09G10G20G23G30
  22582898.000   118673929.03209  22582895.120    92473180.71747
  23758862.020   124853653.39908  23758867.000    97288578.27445
  20730335.940   108938654.26109  20730338.980    84887271.16249
  20881340.220   109732180.01409  20881339.380    85505592.42348
  20728145.220   108927141.26109  20728145.700    84878291.20049
  20681647.060   108682787.11209  20681645.800    84687882.94348
  20225198.520   106284137.67309  20225196.840    82818797.75249
  22401837.340   117722439.38307  22401833.320    91731758.55944
  22402583.780   117726374.13609  22402586.980    91734855.96048
 15 02 26 10 21  0.0000000  0  9G02G03G06G07G09G10G20G23G30
  22569701.300   118604579.51409  22569698.300    92419142.15047
  23774428.840   124935458.57508  23774433.540    97352322.39545
  20734284.660   108959403.83109  20734287.480    84903439.62049
  20872252.760   109684423.93309  20872251.620    85468379.93948
  20735048.920   108963421.08009  20735049.600    84906561.14849
  20673273.280   108638784.90809  20673272.520    84653595.50548
  20220660.880   106260292.10109  20220659.260    82800216.78849
  22414889.920   117791032.79407  22414885.940    91785207.89445
  22384081.920   117629146.12109  22384084.840    91659093.93048
 15 02 26 10 21 30.0000000  0  9G02G03G06G07G09G10G20G23G30
  22556582.840   118535641.19509  22556579.820    92365423.97147
  23790028.980   125017437.56708  23790033.920    97416201.96346
  20738345.000   108980740.67609  20738347.800    84920065.70249
  20863259.700   109637165.28109  20863258.480    85431555.03048
  20741999.340   108999946.13809  20741999.980    84935022.21249
  20664955.100   108595074.59809  20664954.660    84619535.51948
  20216188.820   106236791.09109  20216187.160    82781904.29749
  22427962.200   117859729.64408  22427958.500    91838737.79144
  22365631.220   117532186.05509  22365633.720    91583540.70248
 15 02 26 10 22  0.0000000  0  9G02G03G06G07G09G10G20G23G30
  22543543.900   118467120.77709  22543541.000    92312031.44047
  23805663.060   125099594.28508  23805668.320    97480220.03945
  20742517.700   109002668.46209  20742520.540    84937152.27248
  20854362.240   109590409.80609  20854361.000    85395122.22148
  20748997.060   109036719.47109  20748997.660    84963676.75648
  20656693.580   108551661.87508  20656693.440    84585707.42948
  20211783.400   106213640.34009  20211781.580    82763864.73648
  22441055.060   117928533.29808  22441051.800    91892350.96244
  22347232.900   117435500.94909  22347235.100    91508201.71947
 15 02 26 10 22 30.0000000  0  9G02G03G06G07G09G10G20G23G30
  22530585.000   118399020.57309  22530582.000    92258966.35547
  23821330.820   125181927.85208  23821336.120    97544375.91146
  20746802.640   109025186.13709  20746805.380    84954698.47948
  20845560.760   109544158.44209  20845559.560    85359082.23648
  20756041.740   109073739.40409  20756042.420    84992523.42249
  20648489.180   108508548.08209  20648489.140    84552112.25448
  20207444.700   106190840.51409  20207442.780    82746098.63248
  22454168.000   117997442.33407  22454165.260    91946046.25345
  22328887.140   117339092.93809  22328889.320    91433078.63548
 15 02 26 10 23  0.0000000  0  9G02G03G06G07G09G10G20G23G30
  22517706.840   118331343.90109  22517703.220    92206231.27847
  23837032.660   125264439.80008  23837038.020    97608670.76546
  20751200.220   109048294.91909  20751202.740    84972705.28948
  20836855.680   109498414.38309  20836854.860    85323437.54149
  20763133.460   109111006.56209  20763134.340    85021562.74449
  20640342.400   108465736.34309  20640342.320    84518752.48048
  20203173.380   106168395.13809  20203171.460    82728608.72548
  22467300.900   118066457.82607  22467298.940    91999824.53044
  22310594.840   117242966.61509  22310597.260    91358175.03848
 15 02 26 10 23 30.0000000  0  9G02G03G06G07G09G10G20G23G30
  22504908.060   118264083.52709  22504903.800    92153820.61647
  23852766.480   125347119.87708  23852772.160    97673096.66147
  20755708.400   109071984.30909  20755710.640    84991164.50549
  20828245.480   109453169.45509  20828245.120    85288181.75149
  20770270.220   109148509.91709  20770271.180    85050786.10949
  20632251.420   108423218.51809  20632251.420    84485621.70848
  20198967.840   106146295.67009  20198966.140    82711388.37049
  22480451.800   118135568.92607  22480450.560    92053677.32544
  22292354.840   117147114.82409  22292357.460    91283485.36248
 15 02 26 10 24  0.0000000  0  9G02G03G06G07G09G10G20G23G30
  22492192.280   118197259.92609  22492187.800    92101750.28847
  23868535.560   125429985.44608  23868540.940    97737667.09146
  20760330.300   109096271.36709  20760332.340    85010089.45148
  20819734.120   109408442.52609  20819733.920    85253329.63048
  20777455.120   109186266.02009  20777455.880    85080206.43048
  20624220.120   108381013.48909  20624220.180    84452734.66648
  20194831.820   106124561.15109  20194830.260    82694452.37748
  22493624.220   118204792.47507  22493623.480    92107617.70444
  22274171.060   117051558.05209  22274173.460    91209025.57947
 15 02 26 10 24 30.0000000  0  9G02G03G06G07G09G10G20G23G30
  22479557.880   118130865.86908  22479553.480    92050014.67547
  23884338.100   125513026.75608  23884342.840    97802374.42245
  20765063.920   109121145.97209  20765065.980    85029472.22749
  20811319.960   109364225.51209  20811319.660    85218874.84048
  20784686.000   109224264.23209  20784686.540    85109815.41148
  20616247.080   108339113.20809  20616246.860    84420085.10648
  20190763.780   106103183.46708  20190762.300    82677794.43748
  22506816.420   118274118.08308  22506815.900    92161637.59244
  22256042.160   116956289.58509  22256044.180    91134790.45947
 15 02 26 10 25  0.0000000  0  9G02G03G06G07G09G10G20G23G30
  22467005.860   118064906.58208  22467001.900    91998617.84647
  23900174.280   125596246.53308  23900179.120    97867220.84445
  20769909.760   109146610.60509  20769911.880    85049314.76348
  20803003.820   109320523.18209  20803003.300    85184821.10348
  20791963.260   109262506.60009  20791963.680    85139614.63548
  20608333.120   108297522.62109  20608332.460    84387676.87748
  20186764.540   106082167.41608  20186763.100    82661418.28148
  22520028.940   118343548.25508  22520028.240    92215738.94643
  22237968.980   116861315.26609  22237971.200    91060784.50148
 15 02 26 10 25 30.0000000  0  9G02G03G06G07G09G10G20G23G30
  22454536.300   117999381.33109  22454532.720    91947559.22047
  23916043.640   125679641.39008  23916048.740    97932203.68346
  20774867.060   109172661.40309  20774869.400    85069614.05049
  20794785.200   109277333.74509  20794784.620    85151167.02349
  20799286.100   109300988.75909  20799286.480    85169600.70948
  20600477.700   108256240.19509  20600476.720    84355508.75748
  20182833.700   106061511.28008  20182832.380    82645322.59148
  22533260.700   118413079.15908  22533259.400    92269918.75443
  22219951.740   116766634.67709  22219954.200    90987007.44548
 15 02 26 10 26  0.0000000  0  9G02G03G06G07G09G10G20G23G30
  22442148.680   117934286.38708  22442145.260    91896835.87746
  23931945.220   125763204.89008  23931950.380    97997317.91146
  20779934.580   109199291.62109  20779937.100    85090364.83449
  20786663.280   109234652.52809  20786662.440    85117908.95248
  20806653.260   109339703.58309  20806653.520    85199768.07448
  20592679.880   108215261.29209  20592678.760    84323577.14048
  20178970.440   106041210.37108  20178969.300    82629503.70548
  22546510.300   118482703.50008  22546508.340    92324171.33744
  22201989.800   116672244.51009  22201992.240    90913456.69248
 15 02 26 10 26 30.0000000  0  9G02G03G06G07G09G10G20G23G30
  22429845.560   117869635.02608  22429842.140    91846458.19947
  23947880.620   125846947.44908  23947886.520    98062571.73846
  20785114.280   109226511.27809  20785116.780    85111574.92249
  20778640.420   109192491.73909  20778639.200    85085056.42048
  20814066.580   109378660.78209  20814066.640    85230124.31048
  20584942.180   108174598.18409  20584940.940    84291891.61848
  20175177.100   106021276.81608  20175176.120    82613971.07948
  22559779.560   118552431.45408  22559776.740    92378504.72843
  22184085.700   116578158.34209  22184088.260    90840142.83648
 15 02 26 10 27  0.0000000  0  9G02G03G06G07G09G10G20G23G30
  22417626.100   117805422.41309  22417622.980    91796422.40647
  23963848.940   125930861.44008  23963855.040    98127959.11146
  20790404.640   109254312.29909  20790407.100    85133238.02749
  20770715.440   109150845.23309  20770714.120    85052604.62048
  20821524.520   109417851.81509  20821524.320    85260662.75548
  20577263.280   108134245.23709  20577262.260    84260447.75548
  20171452.640   106001704.71709  20171451.720    82598720.10348
  22573066.780   118622254.72908  22573063.080    92432912.40843
  22166238.580   116484371.53509  22166241.200    90767062.23048
 15 02 26 10 27 30.0000000  0  9G02G03G06G07G09G10G20G23G30
  22405490.140   117741647.84108  22405487.380    91746727.95147
  23979849.740   126014943.88308  23979855.420    98193477.70046
  20795805.000   109282691.25909  20795807.400    85155351.45149
  20762888.020   109109711.75309  20762886.680    85020552.56649
  20829026.160   109457272.99908  20829025.960    85291380.53048
  20569643.020   108094201.38109  20569642.280    84229244.74848
  20167796.880   105982493.07709  20167795.860    82583749.99049
  22586371.100   118692170.36207  22586367.200    92487392.00943
  22148448.300   116390884.18909  22148450.900    90694214.96948
 15 02 26 10 28  0.0000000  0  9G02G03G06G07G09G10G20G23G30
  22393439.340   117678320.06808  22393436.760    91697381.65548
  23995883.460   126099200.60708  23995889.220    98259132.13946
  20801316.380   109311653.63009  20801318.720    85177919.50349
  20755159.580   109069098.90509  20755158.300    84988906.20549
  20836572.400   109496929.54909  20836572.620    85322281.71348
  20562082.880   108054473.98809  20562082.360    84198288.35248
  20164211.140   105963649.31109  20164209.960    82569066.54249
  22599693.340   118762183.37506  22599689.960    92541947.52444
  22130716.600   116297705.31509  22130719.580    90621608.08048
 15 02 26 10 28 30.0000000  0  9G02G03G06G07G09G10G20G23G30
  22381473.980   117615441.14109  22381471.520    91648385.12147
  24011950.200   126183631.02908  24011956.200    98324921.89746
  20806938.740   109341198.21509  20806940.820    85200941.21549
  20747530.520   109029007.51509  20747529.220    84957666.16649
  20844163.160   109536819.91109  20844163.820    85353365.07548
  20554583.120   108015064.90909  20554583.160    84167579.96048
  20160695.640   105945174.74509  20160694.240    82554670.77248
  22613033.620   118832292.58707  22613031.560    92596578.03844
  22113044.220   116204837.28309  22113047.560    90549243.38548
 15 02 26 10 29  0.0000000  0  9G02G03G06G07G09G10G20G23G30
  22369593.560   117553008.30608  22369591.240    91599736.16747
  24028049.140   126268229.99508  24028054.940    98390842.99846
  20812670.980   109371319.45009  20812672.660    85224412.25649
  20740000.120   108989434.10709  20739998.700    84926829.75149
  20851797.460   109576938.29709  20851798.240    85384626.14548
  20547143.520   107975970.71309  20547143.940    84137116.93748
  20157249.720   105927065.80309  20157248.120    82540559.91548
  22626391.540   118902493.17407  22626390.840    92651279.69844
  22095430.780   116112278.02609  22095434.280    90477119.30148
 15 02 26 10 29 30.0000000  0  9G02G03G06G07G09G10G20G23G30
  22357798.800   117491026.26908  22357796.700    91551438.49448
  24044180.580   126352999.39808  24044185.780    98456896.84045
  20818513.080   109402018.70009  20818514.500    85248333.70249
  20732568.960   108950382.28309  20732567.440    84896399.78349
  20859475.560   109617285.88109  20859476.380    85416065.81148
  20539764.660   107937195.01809  20539765.200    84106902.10348
  20153874.120   105909326.36209  20153872.400    82526736.96749
  22639767.580   118972786.08108  22639767.780    92706053.23845
  22077877.080   116020032.47809  22077880.860    90405239.67648
 15 02 26 10 30  0.0000000  0  9G02G03G06G07G09G10G20G23G30
  22346090.220   117429497.59909  22346088.460    91503494.11948
  24060344.220   126437939.03508  24060349.560    98523083.38045
  20824464.720   109433295.16009  20824466.340    85272704.94349
  20725237.080   108911853.50909  20725235.800    84866377.38449
  20867197.040   109657861.77309  20867197.960    85447683.38748
  20532446.860   107898739.78809  20532447.300    84076936.99248
  20150568.980   105891957.64709  20150567.180    82513202.90449
  22653161.560   119043170.67308  22653161.920    92760898.25245
  22060383.740   115928103.61009  22060387.240    90333606.82048
 15 02 26 10 30 30.0000000  0  9G02G03G06G07G09G10G20G23G30
  22334468.220   117368423.72709  22334466.680    91455904.10348
  24076540.040   126523047.98408  24076545.460    98589401.81646
  20830525.740   109465147.43609  20830527.880    85297524.86649
  20718004.700   108873848.29409  20718003.760    84836762.94148
  20874961.480   109698664.34608  20874962.500    85479477.56747
  20525190.400   107860606.25809  20525190.720    84047222.54948
  20147334.520   105874960.69009  20147332.700    82499958.50548
  22666573.140   119113646.03308  22666572.760    92815814.01845
  22042950.960   115836493.52009  22042953.660    90262222.36948
 15 02 26 10 31  0.0000000  0  9G02G03G06G07G09G10G20G23G30
  22322933.280   117307807.23109  22322931.680    91408670.49947
  24092767.880   126608326.04007  24092773.420    98655852.04545
  20836696.400   109497574.83309  20836698.840    85322792.93249
  20710872.240   108836368.26109  20710871.640    84807557.73548
  20882768.740   109739692.70708  20882769.780    85511447.69447
  20517995.400   107822795.86509  20517995.800    84017759.89948
  20144171.060   105858337.42009  20144169.300    82487005.31248
  22680001.900   119184211.13009  22680000.540    92870799.73845
  22025579.100   115745205.09309  22025581.680    90191088.54348
 15 02 26 10 31 30.0000000  0  9G02G03G06G07G09G10G20G23G30
  22311485.480   117247648.33208  22311483.540    91361793.44147
  24109027.220   126693770.61007  24109032.900    98722432.03345
  20842976.180   109530574.05209  20842978.380    85348506.56048
  20703839.520   108799411.95909  20703839.100    84778760.63948
  20890618.400   109780943.61108  20890619.280    85543591.22647
  20510861.640   107785308.00009  20510861.920    83988548.58248
  20141078.500   105842086.72508  20141076.840    82474342.42648
  22693447.140   119254863.46109  22693445.160    92925853.42545
  22008268.840   115654238.76909  22008271.400    90120205.72548
 15 02 26 10 32  0.0000000  0  9G02G03G06G07G09G10G20G23G30
  22300125.600   117187951.96408  22300123.360    91315276.82148
  24125318.500   126779384.19507  24125324.700    98789143.74146
  20849365.160   109564147.08609  20849367.060    85374667.31949
  20696907.360   108762983.75409  20696906.920    84750375.04149
  20898511.060   109822418.85008  20898511.880    85575909.58447
  20503790.060   107748147.23709  20503790.220    83959592.14448
  20138057.680   105826212.97808  20138056.220    82461973.25948
  22706909.300   119325605.24509  22706906.940    92980976.79745
  21991021.040   115563600.16709  21991023.320    90049578.30048
 15 02 26 10 32 30.0000000  0  9G02G03G06G07G09G10G20G23G30
  22288853.480   117128716.64709  22288851.040    91269119.42848
  24141641.480   126865162.75908  24141648.320    98855983.97846
  20855862.260   109598289.04309  20855864.100    85401271.40349
  20690075.220   108727081.14109  20690074.700    84722398.98949
  20906445.560   109864113.61708  20906446.420    85608398.98148
  20496780.500   107711311.31509  20496780.500    83930888.80748
  20135108.180   105810713.77908  20135106.880    82449895.95148
  22720387.500   119396431.81708  22720385.080    93036166.24545
  21973835.200   115473288.17309  21973837.340    89979205.36148
 15 02 26 10 33  0.0000000  0  9G02G03G06G07G09G10G20G23G30
  22277670.160   117069948.40908  22277667.680    91223326.00148
  24157997.080   126951109.87808  24158003.840    98922955.51346
  20862468.040   109633003.10409  20862470.000    85428321.28948
  20683344.120   108691709.04309  20683343.520    84694836.34049
  20914422.460   109906031.01508  20914423.120    85641061.82647
  20489833.860   107674805.76309  20489833.760    83902442.93348
  20132230.960   105795594.62208  20132229.820    82438114.77948
  22733882.340   119467346.66608  22733879.960    93091424.48145
  21956712.640   115383309.57909  21956715.180    89909092.21248
 15 02 26 10 33 30.0000000  0  9G02G03G06G07G09G10G20G23G30
  22266575.460   117011646.46808  22266573.040    91177895.92748
  24174384.220   127037222.05308  24174390.800    98990055.68846
  20869181.680   109668285.01809  20869183.980    85455813.66349
  20676713.580   108656865.47209  20676712.980    84667685.52049
  20922440.660   109948166.85408  20922441.220    85673894.87847
  20482949.620   107638629.24809  20482949.600    83874253.46148
  20129425.700   105780853.69008  20129424.760    82426628.32948
  22747393.120   119538345.97908  22747390.960    93146748.55345
  21939653.460   115293663.93509  21939656.320    89839238.49448
 15 02 26 10 34  0.0000000  0  9G02G03G06G07G09G10G20G23G30
  22255570.060   116953814.07708  22255567.580    91132831.73148
  24190802.860   127123499.85808  24190809.000    99057284.87546
  20876003.460   109704134.69409  20876005.960    85483748.44549
  20670183.980   108622552.35809  20670183.440    84640948.03949
  20930500.380   109990520.99708  20930500.840    85706898.09247
  20476128.300   107602784.12809  20476128.440    83846322.20348
  20126692.980   105766493.26808  20126692.060    82415438.36748
  22760919.920   119609429.92408  22760918.100    93202138.55245
  21922658.580   115204354.75709  21922661.160    89769647.01548
 15 02 26 10 34 30.0000000  0  9G02G03G06G07G09G10G20G23G30
  22244654.540   116896452.81609  22244651.900    91088134.64547
  24207252.780   127209942.22808  24207258.740    99124642.29745
  20882933.200   109740550.43409  20882935.600    85512124.29148
  20663755.440   108588770.32309  20663754.960    84614624.37548
  20938601.340   110033091.89508  20938601.800    85740070.16746
  20469370.320   107567271.30709  20469370.720    83818649.87348
  20124033.000   105752514.38209  20124031.980    82404545.70648
  22774462.620   119680597.48408  22774461.060    93257593.69645
  21905728.040   115115384.23109  21905730.240    89700319.39448
 15 02 26 10 35  0.0000000  0  9G02G03G06G07G09G10G20G23G30
  22233829.160   116839563.87509  22233826.180    91043805.61247
  24223733.460   127296548.00007  24223739.660    99192127.08146
  20889970.400   109777530.29209  20889972.620    85540939.72249
  20657428.240   108555519.80609  20657427.700    84588714.89248
  20946743.300   110075877.73108  20946743.540    85773409.74547
  20462675.860   107532091.73009  20462676.420    83791237.21148
  20121445.740   105738917.55608  20121444.620    82393950.76248
  22788020.940   119751847.05008  22788019.440    93313112.76645
  21888862.300   115026754.10109  21888864.360    89631257.03348
 15 02 26 10 35 30.0000000  0  9G02G03G06G07G09G10G20G23G30
  22223094.180   116783148.51809  22223090.640    90999845.58147
  24240244.620   127383315.81107  24240251.740    99259738.14146
  20897114.500   109815072.23909  20897116.700    85570193.14649
  20651202.240   108522800.42409  20651201.600    84563219.27548
  20954925.720   110118876.58308  20954926.040    85806915.31146
  20456044.920   107497246.04209  20456045.540    83764084.73948
  20118931.220   105725703.12808  20118930.060    82383653.80348
  22801594.500   119823177.07308  22801593.160    93368694.55145
  21872061.640   114938466.12909  21872063.820    89562461.29248
 15 02 26 10 36  0.0000000  0  9G02G03G06G07G09G10G20G23G30
  22212450.740   116727214.21009  22212446.900    90956260.39848
  24256787.460   127470250.41807  24256795.340    99327479.17246
  20904366.220   109853180.25309  20904368.680    85599887.66649
  20645078.460   108490618.40809  20645077.560    84538142.39048
  20963149.240   110162092.60807  20963149.960    85840590.06047
  20449478.820   107462740.90909  20449479.440    83737197.62548
  20116490.720   105712877.63908  20116489.480    82373659.88948
  22815184.220   119894591.83807  22815183.020    93424342.33846
  21855327.660   114850528.07609  21855329.620    89493938.22448
 15 02 26 10 36 30.0000000  0  9G02G03G06G07G09G10G20G23G30
  22201897.380   116671754.99608  22201893.680    90913045.43248
  24273360.860   127557343.62608  24273368.540    99395343.74145
  20911724.020   109891845.34309  20911726.740    85630016.26049
  20639055.500   108458967.31609  20639054.400    84513479.20748
  20971412.640   110205517.00008  20971413.420    85874427.18546
  20442976.400   107428570.19309  20442976.980    83710571.09148
  20114122.940   105700434.65608  20114121.600    82363964.02348
  22828788.660   119966083.46308  22828787.400    93480049.99845
  21838659.380   114762934.72509  21838661.020    89425683.78048
 15 02 26 10 37  0.0000000  0  9G02G03G06G07G09G10G20G23G30
  22191436.220   116616782.45108  22191433.000    90870209.70148
  24289966.400   127644604.26508  24289973.660    99463338.80545
  20919189.320   109931075.57609  20919192.100    85660585.24049
  20633135.500   108427857.33009  20633134.200    84489237.67648
  20979717.360   110249157.97208  20979717.800    85908433.14646
  20436539.820   107394744.61509  20436540.220    83684213.50248
  20111829.980   105688384.99308  20111828.600    82354574.66348
  22842409.540   120037660.50708  22842408.140    93535824.21845
  21822058.720   114675698.05709  21822060.640    89357707.23748
 15 02 26 10 37 30.0000000  0  9G02G03G06G07G09G10G20G23G30
  22181066.320   116562290.93908  22181063.700    90827748.79748
  24306602.580   127732024.29208  24306608.820    99531458.02045
  20926760.280   109970862.09609  20926762.960    85691587.68649
  20627317.060   108397281.45009  20627315.660    84465412.31549
  20988061.700   110293007.02108  20988061.460    85942601.20746
  20430167.800   107361258.43609  20430167.900    83658120.37948
  20109610.700   105676722.19609  20109609.240    82345486.74949
  22856045.080   120109314.33408  22856043.560    93591658.28346
  21805524.760   114588812.99809  21805527.100    89290004.66348
 15 02 26 10 38  0.0000000  0  9G02G03G06G07G09G10G20G23G30
  22170788.160   116508280.68008  22170785.900    90785662.88148
  24323268.720   127819601.57108  24323274.040    99599699.74645
  20934436.540   110011201.98109  20934439.100    85723021.32849
  20621600.080   108367239.17209  20621598.840    84442002.73749
  20996445.040   110337061.44707  20996444.560    85976929.30846
  20423860.060   107328111.32709  20423860.000    83632291.46648
  20107465.020   105665445.71209  20107463.420    82336699.85849
  22869694.880   120181042.87008  22869693.360    93647550.55846
  21789058.060   114502280.45709  21789060.420    89222576.81048
 15 02 26 10 38 30.0000000  0  9G02G03G06G07G09G10G20G23G30
  22160602.880   116454757.70208  22160600.860    90743956.67148
  24339965.160   127907339.34308  24339970.060    99668066.53944
  20942218.680   110052097.67609  20942221.280    85754888.05548
  20615985.500   108337734.90909  20615984.520    84419012.38049
  21004867.580   110381324.00407  21004867.740    86011419.54346
  20417617.800   107295308.74409  20417617.700    83606731.02248
  20105393.960   105654561.19909  20105392.160    82328218.39048
  22883359.560   120252849.27508  22883357.900    93703503.51345
  21772659.680   114416106.75909  21772662.220    89155428.55348
 15 02 26 10 39  0.0000000  0  9G02G03G06G07G09G10G20G23G30
  22150510.960   116401724.01009  22150508.980    90702631.70448
  24356691.660   127995237.04208  24356696.740    99736557.95544
  20950106.160   110093547.72209  20950109.180    85787186.76349
  20610473.560   108308769.65009  20610472.660    84396442.03249
  21013329.300   110425793.61407  21013330.460    86046071.09947
  20411441.480   107262851.91409  20411441.300    83581439.97948
  20103397.600   105644069.37609  20103395.680    82320042.91349
  22897038.780   120324732.63708  22897036.800    93759516.44245
  21756330.100   114330294.32909  21756332.560    89088561.81148
 15 02 26 10 39 30.0000000  0  9G02G03G06G07G09G10G20G23G30
  22140512.800   116349182.04809  22140510.620    90661689.92148
  24373448.580   128083294.79408  24373454.000    99805174.07645
  20958099.000   110135551.42309  20958102.400    85819916.88749
  20605064.500   108280344.72209  20605063.620    84374292.72549
  21021830.980   110470469.82108  21021832.400    86080883.70147
  20405331.480   107230742.93009  20405331.160    83556419.99548
  20101476.240   105633972.00209  20101474.320    82312174.80749
  22910732.500   120396693.29308  22910730.320    93815589.60545
  21740069.800   114244846.32009  21740071.700    89021979.05548
 15 02 26 10 40  0.0000000  0  9G02G03G06G07G09G10G20G23G30
  22130608.260   116297132.60609  22130606.000    90621131.92848
  24390235.380   128171510.85708  24390241.500    99873913.57445
  20966196.940   110178106.15409  20966200.220    85853076.37048
  20599758.200   108252459.75609  20599757.320    84352564.16649
  21030371.920   110515350.38808  21030373.280    86115855.55447
  20399287.800   107198982.11809  20399287.340    83531671.30548
  20099629.920   105624269.13809  20099628.020    82304614.11249
  22924440.400   120468729.16208  22924438.060    93871721.32645
  21723879.140   114159764.01109  21723880.880    88955681.22248
 15 02 26 10 40 30.0000000  0  9G02G03G06G07G09G10G20G23G30
  22120797.960   116245578.79009  22120795.560    90580960.11347
  24407052.540   128259885.66308  24407059.460    99942776.76346
  20974399.800   110221211.35509  20974402.580    85886664.78148
  20594554.920   108225116.15709  20594553.880    84331257.43948
  21038951.580   110560435.29508  21038952.860    86150986.62346
  20393310.860   107167572.00909  20393310.180    83507195.88748
  20097859.200   105614963.48509  20097857.240    82297362.92648
  22938162.660   120540840.65508  22938160.280    93927911.99045
  21707758.620   114075050.84509  21707760.640    88889671.01648
 15 02 26 10 41  0.0000000  0  9G02G03G06G07G09G10G20G23G30
  22111081.620   116194518.87609  22111079.000    90541173.18648
  24423899.240   128348415.31208  24423906.940   100011760.63946
  20982706.360   110264862.35709  20982708.920    85920678.51248
  20589454.140   108198311.52109  20589453.100    84310370.70449
  21047569.120   110605720.21108  21047570.180    86186273.57346
  20387400.340   107136510.84809  20387399.360    83482992.39748
  20096163.580   105606052.81809  20096161.660    82290419.53149
  22951898.500   120613023.85108  22951896.340    93984158.50345
  21691708.180   113990706.00709  21691710.220    88823947.82548
 15 02 26 10 41 30.0000000  0  9G02G03G06G07G09G10G20G23G30
  22101459.340   116143953.60909  22101456.580    90501771.69147
  24440775.340   128437098.01308  24440783.360   100080863.73946
  20991116.060   110309056.38809  20991118.820    85955115.38748
  20584455.860   108172045.14609  20584454.700    84289903.39449
  21056224.200   110651202.85607  21056224.740    86221714.58046
  20381556.260   107105798.84609  20381554.880    83459060.95548
  20094543.060   105597536.88309  20094541.180    82283783.71149
  22965647.540   120685276.86108  22965645.780    94040459.41845
  21675728.160   113906730.58009  21675730.220    88758512.48248
 15 02 26 10 42  0.0000000  0  9G02G03G06G07G09G10G20G23G30
  22091932.380   116093888.81709  22091929.400    90462760.16847
  24457681.520   128525937.24108  24457689.260   100150088.79545
  20999629.720   110353795.98109  20999632.560    85989977.36848
  20579560.940   108146321.89709  20579559.680    84269859.31348
  21064917.300   110696886.27706  21064917.600    86257312.01946
  20375779.560   107075441.16609  20375777.920    83435405.61948
  20092998.660   105589420.98009  20092996.840    82277459.60849
  22979410.440   120757602.83908  22979408.940    94096817.22345
  21659819.560   113823131.16109  21659821.940    88693370.11048
 15 02 26 10 42 30.0000000  0  9G02G03G06G07G09G10G20G23G30
  22082500.340   116044322.23809  22082497.020    90424136.85147
  24474616.520   128614928.23007  24474623.300   100219432.07244
  21008246.280   110399075.21409  21008248.940    86025259.84648
  20574768.620   108121138.41409  20574767.660    84250235.81949
  21073647.740   110742765.32006  21073647.960    86293061.84644
  20370069.680   107045435.20809  20370068.080    83412024.34748
  20091529.780   105581701.76709  20091527.980    82271444.61449
  22993186.500   120829997.17408  22993185.240    94153228.26845
  21643982.320   113739905.95309  21643984.760    88628519.35648
 15 02 26 10 43  0.0000000  0  9G02G03G06G07G09G10G20G23G30
  22073164.360   115995260.81409  22073160.640    90385907.17647
  24491580.920   128704075.54707  24491586.520   100288897.15243
  21016966.460   110444898.01409  21016968.860    86060965.88648
  20570079.900   108096500.18309  20570079.380    84231037.17949
  21082416.360   110788843.99807  21082416.820    86328967.22644
  20364428.040   107015787.90109  20364426.560    83388922.54148
  20090137.840   105574386.23509  20090135.940    82265744.16749
  23006976.600   120902464.45208  23006975.300    94209696.12444
  21628217.840   113657062.49409  21628220.120    88563966.04948
 15 02 26 10 43 30.0000000  0  9G02G03G06G07G09G10G20G23G30
  22063924.740   115946706.88508  22063920.920    90348072.94547
  24508574.420   128793379.03106  24508580.580   100358483.95944
  21025789.880   110491263.18709  21025792.000    86097094.54748
  20565495.240   108072408.36309  20565494.980    84212264.32649
  21091222.960   110835121.80307  21091223.480    86365027.82945
  20358854.960   106986500.95209  20358853.540    83366101.53448
  20088823.000   105567475.73909  20088820.940    82260359.34949
  23020780.640   120975004.65708  23020779.440    94266220.81945
  21612526.600   113574603.75209  21612528.520    88499712.51248
 15 02 26 10 44  0.0000000  0  9G02G03G06G07G09G10G20G23G30
  22054782.180   115898663.95309  22054778.700    90310636.92147
  24525597.540   128882839.88307  24525603.760   100428193.35143
  21034716.340   110538170.85309  21034718.320    86133645.93048
  20561015.120   108048865.10209  20561014.940    84193918.93649
  21100067.380   110881599.56807  21100068.040    86401244.26345
  20353350.920   106957577.51809  20353349.460    83343563.78148
  20087585.700   105560973.21609  20087583.620    82255292.44049
  23034598.820   121047618.80608  23034597.660    94322803.17445
  21596909.320   113492533.80809  21596910.940    88435761.96448
 15 02 26 10 44 30.0000000  0  9G02G03G06G07G09G10G20G23G30
  22045734.420   115851118.54109  22045731.020    90273588.53047
  24542648.340   128972442.49208  24542654.360   100498013.12943
  21043742.440   110585604.23009  21043744.620    86170606.96849
  20556636.660   108025856.02409  20556636.440    84175989.77849
  21108946.640   110928261.08208  21108947.440    86437603.83945
  20347913.440   106929004.15609  20347911.980    83321298.81348
  20086423.280   105554864.85809  20086421.340    82250532.66549
  23048428.120   121120291.27708  23048426.940    94379430.94144
  21581363.540   113410839.95909  21581365.100    88372104.45848
 15 02 26 10 45  0.0000000  0  9G02G03G06G07G09G10G20G23G30
  22036783.060   115804079.45508  22036779.720    90236934.69648
  24559727.980   129062192.85608  24559734.700   100567948.08345
  21052869.120   110633568.41508  21052871.780    86207981.63548
  20552361.180   108003388.58009  20552360.960    84158482.67349
  21117861.960   110975112.14907  21117862.780    86474111.14145
  20342544.140   106900788.88509  20342542.740    83299312.88448
  20085337.200   105549158.25709  20085335.520    82246085.94549
  23062269.720   121193028.21208  23062268.300    94436108.91044
  21565890.860   113329531.26309  21565892.780    88308747.06148
 15 02 26 10 45 30.0000000  0  9G02G03G06G07G09G10G20G23G30
  22027928.900   115757551.51009  22027925.860    90200679.16347
  24576836.540   129152093.47508  24576843.920   100638000.10645
  21062097.240   110682064.80909  21062100.240    86245771.00748
  20548189.260   107981465.82509  20548189.160    84141399.99949
  21126813.860   111022154.83508  21126814.900    86510767.75745
  20337243.880   106872936.34809  20337242.740    83277609.58048
  20084328.300   105543857.87109  20084326.940    82241955.74949
  23076123.960   121265831.87008  23076122.560    94492838.87245
  21550492.420   113248613.18909  21550494.640    88245694.06348
 15 02 26 10 46  0.0000000  0  9G02G03G06G07G09G10G20G23G30
  22019173.420   115711541.90108  22019170.600    90164827.51447
  24593974.720   129242149.35708  24593982.240   100708173.12946
  21071427.800   110731097.44109  21071430.920    86283978.20948
  20544122.280   107960094.17609  20544122.100    84124746.77248
  21135803.200   111069393.82507  21135804.800    86547577.36045
  20332014.040   106845453.60609  20332013.040    83256194.43848
  20083398.060   105538970.60109  20083396.900    82238147.46148
  23089991.800   121338707.55108  23089990.760    94549624.97145
  21535169.640   113168093.73809  21535171.980    88182951.67148
 15 02 26 10 46 30.0000000  0  9G02G03G06G07G09G10G20G23G30
  22010515.660   115666045.35909  22010512.800    90129375.66548
  24611140.600   129332352.88207  24611148.040   100778461.18546
  21080859.020   110780657.64109  21080862.120    86322596.48149
  20540159.100   107939267.20209  20540158.740    84108517.96149
  21144828.300   111116821.24307  21144830.480    86584533.76745
  20326853.600   106818335.06609  20326852.580    83235063.10248
  20082545.420   105534490.31809  20082544.160    82234656.30449
  23103871.760   121411647.60108  23103871.100    94606461.23945
  21519922.200   113087968.29709  21519924.460    88120516.30348
 15 02 26 10 47  0.0000000  0  8G02G06G07G09G10G20G23G30
  22001958.120   115621073.99609  22001954.840    90094333.03247
  21090392.180   110830753.39009  21090395.120    86361632.09249
  20536301.640   107918995.14309  20536301.080    84092721.54549
  21153890.340   111164445.86906  21153893.520    86621643.78745
  20321764.480   106791591.93609  20321763.460    83214224.28948
  20081772.520   105530427.95709  20081770.940    82231490.80649
  23117765.780   121484661.22408  23117765.240    94663354.85245
  21504752.140   113008248.93309  21504754.560    88058397.33948
 15 02 26 10 47 30.0000000  0  8G02G06G07G09G10G20G23G30
  21993496.600   115576606.41609  21993492.900    90059682.94547
  21100022.660   110881360.80509  21100025.200    86401066.38148
  20532545.580   107899256.17409  20532544.880    84077340.52049
  21162985.400   111212244.57606  21162989.660    86658889.40044
  20316742.800   106765203.55209  20316741.980    83193661.87948
  20081075.200   105526762.59109  20081073.380    82228634.66248
  23131669.660   121557725.73407  23131668.800    94720288.14545
  21489655.540   112928915.79909  21489657.920    87996579.32948
 15 02 26 10 48  0.0000000  0  8G02G06G07G09G10G20G23G30
  21985134.340   115532660.83309  21985130.460    90025439.62748
  21109753.260   110932494.45709  21109755.480    86440910.74048
  20528894.120   107880066.90509  20528893.280    84062387.84549
  21172117.200   111260232.64507  21172121.460    86696282.66445
  20311792.100   106739187.70009  20311791.440    83173389.76848
  20080456.560   105523511.56109  20080454.720    82226101.38449
  23145586.160   121630856.89707  23145585.380    94777273.36245
  21474636.140   112849987.52309  21474638.280    87935076.81948
 15 02 26 10 48 30.0000000  0  9G02G05G06G07G09G10G20G23G30
  21976871.940   115489241.23309  21976868.300    89991606.15748
  24458929.340   128532532.81005  24458928.940   100155217.94545
  21119584.000   110984154.75109  21119586.300    86481165.46148
  20525347.880   107861429.95509  20525346.820    84047865.55349
  21181285.740   111308411.43907  21181289.060    86733824.53443
  20306913.020   106713547.75209  20306912.420    83153410.56748
  20079917.360   105520678.32409  20079915.620    82223893.64249
  23159515.520   121704056.52708  23159514.920    94834311.92845
  21459694.580   112771468.59909  21459696.760    87873893.25448
 15 02 26 10 49  0.0000000  0  9G02G05G06G07G09G10G20G23G30
  21968708.160   115446340.39609  21968704.960    89958176.94948
  24441029.460   128438466.93406  24441030.060   100081919.94243
  21129512.720   111036331.10509  21129515.460    86521822.33248
  20521905.140   107843337.09209  20521903.840    84033767.23449
  21190488.880   111356771.19407  21190491.180    86771507.47043
  20302104.000   106688276.43609  20302103.520    83133718.63948
  20079456.140   105518255.01709  20079454.500    82222005.33949
  23173456.300   121777315.31108  23173455.720    94891396.60545
  21444829.600   112693352.56509  21444831.740    87813023.65848
 15 02 26 10 49 30.0000000  0  9G02G05G06G07G09G10G20G23G30
  21960644.360   115403964.16509  21960641.080    89925156.49548
  24423129.420   128344404.05405  24423130.820   100008624.28344
  21139540.040   111089025.81309  21139543.020    86562883.09848
  20518566.520   107825792.71209  20518565.120    84020096.29249
  21199726.820   111405315.15206  21199729.100    86809333.84544
  20297366.200   106663379.45209  20297365.780    83114318.37548
  20079073.860   105516246.81108  20079072.340    82220440.47848
  23187409.280   121850636.77108  23187408.300    94948530.09645
  21430042.540   112615645.76109  21430044.400    87752472.93748
 15 02 26 10 50  0.0000000  0  9G02G05G06G07G09G10G20G23G30
  21952681.400   115362117.85309  21952677.780    89892548.96547
  24405230.040   128250349.32605  24405233.280    99935334.86344
  21149666.620   111142240.92909  21149669.380    86604349.35348
  20515332.960   107808801.11909  20515331.620    84006856.08049
  21208999.960   111454046.19406  21209002.160    86847306.01042
  20292700.760   106638862.09409  20292700.280    83095213.92448
  20078771.500   105514658.80209  20078770.160    82219203.04048
  23201374.900   121924024.06408  23201373.300    95005714.83544
  21415334.520   112538354.29809  21415336.260    87692245.84348
 15 02 26 10 50 30.0000000  0  9G02G05G06G07G09G10G20G23G30
  21944818.360   115320796.08009  21944814.140    89860350.15247
  24387331.360   128156297.69206  24387336.620    99862047.92444
  21159890.660   111195967.79709  21159893.280    86646214.36748
  20512203.320   107792355.58009  20512202.140    83994041.37149
  21218307.220   111502956.59606  21218310.480    86885418.00743
  20288106.540   106614718.83509  20288105.900    83076400.97048
  20078548.160   105513485.31109  20078546.960    82218288.59849
  23215351.660   121997469.94308  23215349.480    95062945.24144
  21400704.700   112461473.67509  21400706.260    87632338.87948
 15 02 26 10 51  0.0000000  0  9G02G05G06G07G09G10G20G23G30
  21937056.540   115280006.50209  21937051.840    89828566.02347
  24369434.380   128062256.36505  24369441.180    99788768.88245
  21170212.660   111250210.06609  21170215.560    86688481.01748
  20509178.660   107776461.68609  20509177.660    83981656.51449
  21227649.680   111552051.14705  21227652.540    86923673.31744
  20283584.840   106590956.66009  20283584.040    83057884.98448
  20078405.100   105512732.80309  20078403.940    82217702.19249
  23229340.420   122070979.87209  23229337.940    95120225.54244
  21386154.620   112385011.70109  21386155.940    87572758.14648
 15 02 26 10 51 30.0000000  0  9G02G05G06G07G09G10G20G23G30
  21929394.140   115239739.86109  21929389.360    89797189.40547
  24351538.520   127968215.70807  24351545.640    99715490.45844
  21180630.200   111304955.35209  21180633.560    86731139.62348
  20506257.160   107761109.46009  20506256.180    83969693.73848
  21237024.740   111601318.41905                                
  20279133.960   106567566.50309  20279133.120    83039658.88348
  20078340.520   105512391.86609  20078339.260    82217436.48849
  23243339.120   122144542.46308  23243336.660    95177546.88544
  21371682.500   112308960.01809  21371683.960    87513497.09948
 15 02 26 10 52  0.0000000  0  9G02G05G06G07G09G10G20G23G30
  21921831.620   115199998.29509  21921826.940    89766221.91847
  24333644.100   127874177.84407  24333650.480    99642214.21344
  21191143.220   111360202.34109  21191146.780    86774189.17648
  20503438.960   107746299.84009  20503438.120    83958153.77748
  21246433.040   111650757.93405  21246435.140    87000599.38654
  20274754.260   106544550.59609  20274753.420    83021724.39548
  20078354.560   105512463.75009  20078353.120    82217492.46549
  23257347.900   122218158.32308  23257345.720    95234909.74444
  21357289.000   112233321.44409  21357290.400    87454557.96948
 15 02 26 10 52 30.0000000  0  9G02G05G06G07G09G10G20G23G30
  21914370.080   115160787.88209  21914365.700    89735668.31148
  24315751.880   127780149.10808  24315756.080    99568945.09944
  21201752.320   111415953.93409  21201755.840    86817631.91748
  20500725.000   107732037.65809  20500724.340    83947040.38649
  21255875.400   111700373.63006  21255879.140    87039253.82743
  20270446.840   106521914.97709  20270446.020    83004086.22748
  20078448.380   105512954.95909  20078446.720    82217875.19449
  23271367.320   122291831.02808  23271365.640    95292316.88245
  21342975.440   112158103.08409  21342976.660    87395946.29048
 15 02 26 10 53  0.0000000  0  9G02G05G06G07G09G10G20G23G30
  21907009.960   115122112.25608  21907006.300    89705531.45148
  24297862.040   127686132.74808  24297863.360    99495685.68944
  21212457.460   111472210.00109  21212461.000    86861467.74349
  20498115.660   107718324.92909  20498115.060    83936355.13349
  21265351.240   111750166.52806  21265353.660    87078053.36642
  20266212.300   106499662.75309  20266211.520    82986746.81948
  20078622.340   105513868.10009  20078620.500    82218586.69849
  23285397.520   122365562.43108  23285396.880    95349769.82345
  21328742.560   112083308.87909  21328743.880    87337665.11248
 15 02 26 10 53 30.0000000  0  9G02G05G06G07G09G10G20G23G30
  21899750.900   115083968.78608  21899748.000    89675809.24847
  24279973.800   127592125.82008  24279973.560    99422433.63843
  21223257.600   111528964.69409  21223261.200    86905692.11048
  20495610.300   107705158.07309  20495609.520    83926095.23249
  21274859.280   111800131.86506  21274861.780    87116987.26143
  20262050.300   106477791.62109  20262049.540    82969704.37248
  20078875.940   105515200.00209  20078873.940    82219624.51348
  23299438.020   122439348.23408  23299438.400    95407265.16244
  21314590.100   112008937.12109  21314591.480    87279713.11148
 15 02 26 10 54  0.0000000  0  9G02G05G06G07G09G10G20G23G30
  21892593.240   115046359.84008  21892591.280    89646503.59248
  24262087.680   127498131.28908  24262087.380    99349191.19845
  21234152.500   111586216.79509  21234156.040    86950304.06148
  20493209.000   107692538.06309  20493207.900    83916261.45249
  21284399.900   111850269.52005  21284402.960    87156055.43544
  20257961.220   106456303.53909  20257960.640    82952960.40448
  20079209.500   105516952.75609  20079207.420    82220990.25649
  23313489.380   122513188.74708  23313490.280    95464803.12044
  21300518.280   111934990.78209  21300520.060    87222092.59948
 15 02 26 10 54 30.0000000  0  9G02G05G06G07G09G10G20G23G30
  21885538.700   115009291.43208  21885536.920    89617619.10448
  24244205.000   127404155.23808  24244205.440    99275963.18245
  21245142.520   111643969.10409  21245145.840    86995305.79449
  20490912.560   107680469.73709  20490911.140    83906857.55649
  21293974.160   111900583.57906  21293977.320    87195261.10944
  20253946.260   106435204.81309  20253945.740    82936519.83149
  20079624.200   105519132.42709  20079622.080    82222688.68349
  23327552.260   122587088.07308  23327553.300    95522386.89144
  21286528.560   111861476.76909  21286531.040    87164808.95749
 15 02 26 10 55  0.0000000  0  9G02G05G06G07G09G10G20G23G30
  21878587.060   114972761.52608  21878584.980    89589154.22248
  24226325.240   127310195.34308  24226326.140    99202747.72046
  21256226.720   111702216.08509  21256229.760    87040692.97349
  20488720.260   107668949.35409  20488718.660    83897880.64449
  21303581.380   111951069.56107  21303584.680    87234600.73144
  20250004.940   106414493.16809  20250004.400    82920380.87849
  20080119.560   105521735.99209  20080117.440    82224717.40449
  23341625.600   122661042.33707  23341626.280    95580013.48044
  21272620.860   111788393.70309  21272623.960    87107861.12049
 15 02 26 10 55 30.0000000  0  9G02G05G06G07G09G10G20G23G30
  21871738.300   114936770.67309  21871735.980    89561109.41047
  24208448.780   127216252.43808  24208449.740    99129545.49346
  21267404.680   111760954.85909  21267407.620    87086463.36648
