     2.11           OBSERVATION DATA    M                   RINEX VERSION / TYPE
SPIDER V4,0,0,3554                      2015 03 24 01:15    PGM / RUN BY / DATE 
CFKZ                                                        MARKER NAME         
CFKZ                                                        MARKER NUMBER       
                                                            OBSERVER / AGENCY   
496632              LEICA GRX1200+GNSS  8.10/4.007          REC # / TYPE / VERS 
10301036            LEIAR25         NONE                    ANT # / TYPE        
  5212138.8290   540257.5452  3624418.8863                  APPROX POSITION XYZ 
        0.0720        0.0000        0.0000                  ANTENNA: DELTA H/E/N
     1     1                                                WAVELENGTH FACT L1/2
     4    C1    L1    P2    L2                              # / TYPES OF OBSERV 
    30.000                                                  INTERVAL            
  2015    02    26    00    00    0.0000000     GPS         TIME OF FIRST OBS   
  2015    02    26    23    59   30.0000000     GPS         TIME OF LAST OBS    
    16                                                      LEAP SECONDS        
    38                                                      # OF SATELLITES     
   G 1   820   820   820   820                              PRN / # OF OBS      
   G 2   940   940   940   940                              PRN / # OF OBS      
   G 3   854   854   854   854                              PRN / # OF OBS      
   G 4   844   844   844   844                              PRN / # OF OBS      
   G 5   647   647   647   647                              PRN / # OF OBS      
   G 6   813   813   813   813                              PRN / # OF OBS      
   G 7   669   669   669   669                              PRN / # OF OBS      
   G 9   808   808   808   808                              PRN / # OF OBS      
   G10   765   765   765   765                              PRN / # OF OBS      
   G11   783   782   782   782                              PRN / # OF OBS      
   G12   835   835   834   834                              PRN / # OF OBS      
   G13   789   789   789   789                              PRN / # OF OBS      
   G14   936   932   928   927                              PRN / # OF OBS      
   G15   672   672   671   671                              PRN / # OF OBS      
   G16   673   673   673   673                              PRN / # OF OBS      
   G17   939   939   939   939                              PRN / # OF OBS      
   G18   910   905   898   898                              PRN / # OF OBS      
   G19   762   762   762   762                              PRN / # OF OBS      
   G20   787   787   787   787                              PRN / # OF OBS      
   G21   707   694   690   690                              PRN / # OF OBS      
   G22   661   661   661   661                              PRN / # OF OBS      
   G23   753   752   752   752                              PRN / # OF OBS      
   G24   818   812   811   811                              PRN / # OF OBS      
   G25   867   867   867   867                              PRN / # OF OBS      
   G27   815   815   815   815                              PRN / # OF OBS      
   G28   875   875   875   875                              PRN / # OF OBS      
   G29   750   750   750   750                              PRN / # OF OBS      
   G30   716   716   716   716                              PRN / # OF OBS      
   G31   851   850   850   850                              PRN / # OF OBS      
   G32   768   768   768   768                              PRN / # OF OBS      
   R 3    30    30    30    30                              PRN / # OF OBS      
   R 4    30    30    30    30                              PRN / # OF OBS      
   R 9    30    30    30    30                              PRN / # OF OBS      
   R10    30    30    30    30                              PRN / # OF OBS      
   R16    30    30    30    30                              PRN / # OF OBS      
   R18    30    30    30    30                              PRN / # OF OBS      
   R19    30    30    30    30                              PRN / # OF OBS      
   R20    30    30    30    30                              PRN / # OF OBS      
BIT 2 OF LLI FLAGS DATA COLLECTED UNDER A/S CONDITION       COMMENT             
SNR is mapped to RINEX snr flag value [2-9]                 COMMENT             
Lx:     = 25dBHz -> 1; 26-27dBHz -> 2; 28-31dBHz -> 3       COMMENT             
       32-35dBHz -> 4; 36-38dBHz -> 5; 39-41dBHz -> 6       COMMENT             
       42-44dBHz -> 7; 45-48dBHz -> 8; >=49dBHz -> 9        COMMENT             
                                                            END OF HEADER       
 15 02 26 00 00  0.0000000  0 16G16G18G21G22G25G27G29G31R03R04R09R10
                                R16R18R19R20
  22003359.300   115628443.62809  22003354.900    90100081.31347
  22646579.560   119008642.87509  22646575.800    92734013.28746
  21176282.540   111282395.45008  21176278.220    86713654.18048
  24101745.340   126655563.98508  24101740.720    98692653.54845
  24600692.240   129277755.49408  24600692.160   100736003.13445
  23197455.920   121903468.07108  23197455.420    94989719.02047
  23657193.840   124319844.94108  23657191.140    96872796.87846
  22674070.320   119153082.99309  22674066.800    92846562.10147
  22598436.160   120971202.73207  22598436.520    94088720.26407
  23258206.880   124546650.68507  23258207.000    96869617.84906
  19844351.360   105967740.27908  19844351.760    82419362.03506
  22687726.420   120938350.79408  22687731.860    94063182.25705
  20756350.160   110876736.96208  20756351.980    86237482.49808
  21763261.900   116174124.94409  21763263.900    90357817.10707
  20124607.560   107653252.12009  20124606.780    83730377.47108
  22703839.200   121407641.66806  22703842.100    94428184.14207
 15 02 26 00 00 30.0000000  0 16G16G18G21G22G25G27G29G31R03R04R09R10
                                R16R18R19R20
  21988872.760   115552316.48609  21988868.340    90040761.46847
  22634410.980   118944697.29209  22634407.200    92684185.58046
  21182667.860   111315950.51508  21182663.520    86739800.97748
  24083833.660   126561437.98108  24083829.120    98619308.79045
  24619677.300   129377522.76207  24619677.140   100813743.80445
  23184874.740   121837352.94308  23184873.960    94938200.74347
  23670792.680   124391307.67708  23670789.880    96928482.09846
  22690453.460   119239177.26909  22690450.020    92913648.53247
  22591394.340   120933508.69407  22591395.020    94059402.70607
  23238486.120   124441047.38207  23238486.520    96787481.99706
  19843223.620   105961717.78809  19843223.980    82414677.86806
  22667290.220   120829414.00408  22667295.480    93978453.58306
  20776374.000   110983700.84708  20776375.960    86320676.61408
  21777315.560   116249146.11609  21777317.580    90416166.90307
  20124540.840   107652895.13009  20124540.060    83730099.81608
  22691077.620   121339398.96007  22691080.260    94375106.47107
 15 02 26 00 01  0.0000000  0 16G16G18G21G22G25G27G29G31R03R04R09R10
                                R16R18R19R20
  21974429.920   115476419.05209  21974425.520    89981620.61447
  22622293.800   118881021.60909  22622290.060    92634568.17546
  21189118.640   111349849.60808  21189114.220    86766215.85148
  24065917.880   126467290.90408  24065913.620    98545947.60246
  24638691.200   129477440.68508  24638691.020   100891601.91545
  23172310.800   121771328.27508  23172309.740    94886752.96847
  23684397.200   124462799.54908  23684394.520    96984190.03046
  22706879.960   119325499.63009  22706876.580    92980912.67847
  22584472.360   120896455.85507  22584473.120    94030583.87307
  23218788.820   124335569.41708  23218789.160    96705443.61106
  19842250.480   105956520.80009  19842250.780    82410635.75506
  22646934.200   120720904.67208  22646939.320    93894057.45505
  20796489.480   111091154.48608  20796491.560    86404251.63708
  21791373.640   116324190.43108  21791375.900    90474534.70207
  20124525.160   107652811.20409  20124524.420    83730034.52608
  22678357.140   121271376.94907  22678360.080    94322200.54407
 15 02 26 00 01 30.0000000  0 16G16G18G21G22G25G27G29G31R03R04R09R10
                                R16R18R19R20
  21960031.280   115400753.88509  21960026.940    89922660.75047
  22610228.580   118817618.74409  22610224.900    92585163.36246
  21195634.640   111384091.35109  21195630.180    86792897.72648
  24047998.480   126373125.42208  24047994.420    98472572.02845
  24657733.460   129577508.25808  24657733.320   100969576.61944
  23159764.040   121705394.30408  23159762.900    94835375.87047
  23698007.420   124534321.03909  23698004.760    97039921.03246
  22723349.340   119412047.64409  22723346.080    93048352.66947
  22577670.780   120860047.61607  22577671.300    94002266.35407
  23199115.760   124230221.36307  23199116.140    96623506.26506
  19841432.000   105952149.90809  19841432.300    82407236.16906
  22626659.280   120612827.72108  22626664.180    93809997.59705
  20816695.940   111199094.06508  20816698.120    86488204.62208
  21805436.100   116399257.10108  21805438.520    90532919.88208
  20124560.380   107652999.07809  20124559.580    83730180.65208
  22665677.720   121203575.48507  22665681.140    94269466.10407
 15 02 26 00 02  0.0000000  0 16G16G18G21G22G25G27G29G31R03R04R09R10
                                R16R18R19R20
  21945676.340   115325318.50009  21945672.120    89863879.93547
  22598215.060   118754486.87109  22598211.280    92535969.71146
  21202214.700   111418669.67409  21202210.300    86819841.88048
  24030075.220   126278939.48408  24030071.280    98399180.55246
  24676803.120   129677719.27008  24676803.060   101047663.06044
  23147233.600   121639546.39709  23147232.460    94784065.84047
  23711622.580   124605867.37009  23711619.880    97095671.43646
  22739860.260   119498813.51909  22739857.040    93115962.43347
  22570989.480   120824281.54007  22570989.480    93974448.30507
  23179466.920   124125002.99008  23179466.980    96541669.79006
  19840767.360   105948600.74908  19840767.620    82404475.71606
  22606465.360   120505182.62008  22606470.160    93726273.61805
  20836991.760   111307510.91908  20836994.020    86572528.82808
  21819501.840   116474340.34409  21819504.300    90591317.92808
  20124645.260   107653452.75409  20124644.400    83730533.51708
  22653038.760   121135989.52206  22653041.520    94216899.19707
 15 02 26 00 02 30.0000000  0 16G16G18G21G22G25G27G29G31R03R04R09R10
                                R16R18R19R20
  21931367.420   115250124.87009  21931363.300    89805287.50247
  22586255.340   118691637.75109  22586251.520    92486996.37646
  21208860.400   111453592.83209  21208856.020    86847054.72448
  24012150.320   126184745.48808  24012146.680    98325782.76646
  24695901.680   129778082.11607  24695901.560   101125867.86945
  23134721.220   121573794.29509  23134719.880    94732830.45847
  23725243.960   124677447.92108  23725240.960    97151448.46246
  22756414.080   119585804.24109  22756410.840    93183747.39347
  22564430.700   120789170.56307  22564430.580    93947139.75507
  23159845.040   124019928.86407  23159845.240    96459945.52806
  19840258.460   105945883.59108  19840258.740    82402362.36206
  22586355.080   120397983.42308  22586359.600    93642896.47905
  20857378.040   111416410.50308  20857380.260    86657228.49008
  21833572.560   116549449.21209  21833574.840    90649735.91208
  20124781.340   107654180.64809  20124780.460    83731099.66308
  22640441.940   121068628.52507  22640445.220    94164507.42107
 15 02 26 00 03  0.0000000  0 16G16G18G21G22G25G27G29G31R03R04R09R10
                                R16R18R19R20
  21917102.940   115175164.80809  21917098.920    89746877.06648
  22574347.880   118629063.59209  22574344.020    92438237.30646
  21215569.280   111488848.21008  21215564.920    86874526.45248
  23994222.380   126090535.46908  23994218.940    98252372.52246
  24715026.780   129878584.67408  24715026.680   101204181.50645
  23122225.080   121508127.29108  23122223.860    94681661.40347
  23738869.920   124749052.56708  23738866.620    97207244.28846
  22773008.160   119673006.26809  22773004.900    93251697.01647
  22557992.640   120754706.10108  22557992.160    93920334.10007
  23140249.000   123914992.54208  23140248.960    96378328.38806
  19839903.420   105943987.99908  19839903.700    82400888.00606
  22566327.160   120291223.41408  22566331.580    93559860.94705
  20877851.920   111525777.99109  20877854.020    86742292.08308
  21847645.800   116624571.77009  21847647.980    90708164.55108
  20124966.340   107655170.27909  20124965.480    83731869.38208
  22627885.060   121001481.43707  22627887.940    94112281.89607
 15 02 26 00 03 30.0000000  0 16G16G18G21G22G25G27G29G31R03R04R09R10
                                R16R18R19R20
  21902883.620   115100441.94809  21902879.640    89688651.47747
  22562493.520   118566768.49609  22562489.600    92389695.68746
  21222341.320   111524435.69409  21222337.040    86902256.95548
  23976292.400   125996313.61808  23976288.980    98178953.04146
  24734178.540   129979227.24807  24734178.500   101282604.26045
  23109745.520   121442547.09908  23109744.440    94630559.94847
  23752500.740   124820682.86208  23752497.480    97263060.06046
  22789642.180   119760418.29409  22789639.000    93319810.26147
  22551675.980   120720892.80107  22551675.700    93894034.91207
  23120679.740   123810200.14208  23120680.020    96296823.25906
  19839702.600   105942915.79708  19839702.920    82400054.06506
  22546382.740   120184908.76008  22546387.000    93477171.77805
  20898412.940   111635610.72409  20898414.900    86827717.53208
  21861721.540   116699708.76709  21861723.540    90766604.44007
  20125200.360   107656422.04209  20125199.480    83732842.96308
  22615368.520   120934549.46407  22615371.700    94060223.75907
 15 02 26 00 04  0.0000000  0 16G16G18G21G22G25G27G29G31R03R04R09R10
                                R16R18R19R20
  21888711.100   115025965.01609  21888707.180    89630617.51447
  22550693.900   118504761.13009  22550689.940    92341378.27347
  21229177.540   111560360.14409  21229173.240    86930250.04148
  23958361.960   125902088.96408  23958358.420    98105531.37246
  24753357.820   130080014.77907  24753357.780   101361139.96444
  23097283.740   121377060.13208  23097282.540    94579531.15747
  23766137.480   124892344.91608  23766134.320    97318900.64646
  22806316.740   119848043.79309  22806313.620    93388089.84647
  22545482.480   120687739.34908  22545482.900    93868248.94107
  23101139.480   123705562.87808  23101139.600    96215438.71906
  19839657.260   105942673.87808  19839657.580    82399865.90306
  22526523.820   120079049.85108  22526528.060    93394837.14605
  20919061.500   111745911.15008  20919063.340    86913506.75208
  21875800.900   116774865.71509  21875803.080    90825059.81107
  20125484.400   107657941.36309  20125483.520    83734024.67808
  22602893.280   120867838.66607  22602896.240    94008337.60607
 15 02 26 00 04 30.0000000  0 16G16G18G21G22G25G27G29G31R03R04R09R10
                                R16R18R19R20
  21874584.700   114951730.65309  21874580.840    89572772.56248
  22538948.460   118443038.35309  22538944.560    92293282.61147
  21236076.620   111596614.84609  21236072.260    86958500.46448
  23940430.580   125807858.77908  23940426.860    98032105.36046
  24772563.320   130180940.15307  24772563.540   101439783.04245
  23084838.500   121311660.67708  23084837.900    94528570.59047
  23779779.260   124964033.27408  23779776.160    97374761.67646
  22823030.260   119935874.19109  22823027.180    93456529.09247
  22539411.720   120655242.60408  22539412.340    93842973.69107
  23081627.940   123601079.29608  23081628.160    96134173.75806
  19839766.360   105943256.59208  19839766.680    82400319.11406
  22506750.260   119973645.37208  22506754.640    93312855.87605
  20939795.620   111856669.23408  20939797.520    86999651.91208
  21889882.780   116850035.95809  21889884.820    90883525.56607
  20125817.000   107659720.73609  20125816.180    83735408.63108
  22590458.220   120801342.99907  22590461.060    93956618.78907
 15 02 26 00 05  0.0000000  0 16G16G18G21G22G25G27G29G31R03R04R09R10
                                R16R18R19R20
  21860505.320   114877743.23509  21860501.500    89515120.03148
  22527258.020   118381604.81809  22527254.160    92245412.34246
  21243038.600   111633200.21409  21243034.320    86987008.55148
  23922498.860   125713627.24908  23922494.940    97958678.33746
  24791794.980   130282003.91507  24791795.260   101518533.98345
  23072410.300   121246350.67608  23072409.620    94477679.71347
  23793426.340   125035750.16008  23793423.680    97430644.89546
  22839782.600   120023908.32609  22839779.500    93525127.10147
  22533464.500   120623407.03308  22533465.260    93818212.75407
  23062146.380   123496756.12108  23062146.520    96053033.54106
  19840030.240   105944666.08608  19840030.660    82401415.38906
  22487063.120   119868701.71508  22487067.520    93231233.08305
  20960614.900   111967882.54508  20960616.880    87086151.14308
  21903967.580   116925220.49809  21903969.680    90942002.42008
  20126198.340   107661761.11309  20126197.600    83736995.59108
  22578063.820   120735063.88507  22578066.700    93905068.37107
 15 02 26 00 05 30.0000000  0 16G16G18G21G22G25G27G29G31R03R04R09R10
                                R16R18R19R20
  21846472.940   114804002.66509  21846469.120    89457659.84648
  22515622.560   118320460.44909  22515618.740    92197767.40247
  21250062.640   111670111.78609  21250058.380    87015770.80148
  23904567.020   125619394.69408  23904562.640    97885250.45446
  24811052.220   130383202.08507  24811052.640   101597389.64945
  23059998.640   121181127.75108  23059997.980    94426856.68147
  23807078.400   125107492.95208  23807076.040    97486548.34146
  22856572.800   120112141.27309  22856569.640    93593880.02447
  22527640.880   120592232.71508  22527641.680    93793966.03607
  23042695.380   123392595.57408  23042695.360    95972019.80506
  19840448.520   105946900.05208  19840449.040    82403152.91606
  22467462.720   119764220.24408  22467467.240    93149969.73206
  20981518.220   112079544.75808  20981520.260    87172999.51108
  21918054.480   117000415.80109  21918056.240    91000487.66808
  20126627.680   107664058.23909  20126626.940    83738782.24908
  22565709.360   120668998.43607  22565712.180    93853684.15407
 15 02 26 00 06  0.0000000  0 15G16G18G21G22G27G29G31R03R04R09R10R16
                                R18R19R20
  21832489.100   114730517.02609  21832485.260    89400398.31248
  22504043.660   118259613.46509  22504039.940    92150354.18447
  21257149.560   111707353.99909  21257145.320    87044790.70748
  23886636.660   125525169.62208  23886632.120    97811828.42746
  23047604.760   121115997.91808  23047604.500    94376106.20147
  23820736.580   125179267.71708  23820734.560    97542476.68246
  22873401.340   120200575.48509  22873398.020    93662789.78047
  22521942.560   120561728.30108  22521943.420    93770240.37807
  23023276.520   123288608.10708  23023276.220    95891140.68206
  19841022.380   105949964.42708  19841022.900    82405536.31206
  22447951.020   119660211.44808  22447955.540    93069074.01806
  21002505.940   112191657.53008  21002508.020    87260198.32308
  21932144.360   117075627.27409  21932146.300    91058985.47208
  20127105.960   107666616.78209  20127105.200    83740772.23708
  22553395.700   120603152.39907  22553398.620    93802470.58807
 15 02 26 00 06 30.0000000  0 15G16G18G21G22G27G29G31R03R04R09R10R16
                                R18R19R20
  21818552.160   114657277.84709  21818548.300    89343328.83148
  22492519.820   118199055.88709  22492516.180    92103166.46947
  21264297.020   111744914.43309  21264292.800    87074058.57248
  23868706.220   125430944.07708  23868701.600    97738406.01446
  23035226.720   121050950.46108  23035226.220    94325419.86347
  23834399.020   125251063.84808  23834397.080    97598421.74246
  22890265.720   120289197.78809  22890262.200    93731846.09747
  22516367.660   120531885.05507  22516368.200    93747028.98707
  23003888.620   123184787.61807  23003888.540    95810391.43807
  19841749.800   105953848.61408  19841750.340    82408557.33306
  22428526.760   119556668.75308  22428531.180    92988540.82605
  21023575.220   112304205.69508  21023577.360    87347735.77208
  21946234.920   117150843.10409  21946236.820    91117486.65408
  20127630.840   107669424.69909  20127630.120    83742956.16808
  22541120.800   120537514.45007  22541123.620    93751418.88107
 15 02 26 00 07  0.0000000  0 15G16G18G21G22G27G29G31R03R04R09R10R16
                                R18R19R20
  21804663.860   114584294.26109  21804659.980    89286458.50748
  22481053.000   118138797.33009  22481049.340    92056211.75847
  21271506.020   111782798.33609  21271501.820    87103578.49648
  23850777.440   125336727.57108  23850772.760    97664990.66146
  23022865.740   120985992.19508  23022865.000    94274803.04447
  23848066.740   125322887.60508  23848064.760    97654388.23046
  22907166.660   120378012.12009  22907162.980    93801052.06447
  22510917.920   120502712.24008  22510918.020    93724339.04307
  22984533.920   123081145.17707  22984534.000    95729780.68106
  19842632.040   105958559.36108  19842632.520    82412221.24406
  22409191.980   119453603.13308  22409196.140    92908378.65005
  21044726.540   112417192.04408  21044728.720    87435614.02308
  21960327.320   117226069.37809  21960329.400    91175995.95108
  20128203.380   107672487.35609  20128202.640    83745338.24108
  22528886.240   120472091.10107  22528889.320    93700534.06907
 15 02 26 00 07 30.0000000  0 15G16G18G21G22G27G29G31R03R04R09R10R16
                                R18R19R20
  21790824.540   114511568.10409  21790820.640    89229788.78748
  22469643.480   118078839.31009  22469639.640    92009491.23147
  21278776.180   111821003.48409  21278771.940    87133348.74548
  23832850.860   125242522.28908  23832846.200    97591584.02046
  23010521.600   120921122.59208  23010520.900    94224255.33047
  23861739.800   125394738.76908  23861737.500    97710376.17546
  22924103.380   120467014.89309  22924099.660    93870404.85747
  22505593.800   120474211.86708  22505593.820    93702172.10707
  22965213.280   122977685.05808  22965213.500    95649311.75206
  19843668.920   105964095.82008  19843669.300    82416527.37806
  22389947.320   119351018.16508  22389951.200    92828590.33906
  21065958.960   112530611.61008  21065961.120    87523829.22408
  21974421.260   117301304.44309  21974423.400    91234512.12208
  20128823.220   107675802.81509  20128822.440    83747916.93908
  22516691.640   120406881.47206  22516694.600    93649815.47907
 15 02 26 00 08  0.0000000  0 15G16G18G21G22G27G29G31R03R04R09R10R16
                                R18R19R20
  21777035.520   114439106.19209  21777031.580    89173324.95548
  22458292.420   118019188.61409  22458288.500    91963010.18547
  21286108.140   111859532.87909  21286103.840    87163371.64448
  23814927.740   125148335.38508  23814923.020    97518191.69746
  22998195.200   120856346.30308  22998194.100    94173780.31247
  23875418.720   125466622.47308  23875416.200    97766389.43246
  22941076.240   120556207.87109  22941072.600    93939905.85547
  22500396.480   120446390.77408  22500396.740    93680533.52307
  22945928.460   122874416.41808  22945928.660    95568991.71806
  19844861.360   105970462.98008  19844861.660    82421479.59606
  22370794.560   119248922.97908  22370798.600    92749182.95606
  21087272.500   112644464.72608  21087274.600    87612381.62908
  21988517.640   117376552.52809  21988519.860    91293038.39307
  20129490.960   107679374.49009  20129490.080    83750694.91108
  22504537.900   120341889.50207  22504541.060    93599266.20907
 15 02 26 00 08 30.0000000  0 15G16G18G21G22G27G29G31R03R04R09R10R16
                                R18R19R20
  21763295.740   114366902.80109  21763291.720    89117062.57848
  22446998.800   117959839.96709  22446994.880    91916764.50547
  21293499.900   111898376.66908  21293495.560    87193639.53948
  23797007.000   125054161.59208  23797002.380    97444809.61046
  22985884.980   120791655.30808  22985883.800    94123371.77147
  23889102.420   125538530.50208  23889099.820    97822421.65346
  22958083.120   120645579.98108  22958079.660    94009546.43847
  22495324.960   120419243.13508  22495325.280    93659418.72207
  22926678.740   122771335.77808  22926678.980    95488817.90906
  19846207.660   105977652.14208  19846207.960    82427071.16006
  22351732.760   119147313.21308  22351737.200    92670153.20206
  21108664.860   112758739.01708  21108666.980    87701261.61908
  22002614.660   117451804.22409  22002616.760    91351567.45907
  20130204.800   107683192.88209  20130203.860    83753664.77108
  22492423.280   120277106.57207  22492426.100    93548879.51907
 15 02 26 00 09  0.0000000  0 15G16G18G21G22G27G29G31R03R04R09R10R16
                                R18R19R20
  21749606.520   114294965.19309  21749602.440    89061007.30248
  22435764.020   117900800.71009  22435760.040    91870759.90647
  21300952.100   111937538.17608  21300947.760    87224155.00548
  23779090.200   124960008.42408  23779085.580    97371443.59846
  22973591.800   120727054.48708  22973590.840    94073033.50047
  23902791.520   125610467.66608  23902788.760    97878476.58346
  22975124.440   120735133.27109  22975121.140    94079328.20447
  22490380.700   120392776.24207  22490381.260    93638833.35607
  22907465.880   122668452.58008  22907466.280    95408797.69207
  19847708.720   105985668.00108  19847709.060    82433305.71806
  22332763.700   119046197.70808  22332768.160    92591507.82806
  21130136.180   112873435.19008  21130138.360    87790469.74308
  22016713.260   117527063.72708  22016715.260    91410102.62407
  20130965.400   107687261.37009  20130964.420    83756829.16208
  22480348.440   120212537.50307  22480351.280    93498659.19207
 15 02 26 00 09 30.0000000  0 15G16G18G21G22G27G29G31R03R04R09R10R16
                                R18R19R20
  21735968.220   114223295.39609  21735964.140    89005160.71548
  22424588.480   117842072.77209  22424584.520    91824997.88847
  21308464.460   111977015.98109  21308460.120    87254916.93348
  23761177.740   124865878.18208  23761172.960    97298095.44346
  22961315.700   120662543.77208  22961314.600    94022765.42847
  23916486.000   125682433.82108  23916483.520    97934554.11346
  22992199.680   120824864.57109  22992196.440    94149248.67447
  22485563.900   120366991.65508  22485564.600    93618778.74207
  22888290.860   122565771.42008  22888291.100    95328934.59706
  19849364.500   105994510.22308  19849364.900    82440182.99506
  22313888.280   118945581.29508  22313892.540    92513250.62006
  21151685.600   112988548.68908  21151687.900    87880002.45008
  22030813.140   117602330.28209  22030815.240    91468643.25507
  20131772.480   107691578.54609  20131771.520    83760186.98008
  22468313.600   120148181.47607  22468316.680    93448604.51308
 15 02 26 00 10  0.0000000  0 15G16G18G21G22G27G29G31R03R04R09R10R16
                                R18R19R20
  21722381.180   114151895.34209  21722377.180    88949524.32548
  22413472.540   117783658.18909  22413468.640    91779480.04247
  21316036.500   112016807.46409  21316032.140    87285923.28548
  23743270.060   124771773.06408  23743265.280    97224766.83146
  22949056.600   120598122.57808  22949055.520    93972567.10647
  23930185.940   125754428.51908  23930183.840    97990653.82245
  23009308.160   120914770.31109  23009304.840    94219305.07547
  22480875.040   120341891.36308  22480875.860    93599256.33007
  22869154.340   122463296.07908  22869154.560    95249231.57106
  19851174.840   106004177.83108  19851175.400    82447702.24606
  22295106.940   118845466.81509  22295111.580    92435383.86006
  21173312.240   113104074.71908  21173314.700    87969856.00408
  22044914.060   117677602.22809  22044916.320    91527188.11507
  20132625.620   107696142.50309  20132624.700    83763736.72808
  22456318.320   120084037.31607  22456321.000    93398714.60607
 15 02 26 00 10 30.0000000  0 15G16G18G21G22G27G29G31R03R04R09R10R16
                                R18R19R20
  21708845.160   114080763.43109  21708841.200    88894096.86548
  22402415.900   117725555.49809  22402412.140    91734205.23447
  21323667.340   112056907.40809  21323662.880    87317169.99548
  23725366.920   124677692.18308  23725362.120    97151457.12146
  22936813.940   120533787.35208  22936813.120    93922435.75747
  23943890.760   125826448.12808  23943888.760    98046773.00246
  23026448.640   121004843.97609  23026445.260    94289492.32547
  22476313.740   120317473.56407  22476314.020    93580264.67907
  22850056.500   122361027.66008  22850056.660    95169689.50006
  19853139.080   106014666.85908  19853139.740    82455860.37106
  22276420.000   118745855.29608  22276425.020    92357908.25705
  21195014.620   113220005.28708  21195017.200    88060024.21508
  22059015.160   117752875.31409  22059017.800    91585733.80008
  20133523.860   107700947.90409  20133523.040    83767474.27208
  22444361.920   120020101.16507  22444364.880    93348986.57007
 15 02 26 00 11  0.0000000  0 15G16G18G21G22G27G29G31R03R04R09R10R16
                                R18R19R20
  21695361.060   114009904.16309  21695357.100    88838881.86248
  22391419.540   117667769.20809  22391415.800    91689176.97047
  21331356.900   112097315.86309  21331352.400    87348657.10148
  23707469.340   124583640.18008  23707464.440    97078169.91046
  22924588.020   120469540.07108  22924587.200    93872372.96547
  23957600.920   125898494.64108  23957598.720    98102913.14646
  23043620.960   121095084.56709  23043617.500    94359809.63847
  22471880.520   120293742.36607  22471880.520    93561807.10607
  22830998.420   122258972.57108  22830998.720    95090313.37406
  19855257.500   106025978.84808  19855258.180    82464658.58206
  22257828.360   118646752.21109  22257833.640    92280828.12806
  21216792.300   113336338.01708  21216794.900    88150505.20708
  22073116.820   117828150.65008  22073119.520    91644281.30607
  20134467.460   107705995.73909  20134466.740    83771400.36208
  22432444.780   119956374.20707  22432447.840    93299421.17908
 15 02 26 00 11 30.0000000  0 15G16G18G21G22G27G29G31R03R04R09R10R16
                                R18R19R20
  21681929.480   113939320.74909  21681925.520    88783881.80048
  22380484.120   117610302.99109  22380480.340    91644398.09547
  21339105.060   112138032.33309  21339100.500    87380384.22048
  23689578.060   124489621.10108  23689572.980    97004908.33846
  22912379.140   120405381.83208  22912378.260    93822379.54047
  23971316.460   125970569.46008  23971314.160    98159075.31846
  23060824.740   121185490.31309  23060821.100    94430255.67247
  22467575.780   120270701.17307  22467576.180    93543886.19707
  22811981.200   122157136.43607  22811981.360    95011107.50206
  19857530.200   106038114.46108  19857530.820    82474097.38206
  22239333.220   118548163.25408  22239338.360    92204147.76705
  21238644.680   113453069.55208  21238647.300    88241296.37908
  22087218.880   117903428.69208  22087221.620    91702830.86007
  20135456.200   107711285.45709  20135455.580    83775514.58908
  22420566.840   119892857.44907  22420569.340    93250019.24507
 15 02 26 00 12  0.0000000  0 15G16G18G21G22G27G29G31R03R04R09R10R16
                                R18R19R20
  21668550.500   113869013.81409  21668546.560    88729097.19148
  22369609.620   117553156.88409  22369605.840    91599868.68247
  21346911.220   112179053.92809  21346906.620    87412349.09748
  23671693.160   124395635.57708  23671688.040    96931672.93946
  22900186.980   120341311.15208  22900186.200    93772454.34547
  23985037.200   126042670.89308  23985034.720    98215258.23246
  23078059.060   121276056.72909  23078055.320    94500826.89247
  22463399.940   120248349.99708  22463400.460    93526502.00507
  22793005.340   122055522.52308  22793005.600    94932074.49206
  19859956.680   106051071.61908  19859957.240    82484175.16106
  22220935.020   118450090.97508  22220940.060    92127869.32605
  21260570.700   113570194.03608  21260573.280    88332393.18208
  22101321.180   117978706.98009  22101324.140    91761380.61207
  20136489.740   107716814.33309  20136489.120    83779814.83808
  22408727.760   119829548.61807  22408730.620    93200779.09007
 15 02 26 00 12 30.0000000  0 15G16G18G21G22G27G29G31R03R04R09R10R16
                                R18R19R20
  21655224.940   113798987.62609  21655220.980    88674531.33048
  22358796.820   117496335.15209  22358793.020    91555592.01847
  21354775.180   112220379.00709  21354770.460    87444550.45548
  23653815.500   124301687.94508  23653810.340    96858467.05146
  22888011.780   120277329.35108  22888010.800    93722598.41447
  23998763.060   126114800.36708  23998760.540    98271463.05646
  23095323.600   121366782.22309  23095319.900    94571522.05547
  22459353.880   120226692.28507  22459354.800    93509657.09107
  22774072.100   121954136.73908  22774072.540    94853218.93406
  19862537.040   106064850.93208  19862537.620    82494892.39806
  22202634.780   118352540.29908  22202639.760    92051996.57206
  21282569.780   113687708.56408  21282572.300    88423793.36308
  22115423.700   118053986.03909  22115425.940    91819931.03307
  20137567.940   107722582.16509  20137567.340    83784300.93108
  22396927.520   119766448.29007  22396930.500    93151701.06308
 15 02 26 00 13  0.0000000  0 15G16G18G21G22G27G29G31R03R04R09R10R16
                                R18R19R20
  21641953.600   113729246.22609  21641949.600    88620187.39348
  22348046.600   117439842.65409  22348042.800    91511571.91647
  21362697.300   112262009.99909  21362692.560    87476990.18848
  23635945.980   124207783.22708  23635940.800    96785294.61646
  22875854.000   120213439.15208  22875852.820    93672813.86347
  24012494.520   126186960.63008  24012492.260    98327691.77146
  23112618.340   121457666.42709  23112614.680    94642340.90147
  22455438.340   120205732.57507  22455439.240    93493355.14607
  22755182.980   121852986.22508  22755183.400    94774546.34107
  19865271.800   106079454.57108  19865272.380    82506250.77306
  22184433.620   118255518.39908  22184438.860    91976535.17706
  21304641.580   113805611.36408  21304644.000    88515495.52708
  22129526.760   118129268.02109  22129528.820    91878483.66207
  20138691.060   107728590.38609  20138690.460    83788973.98708
  22385166.760   119703558.72908  22385169.280    93102787.01607
 15 02 26 00 13 30.0000000  0 15G16G18G21G22G27G29G31R03R04R09R10R16
                                R18R19R20
  21628736.780   113659791.35009  21628732.780    88566066.70848
  22337359.320   117383681.12009  22337355.540    91467809.68047
  21370677.120   112303944.35709  21370672.380    87509666.31148
  23618084.960   124113923.55108  23618079.820    96712157.25546
  22863713.440   120149639.73208  22863712.220    93623100.01947
  24026231.520   126259150.77308  24026229.180    98383943.84346
  23129942.600   121548705.51309  23129938.940    94713280.43047
  22451653.780   120185472.28707  22451654.780    93477597.15307
  22736338.560   121752074.78608  22736338.700    94696059.69806
  19868160.600   106094880.95108  19868161.200    82518249.05706
  22166332.300   118159028.29008  22166337.420    91901487.30205
  21326784.960   113923897.05308  21326787.320    88607495.49108
  22143629.840   118204551.23809  22143631.740    91937037.22407
  20139858.760   107734836.88709  20139858.160    83793832.38308
  22373445.160   119640878.62007  22373447.980    93054035.89507
 15 02 26 00 14  0.0000000  0 15G16G18G21G22G27G29G31R03R04R09R10R16
                                R18R19R20
  21615573.580   113590618.42709  21615569.620    88512165.73448
  22326734.000   117327845.08409  22326730.280    91424301.09347
  21378712.800   112346172.50308  21378708.140    87542571.35648
  23600231.680   124020104.26808  23600226.520    96639051.37146
  22851588.740   120085923.77509  22851587.500    93573451.22747
  24039973.100   126331363.68908  24039971.020    98440213.63646
  23147294.380   121639889.29909  23147290.760    94784332.71247
  22447998.820   120165905.36707  22447999.540    93462378.46007
  22717538.140   121651399.38308  22717538.280    94617756.65606
  19871201.940   106111121.92208  19871202.620    82530880.91906
  22148330.100   118063066.46008  22148334.960    91826850.29205
  21348997.780   114042553.99108  21349000.080    88699784.20808
  22157731.720   118279827.34809  22157733.680    91995585.31407
  20141069.320   107741312.72809  20141068.740    83798869.14608
  22361761.440   119578399.81007  22361764.160    93005441.22908
 15 02 26 00 14 30.0000000  0 15G16G18G21G22G27G29G31R03R04R09R10R16
                                R18R19R20
  21602465.880   113521737.22809  21602462.000    88458492.07648
  22316172.600   117272344.79409  22316168.880    91381054.13047
  21386805.540   112388700.62009  21386800.980    87575710.14848
  23582388.080   123926335.71908  23582382.900    96565985.02147
  22839481.340   120022299.11609  22839480.080    93523873.59947
  24053720.600   126403607.13408  24053718.660    98496507.18246
  23164674.560   121731222.40709  23164670.960    94855501.33347
  22444475.160   120147041.48608  22444475.840    93447706.57607
  22698784.220   121550972.98708  22698784.160    94539647.25006
  19874397.240   106128184.76308  19874397.920    82544152.01106
  22130429.340   117967645.19208  22130434.120    91752633.74805
  21371280.640   114161585.67508  21371283.000    88792364.38007
  22171833.660   118355103.86409  22171835.440    92054133.70607
  20142323.960   107748024.32609  20142323.400    83804089.28608
  22350116.540   119516130.11207  22350119.380    92957009.25608
 15 02 26 00 15  0.0000000  0  7G16G18G21G22G27G29G31
  21589413.440   113453146.35009  21589409.620    88405044.63748
  22305674.860   117217178.87909  22305671.100    91338067.71747
  21394954.320   112431522.97609  21394949.780    87609078.21448
  23564553.960   123832616.90708  23564548.720    96492957.47346
  22827390.660   119958762.42909  22827389.600    93474364.50147
  24067473.380   126475877.34808  24067471.160    98552821.65346
  23182081.920   121822698.59309  23182078.360    94926781.44547
 15 02 26 00 15 30.0000000  0  7G16G18G21G22G27G29G31
  21576416.880   113384848.87209  21576413.060    88351825.82048
  22295241.280   117162350.18809  22295237.460    91295344.07047
  21403158.980   112474638.88209  21403154.480    87642675.02348
  23546729.960   123738951.46508  23546724.560    96419971.43346
  22815316.760   119895314.20009  22815315.700    93424924.33547
  24081231.500   126548175.37508  24081229.240    98609157.75545
  23199516.040   121914315.31209  23199512.480    94998171.07047
 15 02 26 00 16  0.0000000  0  7G16G18G21G22G27G29G31
  21563477.140   113316850.01909  21563473.300    88298839.70948
  22284872.940   117107864.12809  22284869.060    91252887.40447
  21411419.800   112518049.60809  21411415.380    87676501.55948
  23528917.140   123645344.94008  23528911.720    96347031.33446
  22803260.220   119831957.28309  22803259.120    93375555.31547
  24094995.440   126620504.29008  24094992.780    98665517.97646
  23216976.920   122006072.86709  23216973.340    95069670.43247
 15 02 26 00 16 30.0000000  0  7G16G18G21G22G27G29G31
  21550594.220   113249149.81209  21550590.340    88246086.29548
  22274569.820   117053720.56209  22274565.900    91210697.61447
  21419736.020   112561751.50009  21419731.620    87710554.96748
  23511115.560   123551797.50508  23511110.180    96274137.27046
  22791220.740   119768689.77009  22791219.720    93326255.96647
  24108764.660   126692861.53108  24108761.780    98721900.21246
  23234463.540   122097965.86709  23234459.920    95141275.32947
 15 02 26 00 17  0.0000000  0  7G16G18G21G22G27G29G31
  21537769.540   113181755.69009  21537765.680    88193571.40348
  22264333.280   116999927.06609  22264329.380    91168780.62347
  21428108.220   112605747.66309  21428103.820    87744837.69348
  23493326.760   123458317.41308  23493321.400    96201295.69546
  22779199.300   119705516.85509  22779198.400    93277030.32847
  24122539.920   126765252.92908  24122537.420    98778309.02646
  23251976.360   122189996.47509  23251972.720    95212987.47347
 15 02 26 00 17 30.0000000  0  7G16G18G21G22G27G29G31
  21525001.080   113114656.89809  21524997.220    88141286.63448
  22254161.220   116946472.39309  22254157.260    91127127.64547
  21436533.520   112650022.63209  21436529.140    87779337.67348
  23475548.800   123364894.00708  23475543.500    96128498.30446
  22767193.320   119642425.27709  22767192.360    93227868.07647
  24136319.400   126837664.87608  24136316.640    98834733.95946
  23269512.300   122282148.48809  23269508.680    95284794.23047
 15 02 26 00 18  0.0000000  0  7G16G18G21G22G27G29G31
  21512291.400   113047867.06609  21512287.520    88089242.61748
  22244056.240   116893370.37009  22244052.220    91085749.46047
  21445013.840   112694586.87809  21445009.480    87814063.05648
  23457784.420   123271541.65208  23457779.080    96055756.23446
  22755205.060   119579426.75109  22755204.040    93178778.33447
  24150104.860   126910109.25008  24150102.560    98891184.06446
  23287073.000   122374430.81009  23287069.340    95356702.50847
 15 02 26 00 18 30.0000000  0  7G16G18G21G22G27G29G31
  21499639.520   112981380.85409  21499635.600    88037435.18548
  22234017.340   116840615.57109  22234013.240    91044641.82647
  21453547.440   112739431.10709  21453543.060    87849006.60248
  23440032.560   123178255.27408  23440027.380    95983065.58446
  22743233.020   119516513.56809  22743232.040    93129755.08347
  24163895.540   126982578.34708  24163892.840    98947653.49645
  23304656.400   122466832.52709  23304652.760    95428703.81347
 15 02 26 00 19  0.0000000  0  7G16G18G21G22G27G29G31
  21487047.060   112915207.07509  21487043.140    87985871.20448
  22224046.060   116788216.14309  22224041.920    91003811.12047
  21462135.120   112784559.43309  21462130.760    87884171.53048
  23422294.940   123085043.93809  23422289.900    95910433.44446
  22731278.420   119453692.12609  22731277.560    93080803.32647
  24177691.940   127055078.72908  24177688.640    99004147.26946
  23322263.200   122559356.95409  23322259.640    95500800.73847
 15 02 26 00 19 30.0000000  0  7G16G18G21G22G27G29G31
  21474513.440   112849342.50909  21474509.480    87934548.16448
  22214141.920   116736169.49409  22214137.760    90963255.28947
  21470775.580   112829965.35209  21470771.220    87919552.76348
  23404571.120   122991905.06908  23404566.200    95837857.72646
  22719340.360   119390957.29709  22719339.500    93031919.04848
  24191493.580   127127605.07608  24191490.540    99060661.27346
  23339891.940   122651996.26909  23339888.400    95572987.18747
 15 02 26 00 20  0.0000000  0  7G16G18G21G22G27G29G31
  21462040.360   112783795.99209  21462036.380    87883472.96248
  22204306.400   116684483.88209  22204302.360    90922980.79947
  21479469.560   112875652.76209  21479465.280    87955153.34048
  23386862.840   122898847.46308  23386857.860    95765345.36446
  22707420.040   119328315.49309  22707419.160    92983107.27147
  24205301.140   127200163.70508  24205298.160    99117200.46045
  23357543.160   122744753.60909  23357539.540    95645265.61547
 15 02 26 00 20 30.0000000  0  7G16G18G21G22G27G29G31
  21449627.420   112718565.45209  21449623.460    87832643.97248
  22194539.220   116633157.29909  22194535.260    90882986.05847
  21488216.060   112921616.21809  21488211.820    87990969.02348
  23369169.820   122805870.06308  23369164.840    95692895.46047
  22695516.700   119265762.59909  22695515.800    92934364.74448
  24219113.960   127272750.52708  24219110.720    99173761.61545
  23375215.420   122837621.60508  23375211.720    95717630.26147
 15 02 26 00 21  0.0000000  0  7G16G18G21G22G27G29G31
  21437275.140   112653653.36809  21437271.120    87782063.14148
  22184840.780   116582191.89709  22184836.940    90843272.77947
  21497014.680   112967853.71509  21497010.520    88026998.23748
  23351492.540   122712975.33208  23351487.540    95620510.00147
  22683630.340   119203298.84309  22683629.360    92885691.71048
  24232932.120   127345365.66408  24232929.160    99230344.82746
  23392908.180   122930597.79909  23392904.480    95790079.20547
 15 02 26 00 21 30.0000000  0  7G16G18G21G22G27G29G31
  21424984.400   112589064.83809  21424980.400    87731734.42148
  22175212.060   116531593.06309  22175208.360    90803845.11847
  21505865.800   113014367.27609  21505861.740    88063242.57048
  23333832.100   122620169.09108  23333827.180    95548193.49446
  22671761.500   119140927.26609  22671760.440    92837090.49947
  24246756.220   127418012.84508  24246753.460    99286953.00046
  23410621.500   123023682.11608  23410617.700    95862612.41447
 15 02 26 00 22  0.0000000  0  7G16G18G21G22G27G29G31
  21412754.980   112524798.81809  21412751.040    87681657.01148
  22165652.800   116481359.03909  22165649.160    90764701.73047
  21514768.280   113061150.71309  21514764.340    88099697.19048
  23316188.320   122527450.54308  23316183.420    95475945.30247
  22659909.480   119078644.28809  22659908.320    92788558.31347
  24260585.660   127490687.92108  24260582.920    99343582.92945
  23428354.140   123116867.94909  23428350.340    95935224.71946
 15 02 26 00 22 30.0000000  0  7G16G18G21G22G27G29G31
  21400588.660   112460864.50109  21400584.720    87631838.07148
  22156164.760   116431499.18109  22156161.100    90725849.90147
  21523723.340   113108210.07309  21523719.400    88136366.82848
  23298563.120   122434829.60208  23298558.260    95403773.18746
  22648075.680   119016457.21809  22648074.460    92740100.86247
  24274421.560   127563398.25208  24274419.560    99400240.30446
  23446106.880   123210159.35608  23446103.120    96007919.29147
 15 02 26 00 23  0.0000000  0  7G16G18G21G22G27G29G31
  21388483.380   112397250.94409  21388479.420    87582269.06948
  22146745.760   116382002.10909  22146742.020    90687280.77547
  21532727.960   113155529.59509  21532724.060    88173239.18248
  23280954.460   122342295.50608  23280949.660    95331668.73347
  22636257.540   118954352.70709  22636256.320    92691707.76147
  24288261.980   127636130.70408  24288259.920    99456914.93046
  23463876.660   123303540.10708  23463872.980    96080683.47946
 15 02 26 00 23 30.0000000  0  7G16G18G21G22G27G29G31
  21376441.840   112333972.19209  21376437.840    87532960.95548
  22137398.460   116332881.63009  22137394.600    90649005.07947
  21541784.000   113203119.22509  21541780.000    88210322.00948
  23263365.100   122249862.88508  23263360.280    95259643.34147
  22624457.400   118892342.68709  22624456.180    92643388.28948
  24302108.800   127708896.96008  24302106.980    99513615.89146
  23481665.240   123397019.26608  23481661.560    96153524.35847
 15 02 26 00 24  0.0000000  0  7G16G18G21G22G27G29G31
  21364462.860   112271022.23809  21364458.880    87483909.04148
  22128121.640   116284131.48509  22128117.720    90611017.97647
  21550889.660   113250969.78609  21550885.640    88247608.15448
  23245794.020   122157526.17108  23245789.180    95187692.67547
  22612673.720   118830419.27509  22612672.580    92595136.27847
  24315960.900   127781688.93108  24315959.360    99570336.88746
  23499470.400   123490585.39609  23499466.640    96226432.99246
 15 02 26 00 24 30.0000000  0  7G16G18G21G22G27G29G31
  21352548.020   112208409.32609  21352544.020    87435119.75848
  22118916.780   116235759.87409  22118912.860    90573325.80947
  21560045.680   113299085.04008  21560041.620    88285100.56848
  23228242.800   122065293.97608  23228237.920    95115823.46746
  22600907.580   118768588.22809  22600906.520    92546956.25648
  24329818.960   127854512.92808  24329817.260    99627082.83946
  23517292.740   123584241.73909  23517288.920    96299411.94247
 15 02 26 00 25  0.0000000  0  7G16G18G21G22G27G29G31
  21340697.000   112146131.64809  21340692.960    87386591.69048
  22109783.500   116187764.50309  22109779.700    90535926.83547
  21569250.980   113347459.53609  21569247.000    88322794.97948
  23210711.100   121973164.64708  23210706.200    95044034.40447
  22589158.380   118706845.80509  22589157.380    92498845.28548
  24343682.400   127927364.75208  24343680.220    99683850.49846
  23535130.920   123677981.50609  23535127.080    96372455.87746
 15 02 26 00 25 30.0000000  0  7G16G18G21G22G27G29G31
  21328910.400   112084192.65309  21328906.380    87338327.54148
  22100722.580   116140149.22009  22100718.900    90498824.03447
  21578505.320   113396091.68109  21578501.420    88360690.14648
  23193199.820   121881142.67208  23193194.860    94972328.97347
  22577426.300   118645193.23709  22577425.320    92450804.33548
  24357551.620   128000245.52708  24357549.080    99740640.71946
  23552984.560   123771802.59409  23552980.740    96445563.18047
 15 02 26 00 26  0.0000000  0  7G16G18G21G22G27G29G31
  21317189.580   112022599.66709  21317185.620    87290333.01348
  22091735.200   116092920.45409  22091731.620    90462022.40047
  21587809.560   113444985.75609  21587805.620    88398789.43148
  23175710.400   121789235.78108  23175705.460    94900713.25047
  22565712.260   118583635.58109  22565711.220    92402837.36548
  24371426.980   128073160.72908  24371424.300    99797457.73445
  23570853.960   123865706.87209  23570850.240    96518735.32647
 15 02 26 00 26 30.0000000  0  7G16G18G21G22G27G29G31
  21305534.200   111961350.62009  21305530.280    87242606.49148
  22082821.000   116046075.90909  22082817.340    90425520.15547
  21597162.340   113494134.86509  21597158.360    88437087.44548
  23158242.540   121697442.09809  23158237.600    94829185.75747
  22554015.460   118522168.67409  22554014.480    92354941.08648
  24385308.100   128146106.09208  24385304.940    99854298.29545
  23588737.860   123959687.59809  23588734.340    96591967.02647
 15 02 26 00 27  0.0000000  0  7G16G18G21G22G27G29G31
  21293945.140   111900450.25109  21293941.260    87195151.66448
  22073980.820   115999620.19709  22073977.080    90389320.91547
  21606563.940   113543540.72709  21606559.920    88475585.51748
  23140797.340   121605766.93209  23140792.360    94757750.58146
  22542336.460   118460795.29109  22542335.480    92307117.67548
  24399195.100   128219084.23807  24399192.640    99911164.32446
  23606636.100   124053743.88909  23606632.840    96665257.60147
 15 02 26 00 27 30.0000000  0  7G16G18G21G22G27G29G31
  21282423.040   111839901.61409  21282419.140    87147970.90248
  22065215.160   115953555.93309  22065211.280    90353426.69047
  21616014.140   113593201.42709  21616010.060    88514282.15848
  23123375.240   121514213.32308  23123370.160    94686410.12947
  22530675.380   118399516.04609  22530674.440    92259367.64748
  24413088.360   128292095.45208  24413086.560    99968056.16046
  23624548.280   124147873.72408  23624545.300    96738605.47347
 15 02 26 00 28  0.0000000  0  7G16G18G21G22G27G29G31
  21270966.640   111779697.93309  21270962.720    87101058.94948
  22056522.620   115907876.12509  22056518.660    90317832.04647
  21625511.040   113643107.01209  21625506.740    88553169.63548
  23105975.240   121422775.82208  23105970.200    94615160.15047
  22519030.620   118338322.44309  22519029.660    92211684.34448
  24426986.720   128365131.59308  24426984.740   100024967.42945
  23642472.260   124242065.57108  23642469.440    96812001.68547
 15 02 26 00 28 30.0000000  0  7G16G18G21G22G27G29G31
  21259577.760   111719848.95409  21259573.800    87054423.38348
  22047904.940   115862590.04209  22047901.060    90282544.19847
  21635055.580   113693262.78109  21635051.060    88592252.05948
  23088599.180   121331464.40208  23088594.300    94544008.42947
  22507403.580   118277221.90109  22507402.620    92164073.55348
  24440891.260   128438200.31708  24440889.420   100081904.03846
  23660408.860   124336323.66808  23660406.240    96885449.50847
 15 02 26 00 29  0.0000000  0  7G16G18G21G22G27G29G31
  21248256.160   111660353.37709  21248252.140    87008063.19748
  22039361.880   115817696.22409  22039358.060    90247562.01047
  21644646.580   113743663.24509  21644641.940    88631525.14448
  23071246.940   121240278.09609  23071242.220    94472954.18347
  22495793.620   118216211.07109  22495792.600    92116532.65348
  24454801.540   128511297.77108  24454799.540   100138863.10146
  23678356.980   124430641.64908  23678354.340    96958943.99947
 15 02 26 00 29 30.0000000  0  7G16G18G21G22G27G29G31
  21237002.540   111601215.05509  21236998.520    86961981.39048
  22030894.120   115773198.28409  22030890.400    90212888.30747
  21654284.020   113794307.80909  21654279.280    88670988.43648
  23053919.380   121149221.36909  23053914.740    94402000.93147
  22484201.060   118155291.66009  22484199.960    92069062.98147
  24468717.720   128584425.76208  24468715.020   100195845.96345
  23696316.300   124525018.10208  23696313.560    97032484.05046
 15 02 26 00 30  0.0000000  0  7G16G18G21G22G27G29G31
  21225818.160   111542440.75709  21225814.180    86916183.24448
  22022502.940   115729102.42709  22022499.220    90178527.90547
  21663968.580   113845200.31509  21663963.780    88710644.93348
  23036617.820   121058301.16009  23036613.180    94331154.03547
  22472626.780   118094468.34009  22472625.660    92021668.19948
  24482640.260   128657589.09908  24482637.540   100252856.29445
  23714287.120   124619454.62408  23714284.220    97106070.91746
 15 02 26 00 30 30.0000000  0  7G16G18G21G22G27G29G31
  21214702.360   111484026.93609  21214698.420    86870665.98748
  22014187.600   115685404.87909  22014183.780    90144477.88047
  21673698.760   113896332.95609  21673694.060    88750488.54748
  23019341.820   120967514.65509  23019336.960    94260411.31247
  22461069.700   118033735.68209  22461068.600    91974344.08548
  24496568.420   128730781.79808  24496565.780   100309889.57846
  23732267.720   124713942.47608  23732264.620    97179697.77846
 15 02 26 00 31  0.0000000  0  7G16G18G21G22G27G29G31
  21203656.060   111425978.20409  21203652.100    86825433.20048
  22005948.760   115642109.51409  22005944.980    90110741.24047
  21683474.660   113947706.08609  21683470.060    88790519.55748
  23002092.360   120876867.21109  23002087.180    94189776.95147
  22449530.360   117973096.26709  22449529.300    91927092.59048
  24510502.480   128804006.77307  24510499.660   100366947.99745
  23750258.120   124808481.62608  23750254.820    97253364.59546
 15 02 26 00 31 30.0000000  0  7G16G18G21G22G27G29G31
  21192679.820   111368297.57609  21192675.860    86780487.26348
  21997786.980   115599219.25209  21997783.300    90077320.26747
  21693296.180   113999318.75809  21693291.580    88830737.21748
  22984870.020   120786361.96909  22984864.580    94119253.40547
  22438008.920   117912550.69409  22438007.840    91879914.21348
  24524442.760   128877264.65808  24524440.100   100424032.03646
  23768257.740   124903069.51108  23768254.320    97327069.41846
 15 02 26 00 32  0.0000000  0  7G16G18G21G22G27G29G31
  21181773.280   111310983.32909  21181769.360    86735826.81348
  21989701.920   115556732.09509  21989698.320    90044213.40447
  21703162.180   114051165.20909  21703157.620    88871137.04948
  22967674.440   120695997.72909  22967668.780    94048839.72747
  22426504.640   117852095.37009  22426503.540    91832806.20648
  24538388.780   128950551.78208  24538386.240   100481138.89846
  23786265.280   124997699.33608  23786261.900    97400806.89146
 15 02 26 00 32 30.0000000  0  7G16G18G21G22G27G29G31
  21170938.200   111254044.52609  21170934.320    86691458.90648
  21981695.180   115514656.63209  21981691.580    90011427.33447
  21713073.700   114103250.75009  21713069.180    88911723.18348
  22950507.500   120605784.68509  22950501.780    93978543.86747
  22415018.920   117791737.54409  22415017.760    91785774.14247
  24552341.700   129023875.29207  24552339.580   100538274.03946
  23804281.540   125092375.35608  23804278.140    97474580.36546
 15 02 26 00 33  0.0000000  0  6G16G18G21G22G27G31
  21160181.660   111197518.37409  21160177.820    86647412.56048
  21973773.720   115473029.23409  21973770.160    89978990.40347
  21723037.040   114155608.61009  21723032.580    88952521.52648
  22933376.280   120515759.86109  22933370.600    93908394.67147
  22403558.360   117731512.12809  22403557.220    91738845.23448
  23822312.580   125187129.37808  23822309.200    97548414.60746
 15 02 26 00 33 30.0000000  0  6G16G18G21G22G27G31
  21149488.940   111141327.54909  21149485.120    86603627.50648
  21965922.900   115431772.93509  21965919.320    89946842.65247
  21733036.720   114208157.39909  21733032.320    88993468.62248
  22916266.280   120425846.83209  22916260.600    93838332.60847
  22392107.960   117671340.13009  22392106.760    91691957.99248
  23840342.800   125281879.14208  23840339.560    97622245.56546
 15 02 26 00 34  0.0000000  0  6G16G18G21G22G27G31
  21138867.680   111085512.37509  21138863.880    86560135.16048
  21958150.200   115390927.15309  21958146.560    89915014.79047
  21743079.640   114260933.21809  21743075.280    89034592.63548
  22899185.340   120336086.22009  22899179.660    93768389.29247
  22380675.000   117611259.59909  22380673.780    91645142.01448
  23858378.840   125376659.94408  23858375.780    97696100.68146
 15 02 26 00 34 30.0000000  0  6G16G18G21G22G27G31
  21128319.120   111030079.14409  21128315.260    86516940.44348
  21950456.600   115350497.20109  21950453.020    89883510.93647
  21753166.240   114313938.37509  21753161.880    89075895.35448
  22882134.540   120246484.22409  22882128.880    93698569.57747
  22369260.200   117551274.64909  22369259.100    91598400.47648
  23876420.940   125471472.34308  23876417.880    97769980.40446
 15 02 26 00 35  0.0000000  0  7G16G18G19G21G22G27G31
  21117843.620   110975029.81309  21117839.680    86474044.86448
  21942842.520   115310485.38209  21942839.100    89852332.90747
  24539889.160   128957988.19607  24539884.040   100486722.56545
  21763296.260   114367171.85609  21763291.880    89117375.99348
  22865114.600   120157044.22409  22865109.000    93628876.08747
  22357863.640   117491385.44809  22357862.600    91551733.62548
  23894468.640   125566313.73808  23894465.700    97843882.74146
 15 02 26 00 35 30.0000000  0  7G16G18G19G21G22G27G31
  21107442.720   110920372.52009  21107438.700    86431454.77048
  21935309.420   115270898.91109  21935305.980    89821486.32747
  24525069.740   128880123.04008  24525067.180   100426048.65946
  21773470.420   114420637.30709  21773466.000    89159037.37748
  22848127.160   120067775.04209  22848121.680    93559315.71047
  22346486.500   117431598.26009  22346485.480    91505146.19848
  23912522.580   125661187.68108  23912519.680    97917810.44846
 15 02 26 00 36  0.0000000  0  7G16G18G19G21G22G27G31
  21097109.500   110866070.98809  21097105.460    86389141.88448
  21927850.440   115231701.43809  21927846.860    89790942.83847
  24510257.220   128802281.46108  24510253.840   100365392.82245
  21783680.940   114474294.02009  21783676.560    89200847.80048
  22831165.340   119978640.49709  22831160.020    93489860.23947
  22335121.440   117371874.66609  22335120.500    91458608.36248
  23930574.820   125756052.37708  23930571.880    97991730.91546
 15 02 26 00 36 30.0000000  0  7G16G18G19G21G22G27G31
  21086852.380   110812169.10409  21086848.300    86347140.42248
