     2.11           OBSERVATION DATA    M                   RINEX VERSION / TYPE
SPIDER V4,0,0,3554                      2015 03 15 00:50    PGM / RUN BY / DATE 
CKHR                                                        MARKER NAME         
CKHR                                                        MARKER NUMBER       
                                                            OBSERVER / AGENCY   
496547              LEICA GRX1200+GNSS  8.10/4.007          REC # / TYPE / VERS 
10301042            LEIAR25         NONE                    ANT # / TYPE        
  5141838.0877   498328.5776  3730203.3049                  APPROX POSITION XYZ 
        0.0720        0.0000        0.0000                  ANTENNA: DELTA H/E/N
     1     1                                                WAVELENGTH FACT L1/2
     4    C1    L1    P2    L2                              # / TYPES OF OBSERV 
    30.000                                                  INTERVAL            
  2015    02    26    00    00    0.0000000     GPS         TIME OF FIRST OBS   
  2015    02    26    02    18    0.0000000     GPS         TIME OF LAST OBS    
    16                                                      LEAP SECONDS        
    20                                                      # OF SATELLITES     
   G 4    99    99    99    99                              PRN / # OF OBS      
   G11     6     6     6     6                              PRN / # OF OBS      
   G16   277   277   277   277                              PRN / # OF OBS      
   G18   277   277   277   277                              PRN / # OF OBS      
   G19   211   211   211   211                              PRN / # OF OBS      
   G21   277   277   277   277                              PRN / # OF OBS      
   G22   277   277   277   277                              PRN / # OF OBS      
   G25     6     6     6     6                              PRN / # OF OBS      
   G27   277   277   277   277                              PRN / # OF OBS      
   G29    65    65    65    65                              PRN / # OF OBS      
   G31   109   109   109   109                              PRN / # OF OBS      
   G32     1     1     1     1                              PRN / # OF OBS      
   R 3    30    30    30    30                              PRN / # OF OBS      
   R 4    30    30    30    30                              PRN / # OF OBS      
   R 9    30    30    30    30                              PRN / # OF OBS      
   R10    30    30    30    30                              PRN / # OF OBS      
   R16    30    30    30    30                              PRN / # OF OBS      
   R18    30    30    30    30                              PRN / # OF OBS      
   R19    30    30    30    30                              PRN / # OF OBS      
   R20    30    30    30    30                              PRN / # OF OBS      
BIT 2 OF LLI FLAGS DATA COLLECTED UNDER A/S CONDITION       COMMENT             
SNR is mapped to RINEX snr flag value [2-9]                 COMMENT             
Lx:     = 25dBHz -> 1; 26-27dBHz -> 2; 28-31dBHz -> 3       COMMENT             
       32-35dBHz -> 4; 36-38dBHz -> 5; 39-41dBHz -> 6       COMMENT             
       42-44dBHz -> 7; 45-48dBHz -> 8; >=49dBHz -> 9        COMMENT             
                                                            END OF HEADER       
 15 02 26 00 00  0.0000000  0 16G16G18G21G22G25G27G29G31R03R04R09R10
                                R16R18R19R20
  21912109.340   115148925.20209  21912105.560    89726421.89648
  22745232.940   119527039.78809  22745229.500    93137951.89846
  21159040.820   111191764.90408  21159036.260    86643015.51048
  24230821.420   127333842.56408  24230816.480    99221170.45945
  24711881.460   129862015.96808  24711881.680   101191234.91646
  23138407.340   121593173.55008  23138406.180    94747931.94847
  23649314.260   124278439.11608  23649311.780    96840529.24946
  22755708.060   119582097.89809  22755704.700    93180859.90348
  22596037.440   120958359.44407  22596037.880    94078735.06207
  23360718.880   125095588.57207  23360719.080    97296560.61506
  19813279.620   105801822.12508  19813279.920    82290315.21806
  22565748.020   120288139.58509  22565753.120    93557460.06706
  20845274.620   111351754.85209  20845276.580    86606944.30308
  21698237.880   115826993.31009  21698240.020    90087663.81608
  20053868.140   107274791.91909  20053867.160    83436004.16308
  22680739.740   121284119.47906  22680742.380    94332111.95907
 15 02 26 00 00 30.0000000  0 16G16G18G21G22G25G27G29G31R03R04R09R10
                                R16R18R19R20
  21897893.960   115074222.99209  21897890.240    89668212.39348
  22732700.580   119461181.78109  22732697.340    93086633.97346
  21165048.760   111223337.26208  21165044.280    86667617.35448
  24212822.560   127239259.48008  24212817.800    99147469.53245
  24731082.960   129962920.63108  24731083.360   101269861.83045
  23125541.560   121525563.89808  23125540.460    94695249.15947
  23663288.360   124351874.51308  23663285.800    96897751.61246
  22772458.240   119670120.45409  22772454.880    93249448.90447
  22588415.940   120917562.20507  22588416.580    94047003.91407
  23340674.740   124988253.79008  23340675.660    97213078.17606
  19812787.840   105799196.01708  19812788.180    82288272.67906
  22545536.860   120180402.03908  22545541.740    93473664.22505
  20865736.260   111461056.96608  20865738.240    86691957.04608
  21712549.040   115903387.31309  21712551.340    90147081.35208
  20053535.520   107273013.01709  20053534.560    83434620.58308
  22667466.900   121213143.57807  22667469.600    94276908.53107
 15 02 26 00 01  0.0000000  0 16G16G18G21G22G25G27G29G31R03R04R09R10
                                R16R18R19R20
  21883724.920   114999764.01009  21883721.180    89610192.41448
  22720217.740   119395583.74109  22720214.440    93035518.63746
  21171124.040   111255263.36608  21171119.640    86692494.84148
  24194817.820   127144644.62808  24194813.100    99073743.82445
  24750310.900   130063964.40808  24750310.920   101348597.25744
  23112694.540   121458052.77208  23112693.540    94642643.08647
  23677268.780   124425342.59708  23677265.740    96954999.47145
  22789250.000   119758361.95109  22789246.800    93318208.48748
  22580913.780   120877403.49507  22580914.480    94015769.34707
  23320651.540   124881031.07308  23320652.200    97129682.69607
  19812451.060   105797397.69208  19812451.480    82286873.98406
  22525408.400   120073105.43608  22525413.020    93390211.29706
  20886286.700   111570833.42408  20886288.660    86777338.72508
  21726867.240   115979818.64509  21726869.620    90206527.93108
  20053257.240   107271524.98409  20053256.400    83433463.22808
  22654235.780   121142390.55807  22654238.280    94221878.43207
 15 02 26 00 01 30.0000000  0 16G16G18G21G22G25G27G29G31R03R04R09R10
                                R16R18R19R20
  21869601.740   114925546.03309  21869597.960    89552360.23248
  22707784.020   119330243.86209  22707780.520    92984604.47746
  21177265.460   111287537.16908  21177261.200    86717643.25148
  24176806.700   127049995.78508  24176802.100    98999991.59745
  24769564.140   130165141.45607  24769564.140   101427436.48344
  23099865.460   121390635.72508  23099864.500    94590110.32247
  23691254.780   124498839.11608  23691251.240    97012269.55446
  22806082.060   119846815.13409  22806078.900    93387133.02247
  22573530.840   120837881.86807  22573531.340    93985030.34707
  23300649.360   124773920.25707  23300650.220    97046374.32705
  19812268.460   105796422.78708  19812268.920    82286115.71406
  22505362.580   119966249.77308  22505367.160    93307101.36406
  20906924.260   111681075.61608  20906926.220    86863082.63808
  21741191.420   116056281.59709  21741193.680    90265999.11008
  20053032.320   107270321.80109  20053031.500    83432527.41708
  22641045.260   121071855.32807  22641047.940    94167017.71007
 15 02 26 00 02  0.0000000  0 16G16G18G21G22G25G27G29G31R03R04R09R10
                                R16R18R19R20
  21855526.180   114851578.22709  21855522.280    89494722.98548
  22695401.260   119265172.02709  22695397.560    92933899.14946
  21183474.140   111320164.27808  21183470.040    86743066.97348
  24158790.980   126955322.58008  24158786.240    98926220.38945
  24788843.940   130266457.33108  24788844.120   101506383.85845
  23087055.520   121323319.71408  23087054.700    94537656.32447
  23705247.400   124572370.84308  23705244.060    97069566.97346
  22822955.260   119935483.87309  22822952.000    93456225.53447
  22566268.740   120799006.95107  22566268.920    93954794.36107
  23280670.000   124666932.79408  23280670.700    96963161.84807
  19812241.480   105796278.66708  19812241.920    82286003.62306
  22485401.560   119859846.38908  22485406.200    93224343.19706
  20927649.640   111791786.72908  20927651.660    86949191.26208
  21755522.620   116132782.14209  21755524.760    90325499.51708
  20052861.800   107269409.34209  20052860.900    83431817.73108
  22627896.740   121001544.93007  22627899.660    94112331.88007
 15 02 26 00 02 30.0000000  0 16G16G18G21G22G25G27G29G31R03R04R09R10
                                R16R18R19R20
  21841497.660   114777857.56809  21841493.600    89437278.31948
  22683068.860   119200364.99909  22683064.940    92883400.19246
  21189748.780   111353138.05208  21189744.800    86768760.82248
  24140770.100   126860622.41308  24140765.000    98852428.16445
  24808148.960   130367905.36007  24808148.820   101585434.26645
  23074263.860   121256099.65208  23074263.120    94485277.07147
  23719245.420   124645932.17308  23719242.800    97126887.43246
  22839868.060   120024360.23009  22839864.640    93525479.82647
  22559126.740   120760776.51307  22559126.800    93925059.62007
  23260713.720   124560068.11508  23260714.560    96880045.02406
  19812369.160   105796960.22608  19812369.520    82286533.72406
  22465525.100   119753894.14408  22465529.900    93141935.92906
  20948461.020   111902956.95508  20948463.100    87035656.98608
  21769859.660   116209314.02909  21769861.760    90385024.30608
  20052744.360   107268780.87709  20052743.460    83431328.92908
  22614789.160   120931453.67307  22614792.140    94057816.51607
 15 02 26 00 03  0.0000000  0 15G16G18G21G22G27G29G31R03R04R09R10R16
                                R18R19R20
  21827517.960   114704393.85409  21827513.880    89380033.87348
  22670788.800   119135833.02109  22670784.860    92833115.54246
  21196090.500   111386463.90008  21196086.500    86794729.01348
  24122745.980   126765905.32008  24122740.640    98778622.73345
  23061491.940   121188982.95409  23061491.160    94432978.36247
  23733250.700   124719530.80508  23733248.600    97184236.95847
  22856821.240   120113448.58109  22856817.600    93594899.31047
  22552107.160   120723200.40407  22552107.220    93895833.76907
  23240782.720   124453338.06607  23240783.040    96797032.71907
  19812652.900   105798475.20508  19812653.220    82287712.04306
  22445735.460   119648404.63208  22445740.420    93059888.53706
  20969358.980   112014589.79908  20969361.020    87122482.52708
  21784203.600   116285883.61709  21784205.700    90444578.39908
  20052681.020   107268442.24309  20052680.200    83431065.54908
  22601723.960   120861588.83706  22601726.920    94003477.22907
 15 02 26 00 03 30.0000000  0 15G16G18G21G22G27G29G31R03R04R09R10R16
                                R18R19R20
  21813584.840   114631175.11309  21813580.780    89322980.31548
  22658558.920   119071564.72009  22658555.020    92783036.34747
  21202496.300   111420126.22008  21202492.200    86820959.39748
  24104716.460   126671159.91308  24104711.040    98704795.20545
  23048737.080   121121955.60708  23048736.280    94380749.28148
  23747260.600   124793152.58009  23747258.700    97241604.54847
  22873811.540   120202732.07509  22873807.780    93664470.84647
  22545207.820   120686267.50408  22545207.780    93867108.19307
  23220875.000   124346732.94207  23220874.980    96714117.63505
  19813090.060   105800809.41808  19813090.300    82289527.52706
  22426030.820   119543368.10908  22426035.780    92978193.48206
  20990340.020   112126666.71408  20990342.020    87209653.44408
  21798551.800   116362475.63509  21798553.600    90504149.99607
  20052669.040   107268378.04309  20052668.260    83431015.61608
  22588698.560   120791936.02807  22588701.480    93949302.82807
 15 02 26 00 04  0.0000000  0 15G16G18G21G22G27G29G31R03R04R09R10R16
                                R18R19R20
  21799700.800   114558214.10409  21799696.740    89266127.58748
  22646381.640   119007572.71109  22646377.840    92733172.46046
  21208967.840   111454133.89309  21208963.620    86847458.88248
  24086683.760   126576399.08508  24086678.700    98630955.75846
  23036001.300   121055028.25308  23036000.500    94328598.14747
  23761276.900   124866807.68208  23761274.880    97298998.10246
  22890840.400   120292218.20309  22890836.560    93734200.27847
  22538431.240   120649990.60008  22538430.980    93838892.82706
  23200993.300   124240267.80407  23200993.700    96631311.50206
  19813682.620   105803973.69008  19813682.940    82291988.61806
  22406413.880   119438799.11308  22406418.840    92896862.05706
  21011405.440   112239194.23308  21011407.360    87297174.83108
  21812906.020   116439099.65009  21812907.820    90563746.43108
  20052710.160   107268597.85209  20052709.380    83431186.57408
  22575714.900   120722505.50407  22575717.580    93895301.33707
 15 02 26 00 04 30.0000000  0 15G16G18G21G22G27G29G31R03R04R09R10R16
                                R18R19R20
  21785866.300   114485513.37109  21785862.300    89209477.67348
  22634257.440   118943859.84909  22634253.720    92683526.08647
  21215504.980   111488486.20409  21215500.660    86874226.92148
  24068648.800   126481626.10208  24068644.080    98557106.77146
  23023284.620   120988201.22808  23023283.780    94276525.13947
  23775299.380   124940496.47208  23775297.140    97356417.91846
  22907907.200   120381904.34109  22907903.380    93804085.56147
  22531777.980   120614372.79008  22531777.480    93811190.10807
  23181138.900   124133947.48607  23181139.380    96548617.94906
  19814430.600   105807968.24608  19814431.020    82295095.49206
  22386885.520   119334702.22908  22386890.540    92815897.83306
  21032554.460   112352168.35808  21032556.440    87385043.58208
  21827266.060   116515754.96709  21827268.120    90623367.20208
  20052804.060   107269100.28209  20052803.300    83431577.36308
  22562772.820   120653297.25807  22562775.340    93841472.75507
 15 02 26 00 05  0.0000000  0 15G16G18G21G22G27G29G31R03R04R09R10R16
                                R18R19R20
  21772081.140   114413072.20509  21772077.300    89153030.02448
  22622186.260   118880425.76709  22622182.700    92634096.94447
  21222106.820   111523178.62409  21222102.400    86901259.97648
  24050611.500   126386840.20008  24050606.920    98483247.72046
  23010586.360   120921471.36609  23010585.480    94224527.89347
  23789327.660   125014216.14608  23789325.240    97413861.83246
  22925010.760   120471784.27909  22925006.960    93874121.85647
  22525247.740   120579413.56208  22525246.920    93783999.60107
  23161311.900   124027773.51107  23161312.360    96466038.18807
  19815333.480   105812790.03108  19815334.040    82298845.77006
  22367446.060   119231078.91009  22367451.100    92735301.93606
  21053785.680   112465581.56908  21053787.720    87473253.85408
  21841631.260   116592437.39409  21841633.240    90683009.07107
  20052950.040   107269881.19809  20052949.260    83432184.73008
  22549871.480   120584307.78107  22549873.800    93787814.27507
 15 02 26 00 05 30.0000000  0 15G16G18G21G22G27G29G31R03R04R09R10R16
                                R18R19R20
  21758344.820   114340887.57909  21758341.080    89096782.26548
  22610167.500   118817267.51609  22610164.060    92584882.72647
  21228771.920   111558203.76608  21228767.460    86928552.28648
  24032571.300   126292038.57408  24032566.680    98409376.39946
  22997905.580   120854833.45208  22997904.700    94172602.25347
  23803360.880   125087961.00808  23803358.440    97471325.34446
  22942149.640   120561850.14809  22942145.900    93944303.03247
  22518839.720   120545110.06808  22518838.800    93757319.11407
  23141511.920   123921744.97608  23141512.100    96383571.58506
  19816390.300   105818433.57008  19816390.940    82303235.17806
  22348095.060   119127927.38808  22348100.140    92655072.99106
  21075097.320   112579424.53308  21075099.420    87561798.35608
  21856000.480   116669140.31309  21856002.280    90742666.88807
  20053146.760   107270933.38109  20053145.880    83433003.09008
  22537009.860   120515531.27807  22537012.200    93734321.43007
 15 02 26 00 06  0.0000000  0 15G16G18G21G22G27G29G31R03R04R09R10R16
                                R18R19R20
  21744659.340   114268969.85209  21744655.600    89040742.48048
  22598203.340   118754395.61009  22598199.940    92535891.62846
  21235501.620   111593568.47408  21235497.100    86956109.19948
  24014530.240   126197232.11908  24014525.720    98335501.33646
  22985243.880   120788295.87709  22985242.920    94120754.81147
  23817400.520   125161739.37808  23817398.100    97528814.96647
  22959324.860   120652106.71409  22959321.160    94014632.82247
  22512556.180   120511473.42508  22512555.120    93731157.30307
  23121741.360   123815874.73108  23121741.400    96301228.10306
  19817602.680   105824907.04008  19817603.260    82308270.08706
  22328834.980   119025260.53108  22328840.000    92575220.99606
  21096490.080   112693701.27308  21096492.280    87650680.25708
  21870374.780   116745871.44708  21870376.620    90802346.65708
  20053395.440   107272263.88409  20053394.500    83434037.93008
  22524189.620   120446975.93107  22524191.900    93681000.63407
 15 02 26 00 06 30.0000000  0 15G16G18G21G22G27G29G31R03R04R09R10R16
                                R18R19R20
  21731025.360   114197322.47209  21731021.500    88984913.35548
  22586294.460   118691814.05209  22586291.020    92487126.79246
  21242295.820   111629272.25409  21242291.280    86983930.32648
  23996488.940   126102424.69008  23996484.740    98261625.51946
  22972601.440   120721859.82908  22972600.560    94068986.48947
  23831446.760   125235552.52808  23831444.460    97586331.65847
  22976536.120   120742552.71409  22976532.480    94085110.20847
  22506397.780   120478507.13208  22506396.740    93705516.86507
  23102001.280   123710168.80308  23102001.300    96219012.44606
  19818970.660   105832211.74708  19818971.160    82313951.52806
  22309666.820   118923083.83909  22309671.700    92495750.24906
  21117963.560   112808408.77308  21117965.760    87739897.17708
  21884754.200   116822631.00609  21884756.580    90862048.49008
  20053696.220   107273872.83809  20053695.260    83435289.34908
  22511410.860   120378642.73607  22511413.380    93627852.64807
 15 02 26 00 07  0.0000000  0 15G16G18G21G22G27G29G31R03R04R09R10R16
                                R18R19R20
  21717442.200   114125942.49009  21717438.220    88929292.59648
  22574440.460   118629520.41209  22574436.900    92438586.32547
  21249153.300   111665308.37809  21249148.720    87012010.43048
  23978447.060   126007613.88108  23978442.860    98187747.02846
  22959977.380   120655520.33009  22959976.520    94017293.39747
  23845498.400   125309394.52908  23845496.200    97643870.86746
  22993781.860   120833180.09109  22993778.320    94155728.91947
  22500363.880   120446208.37307  22500363.220    93680395.62707
  23082291.840   123604626.09908  23082291.940    96136923.69707
  19820493.300   105840342.11908  19820493.680    82320275.15306
  22290590.400   118821396.07309  22290595.240    92416659.77406
  21139515.960   112923537.52408  21139518.180    87829441.75008
  21899137.960   116899412.68609  21899140.440    90921767.57708
  20054047.820   107275753.43609  20054046.840    83436752.03508
  22498672.680   120310526.05107  22498675.320    93574873.04107
 15 02 26 00 07 30.0000000  0 15G16G18G21G22G27G29G31R03R04R09R10R16
                                R18R19R20
  21703910.100   114054831.27109  21703906.120    88873881.25848
  22562641.500   118567515.84609  22562637.920    92390271.09346
  21256073.460   111701674.22509  21256068.900    87040347.45348
  23960404.740   125912801.19108  23960400.240    98113867.11145
  22947371.580   120589276.34908  22947370.660    93965674.67547
  23859555.480   125383264.78008  23859553.100    97701432.11446
  23011061.280   120923984.79209  23011057.820    94226485.80047
  22494454.760   120414578.69007  22494454.520    93655794.76907
  23062613.540   123499250.31208  23062613.780    96054964.76406
  19822170.340   105849296.70609  19822170.560    82327239.80906
  22271606.300   118720200.42009  22271611.240    92337952.04506
  21161146.220   113039082.14008  21161148.360    87919309.77308
  21913525.600   116976214.41809  21913527.840    90981502.25607
  20054449.720   107277903.30909  20054448.800    83438424.17008
  22485974.680   120242624.54207  22485977.440    93522060.77707
 15 02 26 00 08  0.0000000  0 15G16G18G21G22G27G29G31R03R04R09R10R16
                                R18R19R20
  21690430.220   113983994.58609  21690426.240    88818683.84148
  22550898.540   118505806.13309  22550894.940    92342185.60646
  21263056.680   111738371.83208  21263052.180    87068942.98748
  23942363.440   125817992.93407  23942358.420    98039990.47946
  22934784.640   120523131.55609  22934783.740    93914133.33047
  23873618.580   125457167.22208  23873616.240    97759018.38946
  23028374.600   121014967.54909  23028371.240    94297381.43247
  22488671.920   120383624.10508  22488671.940    93631719.03107
  23042967.960   123394049.53008  23042968.280    95973141.97307
  19824002.400   105859079.28708  19824002.540    82334848.46206
  22252716.040   118619504.84308  22252721.000    92259633.26906
  21182854.120   113155041.91808  21182856.160    88009500.68208
  21927917.460   117053039.23709  21927919.600    91041254.87008
  20054902.400   107280324.86609  20054901.540    83440307.60808
  22473317.380   120174941.27907  22473320.180    93469418.26007
 15 02 26 00 08 30.0000000  0 15G16G18G21G22G27G29G31R03R04R09R10R16
                                R18R19R20
  21677003.240   113913435.20109  21676999.220    88763702.50748
  22539212.220   118444394.51409  22539208.600    92294332.39347
  21270102.700   111775399.85808  21270098.380    87097795.99248
  23924323.280   125723192.16209  23924318.520    97966119.94046
  22922216.640   120457086.49108  22922215.860    93862669.65348
  23887687.880   125531102.13108  23887685.700    97816629.95646
  23045721.300   121106125.75609  23045718.100    94368413.78947
  22483015.880   120353347.45307  22483016.000    93608170.56307
  23023356.240   123289028.93408  23023356.360    95891459.32506
  19825989.280   105869689.65408  19825989.540    82343100.97006
  22233920.480   118519313.67808  22233925.480    92181706.81806
  21204639.040   113271413.13008  21204640.980    88100011.60808
  21942313.620   117129886.26309  21942315.680    91101024.75207
  20055405.760   107283017.32109  20055404.880    83442401.73508
  22460701.060   120107476.47007  22460703.860    93416945.66407
 15 02 26 00 09  0.0000000  0 15G16G18G21G22G27G29G31R03R04R09R10R16
                                R18R19R20
  21663628.560   113843150.15809  21663624.400    88708934.93948
  22527582.040   118383278.12109  22527578.480    92246709.26647
  21277210.280   111812751.49708  21277206.160    87126901.15348
  23906284.220   125628396.28608  23906279.880    97892253.10146
  22909666.640   120391135.93308  22909665.900    93811279.61947
  23901762.520   125605063.87808  23901760.020    97874262.47046
  23063099.820   121197451.35209  23063096.800    94439576.56247
  22477485.920   120323745.79508  22477486.220    93585147.09107
  23003777.880   123184187.62808  23003778.000    95809916.14106
  19828130.100   105881122.01008  19828130.460    82351992.80006
  22215219.240   118419625.35908  22215224.180    92104171.46306
  21226499.220   113388186.09908  21226501.180    88190835.01108
  21956712.860   117206749.29809  21956714.800    91160807.12508
  20055958.460   107285973.70809  20055957.460    83444701.14608
  22448124.660   120040224.60607  22448127.660    93364638.70907
 15 02 26 00 09 30.0000000  0 15G16G18G21G22G27G29G31R03R04R09R10R16
                                R18R19R20
  21650307.080   113773144.68809  21650302.820    88654385.22048
  22516009.100   118322462.22109  22516005.520    92199320.24047
  21284379.900   111850428.58208  21284375.880    87156259.92748
  23888247.320   125533610.82008  23888242.600    97818394.29046
  22897135.240   120325283.01008  22897134.500    93759965.68948
  23915842.960   125679055.62408  23915840.140    97931918.37346
  23080510.260   121288944.28309  23080507.280    94510869.74347
  22472082.940   120294824.17508  22472083.500    93562652.49807
  22984234.460   123079533.34908  22984234.220    95728518.40106
  19830425.480   105893379.14708  19830425.880    82361526.12906
  22196613.780   118320447.94708  22196618.800    92027033.50506
  21248434.320   113505359.59408  21248436.440    88281969.93508
  21971115.360   117283630.87709  21971117.340    91220603.87108
  20056560.800   107289195.91509  20056559.800    83447207.32708
  22435588.580   119973188.17607  22435591.440    93312499.28807
 15 02 26 00 10  0.0000000  0 15G16G18G21G22G27G29G31R03R04R09R10R16
                                R18R19R20
  21637039.900   113703425.01309  21637035.680    88600058.20648
  22504494.580   118261953.13609  22504491.040    92152170.33747
  21291611.940   111888432.88809  21291607.880    87185873.66648
  23870213.480   125438842.12008  23870208.620    97744548.64446
  22884623.160   120259531.60709  22884622.400    93708730.82947
  23929929.700   125753081.17808  23929926.820    97989600.59846
  23097952.860   121380605.43609  23097949.740    94582293.99847
  22466808.380   120266589.02708  22466808.880    93540691.83507
  22964727.440   122975074.36208  22964727.440    95647272.56207
  19832876.000   105906464.39008  19832876.420    82371703.53206
  22178105.620   118221788.77609  22178110.720    91950298.60706
  21270444.360   113622933.17308  21270446.600    88373416.05208
  21985521.820   117360533.50909  21985523.980    91280417.01108
  20057213.280   107292686.45709  20057212.300    83449922.19708
  22423093.320   119906370.71807  22423096.360    93260530.20007
 15 02 26 00 10 30.0000000  0 15G16G18G21G22G27G29G31R03R04R09R10R16
                                R18R19R20
  21623826.560   113633988.77909  21623822.500    88545952.06448
  22493038.160   118201748.80109  22493034.680    92105257.87646
  21298905.260   111926758.55109  21298901.020    87215737.83248
  23852182.500   125344088.71208  23852177.560    97670714.89646
  22872129.640   120193877.42708  22872128.800    93657571.75548
  23944021.940   125827136.12308  23944019.280    98047305.75946
  23115426.200   121472427.50909  23115422.840    94653843.65147
  22461661.760   120239037.94807  22461661.820    93519263.22207
  22945256.880   122870811.02407  22945256.920    95566178.82107
  19835480.560   105920372.85908  19835481.000    82382521.22806
  22159694.740   118123648.04109  22159699.800    91873966.93706
  21292527.640   113740898.21108  21292530.040    88465166.62308
  21999931.300   117437452.11909  21999933.560    91340242.59407
  20057914.840   107296439.35609  20057913.820    83452841.13208
  22410638.180   119839767.61007  22410641.140    93208727.78107
 15 02 26 00 11  0.0000000  0 15G16G18G21G22G27G29G31R03R04R09R10R16
                                R18R19R20
  21610667.820   113564839.48609  21610663.860    88492069.50048
  22481640.340   118141852.62409  22481636.980    92058585.55347
  21306259.480   111965404.59609  21306255.200    87245851.63248
  23834155.060   125249354.15109  23834150.060    97596895.83746
  22859654.760   120128321.57209  22859653.780    93606489.27647
  23958119.860   125901221.40308  23958117.240    98105034.54646
  23132929.700   121564408.48409  23132926.240    94725517.10947
  22456643.420   120212174.07008  22456643.200    93498369.13507
  22925823.740   122766748.71008  22925823.720    95485241.50806
  19838239.300   105935104.88908  19838239.760    82393979.46106
  22141381.980   118026030.22709  22141386.840    91798041.98106
  21314683.580   113859251.22308  21314685.920    88557218.94308
  22014343.580   117514386.89409  22014346.080    91400080.71308
  20058665.400   107300454.59509  20058664.320    83455964.09308
  22398223.060   119773379.03407  22398225.900    93157092.26307
 15 02 26 00 11 30.0000000  0 15G16G18G21G22G27G29G31R03R04R09R10R16
                                R18R19R20
  21597564.960   113495983.38709  21597560.940    88438415.40948
  22470302.420   118082271.52009  22470299.200    92012158.72847
  21313675.160   112004373.71109  21313670.780    87276217.18248
  23816132.500   125154645.54008  23816127.760    97523096.96446
  22847199.380   120062868.31608  22847198.380    93555486.73348
  23972224.080   125975341.36308  23972221.740    98162790.34346
  23150463.700   121656549.76109  23150460.120    94797315.48647
  22451754.760   120186004.16108  22451754.220    93478014.79007
  22906430.020   122662896.18008  22906429.740    95404467.36806
  19841153.000   105950664.21608  19841153.480    82406081.16206
  22123168.900   117928944.10709  22123173.680    91722530.57906
  21336912.260   113977992.09408  21336914.260    88649572.94708
  22028759.700   117591341.17808  22028762.140    91459934.08907
  20059465.520   107304734.82109  20059464.440    83459293.16808
  22385848.960   119707209.42807  22385851.560    93105627.04107
 15 02 26 00 12  0.0000000  0 15G16G18G21G22G27G29G31R03R04R09R10R16
                                R18R19R20
  21584516.980   113427415.81809  21584512.920    88384986.14148
  22459023.480   118023000.32509  22459020.200    91965973.38847
  21321150.740   112043657.78109  21321146.320    87306828.14848
  23798114.000   125059958.28708  23798109.160    97449314.72546
  22834762.320   119997510.86909  22834761.180    93504558.89348
  23986333.660   126049489.03908  23986331.560    98220567.73646
  23168026.340   121748841.56109  23168022.640    94869231.16047
  22446994.740   120160522.94308  22446994.120    93458196.09607
  22887075.140   122559251.34508  22887074.780    95323854.78707
  19844220.220   105967043.26908  19844220.740    82418820.41906
  22105054.960   117832386.95009  22105059.820    91647430.59006
  21359211.380   114097109.63708  21359213.160    88742219.90308
  22043177.960   117668307.20509  22043180.540    91519796.53408
  20060313.680   107309271.97209  20060312.620    83462822.07108
  22373514.440   119641251.26507  22373517.080    93054326.26207
 15 02 26 00 12 30.0000000  0 15G16G18G21G22G27G29G31R03R04R09R10R16
                                R18R19R20
  21571524.240   113359138.65809  21571520.180    88331783.15748
  22447803.880   117964040.90509  22447800.280    91920030.98247
  21328685.500   112083252.89509  21328681.060    87337681.48348
  23780099.920   124965294.31508  23780095.040    97375550.63746
  22822343.320   119932248.35309  22822342.120    93453705.01947
  24000448.560   126123663.40708  24000446.600    98278365.94946
  23185616.880   121841279.93109  23185613.120    94941261.04347
  22442363.460   120135731.55608  22442362.900    93438913.91607
  22867759.820   122455817.78608  22867759.360    95243406.52206
  19847440.640   105984240.09508  19847441.180    82432195.72006
  22087040.760   117736361.15409  22087045.600    91572743.86006
  21381579.960   114216598.53108  21381581.600    88835155.69007
  22057598.020   117745283.01708  22057600.720    91579666.58907
  20061209.440   107314063.48809  20061208.420    83466548.81108
  22361219.060   119575502.78607  22361221.920    93003188.58807
 15 02 26 00 13  0.0000000  0 15G16G18G21G22G27G29G31R03R04R09R10R16
                                R18R19R20
  21558588.160   113291159.39009  21558584.100    88278812.30148
  22436645.200   117905401.59909  22436641.420    91874338.05247
  21336280.540   112123164.89409  21336276.100    87368781.74148
  23762091.920   124870662.12008  23762087.140    97301811.31246
  22809943.480   119867086.96909  22809942.280    93402929.89247
  24014569.840   126197870.57208  24014567.740    98336189.71246
  23203235.820   121933867.96209  23203232.060    95013407.53447
  22437862.660   120111638.24208  22437861.940    93420174.69106
  22848485.760   122352605.99808  22848485.620    95163130.68707
  19850815.340   106002260.26808  19850815.760    82446211.39106
  22069128.220   117640877.46209  22069133.100    91498478.78306
  21404018.300   114336460.48708  21404019.960    88928381.63707
  22072021.020   117822274.09609  22072023.580    91639548.56407
  20062153.680   107319114.35109  20062152.700    83470477.25108
  22348964.000   119509969.84507  22348966.860    92952218.55507
 15 02 26 00 13 30.0000000  0 15G16G18G21G22G27G29G31R03R04R09R10R16
                                R18R19R20
  21545709.080   113223479.47609  21545705.100    88226074.70848
  22425547.740   117847084.00609  22425543.840    91828895.77647
  21343935.260   112163391.07709  21343930.880    87400126.81848
  23744090.240   124776063.52008  23744085.580    97228098.16846
  22797562.720   119802025.58608  22797561.500    93352232.71748
  24028697.040   126272109.39408  24028694.960    98394038.10046
  23220882.460   122026601.63608  23220878.720    95085667.51547
  22433492.400   120088244.14408  22433491.740    93401979.31507
  22829253.580   122249619.69308  22829253.460    95083030.18806
  19854343.740   106021101.77308  19854344.220    82460865.88206
  22051317.880   117545938.63209  22051322.820    91424637.47106
  21426525.460   114456689.94208  21426527.220    89021893.41707
  22086446.480   117899278.49609  22086449.100    91699440.80908
  20063145.880   107324422.22509  20063144.920    83474605.60108
  22336749.060   119444651.10307  22336752.080    92901415.10007
 15 02 26 00 14  0.0000000  0 15G16G18G21G22G27G29G31R03R04R09R10R16
                                R18R19R20
  21532886.500   113156096.34009  21532882.520    88173568.37048
  22414510.780   117789084.70709  22414507.020    91783701.53647
  21351648.300   112203923.91409  21351644.000    87431710.84548
  23726094.440   124681495.85608  23726089.840    97154409.14546
  22785200.100   119737059.13609  22785198.880    93301609.54448
  24042829.240   126346374.62208  24042827.280    98451907.10046
  23238555.280   122119472.75609  23238551.500    95158034.59347
  22429252.120   120065545.56908  22429251.640    93384324.87607
  22810063.440   122146857.78308  22810064.100    95003104.37406
  19858024.700   106040758.40408  19858025.340    82476154.36506
  22033609.500   117451543.19409  22033614.520    91351218.79806
  21449099.640   114577277.33108  21449101.620    89115683.60008
  22100873.520   117976289.85209  22100875.980    91759338.56708
  20064184.900   107329980.29209  20064183.860    83478928.53608
  22324573.200   119379540.42807  22324575.840    92850773.49507
 15 02 26 00 14 30.0000000  0 15G16G18G21G22G27G29G31R03R04R09R10R16
                                R18R19R20
  21520121.860   113089017.76909  21520117.880    88121299.36848
  22403535.880   117731411.94109  22403532.380    91738761.72447
  21359420.460   112244767.62608  21359416.340    87463537.11648
  23708106.240   124586967.52208  23708101.420    97080750.75246
  22772856.520   119672193.46308  22772855.360    93251064.85248
  24056967.660   126420672.02908  24056965.480    98509801.19246
  23256254.860   122212483.93309  23256250.900    95230510.81847
  22425143.140   120043550.17208  22425142.920    93367217.37007
  22790917.340   122044331.22208  22790918.420    94923361.56007
  19861859.280   106061235.25808  19861859.980    82492080.80506
  22016004.980   117357701.35009  22016010.040    91278230.72306
  21471741.060   114698224.09308  21471743.300    89209753.28507
  22115302.720   118053313.56309  22115305.200    91819245.87707
  20065271.560   107335792.93109  20065270.440    83483449.49208
  22312437.260   119314643.74507  22312439.800    92800298.33407
 15 02 26 00 15  0.0000000  0  7G16G18G21G22G27G29G31
  21507414.680   113022241.36909  21507410.740    88069265.81648
  22392622.760   117674063.47609  22392619.500    91694074.64247
  21367250.560   112285915.64209  21367246.520    87495600.50148
  23690125.220   124492476.59208  23690120.360    97007121.48146
  22760531.280   119607424.36308  22760530.200    93200595.45148
  24071111.340   126494996.76708  24071108.940    98567716.59746
  23273979.720   122305628.05509  23273975.560    95303090.64347
 15 02 26 00 15 30.0000000  0  7G16G18G21G22G27G29G31
  21494766.880   112955776.96509  21494763.020    88017475.37548
  22381773.260   117617049.01409  22381770.100    91649647.77547
  21375139.820   112327374.06209  21375135.720    87527905.76548
  23672153.240   124398033.36308  23672148.700    96933529.43646
  22748225.840   119542759.14708  22748224.840    93150206.99648
  24085261.660   126569356.71508  24085259.280    98625659.42846
  23291730.560   122398909.36708  23291726.420    95375777.36847
 15 02 26 00 16  0.0000000  0  7G16G18G21G22G27G29G31
  21482177.820   112889621.25309  21482174.060    87965925.47448
  22370986.760   117560365.49709  22370983.420    91605478.80247
  21383086.920   112369135.74709  21383082.720    87560447.33248
  23654189.940   124303634.93008  23654185.340    96859972.25046
  22735939.160   119478192.26809  22735938.160    93099895.14647
  24099417.500   126643746.35108  24099415.360    98683625.35746
  23309505.780   122492319.69308  23309501.940    95448564.59847
 15 02 26 00 16 30.0000000  0  7G16G18G21G22G27G29G31
  21469649.140   112823782.15409  21469645.340    87914622.28448
  22360264.780   117504020.69409  22360261.120    91561573.79747
  21391092.580   112411204.91309  21391088.220    87593228.49848
  23636236.780   124209289.44908  23636231.800    96786456.31446
  22723672.340   119413729.70409  22723671.280    93049664.59248
  24113579.620   126718170.99007  24113578.000    98741618.51546
  23327305.980   122585861.52108  23327302.500    95521454.30747
 15 02 26 00 17  0.0000000  0  7G16G18G21G22G27G29G31
  21457179.640   112758253.96609  21457175.700    87863561.36048
  22349606.200   117448009.25009  22349602.380    91517928.49347
  21399154.840   112453571.67109  21399150.340    87626241.55448
  23618292.680   124114991.93408  23618287.560    96712977.78246
  22711423.900   119349363.68908  22711422.880    92999509.26948
  24127747.040   126792623.17908  24127745.940    98799633.12847
  23345129.280   122679523.99209  23345126.100    95594438.02247
 15 02 26 00 17 30.0000000  0  7G16G18G21G22G27G29G31
  21444769.660   112693038.92109  21444765.620    87812744.45048
  22339011.400   117392332.88709  22339007.520    91474544.33747
  21407273.140   112496233.63809  21407268.680    87659484.64848
  23600358.100   124020744.76008  23600352.980    96639538.45246
  22699193.800   119285094.04309  22699192.780    92949429.03248
  24141919.920   126867102.44208  24141918.860    98857668.87746
  23362975.120   122773303.91209  23362972.060    95667513.26247
 15 02 26 00 18  0.0000000  0  7G16G18G21G22G27G29G31
  21432420.420   112628143.36809  21432416.380    87762176.49348
  22328481.720   117336998.24409  22328477.720    91431426.43147
  21415448.180   112539193.99709  21415443.820    87692960.25448
  23582434.380   123926555.02508  23582429.000    96566143.91146
  22686982.940   119220925.24309  22686981.880    92899427.38848
  24156099.140   126941613.12008  24156097.700    98915729.13346
  23380843.720   122867202.89609  23380840.540    95740681.28547
 15 02 26 00 18 30.0000000  0  7G16G18G21G22G27G29G31
  21420131.380   112563564.16409  21420127.420    87711855.03548
  22318016.420   117282002.12209  22318012.420    91388572.33547
  21423678.680   112582445.73209  21423674.380    87726662.90348
  23564521.000   123832419.95608  23564515.560    96492791.91947
  22674790.280   119156851.81809  22674789.140    92849500.04847
  24170283.380   127016149.77808  24170280.940    98973809.69345
  23398733.200   122961212.30108  23398729.860    95813935.34647
 15 02 26 00 19  0.0000000  0  7G16G18G21G22G27G29G31
  21407904.400   112499311.20809  21407900.620    87661787.80348
  22307617.200   117227353.88109  22307613.340    91345989.32947
  21431965.620   112625994.13809  21431961.400    87760596.73148
  23546619.920   123738349.61108  23546614.520    96419490.39246
  22662617.200   119092881.43509  22662615.940    92799653.01348
  24184473.800   127090719.92408  24184470.720    99031916.32345
  23416644.380   123055336.56608  23416640.980    95887278.90947
 15 02 26 00 19 30.0000000  0  7G16G18G21G22G27G29G31
  21395738.980   112435382.13809  21395735.360    87611972.94748
  22297283.740   117173051.91309  22297280.020    91303676.07047
  21440307.940   112669833.64008  21440303.780    87794757.37348
  23528730.860   123644342.36008  23528725.180    96346237.99746
  22650462.800   119029009.84008  22650461.600    92749882.93848
  24198669.520   127165319.36508  24198666.440    99090045.76945
  23434576.060   123149568.80308  23434572.720    95960706.59547
 15 02 26 00 20  0.0000000  0  7G16G18G21G22G27G29G31
  21383636.840   112371785.44409  21383633.200    87562417.08848
  22287017.560   117119104.12609  22287014.060    91261638.88347
  21448706.280   112713967.84009  21448702.240    87829147.65448
  23510855.360   123550406.59108  23510849.720    96273041.37046
  22638328.280   118965243.22709  22638327.260    92700194.68948
  24212871.900   127239953.80608  24212869.120    99148202.41346
  23452528.860   123243911.84208  23452525.680    96034220.62547
 15 02 26 00 20 30.0000000  0  7G16G18G21G22G27G29G31
  21371596.400   112308512.58309  21371592.660    87513113.56248
  22276817.220   117065502.16309  22276813.860    91219871.11347
  21457158.460   112758384.93509  21457154.500    87863758.37148
  23492992.100   123456534.89708  23492986.520    96199894.63046
  22626211.760   118901571.08109  22626210.820    92650580.05448
  24227079.040   127314612.66508  24227076.460    99206378.12346
  23470500.260   123338351.84209  23470497.160    96107810.20547
 15 02 26 00 21  0.0000000  0  7G16G18G21G22G27G29G31
  21359619.640   112245573.94309  21359615.840    87464070.46848
  22266684.740   117012256.17309  22266681.480    91178380.73747
  21465665.700   112803090.86909  21465661.700    87898594.15448
  23475143.080   123362737.66108  23475137.280    96126805.86546
  22614114.840   118838001.64009  22614113.940    92601045.43148
  24241292.520   127389303.98508  24241289.920    99264579.14946
  23488491.260   123432894.32909  23488488.160    96181479.65547
 15 02 26 00 21 30.0000000  0  7G16G18G21G22G27G29G31
  21347706.140   112182967.72609  21347702.380    87415286.40148
  22256619.880   116959364.74009  22256616.560    91137166.65247
  21474227.080   112848080.84609  21474222.960    87933651.26948
  23457308.000   123269013.83308  23457302.160    96053774.33746
  22602036.740   118774531.14509  22602035.900    92551587.90548
  24255511.560   127464024.47208  24255508.840    99322802.92246
  23506500.460   123527532.44708  23506497.280    96255223.61246
 15 02 26 00 22  0.0000000  0  7G16G18G21G22G27G29G31
  21335857.600   112120702.91809  21335853.860    87366768.37948
  22246624.140   116906836.21709  22246620.780    91096235.32547
  21482843.280   112893358.77309  21482838.980    87968932.77848
  23439488.540   123175372.60908  23439482.820    95980807.18446
  22589978.780   118711166.11709  22589977.860    92502212.57048
  24269737.220   127538780.07108  24269734.480    99381054.01846
  23524528.300   123622269.58208  23524525.180    96329044.74447
 15 02 26 00 22 30.0000000  0  7G16G18G21G22G27G29G31
  21324073.040   112058774.45109  21324069.300    87318512.43848
  22236696.500   116854665.71709  22236693.120    91055583.02347
  21491512.720   112938916.51009  21491508.360    88004432.31348
  23421684.020   123081809.69008  23421678.360    95907901.05847
  22577939.640   118647899.65909  22577938.580    92452914.03048
  24283968.080   127613563.87408  24283965.380    99439327.10346
  23542572.920   123717095.59908  23542569.960    96402935.12747
 15 02 26 00 23  0.0000000  0  7G16G18G21G22G27G29G31
  21312353.660   111997188.43309  21312349.840    87270523.33248
  22226838.120   116802859.15809  22226834.620    91015214.27947
  21500235.620   112984755.41409  21500231.280    88040150.94648
  23403895.660   122988331.46108  23403890.200    95835060.91546
  22565920.000   118584735.67309  22565918.780    92403695.35848
  24298205.020   127688379.78308  24298202.460    99497625.19345
  23560634.660   123812011.42408  23560631.920    96476895.47547
 15 02 26 00 23 30.0000000  0  7G16G18G21G22G27G29G31
  21300699.480   111935945.13009  21300695.540    87222801.28248
  22217048.980   116751416.53809  22217045.360    90975129.10947
  21509011.240   113030871.76609  21509007.060    88076085.75848
  23386123.620   122894938.75208  23386118.240    95762287.37847
  22553919.560   118521672.37009  22553918.200    92354555.13248
  24312447.580   127763225.66808  24312445.200    99555946.64645
  23578712.740   123907012.37108  23578709.960    96550922.16447
 15 02 26 00 24  0.0000000  0  7G16G18G21G22G27G29G31
  21289111.740   111875050.86409  21289107.640    87175351.20048
  22207330.300   116700344.05509  22207326.500    90935332.38747
  21517840.240   113077268.71109  21517836.160    88112239.21548
  23368369.160   122801638.34608  23368363.940    95689585.78347
  22541939.040   118458714.14709  22541937.700    92305496.80748
  24326696.360   127838105.76407  24326694.500    99614294.71545
  23596807.380   124002099.35809  23596804.360    96625015.88746
 15 02 26 00 24 30.0000000  0  7G16G18G21G22G27G29G31
  21277589.560   111814501.41809  21277585.440    87128169.82248
  22197681.240   116649637.48209  22197677.340    90895820.79047
  21526721.020   113123937.63809  21526716.920    88148604.61548
  23350631.480   122708426.37908  23350626.260    95616953.11047
  22529977.140   118395854.53508  22529975.940    92256515.29148
  24340950.540   127913013.68108  24340948.640    99672664.56344
  23614916.640   124097263.22108  23614913.340    96699169.52246
 15 02 26 00 25  0.0000000  0  7G16G18G21G22G27G29G31
  21266133.640   111754300.52509  21266129.640    87081260.04348
  22188102.440   116599300.28309  22188098.520    90856597.01347
  21535653.580   113170878.78609  21535649.500    88185182.13148
  23332911.380   122615306.90108  23332906.380    95544392.50846
  22518034.300   118333095.39909  22518033.320    92207612.10348
  24355210.560   127987950.99908  24355208.600    99731057.22145
  23633040.200   124192502.84608  23633036.820    96773382.17046
 15 02 26 00 25 30.0000000  0  7G16G18G21G22G27G29G31
  21254744.220   111694448.92209  21254740.260    87034622.43448
  22178594.020   116549333.57109  22178590.220    90817661.91747
  21544637.200   113218087.85409  21544633.060    88221968.41648
  23315209.180   122522281.58008  23315204.340    95471905.26447
  22506110.380   118270435.35709  22506109.580    92158786.10048
  24369476.200   128062915.95308  24369473.860    99789471.52246
  23651177.280   124287813.36108  23651173.820    96847650.07346
 15 02 26 00 26  0.0000000  0  7G16G18G21G22G27G29G31
  21243422.440   111634952.53709  21243418.480    86988261.62348
  22169157.020   116499742.56609  22169153.420    90779019.58847
  21553672.400   113265567.80409  21553668.140    88258965.78348
  23297526.100   122429356.86108  23297521.300    95399496.41047
  22494206.100   118207878.20609  22494205.360    92110040.29148
  24383747.980   128137912.68508  24383745.500    99847910.48746
  23669327.940   124383195.37608  23669324.460    96921973.69946
 15 02 26 00 26 30.0000000  0  7G16G18G21G22G27G29G31
  21232168.860   111575814.43909  21232164.860    86942179.98248
  22159792.020   116450530.08409  22159788.600    90740672.20947
  21562758.780   113313316.91609  21562754.480    88296172.86948
  23279862.860   122336535.99308  23279858.020    95327168.47947
  22482321.600   118145424.87109  22482320.900    92061375.36948
  24398025.820   128212941.96308  24398023.220    99906374.88045
  23687491.900   124478647.25708  23687488.500    96996351.76547
 15 02 26 00 27  0.0000000  0  7G16G18G21G22G27G29G31
  21220983.840   111517036.86209  21220979.820    86896379.27748
  22150499.460   116401698.41609  22150496.080    90702621.59847
  21571896.260   113361334.55109  21571891.900    88333589.21048
  23262219.980   122243821.87008  23262215.040    95254923.73347
  22470456.980   118083075.81909  22470456.240    92012791.70548
  24412309.600   128288003.96008  24412307.220    99964864.71546
  23705668.480   124574165.79508  23705665.200    97070781.76547
 15 02 26 00 27 30.0000000  0  7G16G18G21G22G27G29G31
  21209867.720   111458621.99309  21209863.820    86850861.20148
  22141279.860   116353249.46909  22141276.400    90664869.15747
  21581084.340   113409617.93209  21581079.860    88371212.62848
  23244597.820   122151216.70509  23244592.700    95182763.88847
  22458612.160   118020830.89909  22458611.340    91964289.16748
  24426599.360   128363097.99607  24426597.440   100023379.53646
  23723857.240   124669748.10608  23723854.040    97145261.45046
 15 02 26 00 28  0.0000000  0  7G16G18G21G22G27G29G31
  21198821.260   111400572.81309  21198817.460    86805628.08148
  22132133.680   116305186.03209  22132130.220    90627417.13447
  21590322.920   113458166.97409  21590318.460    88409043.05248
  23226997.200   122058724.77509  23226991.880    95110692.30847
  22446787.420   117958691.45009  22446786.560    91915868.84248
  24440895.320   128438225.78308  24440894.020   100081920.62046
  23742057.800   124765392.52408  23742054.500    97219789.53146
 15 02 26 00 28 30.0000000  0  7G16G18G21G22G27G29G31
  21187843.900   111342886.29009  21187840.100    86760677.54048
  22123060.300   116257504.72509  22123056.780    90590262.87547
  21599610.620   113506974.27509  21599606.200    88447074.70748
  23209417.680   121966343.38509  23209412.000    95038706.82047
  22434981.840   117896652.18809  22434980.820    91867526.55248
  24455196.760   128513382.06007  24455195.940   100140483.88746
  23760268.580   124861090.45108  23760265.040    97294359.31646
 15 02 26 00 29  0.0000000  0  7G16G18G21G22G27G29G31
  21176936.240   111285565.87909  21176932.360    86716012.28348
  22114060.360   116210208.92209  22114056.720    90553409.00747
  21608947.380   113556039.11209  21608942.920    88485307.04348
  23191859.860   121874076.31309  23191854.000    94966810.43746
  22423195.660   117834714.59309  22423194.380    91819263.51148
  24469504.080   128588567.76608  24469503.140   100199070.13046
  23778489.300   124956840.37908  23778485.500    97368969.60646
 15 02 26 00 29 30.0000000  0  7G16G18G21G22G27G29G31
  21166098.440   111228612.93709  21166094.520    86671633.37648
  22105133.980   116163299.86709  22105130.220    90516856.49047
  21618332.600   113605358.53709  21618328.060    88523737.76448
  23174324.080   121781925.60109  23174318.180    94895004.70746
  22411428.620   117772878.00209  22411427.240    91771079.16948
  24483817.100   128663782.20008  24483815.800   100257678.78946
  23796719.220   125052638.53008  23796715.140    97443617.48847
 15 02 26 00 30  0.0000000  0  7G16G18G21G22G27G29G31
  21155332.500   111172037.25109  21155328.540    86627548.42648
  22096282.900   116116786.88609  22096278.980    90480612.62947
  21627767.520   113654939.50509  21627763.000    88562372.29148
  23156812.300   121689901.24609  23156806.580    94823297.44646
  22399682.200   117711150.22209  22399680.900    91722979.62448
  24498137.100   128739033.08408  24498135.500   100316315.78046
  23814959.080   125148489.56808  23814954.980    97518306.57146
 15 02 26 00 30 30.0000000  0  7G16G18G21G22G27G29G31
  21144637.080   111115831.91909  21144633.060    86583752.07048
  22087505.840   116070662.98709  22087501.800    90444671.93147
  21637250.060   113704770.85409  21637245.540    88601201.91848
  23139323.420   121597997.06309  23139317.920    94751683.80847
  22387954.880   117649522.60809  22387953.560    91674958.10148
  24512462.300   128814311.21208  24512460.140   100374974.11544
  23833206.640   125244381.44508  23833202.620    97593027.47946
 15 02 26 00 31  0.0000000  0  7G16G18G21G22G27G29G31
  21134013.820   111060005.92009  21134009.800    86540251.29348
  22078804.400   116024936.43809  22078800.380    90409040.88147
  21646781.140   113754857.39109  21646776.740    88640230.38448
  23121859.340   121506222.88208  23121854.100    94680171.48147
  22376247.840   117588002.07309  22376246.600    91627020.03648
  24526793.900   128889623.76808  24526791.840   100433659.17246
  23851462.720   125340318.56008  23851458.940    97667783.62446
 15 02 26 00 31 30.0000000  0  7G16G18G21G22G27G29G31
  21123462.980   111004560.73409  21123458.920    86497047.25448
  22070178.820   115979608.77809  22070174.920    90373720.62847
  21656360.340   113805196.74709  21656356.040    88679455.85648
  23104420.360   121414580.36809  23104415.320    94608761.76547
  22364560.960   117526587.89809  22364559.900    91579164.84548
  24541131.820   128964969.80508  24541129.980   100492370.33146
  23869726.660   125436296.94008  23869723.180    97742571.93746
 15 02 26 00 32  0.0000000  0  7G16G18G21G22G27G29G31
  21112984.640   110949496.74609  21112980.580    86454140.25248
  22061629.100   115934680.25309  22061625.440    90338711.40847
  21665986.980   113855785.27609  21665982.720    88718875.49348
  23087006.720   121323070.44709  23087001.680    94537455.35847
  22352893.980   117465278.65209  22352893.160    91531391.41348
  24555475.660   129040347.84408  24555473.560   100551106.41245
  23887997.560   125532311.84608  23887994.360    97817388.72446
 15 02 26 00 32 30.0000000  0  6G16G18G21G22G27G31
  21102586.440   110894854.17309  21102582.460    86411561.62448
  22053162.900   115890190.71809  22053159.400    90304044.24447
  21675668.020   113906659.58409  21675663.760    88758517.80748
  23069626.240   121231734.54409  23069621.100    94466284.52447
  22341254.380   117404112.79609  22341253.620    91483729.73148
  23906282.200   125628398.85608  23906279.280    97892261.67646
 15 02 26 00 33  0.0000000  0  7G16G18G19G21G22G27G31
  21092253.560   110840555.07909  21092249.720    86369250.65448
  22044765.280   115846061.49209  22044761.860    90269657.83847
  24544797.440   128983782.11508  24544793.140   100506822.91646
  21685387.940   113957737.77509  21685383.660    88798319.00548
  23052264.000   121140494.56309  23052258.620    94395188.45647
  22329626.940   117343010.24409  22329626.080    91436117.38248
  23924564.700   125724474.62208  23924562.100    97967125.86946
 15 02 26 00 33 30.0000000  0  7G16G18G19G21G22G27G31
  21081980.140   110786568.57009  21081976.420    86327183.25548
  22036430.520   115802262.18209  22036427.040    90235528.53347
  24529588.780   128903854.90908  24529584.200   100444541.97746
  21695139.980   114008984.96809  21695135.720    88838251.87848
  23034914.160   121049320.51709  23034908.680    94324143.77347
  22318005.480   117281938.55009  22318004.460    91388529.05948
  23942838.280   125820503.48208  23942835.900    98041953.49346
 15 02 26 00 34  0.0000000  0  7G16G18G19G21G22G27G31
  21071796.220   110733052.30309  21071792.560    86285482.27048
  22028188.540   115758949.63909  22028184.820    90201778.50947
  24514405.880   128824067.62108  24514401.300   100382370.06446
  21704953.360   114060554.67709  21704949.120    88878436.06848
  23017606.860   120958370.42309  23017601.260    94253273.58847
  22306419.540   117221053.11009  22306418.380    91341085.86548
  23961132.060   125916638.05008  23961129.580    98116863.51746
 15 02 26 00 34 30.0000000  0  7G16G18G19G21G22G27G31
  21061687.080   110679928.48309  21061683.380    86244087.08248
  22020024.280   115716045.21909  22020020.300    90168346.50247
  24499234.140   128744339.98408  24499229.480   100320244.72145
  21714812.560   114112365.21809  21714808.300    88918807.90948
  23000327.240   120867566.46909  23000321.600    94182517.27947
  22294853.740   117160274.14409  22294852.620    91293725.63448
  23979430.220   126012794.92308  23979427.460    98191790.91746
 15 02 26 00 35  0.0000000  0  7G16G18G19G21G22G27G31
  21051652.040   110627193.81809  21051648.240    86202995.13448
  22011936.980   115673546.07409  22011932.960    90135230.29747
  24484073.120   128664667.63708  24484068.080   100258162.36645
  21724716.440   114164410.37709  21724712.080    88959362.57948
  22983075.100   120776906.83309  22983069.480    94111873.41747
  22283307.240   117099596.69109  22283306.120    91246444.52448
  23997731.180   126108966.31308  23997728.220    98266729.62246
 15 02 26 00 35 30.0000000  0  7G16G18G19G21G22G27G31
  21041693.540   110574861.23509  21041689.660    86162216.48948
  22003928.960   115631464.30709  22003925.120    90102439.31047
  24468924.320   128585061.41207  24468919.220   100196131.57046
  21734666.500   114216698.69509  21734662.220    89000106.70848
  22965853.120   120686405.22709  22965847.520    94041352.69347
  22271782.120   117039031.78209  22271781.000    91199251.08248
  24016036.460   126205160.65708  24016033.460    98341686.19246
 15 02 26 00 36  0.0000000  0  7G16G18G19G21G22G27G31
  21031810.140   110522923.61209  21031806.280    86121745.61648
  21995999.100   115589792.90009  21995995.380    90069968.08247
  24453786.540   128505512.13508  24453781.340   100134145.11245
  21744660.620   114269218.63609  21744656.480    89041031.34448
  22948659.900   120596054.58809  22948654.400    93970949.61847
  22260276.640   116978570.35709  22260275.520    91152138.30948
  24034343.720   126301365.30808  24034340.820    98416650.80246
 15 02 26 00 36 30.0000000  0  7G16G18G19G21G22G27G31
  21022002.100   110471382.11909  21021998.340    86081583.42948
  21988147.580   115548532.56909  21988143.800    90037817.19547
  24438659.500   128426018.83008  24438654.460   100072202.32046
  21754698.420   114321967.71509  21754694.400    89082134.52648
  22931495.860   120505856.99109  22931490.540    93900665.79547
  22248790.820   116918211.97109  22248789.620    91105105.81248
  24052652.220   126397576.27908  24052649.400    98491620.33946
 15 02 26 00 37  0.0000000  0  7G16G18G19G21G22G27G31
  21012271.440   110420246.96609  21012267.700    86041737.85148
  21980376.040   115507692.62509  21980372.200    90005993.87847
  24423544.560   128346589.35808  24423539.000   100010309.22945
  21764781.120   114374952.69309  21764777.160    89123421.52048
  22914363.060   120415823.05709  22914357.740    93830509.48947
  22237326.120   116857964.68409  22237324.880    91058159.88348
  24070962.900   126493798.95308  24070960.140    98566598.99346
 15 02 26 00 37 30.0000000  0  7G16G18G19G21G22G27G31
  21002617.860   110369516.56709  21002614.060    86002207.68248
  21972684.020   115467271.44609  21972680.260    89974496.86647
  24408441.160   128267219.88208  24408435.940    99948462.88946
  21774907.760   114428168.02209  21774903.680    89164888.00848
  22897261.260   120325951.70309  22897255.840    93760479.88347
  22225881.940   116797825.33809  22225880.740    91011298.07148
  24089274.600   126590027.11608  24089271.820    98641581.93846
 15 02 26 00 38  0.0000000  0  7G16G18G19G21G22G27G31
  20993041.460   110319191.94609  20993037.600    85962993.68948
  21965071.900   115427270.09009  21965068.260    89943326.98447
  24393349.080   128187910.25408  24393344.100    99886663.21946
