     2.11           OBSERVATION DATA    M                   RINEX VERSION / TYPE
SPIDER V4,0,0,3554                      2015 03 21 01:24    PGM / RUN BY / DATE 
CNGR                                                        MARKER NAME         
CNGR                                                        MARKER NUMBER       
                                                            OBSERVER / AGENCY   
496521              LEICA GRX1200+GNSS  8.10/4.007          REC # / TYPE / VERS 
10321004            LEIAR25         NONE                    ANT # / TYPE        
  5218738.7445   688113.1521  3590185.5476                  APPROX POSITION XYZ 
        0.0720        0.0000        0.0000                  ANTENNA: DELTA H/E/N
     1     1                                                WAVELENGTH FACT L1/2
     4    C1    L1    P2    L2                              # / TYPES OF OBSERV 
    30.000                                                  INTERVAL            
  2015    02    26    00    00    0.0000000     GPS         TIME OF FIRST OBS   
  2015    02    26    23    59   30.0000000     GPS         TIME OF LAST OBS    
    16                                                      LEAP SECONDS        
    38                                                      # OF SATELLITES     
   G 1   815   814   815   814                              PRN / # OF OBS      
   G 2   937   937   935   935                              PRN / # OF OBS      
   G 3   861   861   860   860                              PRN / # OF OBS      
   G 4   843   843   843   843                              PRN / # OF OBS      
   G 5   633   633   633   633                              PRN / # OF OBS      
   G 6   829   829   829   829                              PRN / # OF OBS      
   G 7   677   677   677   677                              PRN / # OF OBS      
   G 9   817   817   817   817                              PRN / # OF OBS      
   G10   759   759   759   759                              PRN / # OF OBS      
   G11   778   778   778   778                              PRN / # OF OBS      
   G12   832   831   831   831                              PRN / # OF OBS      
   G13   788   787   787   787                              PRN / # OF OBS      
   G14   939   937   937   937                              PRN / # OF OBS      
   G15   671   671   670   670                              PRN / # OF OBS      
   G16   667   667   667   667                              PRN / # OF OBS      
   G17   942   942   942   942                              PRN / # OF OBS      
   G18   903   902   902   901                              PRN / # OF OBS      
   G19   755   755   755   755                              PRN / # OF OBS      
   G20   781   781   781   781                              PRN / # OF OBS      
   G21   708   703   700   700                              PRN / # OF OBS      
   G22   670   670   670   670                              PRN / # OF OBS      
   G23   761   761   761   761                              PRN / # OF OBS      
   G24   822   809   797   797                              PRN / # OF OBS      
   G25   869   869   868   868                              PRN / # OF OBS      
   G27   809   809   809   809                              PRN / # OF OBS      
   G28   867   865   866   865                              PRN / # OF OBS      
   G29   762   762   761   761                              PRN / # OF OBS      
   G30   724   724   724   724                              PRN / # OF OBS      
   G31   864   864   864   864                              PRN / # OF OBS      
   G32   778   778   778   778                              PRN / # OF OBS      
   R 3    30    30    30    30                              PRN / # OF OBS      
   R 4    30    30    30    30                              PRN / # OF OBS      
   R 9    30    30    30    30                              PRN / # OF OBS      
   R10    30    30    30    30                              PRN / # OF OBS      
   R16    30    30    30    30                              PRN / # OF OBS      
   R18    30    30    30    30                              PRN / # OF OBS      
   R19    30    30    30    30                              PRN / # OF OBS      
   R20    30    30    30    30                              PRN / # OF OBS      
BIT 2 OF LLI FLAGS DATA COLLECTED UNDER A/S CONDITION       COMMENT             
SNR is mapped to RINEX snr flag value [2-9]                 COMMENT             
Lx:     = 25dBHz -> 1; 26-27dBHz -> 2; 28-31dBHz -> 3       COMMENT             
       32-35dBHz -> 4; 36-38dBHz -> 5; 39-41dBHz -> 6       COMMENT             
       42-44dBHz -> 7; 45-48dBHz -> 8; >=49dBHz -> 9        COMMENT             
                                                            END OF HEADER       
 15 02 26 00 00  0.0000000  0 16G16G18G21G22G25G27G29G31R03R04R09R10
                                R16R18R19R20
  22101125.000   116142206.33609  22101121.040    90500412.18047
  22536061.200   118427881.39609  22536057.740    92281487.56547
  21149240.960   111140285.00009  21149236.600    86602930.22148
  24040154.800   126331909.10108  24040150.300    98440446.90445
  24469428.960   128587964.55308  24469429.180   100198531.03545
  23336192.820   122632535.71608  23336192.180    95557816.33947
  23539165.080   123699585.98408  23539163.180    96389484.50446
  22706035.900   119321059.52909  22706032.500    92977453.35947
  22478173.360   120327418.54708  22478173.620    93587997.93007
  23120809.100   123810893.99908  23120810.180    96297371.39806
  19923113.340   106388330.09908  19923113.960    82746487.87906
  22790233.200   121484770.01308  22790237.660    94488171.77705
  20751869.600   110852787.97308  20751871.620    86218859.54108
  21708481.100   115881684.86409  21708483.240    90130313.18608
  20199551.260   108054161.60109  20199550.480    84042201.93208
  22839526.420   122133219.46507  22839529.500    94992520.40107
 15 02 26 00 00 30.0000000  0 16G16G18G21G22G25G27G29G31R03R04R09R10
                                R16R18R19R20
  22086298.520   116064292.94109  22086294.640    90439700.46047
  22523900.840   118363978.39309  22523897.540    92231693.04946
  21155524.800   111173306.65209  21155520.420    86628661.38548
  24022078.140   126236916.57908  24022073.660    98366426.90645
  24488464.920   128687999.76608  24488465.220   100276480.50945
  23323467.600   122565664.95108  23323467.140    95505709.28247
  23552413.660   123769207.66309  23552411.740    96443735.15847
  22722192.460   119405962.58609  22722189.040    93043611.56547
  22471545.680   120291940.60307  22471545.880    93560404.02407
  23101041.160   123705037.16108  23101042.240    96215038.36606
  19921883.900   106381764.89108  19921884.460    82741381.60406
  22769875.180   121376251.06008  22769879.880    94403768.17105
  20771760.380   110959041.42208  20771762.520    86301501.10208
  21721983.060   115953759.78809  21721985.120    90186371.46008
  20199055.000   108051507.12909  20199054.200    84040137.36008
  22826861.960   122065496.98407  22826864.980    94939847.40107
 15 02 26 00 01  0.0000000  0 16G16G18G21G22G25G27G29G31R03R04R09R10
                                R16R18R19R20
  22071515.380   115986607.30009  22071511.620    90379166.20547
  22511793.720   118300354.63609  22511790.300    92182116.09346
  21161872.640   111206664.69009  21161868.240    86654654.65548
  24003999.020   126141911.17308  24003994.640    98292396.86545
  24507530.980   128788193.16508  24507531.240   100354553.24745
  23310757.200   122498872.19408  23310756.820    95453662.99047
  23565669.400   123838866.84208  23565667.920    96498014.99547
  22738392.040   119491091.74309  22738388.660    93109945.95047
  22465039.940   120257115.66008  22465040.160    93533317.96107
  23081299.640   123599320.96208  23081300.440    96132814.63906
  19920809.080   106376025.42808  19920809.560    82736917.55706
  22749598.120   121268163.23208  22749602.960    94319699.85206
  20791743.180   111065786.33208  20791745.440    86384524.89608
  21735489.640   116025859.34409  21735491.840    90242448.86608
  20198606.740   108049109.64109  20198605.940    84038272.64508
  22814235.800   121997979.62507  22814238.880    94887333.91707
 15 02 26 00 01 30.0000000  0 16G16G18G21G22G25G27G29G31R03R04R09R10
                                R16R18R19R20
  22056776.100   115909151.69809  22056772.340    90318811.19847
  22499740.220   118237012.64309  22499736.600    92132758.71646
  21168284.180   111240357.45209  21168279.740    86680908.75548
  23985917.820   126046895.24208  23985913.360    98218358.62546
  24526626.840   128888543.17808  24526627.280   100432748.03745
  23298061.760   122432157.37508  23298061.380    95401677.44547
  23578932.180   123908563.79408  23578931.200    96552324.28847
  22754634.140   119576444.18409  22754630.740    93176454.32447
  22458656.680   120222946.64308  22458657.180    93506742.11907
  23061585.260   123493749.59307  23061585.680    96050703.58406
  19919888.940   106371111.90008  19919889.400    82733095.92106
  22729402.680   121160510.98208  22729407.760    94235970.34505
  20811817.240   111173018.52908  20811819.560    86467927.69308
  21749000.660   116097982.53009  21749002.700    90298544.68108
  20198206.240   108046967.62909  20198205.480    84036606.64208
  22801647.900   121930666.61407  22801650.940    94834979.39007
 15 02 26 00 02  0.0000000  0 16G16G18G21G22G25G27G29G31R03R04R09R10
                                R16R18R19R20
  22042080.620   115831925.87509  22042076.760    90258635.23848
  22487740.440   118173952.76109  22487736.660    92083621.15847
  21174758.700   111274380.95909  21174754.200    86707420.58548
  23967834.740   125951868.93808  23967830.320    98144312.30545
  24545751.880   128989045.91808  24545752.480   100511061.81145
  23285380.700   122365518.01008  23285380.260    95349750.69447
  23592201.760   123978295.93408  23592200.900    96606660.99447
  22770917.660   119662014.26509  22770914.220    93243132.29948
  22452395.920   120189433.30007  22452396.440    93480676.16907
  23041898.220   123388325.05708  23041898.520    95968706.78807
  19919123.100   106367022.16008  19919123.600    82729915.01006
  22709289.420   121053295.98308  22709294.660    94152580.92606
  20831981.340   111280731.49109  20831983.760    86551704.44108
  21762515.380   116170125.84209  21762517.920    90354656.11108
  20197852.820   108045077.30309  20197852.060    84035136.38808
  22789097.660   121863555.10007  22789100.720    94782781.57307
 15 02 26 00 02 30.0000000  0 16G16G18G21G22G25G27G29G31R03R04R09R10
                                R16R18R19R20
  22027429.000   115754930.46909  22027425.040    90198638.82348
  22475794.260   118111175.32209  22475790.460    92034703.68547
  21181295.520   111308732.13509  21181290.980    86734187.72948
  23949749.900   125856833.27108  23949745.300    98070258.66646
  24564905.340   129089698.22707  24564905.780   100589492.17645
  23272713.620   122298952.42108  23272713.120    95297881.42646
  23605477.800   124048061.24108  23605476.840    96661023.58747
  22787241.760   119747797.61409  22787238.300    93309976.44447
  22446257.720   120156576.73408  22446258.940    93455121.14007
  23022239.160   123283050.41408  23022239.300    95886826.54506
  19918511.220   106363754.82408  19918511.760    82727373.74706
  22689258.820   120946520.77608  22689264.120    94069533.54806
  20852234.280   111388919.02209  20852236.700    86635850.28208
  21776033.500   116242286.82409  21776036.060    90410781.32508
  20197545.920   108043435.62509  20197545.080    84033859.52108
  22776584.720   121796642.94907  22776587.700    94730738.82007
 15 02 26 00 03  0.0000000  0 16G16G18G21G22G25G27G29G31R03R04R09R10
                                R16R18R19R20
  22012822.420   115678171.76909  22012818.380    90138826.85348
  22463903.040   118048686.97009  22463899.420    91986011.47547
  21187894.960   111343412.77308  21187890.420    86761211.60548
  23931664.560   125761794.73808  23931659.700    97996202.80245
  24584087.740   129190502.39808  24584088.280   100668040.78945
  23260061.280   122232464.41408  23260060.840    95246072.61447
  23618760.840   124117864.14508  23618759.960    96715415.43247
  22803606.580   119833795.10609  22803603.100    93376987.45047
  22440243.660   120124383.10508  22440244.600    93430081.61607
  23002609.500   123177933.89808  23002609.500    95805069.30706
  19918054.180   106361314.16808  19918054.740    82725475.45006
  22669312.100   120840193.25208  22669317.420    93986834.39305
  20872576.020   111497580.96708  20872578.400    86720365.11808
  21789555.500   116314468.39209  21789557.900    90466922.53608
  20197285.960   108042044.84809  20197285.020    84032777.81408
  22764109.680   121729933.75907  22764112.700    94678853.93407
 15 02 26 00 03 30.0000000  0 16G16G18G21G22G25G27G29G31R03R04R09R10
                                R16R18R19R20
  21998260.340   115601647.19609  21998256.300    90079197.31747
  22452066.380   117986485.59509  22452062.980    91937542.88847
  21194555.840   111378416.54609  21194551.440    86788487.27248
  23913578.320   125666751.23408  23913573.540    97922143.05746
  24603297.920   129291452.37808  24603298.280   100746703.04745
  23247422.880   122166049.33608  23247422.440    95194320.63747
  23632050.340   124187699.87208  23632049.580    96769832.86947
  22820010.660   119919999.12009  22820007.200    93444159.39247
  22434353.100   120092850.44408  22434353.700    93405556.24507
  22983009.280   123072975.44408  22983009.220    95723434.96007
  19917751.060   106359695.57208  19917751.620    82724216.54506
  22649449.300   120734313.18308  22649454.540    93904483.24706
  20893004.880   111606708.25908  20893007.240    86805241.88608
  21803080.380   116386664.95909  21803082.760    90523075.39908
  20197071.800   108040899.12209  20197070.820    84031886.68908
  22751671.640   121663422.23607  22751674.700    94627122.77907
 15 02 26 00 04  0.0000000  0 16G16G18G21G22G25G27G29G31R03R04R09R10
                                R16R18R19R20
  21983744.200   115525364.51509  21983740.200    90019756.27648
  22440285.800   117924578.74509  22440282.640    91889303.80247
  21201278.940   111413747.23508  21201274.640    86816017.67548
  23895492.700   125571710.87808  23895487.720    97848085.73346
  24622536.740   129392552.06908  24622536.620   100825481.98844
  23234799.460   122099712.69608  23234799.040    95142629.77447
  23645346.700   124257573.71908  23645345.920    96824279.99446
  22836454.480   120006412.15909  22836451.100    93511494.19947
  22428587.460   120061986.42008  22428587.720    93381550.88007
  22963440.320   122968185.03608  22963440.560    95641931.37807
  19917602.960   106358904.88408  19917603.480    82723601.55706
  22629672.020   120628889.95408  22629677.260    93822487.43106
  20913521.120   111716302.21109  20913523.500    86890481.60908
  21816608.780   116458881.10509  21816611.220    90579243.50008
  20196904.360   108040002.89309  20196903.340    84031189.63908
  22739271.540   121597113.42507  22739274.580    94575549.27207
 15 02 26 00 04 30.0000000  0 16G16G18G21G22G25G27G29G31R03R04R09R10
                                R16R18R19R20
  21969273.640   115449321.69009  21969269.760    89960502.13647
  22428560.960   117862964.59409  22428557.860    91841292.78647
  21208063.320   111449399.46309  21208059.080    86843798.63448
  23877407.360   125476672.07408  23877402.360    97774029.64745
  24641802.980   129493795.58008  24641802.360   100904373.03844
  23222190.180   122033450.07508  23222189.660    95090996.59447
  23658649.740   124327481.43008  23658649.200    96878753.53547
  22852936.660   120093026.91209  22852933.340    93578986.21747
  22422946.300   120031789.06508  22422946.780    93358064.09107
  22943902.740   122863562.71808  22943902.960    95560558.48506
  19917609.080   106358937.71608  19917609.620    82723627.08506
  22609980.480   120523923.46308  22609985.680    93740846.85605
  20934123.140   111826354.07408  20934125.480    86976077.49708
  21830139.960   116531111.60109  21830142.560    90635422.76908
  20196782.400   108039350.05609  20196781.380    84030681.89008
  22726908.500   121531002.56107  22726911.440    94524129.73507
 15 02 26 00 05  0.0000000  0 16G16G18G21G22G25G27G29G31R03R04R09R10
                                R16R18R19R20
  21954849.600   115373523.55309  21954845.860    89901438.66148
  22416892.840   117801648.17509  22416889.640    91793513.77147
  21214909.140   111485374.06409  21214904.840    86871830.78748
  23859323.280   125381639.67908  23859318.120    97699978.53546
  24661096.700   129595183.80907  24661095.900   100983376.78345
  23209595.480   121967263.81208  23209594.720    95039422.90847
  23671959.920   124397425.78308  23671958.980    96933255.58446
  22869457.120   120179842.65409  22869453.800    93646634.81647
  22417430.460   120002263.15008  22417431.020    93335099.53807
  22924398.100   122759115.70708  22924398.080    95479321.94206
  19917769.880   106359796.62008  19917770.480    82724295.11906
  22590375.960   120419420.64608  22590381.020    93659566.88306
  20954810.560   111936861.82108  20954812.800    87062027.95808
  21843673.980   116603358.00008  21843676.900    90691614.39308
  20196706.200   108038942.09509  20196705.240    84030364.59108
  22714582.760   121465091.38107  22714585.720    94472865.50907
 15 02 26 00 05 30.0000000  0 16G16G18G21G22G25G27G29G31R03R04R09R10
                                R16R18R19R20
  21940472.880   115297973.87009  21940469.280    89842568.78748
  22405282.140   117740633.18809  22405278.780    91745969.64647
  21221816.220   111521670.35309  21221811.820    86900113.59848
  23841241.140   125286617.56808  23841236.040    97625935.44646
  24680417.900   129696716.57808  24680416.720   101062493.21645
  23197015.600   121901155.31608  23197014.620    94987909.81647
  23685277.120   124467407.96108  23685275.380    96987787.16246
  22886015.620   120266858.18509  22886012.360    93714439.10647
  22412040.740   119973412.47008  22412041.640    93312660.13907
  22904927.140   122654849.87408  22904927.060    95398226.35807
  19918085.620   106361483.08908  19918086.300    82725606.81306
  22570859.460   120315386.53809  22570864.460    93578651.45905
  20975582.800   112047822.88608  20975584.960    87148330.99408
  21857211.240   116675620.65809  21857214.200    90747818.71208
  20196675.720   108038778.62509  20196674.760    84030237.44108
  22702294.600   121399380.81607  22702297.500    94421757.30407
 15 02 26 00 06  0.0000000  0 16G16G18G21G22G25G27G29G31R03R04R09R10
                                R16R18R19R20
  21926143.120   115222670.57109  21926139.520    89783890.89348
  22393728.420   117679917.61209  22393724.920    91698658.82147
  21228783.380   111558282.63909  21228778.920    86928642.64948
  23823160.720   125191604.22008  23823155.480    97551899.13245
  24699765.520   129798388.18208  24699764.100   101141717.75744
  23184449.660   121835120.39608  23184448.600    94936454.05547
  23698600.860   124537423.92708  23698599.080    97042345.02047
  22902610.660   120354065.80609  22902607.420    93782393.08047
  22406776.880   119945235.29708  22406777.820    93290744.57507
  22885489.960   122550765.50908  22885489.940    95317271.87107
  19918555.540   106363992.73408  19918556.280    82727558.74706
  22551430.860   120211821.29709  22551436.120    93498100.75806
  20996438.260   112159228.53208  20996440.340    87234979.81108
  21870750.680   116747894.79309  21870753.800    90804031.88508
  20196689.780   108038854.05809  20196688.900    84030296.12008
  22690043.060   121333866.22607  22690045.880    94370801.53107
 15 02 26 00 06 30.0000000  0 16G16G18G21G22G25G27G29G31R03R04R09R10
                                R16R18R19R20
  21911861.200   115147618.61409  21911857.580    89725408.85948
  22382232.740   117619506.89109  22382229.220    91651585.54647
  21235810.820   111595211.83108  21235806.300    86957418.65748
  23805083.000   125096604.99708  23805077.640    97477873.84846
  24719139.760   129900199.83608  24719138.340   101221051.46844
  23171898.180   121769161.77408  23171897.080    94885057.75047
  23711931.640   124607476.47208  23711929.420    97096931.40046
  22919242.340   120441465.69309  22919239.060    93850496.87847
  22401639.820   119917736.30708  22401640.600    93269356.51907
  22866087.920   122446870.13607  22866088.240    95236464.40907
  19919180.220   106367328.44808  19919180.980    82730153.19106
  22532091.500   120108731.93508  22532096.640    93417920.12306
  21017376.600   112271077.19108  21017378.660    87321973.20208
  21884292.680   116820182.23409  21884295.760    90860255.45408
  20196748.740   108039170.01609  20196747.900    84030541.89408
  22677828.600   121268549.88107  22677831.440    94319999.94808
 15 02 26 00 07  0.0000000  0 16G16G18G21G22G25G27G29G31R03R04R09R10
                                R16R18R19R20
  21897627.920   115072822.35409  21897624.300    89667126.05948
  22370795.960   117559405.70409  22370792.360    91604753.46347
  21242898.620   111632458.34509  21242894.080    86986441.90648
  23787008.820   125001624.64308  23787003.660    97403863.28646
  24738540.840   130002151.92808  24738539.500   101300494.64045
  23159361.520   121703281.47208  23159360.520    94833722.46347
  23725269.340   124677567.05508  23725266.660    97151547.37946
  22935910.460   120529056.94509  22935907.120    93918749.76847
  22396630.420   119890919.82808  22396631.040    93248499.24507
  22846722.280   122343169.95207  22846723.020    95155808.73507
  19919959.980   106371492.07508  19919960.780    82733391.55906
  22512842.660   120006124.45808  22512848.040    93338114.34106
  21038397.400   112383366.64308  21038399.400    87409309.42508
  21897837.300   116892484.19608  21897840.540    90916490.30808
  20196852.740   108039727.05009  20196851.980    84030975.15108
  22665651.500   121203433.27807  22665654.320    94269353.72008
 15 02 26 00 07 30.0000000  0 16G16G18G21G22G25G27G29G31R03R04R09R10
                                R16R18R19R20
  21883442.640   114998278.27309  21883439.080    89609039.76447
  22359417.320   117499610.20909  22359413.580    91558159.58947
  21250045.320   111670014.61509  21250040.860    87015706.53048
  23768937.700   124906659.91908  23768932.440    97329864.86246
  24757967.220   130104237.03208  24757965.780   101380041.40145
  23146838.600   121637473.50408  23146837.740    94782443.53547
  23738613.620   124747690.11409  23738610.560    97206188.77146
  22952613.280   120616830.56509  22952609.820    93987144.78947
  22391747.360   119864782.12508  22391748.540    93228169.98107
  22827392.860   122239663.74308  22827393.880    95075303.94106
  19920893.640   106376477.25208  19920894.360    82737268.91506
  22493683.900   119903997.03108  22493689.100    93258681.89506
  21059498.740   112496086.40608  21059500.720    87496980.34508
  21911383.300   116964793.81109  21911386.520    90972731.08008
  20197000.500   108040517.87309  20196999.800    84031590.23508
  22653510.440   121138509.99107  22653513.360    94218857.88208
 15 02 26 00 08  0.0000000  0 16G16G18G21G22G25G27G29G31R03R04R09R10
                                R16R18R19R20
  21869307.580   114923998.31209  21869304.060    89551159.28948
  22348099.020   117440132.27509  22348095.400    91511813.16347
  21257252.500   111707888.73809  21257248.140    87045218.83448
  23750871.720   124811723.04508  23750866.520    97255888.16146
  24777420.220   130206463.41108  24777418.820   101459698.28645
  23134331.320   121571747.71108  23134330.580    94731228.64147
  23751965.500   124817855.97608  23751963.260    97260863.38747
  22969352.120   120704793.44009  22969348.660    94055687.26847
  22386993.580   119839335.33907  22386994.400    93208378.01307
  22808102.400   122136365.84708  22808103.520    94994961.16007
  19921983.020   106382294.08508  19921983.680    82741793.10806
  22474617.880   119802363.85308  22474622.900    93179633.91505
  21080681.660   112609241.93408  21080683.700    87584990.18108
  21924932.620   117037120.39009  21924935.440    91028985.09808
  20197193.660   108041551.09209  20197192.880    84032393.84008
  22641407.220   121073789.16907  22641410.240    94168519.49808
 15 02 26 00 08 30.0000000  0 16G16G18G21G22G25G27G29G31R03R04R09R10
                                R16R18R19R20
  21855221.900   114849977.86609  21855218.420    89493481.02048
  22336840.300   117380967.60409  22336836.700    91465710.84147
  21264518.480   111746071.86009  21264514.220    87074971.91248
  23732810.280   124716809.90808  23732805.160    97181929.94546
  24796898.260   130308822.41808  24796897.460   101539458.48945
  23121838.360   121506097.07108  23121837.660    94680072.32347
  23765324.320   124888057.39608  23765321.820    97315565.82045
  22986125.000   120792935.49309  22986121.540    94124369.37347
  22382368.020   119814574.37308  22382368.700    93189119.51907
  22788850.460   122033273.89408  22788851.420    94914778.56606
  19923226.680   106388934.92208  19923227.280    82746958.20106
  22455644.000   119701221.66509  22455648.840    93100967.77806
  21101944.060   112722821.87908  21101946.120    87673330.12608
  21938483.460   117109455.80409  21938486.240    91085245.96708
  20197430.540   108042818.39809  20197429.800    84033379.53308
  22629340.500   121009263.22507  22629343.540    94118332.67708
 15 02 26 00 09  0.0000000  0 16G16G18G21G22G25G27G29G31R03R04R09R10
                                R16R18R19R20
  21841185.700   114776217.46609  21841182.300    89436005.39848
  22325641.360   117322116.75609  22325637.700    91419853.05447
  21271842.600   111784560.58609  21271838.420    87104963.12948
  23714753.420   124621921.11408  23714748.300    97107990.68146
  24816400.840   130411310.58107  24816400.420   101619319.36044
  23109359.340   121440519.68608  23109358.700    94628973.08647
  23778689.460   124958292.51608  23778687.000    97370294.48146
  23002931.040   120881252.03409  23002927.660    94193187.44747
  22377870.640   119790499.60708  22377871.400    93170394.74907
  22769637.460   121930390.46408  22769638.400    94834758.14506
  19924624.140   106396397.55808  19924624.780    82752762.46406
  22436762.580   119600572.37409  22436767.080    93022684.99506
  21123284.720   112836820.00708  21123286.800    87761995.31608
  21952035.680   117181797.42809  21952038.100    91141511.66008
  20197710.560   108044316.35109  20197709.920    84034544.62008
  22617309.920   120944929.94307  22617312.880    94068295.70008
 15 02 26 00 09 30.0000000  0 15G16G18G21G22G27G29G31R03R04R09R10R16
                                R18R19R20
  21827201.620   114702730.84509  21827198.260    89378743.10848
  22314504.760   117263593.26809  22314500.820    91374250.35647
  21279226.820   111823365.13709  21279222.700    87135200.45148
  23696703.840   124527070.75308  23696698.900    97034081.39946
  23096896.460   121375027.18708  23096895.900    94577939.99947
  23792063.140   125028572.89008  23792061.380    97425058.36846
  23019771.880   120969751.46409  23019768.680    94262148.02547
  22373504.160   119767124.43808  22373504.520    93152214.07707
  22750466.700   121827731.96208  22750467.800    94754912.67307
  19926177.620   106404693.43708  19926178.300    82759214.81306
  22417976.440   119500432.52608  22417981.160    92944798.50306
  21144705.040   112951243.53808  21144707.160    87850991.39808
  21965590.940   117254156.46508  21965593.260    91197790.90508
  20198035.700   108046055.48109  20198035.220    84035897.28708
  22605317.360   120880800.32507  22605320.300    94018417.13608
 15 02 26 00 10  0.0000000  0 15G16G18G21G22G27G29G31R03R04R09R10R16
                                R18R19R20
  21813266.960   114629503.69709  21813263.540    89321682.99048
  22303427.740   117205382.91409  22303423.680    91328891.65347
  21286667.540   111862466.65209  21286663.400    87165669.16148
  23678658.860   124432244.63208  23678654.100    96960190.96646
  23084446.540   121309602.64708  23084446.040    94526959.84947
  23805442.400   125098881.84608  23805440.380    97479844.56446
  23036643.780   121058414.02009  23036640.700    94331235.71147
  22369265.580   119744434.01008  22369265.200    93134565.97307
  22731335.700   121725285.69408  22731336.780    94675232.26907
  19927883.860   106413805.03408  19927884.620    82766301.60306
  22399283.300   119400788.60308  22399288.200    92867297.67606
  21166200.980   113066071.11708  21166203.100    87940301.71208
  21979146.000   117326514.78709  21979148.440    91254069.57508
  20198402.520   108048017.36809  20198402.020    84037423.19708
  22593359.600   120816856.70907  22593362.460    93968683.24908
 15 02 26 00 10 30.0000000  0 15G16G18G21G22G27G29G31R03R04R09R10R16
                                R18R19R20
  21799383.400   114556544.86809  21799379.920    89264831.95948
  22292412.080   117147494.66809  22292407.740    91283783.92947
  21294165.780   111901870.33509  21294161.600    87196373.33148
  23660620.260   124337452.39708  23660615.640    96886326.94846
  23072010.900   121244253.03608  23072010.480    94476038.08047
  23818828.540   125169226.18208  23818826.020    97534658.36046
  23053547.480   121147243.58709  23053544.480    94400453.52447
  22365156.420   119722437.15408  22365155.520    93117457.32607
  22712246.620   121623063.35708  22712247.540    94595726.00907
  19929744.120   106423738.92208  19929744.920    82774027.95206
  22380685.340   119301652.01508  22380690.620    92790191.45806
  21187773.040   113181305.29408  21187775.180    88029928.27908
  21992702.200   117398878.71709  21992704.700    91310352.63108
  20198811.960   108050207.41409  20198811.320    84039126.56208
  22581437.820   120753105.73007  22581440.660    93919099.18108
 15 02 26 00 11  0.0000000  0 15G16G18G21G22G27G29G31R03R04R09R10R16
                                R18R19R20
  21785552.220   114483861.06909  21785548.620    89208195.22948
  22281458.900   117089934.98009  22281454.460    91238932.24047
  21301721.940   111941578.31809  21301717.700    87227314.60948
  23642589.340   124242700.76308  23642584.960    96812494.58246
  23059590.280   121178982.42408  23059589.880    94425177.87147
  23832222.040   125239610.19608  23832219.880    97589503.01246
  23070483.200   121236241.15709  23070480.220    94469802.26847
  22361177.800   119701139.89007  22361176.720    93100892.79307
  22693200.920   121521073.55808  22693201.860    94516400.65807
  19931759.080   106434498.76008  19931759.920    82782396.69606
  22362184.100   119203030.44808  22362189.280    92713485.78806
  21209421.120   113296945.74808  21209423.320    88119870.83208
  22006259.880   117471251.84708  22006262.560    91366642.84108
  20199264.620   108052628.85009  20199263.880    84041009.90108
  22569552.600   120689550.62807  22569555.480    93869667.46608
 15 02 26 00 11 30.0000000  0 15G16G18G21G22G27G29G31R03R04R09R10R16
                                R18R19R20
  21771772.820   114411449.32909  21771769.080    89151770.50448
  22270567.760   117032701.41609  22270563.280    91194334.67747
  21309334.740   111981583.94709  21309330.480    87258487.82648
  23624565.800   124147987.56608  23624561.600    96738692.17546
  23047183.760   121113785.76108  23047183.320    94374375.30147
  23845622.300   125310028.88208  23845620.440    97644374.68746
  23087449.440   121325398.90309  23087446.400    94539275.82447
  22357329.560   119680539.26908  22357328.920    93084870.13407
  22674198.360   121419315.63208  22674199.300    94437255.64407
  19933927.640   106446078.86908  19933928.520    82791403.45006
  22343779.480   119104923.22208  22343784.700    92637180.21306
  21231143.420   113412982.83508  21231145.680    88210121.88707
  22019818.440   117543628.25709  22019821.140    91422935.60708
  20199759.260   108055274.91809  20199758.480    84043067.95008
  22557702.980   120626186.01307  22557705.940    93820383.90408
 15 02 26 00 12  0.0000000  0 15G16G18G21G22G27G29G31R03R04R09R10R16
                                R18R19R20
  21758045.700   114339312.70609  21758041.920    89095560.15048
  22259739.060   116975796.40309  22259734.540    91149993.12047
  21317004.080   112021886.76609  21316999.820    87289892.61648
  23606550.280   124053315.91608  23606546.100    96664922.13646
  23034791.480   121048663.90908  23034791.080    94323631.00847
  23859029.420   125380483.14308  23859027.080    97699274.11746
  23104445.760   121414714.66609  23104442.620    94608872.49647
  22353611.700   119660637.59408  22353611.240    93069391.07407
  22655240.060   121317795.31608  22655241.080    94358295.39807
  19936249.980   106458479.62208  19936250.800    82801048.46706
  22325472.280   119007335.36309  22325477.440    92561278.55106
  21252939.320   113529413.06908  21252941.600    88300678.71708
  22033377.600   117616008.07209  22033380.440    91479230.97508
  20200295.760   108058145.37209  20200295.020    84045300.52908
  22545889.040   120563012.21407  22545892.140    93771248.74708
 15 02 26 00 12 30.0000000  0 15G16G18G21G22G27G29G31R03R04R09R10R16
                                R18R19R20
  21744371.960   114267456.65109  21744368.180    89039568.42448
  22248973.860   116919225.24209  22248969.380    91105911.71447
  21324729.880   112062486.27909  21324725.640    87321528.59848
  23588543.720   123958691.19908  23588539.520    96591188.64546
  23022413.960   120983619.42308  23022413.520    94272947.00647
  23872443.620   125450975.60508  23872441.260    97754203.29646
  23121472.060   121504188.00109  23121468.900    94678591.95147
  22350025.480   119641439.33108  22350025.320    93054459.10207
  22636327.380   121216519.70208  22636328.660    94279525.53407
  19938726.360   106471702.70708  19938727.040    82811333.08206
  22307263.540   118910272.74508  22307268.600    92485785.41306
  21274808.520   113646234.67408  21274810.840    88391539.94908
  22046937.820   117688393.07109  22046940.660    91535530.41308
  20200874.340   108061241.26209  20200873.800    84047708.45408
  22534111.120   120500030.82907  22534114.280    93722263.26308
 15 02 26 00 13  0.0000000  0 15G16G18G21G22G27G29G31R03R04R09R10R16
                                R18R19R20
  21730751.700   114195881.80709  21730747.920    88983795.82448
  22238272.480   116862989.31509  22238268.020    91062091.52447
  21332511.940   112103381.41509  21332507.720    87353394.93748
  23570546.500   123864115.00408  23570542.000    96517492.98146
  23010051.060   120918651.49108  23010050.500    94222322.65547
  23885865.020   125521505.48308  23885862.980    97809161.64846
  23138527.580   121593815.02909  23138524.360    94748431.16947
  22346570.960   119622945.44608  22346570.560    93040074.98007
  22617461.140   121115492.36808  22617462.440    94200948.73807
  19941356.460   106485746.74608  19941357.020    82822256.22706
  22289153.920   118813739.17608  22289159.240    92410703.78106
  21296750.000   113763442.21608  21296752.360    88482701.36008
  22060498.840   117760781.93809  22060501.500    91591832.84108
  20201494.840   108064560.61809  20201494.340    84050290.16508
  22522368.940   120437240.52207  22522372.080    93673426.38908
 15 02 26 00 13 30.0000000  0 15G16G18G21G22G27G29G31R03R04R09R10R16
                                R18R19R20
  21717185.400   114124590.63509  21717181.700    88928244.26748
  22227635.380   116807091.04309  22227630.980    91018534.43947
  21340349.900   112144570.35109  21340345.680    87385490.21048
  23552559.100   123769590.17708  23552554.500    96443837.33346
  22997702.700   120853759.97408  22997701.900    94171757.83747
  23899293.540   125592072.70808  23899291.840    97864149.05446
  23155611.740   121683592.63109  23155608.480    94818387.72147
  22343248.400   119605157.81208  22343247.220    93026240.16107
  22598642.340   121014717.90608  22598643.420    94122568.63607
  19944140.120   106500610.81008  19944140.540    82833817.15606
  22271144.260   118717738.27608  22271149.800    92336036.41406
  21318762.920   113881031.05108  21318765.260    88574159.32208
  22074060.380   117833173.76908  22074063.220    91648137.57008
  20202156.920   108068102.09909  20202156.360    84053044.64808
  22510662.440   120374640.68907  22510665.520    93624737.64208
 15 02 26 00 14  0.0000000  0 15G16G18G21G22G27G29G31R03R04R09R10R16
                                R18R19R20
  21703673.040   114053582.93009  21703669.340    88872913.58848
  22217062.280   116751529.19809  22217058.000    90975239.49347
  21348242.780   112186047.82609  21348238.560    87417810.31648
  23534581.420   123675116.25808  23534576.800    96370221.36446
  22985368.280   120788941.95708  22985367.400    94121250.31047
  23912728.660   125662674.48308  23912727.020    97919163.41146
  23172723.400   121773514.91609  23172720.080    94888457.00447
  22340057.520   119588074.75508  22340056.260    93012953.36507
  22579871.140   120914197.64108  22579871.760    94044386.23107
  19947076.580   106516291.10508  19947076.920    82846012.93306
  22253234.800   118622270.87209  22253240.380    92261784.01006
  21340845.860   113998993.86708  21340848.200    88665908.16208
  22087621.760   117905564.77309  22087624.680    91704441.69308
  20202859.660   108071861.24109  20202859.120    84055968.42908
  22498990.880   120312227.48107  22498993.840    93576194.05908
 15 02 26 00 14 30.0000000  0 15G16G18G21G22G27G29G31R03R04R09R10R16
                                R18R19R20
  21690215.780   113982864.92709  21690212.120    88817808.66148
  22206554.460   116696310.41809  22206550.340    90932211.89747
  21356191.060   112227816.41609  21356186.840    87450357.26848
  23516614.760   123580700.22608  23516609.940    96296650.44846
  22973048.640   120724201.66008  22973047.760    94070803.34147
  23926171.120   125733314.94008  23926169.640    97974207.93947
  23189862.740   121863582.87409  23189859.440    94958639.80847
  22336999.100   119571702.14308  22336998.120    93000219.15207
  22561149.140   120813940.86908  22561149.360    93966408.78107
  19950166.520   106532791.18508  19950166.880    82858846.32906
  22235427.180   118527345.57308  22235432.660    92187953.24006
  21362998.740   114117330.40708  21363001.140    88757947.67508
  22101183.580   117977958.80409  22101186.520    91760748.14108
  20203603.620   108075840.87709  20203603.140    84059063.70408
  22487355.080   120250005.03807  22487357.940    93527798.85108
 15 02 26 00 15  0.0000000  0  7G16G18G21G22G27G29G31
  21676814.220   113912439.67909  21676810.580    88762931.84748
  22196112.480   116641437.72409  22196108.500    90889453.96047
  21364194.500   112269874.86408  21364190.320    87483130.07848
  23498659.660   123486345.37108  23498654.760    96223127.25646
  22960743.980   120659540.26708  22960743.120    94020417.84847
  23939620.940   125803994.84608  23939619.760    98029283.12446
  23207029.420   121953794.75209  23207026.160    95028934.75147
 15 02 26 00 15 30.0000000  0  7G16G18G21G22G27G29G31
  21663468.580   113842308.30909  21663465.000    88708284.04048
  22185736.500   116586911.98809  22185732.660    90846966.38447
  21372252.620   112312220.53409  21372248.480    87516126.70848
  23480716.480   123392053.36308  23480711.380    96149653.02746
  22948453.940   120594956.21208  22948453.200    93970092.63547
  23953077.960   125874713.33308  23953076.660    98084388.47546
  23224222.600   122044145.95609  23224219.420    95099338.26847
 15 02 26 00 16  0.0000000  0  7G16G18G21G22G27G29G31
  21650178.380   113772468.21509  21650174.860    88653863.19448
  22175426.060   116532730.67009  22175422.280    90804747.19947
  21380364.180   112354846.78509  21380360.060    87549341.97548
  23462784.840   123297821.82208  23462779.620    96076225.90646
  22936177.700   120530444.45808  22936176.960    93919823.75547
  23966541.640   125945465.57208  23966540.360    98139520.06346
  23241440.880   122134628.91409  23241437.780    95169844.45347
 15 02 26 00 16 30.0000000  0  7G16G18G21G22G27G29G31
  21636944.820   113702925.53309  21636941.340    88599674.09148
  22165182.300   116478899.67109  22165178.560    90762800.97547
  21388529.620   112397756.04409  21388525.480    87582777.75848
  23444865.860   123203657.11708  23444860.540    96002850.83646
  22923916.020   120466009.25008  22923915.320    93869614.50247
  23980012.620   126016255.13308  23980011.140    98194680.72746
  23258684.340   122225244.24508  23258681.300    95240453.78547
 15 02 26 00 17  0.0000000  0  7G16G18G21G22G27G29G31
  21623768.140   113633681.49909  21623764.680    88545717.70948
  22155005.420   116425420.30809  22155001.780    90721128.75847
  21396748.300   112440945.16609  21396744.180    87616431.62448
  23426959.900   123109561.07708  23426954.620    95929529.31246
  22911668.660   120401649.48808  22911668.020    93819464.04447
  23993490.640   126087081.57308  23993489.080    98249870.17346
  23275952.260   122315987.94008  23275949.320    95311163.13147
 15 02 26 00 17 30.0000000  0  7G16G18G21G22G27G29G31
  21610650.160   113564745.93009  21610646.740    88492001.68448
  22144897.240   116372301.78409  22144893.640    90679737.71447
  21405021.180   112484419.27509  21405017.040    87650307.55848
  23409068.880   123015543.63508  23409063.420    95856268.99846
  22899437.000   120337372.50008  22899436.520    93769378.09647
  24006976.880   126157951.97208  24006975.580    98305093.80646
  23293245.480   122406864.34308  23293242.520    95381975.89447
 15 02 26 00 18  0.0000000  0  7G16G18G21G22G27G29G31
  21597589.360   113496110.73509  21597585.900    88438519.71748
  22134856.300   116319536.16509  22134852.720    90638621.65647
  21413346.060   112528167.05409  21413341.940    87684396.73648
  23391191.480   122921597.44509  23391186.000    95783064.23046
  22887219.280   120273168.25308  22887218.940    93719348.83547
  24020469.540   126228856.37408  24020468.180    98360343.97246
  23310561.480   122497860.46909  23310558.540    95452881.94047
 15 02 26 00 18 30.0000000  0  7G16G18G21G22G27G29G31
  21584586.840   113427781.66009  21584583.320    88385276.27848
  22124883.560   116267128.96009  22124880.020    90597784.88147
  21421723.380   112572190.23909  21421719.280    87718700.51148
  23373328.820   122827728.52809  23373323.320    95709919.65446
  22875016.100   120209040.04608  22875015.800    93669378.81447
  24033969.300   126299798.24108  24033967.760    98415623.35046
  23327900.320   122588976.49908  23327897.340    95523881.41547
 15 02 26 00 19  0.0000000  0  7G16G18G21G22G27G29G31
  21571643.260   113359762.47309  21571639.740    88332274.32048
  22114979.640   116215083.29409  22114976.160    90557229.81847
  21430152.940   112616487.93309  21430148.820    87753218.19148
  23355481.620   122733940.67709  23355475.980    95636838.24946
  22862827.740   120144989.26208  22862827.260    93619469.11647
  24047476.460   126370778.90908  24047474.960    98470932.92246
  23345261.640   122680210.63308  23345258.680    95594972.92247
 15 02 26 00 19 30.0000000  0  7G16G18G21G22G27G29G31
  21558758.800   113292053.78209  21558755.220    88279514.30348
  22105144.740   116163400.23009  22105141.260    90516957.31747
  21438634.200   112661057.35809  21438630.080    87787947.61248
  23337650.120   122640235.18909  23337644.500    95563821.02046
  22850653.820   120081014.50808  22850653.200    93569618.67047
  24060990.780   126441797.12708  24060989.280    98526271.77346
  23362644.660   122771558.82808  23362641.680    95666153.29847
 15 02 26 00 20  0.0000000  0  7G16G18G21G22G27G29G31
  21545934.160   113224659.62809  21545930.560    88226999.38548
  22095379.420   116112083.24009  22095375.980    90476970.05447
  21447166.940   112705897.64009  21447162.920    87822888.09248
  23319834.980   122546616.04409  23319829.360    95490871.08046
  22838494.680   120017117.43808  22838493.940    93519828.75247
  24074512.620   126512854.21908  24074511.000    98581640.93546
  23380049.060   122863019.40108  23380046.000    95737421.24347
 15 02 26 00 20 30.0000000  0  7G16G18G21G22G27G29G31
  21533169.400   113157580.08609  21533165.720    88174729.61948
  22085683.760   116061132.29209  22085680.320    90437268.03147
  21455750.580   112751005.42508  21455746.660    87858037.02148
  23302036.440   122453084.23209  23302030.860    95417989.20846
  22826349.920   119953296.01809  22826349.180    93470097.80647
  24088041.540   126583948.22708  24088039.860    98637038.87846
  23397473.880   122954587.00208  23397470.680    95808772.60047
 15 02 26 00 21  0.0000000  0  7G16G18G21G22G27G29G31
  21520465.440   113090820.03609  21520461.700    88122708.80648
  22076058.580   116010551.94509  22076055.220    90397854.78647
  21464385.200   112796381.12409  21464381.380    87893394.70348
  23284255.440   122359644.65408  23284249.860    95345179.16347
  22814220.080   119889552.85008  22814219.260    93420427.81948
  24101578.020   126655081.78808  24101576.180    98692467.59646
  23414919.040   123046261.60508  23414915.760    95880207.32547
 15 02 26 00 21 30.0000000  0  7G16G18G21G22G27G29G31
  21507822.700   113024381.74509  21507818.900    88070938.71348
  22066504.380   115960344.62209  22066500.940    90358732.20547
  21473070.680   112842023.86109  21473066.880    87928960.47048
  23266492.480   122266300.18709  23266486.980    95272443.25846
  22802105.160   119825888.14309  22802104.220    93370818.97148
  24115122.040   126726255.67008  24115119.980    98747927.75846
  23432384.000   123138040.25608  23432380.660    95951723.11847
 15 02 26 00 22  0.0000000  0  7G16G18G21G22G27G29G31
  21495241.420   112958266.23309  21495237.560    88019420.13048
  22057021.240   115910510.57409  22057017.820    90319900.49347
  21481806.240   112887929.47309  21481802.400    87964731.07448
  23248747.860   122173052.03609  23248742.340    95199782.39047
  22790004.800   119762300.31408  22790003.820    93321270.03647
  24128673.320   126797467.78108  24128671.180    98803417.70646
  23449867.880   123229918.28508  23449864.480    96023316.36646
 15 02 26 00 22 30.0000000  0  7G16G18G21G22G27G29G31
  21482722.240   112892477.47209  21482718.340    87968156.16548
  22047609.900   115861053.74009  22047606.440    90281362.71347
  21490591.980   112934098.76909  21490588.100    88000707.15048
  23231022.480   122079904.87709  23231016.960    95127200.22346
  22777919.380   119698791.42108  22777918.380    93271782.61147
  24142232.300   126868720.28908  24142230.200    98858939.12646
  23467370.500   123321894.45609  23467366.960    96094986.07946
 15 02 26 00 23  0.0000000  0  7G16G18G21G22G27G29G31
  21470265.040   112827014.52609  21470261.140    87917146.08348
  22038270.100   115811972.84109  22038266.700    90243117.86547
  21499426.860   112980526.01709  21499422.880    88036884.22648
  23213316.160   121986857.90309  23213310.780    95054696.13946
  22765848.380   119635358.18509  22765847.460    93222354.13047
  24155798.380   126940010.11808  24155796.240    98914489.62746
  23484890.580   123413962.65608  23484887.000    96166727.50246
 15 02 26 00 23 30.0000000  0  7G16G18G21G22G27G29G31
  21457870.640   112761881.96109  21457866.840    87866393.44748
  22029002.600   115763271.98109  22028999.280    90205169.15247
  21508310.920   113027211.57909  21508306.820    88073262.58848
  23195629.940   121893916.18208  23195624.560    94982274.02847
  22753792.220   119572002.94908  22753791.360    93172986.42847
  24169372.020   127011339.37408  24169369.720    98970070.85046
  23502428.060   123506122.22109  23502424.440    96238540.10646
 15 02 26 00 24  0.0000000  0  7G16G18G21G22G27G29G31
  21445540.160   112697085.26609  21445536.420    87815902.52248
  22019808.440   115714956.39209  22019805.180    90167520.65047
  21517244.580   113074157.77509  21517240.320    88109844.03348
  23177964.860   121801085.65408  23177959.520    94909938.59347
  22741751.520   119508729.26108  22741750.680    93123682.26247
  24182953.800   127082711.50308  24182951.460    99025685.48646
  23519982.860   123598373.31808  23519979.260    96310424.05546
 15 02 26 00 24 30.0000000  0  7G16G18G21G22G27G29G31
  21433273.000   112632621.37609  21433269.300    87765670.92748
  22010687.040   115667022.83309  22010683.780    90130169.83747
  21526226.340   113121357.04209  21526222.080    88146622.67548
  23160320.420   121708363.52308  23160315.000    94837687.60647
  22729725.260   119445531.65208  22729724.400    93074437.38647
  24196542.740   127154121.43608  24196540.440    99081329.54746
  23537553.520   123690707.77208  23537549.880    96382372.94646
 15 02 26 00 25  0.0000000  0  7G16G18G21G22G27G29G31
  21421070.420   112568496.38809  21421066.680    87715703.40848
  22001639.400   115619476.88509  22001636.040    90093121.05547
  21535256.680   113168811.81209  21535252.500    88183600.42848
  23142697.840   121615756.05809  23142692.320    94765525.98147
  22717714.320   119382414.23608  22717713.440    93025254.99247
  24210139.480   127225572.90008  24210137.180    99137006.01246
  23555140.240   123783126.62808  23555136.580    96454387.60046
 15 02 26 00 25 30.0000000  0  7G16G18G21G22G27G29G31
  21408932.080   112504708.90409  21408928.280    87665998.87648
  21992665.260   115572317.41409  21992661.780    90056373.42847
  21544334.340   113216515.62609  21544330.300    88220772.23148
  23125096.960   121523262.75209  23125091.460    94693453.31546
  22705718.040   119319373.34308  22705717.060    92976132.23347
  24223743.440   127297062.20008  24223741.180    99192711.91746
  23572741.700   123875622.87208  23572738.040    96526462.57146
 15 02 26 00 26  0.0000000  0  7G16G18G21G22G27G29G31
  21396858.740   112441262.69109  21396854.860    87616560.26248
  21983765.180   115525547.23609  21983761.700    90019929.13747
  21553459.520   113264469.18909  21553455.600    88258138.64348
  23107518.580   121430887.81008  23107513.160    94621472.84947
  22693736.680   119256410.53009  22693735.660    92927070.30547
  24237355.020   127368591.18408  24237352.600    99248448.80446
  23590357.560   123968194.86008  23590353.960    96598596.54646
 15 02 26 00 26 30.0000000  0  7G16G18G21G22G27G29G31
  21384851.080   112378161.80109  21384847.160    87567390.74148
  21974939.840   115479170.02609  21974936.380    89983791.06248
  21562632.040   113312671.63208  21562628.260    88295698.98748
  23089963.540   121338635.36309  23089958.120    94549587.86247
  22681770.540   119193527.60109  22681769.480    92878070.64047
  24250974.480   127440161.70808  24250971.940    99304218.04246
  23607987.700   124060841.75808  23607984.060    96670788.90746
 15 02 26 00 27  0.0000000  0  7G16G18G21G22G27G29G31
  21372909.200   112315406.96409  21372905.300    87518490.87048
  21966189.400   115433186.39309  21966185.900    89947959.66747
  21571851.520   113361120.74709  21571847.820    88333451.54448
  23072432.040   121246506.71109  23072426.700    94477799.32747
  22669819.340   119130723.38508  22669818.280    92829132.30447
  24264601.580   127511772.37908  24264599.200    99360018.49346
  23625631.140   124153558.80008  23625627.540    96743035.91246
 15 02 26 00 27 30.0000000  0  7G16G18G21G22G27G29G31
  21361033.940   112253002.30909  21361030.100    87469863.87248
  21957514.580   115387599.90309  21957511.040    89912437.73847
  21581117.860   113409815.61409  21581114.080    88371395.60448
  23054924.820   121154505.92209  23054919.520    94406110.44447
  22657883.340   119067999.53408  22657882.420    92780256.59648
  24278236.460   127583424.51208  24278234.240    99415851.32846
  23643287.740   124246344.89808  23643284.180    96815336.74646
 15 02 26 00 28  0.0000000  0  7G16G18G21G22G27G29G31
  21349225.980   112190951.15509  21349222.160    87421512.32048
  21948915.960   115342413.58509  21948912.360    89877227.63247
  21590431.040   113458756.33709  21590427.140    88409531.23248
  23037442.780   121062637.53709  23037437.460    94334524.70547
  22645962.940   119005357.63708  22645962.180    92731444.73947
  24291879.520   127655120.11408  24291877.580    99471718.00845
  23660957.200   124339198.59808  23660953.640    96887690.24547
 15 02 26 00 28 30.0000000  0  7G16G18G21G22G27G29G31
  21337484.720   112129250.46709  21337480.920    87373433.86848
  21940392.820   115297623.81409  21940389.140    89842326.52048
  21599789.600   113507935.45509  21599785.600    88447852.62348
  23019985.320   120970898.71109  23019980.140    94263039.93947
  22634057.160   118942792.28608  22634056.360    92682692.53448
  24305529.920   127726853.93608  24305528.280    99527614.47946
  23678637.840   124432111.25608  23678634.340    96960089.67446
 15 02 26 00 29  0.0000000  0  7G16G18G21G22G27G29G31
  21325811.580   112067907.82309  21325807.760    87325634.40548
  21931946.560   115253237.93509  21931942.800    89807740.13147
  21609194.120   113557356.28409  21609190.040    88486362.35148
  23002554.020   120879297.34209  23002548.920    94191662.26947
  22622167.000   118880308.97609  22622166.120    92634004.25147
  24319188.600   127798631.11808  24319186.960    99583544.74446
  23696330.140   124525085.30408  23696326.820    97032536.94946
 15 02 26 00 29 30.0000000  0  7G16G18G21G22G27G29G31
  21314206.200   112006921.21809  21314202.360    87278112.38248
  21923576.700   115209253.59009  21923572.740    89773466.62447
  21618643.380   113607012.37809  21618639.300    88525055.41848
  22985148.660   120787831.95709  22985143.560    94120390.57147
  22610291.700   118817903.53609  22610290.760    92585376.65148
  24332854.640   127870447.58608  24332853.140    99639505.54446
  23714032.780   124618113.54908  23714029.660    97105026.44046
 15 02 26 00 30  0.0000000  0  7G16G18G21G22G27G29G31
  21302669.380   111946295.13509  21302665.600    87230871.28448
  21915284.040   115165674.67109  21915279.940    89739509.03347
  21628137.720   113656905.31609  21628133.640    88563933.03448
  22967770.080   120696507.16809  22967764.920    94049228.41047
  22598431.700   118755578.42108  22598430.640    92536811.63348
  24346528.640   127942305.67908  24346526.980    99695498.89545
  23731745.660   124711195.21008  23731742.680    97177557.58147
 15 02 26 00 30 30.0000000  0  7G16G18G21G22G27G29G31
  21291201.760   111886032.64109  21291198.000    87183913.50448
  21907069.000   115122503.88009  21907064.740    89705869.45947
  21637676.880   113707033.84809  21637672.780    88602994.22848
  22950419.000   120605326.68509  22950413.740    93978178.70247
  22586587.080   118693334.73808  22586586.020    92488310.07048
  24360210.840   128014206.17308  24360208.880    99751525.28446
  23749468.300   124804328.07808  23749465.340    97250128.61046
 15 02 26 00 31  0.0000000  0  7G16G18G21G22G27G29G31
  21279803.220   111826133.16309  21279799.520    87137238.59148
  21898931.280   115079739.80709  21898926.980    89672546.81347
  21647259.940   113757393.10509  21647255.840    88642235.21648
  22933095.480   120514290.70309  22933090.040    93907241.59547
  22574757.460   118631169.84908  22574756.400    92439869.90948
  24373900.700   128086146.70708  24373898.560    99807582.79646
  23767199.680   124897506.91708  23767196.720    97322735.45746
 15 02 26 00 31 30.0000000  0  7G16G18G21G22G27G29G31
  21268474.540   111766600.53209  21268470.820    87090849.53648
  21890871.560   115037386.06309  21890867.320    89639543.91247
  21656886.900   113807982.96909  21656882.780    88681655.89348
  22915800.180   120423403.07809  22915794.640    93836420.10447
  22562943.020   118569085.17608  22562942.120    92391492.26248
  24387598.480   128158128.74108  24387596.060    99863672.67646
  23784939.440   124990729.94008  23784936.460    97395376.72746
 15 02 26 00 32  0.0000000  0  7G16G18G21G22G27G29G31
  21257216.080   111707436.71809  21257212.340    87044747.86348
  21882890.180   114995444.34809  21882886.060    89606862.05847
  21666557.320   113858801.28809  21666553.180    88721254.57548
  22898533.600   120332666.28509  22898528.000    93765716.12647
  22551143.900   118507080.84408  22551143.140    92343177.21748
  24401304.140   128230152.26008  24401301.660    99919794.86845
  23802687.040   125083993.93708  23802684.080    97468049.92046
 15 02 26 00 32 30.0000000  0  7G16G18G21G22G27G29G31
  21246028.660   111648646.16909  21246024.860    86998937.04148
  21874987.880   114953918.49809  21874983.940    89574504.27348
  21676271.360   113909848.82609  21676267.240    88761031.87748
  22881296.680   120242085.83809  22881291.120    93695133.97347
  22539360.600   118445159.34309  22539359.900    92294926.70948
  24415018.120   128302219.66908  24415015.720    99975951.29746
  23820442.360   125177298.52308  23820439.340    97540754.75046
 15 02 26 00 33  0.0000000  0  7G16G18G21G22G27G29G31
  21234912.400   111590230.00709  21234908.620    86953417.95848
  21867164.800   114912808.71009  21867161.040    89542470.68347
  21686028.460   113961122.64309  21686024.300    88800985.49748
  22864089.620   120151662.58709  22864084.200    93624674.32247
  22527592.880   118383319.56209  22527592.220    92246739.88948
  24428740.140   128374329.97308  24428737.980   100032141.11945
  23838204.600   125270639.34408  23838201.400    97613487.82846
 15 02 26 00 33 30.0000000  0  7G16G18G21G22G27G29G31
  21223867.500   111532188.91009  21223863.720    86908191.13548
  21859421.180   114872115.94109  21859417.400    89510762.04247
  21695827.960   114012619.32909  21695823.800    88841112.78048
  22846912.780   120061398.01709  22846907.380    93554338.32447
  22515840.600   118321560.52209  22515839.940    92198615.97448
  24442470.180   128446481.64908  24442468.060   100088363.19046
  23855972.920   125364012.18808  23855969.700    97686245.83346
 15 02 26 00 34  0.0000000  0  7G16G18G21G22G27G29G31
  21212894.900   111474527.71609  21212891.140    86863260.33448
  21851757.720   114831844.01609  21851753.860    89479381.32947
  21705669.980   114064339.52509  21705665.800    88881414.23048
  22829767.140   119971297.26809  22829761.740    93484129.95747
  22504104.140   118259884.69109  22504103.460    92150556.90148
  24456208.560   128518677.01008  24456206.400   100144619.26746
  23873747.280   125457416.72308  23873743.980    97759028.56346
 15 02 26 00 34 30.0000000  0  7G16G18G21G22G27G29G31
  21201994.560   111417245.99309  21201990.820    86818625.23348
  21844174.060   114791991.44509  21844170.160    89448327.39947
  21715553.660   114116278.78509  21715549.560    88921886.38448
  22812652.540   119881359.76609  22812647.120    93414048.80147
  22492383.040   118198289.50609  22492382.280    92102560.67148
  24469954.880   128590913.72408  24469952.360   100200907.62745
  23891526.440   125550846.80308  23891523.120    97831831.15746
 15 02 26 00 35  0.0000000  0  7G16G18G21G22G27G29G31
  21191167.440   111360348.72509  21191163.620    86774289.70048
  21836671.220   114752563.48209  21836667.360    89417604.30847
  21725479.400   114168439.12909  21725475.360    88962530.80848
  22795570.260   119791591.88409  22795564.740    93344099.82447
  22480677.840   118136778.20708  22480677.000    92054629.79748
  24483709.760   128663195.16308  24483706.940   100257230.82945
  23909310.520   125644302.82608  23909307.300    97904653.99346
 15 02 26 00 35 30.0000000  0  7G16G18G21G22G27G29G31
  21180413.380   111303835.35109  21180409.500    86730253.30948
  21829248.860   114713558.45909  21829244.900    89387210.80048
  21735446.240   114220815.44209  21735442.240    89003343.51648
  22778520.280   119701993.66609  22778514.780    93274283.06247
  22468987.960   118075348.18508  22468987.160    92006762.27048
