     2.11           OBSERVATION DATA    G                   RINEX VERSION / TYPE
SPIDER V4,0,0,3554                      2015 03 31 05:35    PGM / RUN BY / DATE 
EADB                                                        MARKER NAME         
EADB                                                        MARKER NUMBER       
                                                            OBSERVER / AGENCY   
462408              LEICA GRX1200PRO    3.00/2.127          REC # / TYPE / VERS 
103310              LEIAT504                                ANT # / TYPE        
  5238464.6656   142765.3090  3625629.6523                  APPROX POSITION XYZ 
        0.0770        0.0000        0.0000                  ANTENNA: DELTA H/E/N
     1     1                                                WAVELENGTH FACT L1/2
     4    C1    L1    P2    L2                              # / TYPES OF OBSERV 
    30.000                                                  INTERVAL            
  2015    02    26    00    00    0.0000000     GPS         TIME OF FIRST OBS   
  2015    02    26    23    59   30.0000000     GPS         TIME OF LAST OBS    
    16                                                      LEAP SECONDS        
    30                                                      # OF SATELLITES     
   G 1   836   836   836   836                              PRN / # OF OBS      
   G 2   926   926   926   926                              PRN / # OF OBS      
   G 3   844   844   844   844                              PRN / # OF OBS      
   G 4   849   849   849   849                              PRN / # OF OBS      
   G 5   673   673   673   673                              PRN / # OF OBS      
   G 6   728   728   728   728                              PRN / # OF OBS      
   G 7   647   647   646   646                              PRN / # OF OBS      
   G 9   789   789   789   789                              PRN / # OF OBS      
   G10   784   784   784   784                              PRN / # OF OBS      
   G11   799   799   799   799                              PRN / # OF OBS      
   G12   818   818   818   818                              PRN / # OF OBS      
   G13   823   823   823   823                              PRN / # OF OBS      
   G14   930   930   930   930                              PRN / # OF OBS      
   G15   733   733   733   733                              PRN / # OF OBS      
   G16   690   690   690   690                              PRN / # OF OBS      
   G17   932   932   932   932                              PRN / # OF OBS      
   G18   935   935   935   935                              PRN / # OF OBS      
   G19   783   783   783   783                              PRN / # OF OBS      
   G20   803   803   803   803                              PRN / # OF OBS      
   G21   706   706   706   706                              PRN / # OF OBS      
   G22   784   784   784   784                              PRN / # OF OBS      
   G23   731   731   731   731                              PRN / # OF OBS      
   G24   831   831   831   831                              PRN / # OF OBS      
   G25   848   848   848   848                              PRN / # OF OBS      
   G27   832   832   832   832                              PRN / # OF OBS      
   G28   907   907   907   907                              PRN / # OF OBS      
   G29   746   746   746   746                              PRN / # OF OBS      
   G30   693   693   693   693                              PRN / # OF OBS      
   G31   778   778   778   778                              PRN / # OF OBS      
   G32   744   744   744   744                              PRN / # OF OBS      
BIT 2 OF LLI FLAGS DATA COLLECTED UNDER A/S CONDITION       COMMENT             
SNR is mapped to RINEX snr flag value [2-9]                 COMMENT             
Lx:     = 25dBHz -> 1; 26-27dBHz -> 2; 28-31dBHz -> 3       COMMENT             
       32-35dBHz -> 4; 36-38dBHz -> 5; 39-41dBHz -> 6       COMMENT             
       42-44dBHz -> 7; 45-48dBHz -> 8; >=49dBHz -> 9        COMMENT             
                                                            END OF HEADER       
 15 02 26 00 00  0.0000000  0  7G16G18G21G22G27G29G31
  21809635.226   114610428.04609  21809633.009    89306817.37648
  22897770.027   120328621.98508  22897768.423    93762578.65246
  21290834.337   111884096.97309  21290832.151    87182406.77749
  24181232.771   127073264.79206  24181233.083    99018134.16046
  22850740.526   120081463.10208  22850741.424    93569986.07947
  24015148.395   126200445.06907  24015147.335    98338001.97545
  22525571.098   118372667.97808  22525569.830    92238432.50947
 15 02 26 00 00 30.0000000  0  7G16G18G21G22G27G29G31
  21795976.883   114538653.22009  21795974.609    89250888.94948
  22885927.904   120266390.36808  22885926.396    93714086.50146
  21297810.117   111920754.60009  21297808.011    87210971.16548
  24163931.001   126982340.09307  24163930.192    98947283.93645
  22838870.344   120019085.97108  22838871.293    93521380.53147
  24029400.232   126275339.81907  24029399.735    98396361.45445
  22542255.647   118460344.06208  22542253.880    92306751.53047
 15 02 26 00 01  0.0000000  0  7G16G18G21G22G27G29G31
  21782361.375   114467103.45709  21782359.174    89195135.89348
  22874133.564   120204411.09508  22874132.245    93665790.98746
  21304854.076   111957770.51009  21304851.760    87239814.73349
  24146622.243   126891381.49106  24146620.846    98876407.24244
  22827023.672   119956831.13208  22827024.596    93472870.28947
  24043653.107   126350238.33807  24043652.173    98454723.93045
  22558986.087   118548263.18108  22558984.123    92375259.92147
 15 02 26 00 01 30.0000000  0  7G16G18G21G22G27G29G31
  21768788.462   114395777.38309  21768786.427    89139557.14048
  22862387.072   120142683.36708  22862385.954    93617691.47946
  21311965.141   111995139.50309  21311962.875    87268933.43249
  24129306.258   126800387.75106  24129304.520    98805503.22045
  22815199.624   119894695.05808  22815200.360    93424452.57947
  24057905.753   126425137.37807  24057904.980    98513086.79246
  22575761.494   118636419.07008  22575759.672    92443952.80247
 15 02 26 00 02  0.0000000  0  7G16G18G21G22G27G29G31
  21755259.270   114324681.62609  21755257.129    89084157.86148
  22850689.839   120081214.58708  22850688.639    93569793.74646
  21319144.000   112032864.66009  21319141.619    87298329.65949
  24111985.837   126709366.26107  24111983.680    98734577.58845
  22803398.923   119832682.20708  22803399.567    93376130.90047
  24072159.514   126500041.23807  24072158.456    98571453.39445
  22592582.325   118724813.25808  22592580.788    92512831.36547
 15 02 26 00 02 30.0000000  0  7G16G18G21G22G27G29G31
  21741772.435   114253807.88809  21741770.405    89028931.57548
  22839040.542   120019996.43008  22839039.121    93522091.29246
  21326388.519   112070934.08109  21326386.042    87327994.14448
  24094658.518   126618309.17507  24094656.148    98663624.21145
  22791619.735   119770782.15608  22791620.497    93327897.10847
  24086412.513   126574939.03707  24086411.445    98629815.34546
  22609445.893   118813432.65608  22609444.612    92581885.40647
 15 02 26 00 03  0.0000000  0  7G16G18G21G22G27G29G31
  21728330.847   114183171.96009  21728328.821    88973890.59948
  22827442.127   119959045.18908  22827440.260    93474596.83046
  21333700.573   112109359.21809  21333697.950    87357935.80648
  24077326.989   126527232.65806  24077324.542    98592655.68345
  22779864.506   119709008.19908  22779865.308    93279761.57247
  24100665.934   126649844.77007  24100665.726    98688183.39746
  22626354.648   118902287.82308  22626352.983    92651123.20247
 15 02 26 00 03 30.0000000  0  7G16G18G21G22G27G29G31
  21714933.565   114112768.26909  21714931.461    88919030.58748
  22815893.379   119898356.01508  22815891.588    93427306.57546
  21341078.418   112148130.83809  21341076.067    87388147.46248
  24059990.602   126436131.70406  24059988.126    98521668.05144
  22768131.689   119647352.85808  22768132.623    93231718.47247
  24114920.122   126724750.74806  24114919.439    98746551.68845
  22643306.209   118991368.41308  22643304.263    92720536.64047
 15 02 26 00 04  0.0000000  0  7G16G18G21G22G27G29G31
  21701581.011   114042600.46609  21701579.011    88864354.37848
  22804394.996   119837932.54208  22804393.434    93380223.36946
  21348522.353   112187248.78909  21348519.845    87418628.99048
  24042650.795   126345010.53007  24042647.463    98450664.62244
  22756422.025   119585817.65808  22756422.655    93183768.98547
  24129174.748   126799658.16207  24129174.347    98804921.02845
  22660300.152   119080673.05808  22660298.611    92790124.62747
 15 02 26 00 04 30.0000000  0  7G16G18G21G22G27G29G31
  21688273.000   113972666.08809  21688270.965    88809860.06248
  22792946.940   119777772.82308  22792945.430    93333345.67446
  21356031.088   112226707.36809  21356028.557    87449375.94248
  24025306.956   126253867.35207  24025303.970    98379644.13646
  22744734.270   119524397.78108  22744734.990    93135909.35847
  24143428.600   126874562.40507  24143427.854    98863287.97645
  22677335.569   119170194.18408  22677334.028    92859881.34147
 15 02 26 00 05  0.0000000  0  7G16G18G21G22G27G29G31
  21675010.478   113902971.34409  21675008.444    88755552.47348
  22781550.394   119717883.38108  22781548.913    93286678.59346
  21363604.910   112266508.91209  21363602.714    87480390.13048
  24007960.090   126162708.39407  24007957.275    98308611.32046
  22733069.313   119463097.08008  22733069.827    93088142.59047
  24157682.626   126949467.72607  24157682.299    98921655.73346
  22694412.151   119259932.70008  22694410.657    92929807.44047
 15 02 26 00 05 30.0000000  0  7G16G18G21G22G27G29G31
  21661794.755   113833522.59609  21661792.774    88701436.57848
  22770206.264   119658270.76508  22770204.994    93240227.23346
  21371244.575   112306655.46909  21371242.350    87511673.16348
  23990610.966   126071540.38106  23990608.506    98237571.48044
  22721427.442   119401919.63808  22721428.085    93040471.88247
  24171937.434   127024377.93307  24171937.278    98980027.30145
  22711530.554   119349890.23208  22711529.211    92999904.18047
 15 02 26 00 06  0.0000000  0  7G16G18G21G22G27G29G31
  21648625.123   113764315.15009  21648622.952    88647508.70348
  22758914.266   119598930.63308  22758912.598    93193988.16846
  21378948.210   112347138.84409  21378946.005    87543218.65548
  23973259.643   125980359.31307  23973256.814    98166521.42144
  22709807.793   119340858.78008  22709808.816    92992892.01447
  24186192.336   127099286.41907  24186191.819    99038397.54346
  22728688.736   119440056.67908  22728687.136    93070163.73647
 15 02 26 00 06 30.0000000  0  7G16G18G21G22G27G29G31
  21635502.100   113695353.47609  21635500.023    88593772.34448
  22747675.131   119539868.07708  22747673.222    93147965.42546
  21386716.214   112387959.57409  21386714.108    87575027.01748
  23955907.361   125889170.29907  23955904.105    98095465.07345
  22698210.917   119279916.75608  22698211.792    92945404.73247
  24200447.034   127174195.61506  24200446.286    99096768.32945
  22745886.513   119530431.95208  22745884.886    93140586.02047
 15 02 26 00 07  0.0000000  0  7G16G18G21G22G27G29G31
  21622426.451   113626640.35409  21622424.298    88540229.65648
  22736489.286   119481086.50508  22736487.339    93102161.60646
  21394548.161   112429116.63709  21394545.960    87607097.45648
  23938553.445   125797976.60807  23938551.029    98024405.19046
  22686636.827   119219094.15608  22686637.702    92898010.51747
  24214702.253   127249105.38807  24214701.192    99155139.56946
  22763123.766   119621013.79908  22763122.108    93211169.25147
 15 02 26 00 07 30.0000000  0  7G16G18G21G22G27G29G31
  21609398.740   113558179.86309  21609396.664    88486883.82748
  22725357.633   119422589.89608  22725355.784    93056579.84346
  21402444.207   112470610.17009  21402442.015    87639430.07348
  23921199.374   125706782.72507  23921197.538    97953345.19845
  22675085.653   119158392.67008  22675086.551    92850710.67347
  24228957.342   127324017.98007  24228956.825    99213512.97046
  22780400.049   119711801.05808  22780398.476    93281912.52947
 15 02 26 00 08  0.0000000  0  7G16G18G21G22G27G29G31
  21596418.270   113489966.25109  21596416.138    88433730.37048
  22714279.295   119364372.58808  22714277.616    93011215.71946
  21410402.342   112512430.67109  21410400.047    87672017.47848
  23903844.803   125615583.36907  23903842.561    97882280.87645
  22663556.249   119097804.49708  22663557.038    92803499.11947
  24243212.078   127398925.84107  24243211.028    99271882.73745
  22797713.329   119802783.08608  22797711.558    93352807.60846
 15 02 26 00 08 30.0000000  0  7G16G18G21G22G27G29G31
  21583487.075   113422012.49109  21583484.908    88380779.39448
  22703256.768   119306448.16108  22703255.023    92966079.82546
  21418424.577   112554587.01909  21418422.087    87704866.58048
  23886492.114   125524392.24807  23886489.316    97811222.86445
  22652050.404   119037340.30908  22652051.059    92756384.18547
  24257467.670   127473839.64107  24257466.956    99330257.09845
  22815065.180   119893967.61608  22815063.408    93423860.47447
 15 02 26 00 09  0.0000000  0  7G16G18G21G22G27G29G31
  21570604.426   113354313.77609  21570602.325    88328027.15248
  22692289.011   119248812.02408  22692287.232    92921168.55646
  21426508.853   112597070.58309  21426506.441    87737970.65748
  23869139.074   125433204.65906  23869137.183    97740167.71945
  22640566.535   118976992.98208  22640567.317    92709360.30647
  24271722.887   127548752.03106  24271721.909    99388630.40145
  22832453.725   119985344.84608  22832452.208    93495063.48447
 15 02 26 00 09 30.0000000  0  7G16G18G21G22G27G29G31
  21557771.958   113286878.13909  21557769.628    88275479.90448
  22681377.570   119191472.32508  22681375.753    92876488.28046
  21434656.476   112639886.00709  21434653.991    87771333.32648
  23851788.777   125342029.17007  23851787.273    97669122.04946
  22629106.167   118916768.49808  22629107.052    92662432.15447
  24285979.098   127623669.11407  24285978.521    99447007.28445
  22849879.311   120076917.73108  22849877.795    93566418.94147
 15 02 26 00 10  0.0000000  0  7G16G18G21G22G27G29G31
  21544987.633   113219696.15209  21544985.469    88223130.31448
  22670520.659   119134419.87208  22670518.907    92832031.84146
  21442864.421   112683019.39009  21442861.864    87804943.75448
  23834439.538   125250856.80007  23834437.626    97598078.70945
  22617666.839   118856654.89108  22617667.832    92615590.39847
  24300234.101   127698579.03306  24300232.847    99505378.67845
  22867339.641   120168671.53908  22867338.187    93637915.38946
 15 02 26 00 10 30.0000000  0  7G16G18G21G22G27G29G31
  21532254.284   113152782.23109  21532252.044    88170989.59848
  22659721.415   119077669.43108  22659719.659    92787810.72846
  21451134.918   112726481.64509  21451132.526    87838810.45448
  23817093.292   125159702.72406  23817091.242    97527049.66644
  22606251.047   118796664.75308  22606251.934    92568844.86147
  24314490.279   127773494.34907  24314489.637    99563754.19246
  22884836.069   120260615.92408  22884834.451    93709560.35546
 15 02 26 00 11  0.0000000  0  7G16G18G21G22G27G29G31
  21519571.840   113086135.97509  21519569.752    88119057.45348
  22648979.427   119021220.65308  22648977.888    92743824.68846
  21459467.009   112770267.89509  21459464.704    87872929.61148
  23799750.345   125068566.76807  23799747.763    97456034.67545
  22594858.393   118736795.14008  22594859.282    92522193.22947
  24328745.999   127848412.16107  24328745.985    99622131.64745
  22902367.667   120352745.06308  22902365.918    93781349.28246
 15 02 26 00 11 30.0000000  0  7G16G18G21G22G27G29G31
  21506939.325   113019751.53509  21506937.231    88067329.32848
  22638294.053   118965068.41808  22638292.536    92700069.70746
  21467859.098   112814368.71409  21467856.742    87907293.88648
  23782410.639   124977444.12207  23782407.935    97385030.07046
  22583486.957   118677038.21508  22583487.777    92475629.41447
  24343001.469   127923324.81807  24343001.466    99680505.14945
  22919932.303   120445048.37908  22919930.828    93853273.90247
 15 02 26 00 12  0.0000000  0  7G16G18G21G22G27G29G31
  21494358.397   112953638.09609  21494356.286    88015812.36948
  22627666.696   118909221.49708  22627665.356    92656552.65046
  21476312.170   112858789.84409  21476309.864    87941907.75748
  23765074.723   124886344.11206  23765072.339    97314043.20446
  22572138.439   118617401.00608  22572139.096    92429158.86947
  24357257.397   127998239.35007  24357256.786    99738880.11545
  22937531.109   120537530.07008  22937529.754    93925337.53046
 15 02 26 00 12 30.0000000  0  7G16G18G21G22G27G29G31
  21481828.824   112887795.84009  21481826.870    87964506.72548
  22617097.602   118853680.18808  22617095.969    92613273.71546
  21484825.137   112903525.66209  21484822.793    87976766.84148
  23747742.943   124795266.99307  23747740.473    97243074.11045
  22560811.935   118557880.88708  22560812.953    92382779.58247
  24371513.215   128073153.11606  24371512.491    99797254.49845
  22955162.601   120630184.62308  22955161.170    93997535.85846
 15 02 26 00 13  0.0000000  0  7G16G18G21G22G27G29G31
  21469351.834   112822228.90409  21469349.882    87913415.60648
  22606587.506   118798449.63908  22606585.887    92570236.93546
  21493398.458   112948578.67409  21493396.295    88011873.08448
  23730417.360   124704218.19307  23730413.354    97172126.95445
  22549508.592   118498480.60408  22549509.400    92336493.67147
  24385769.249   128148069.04907  24385768.541    99855630.51445
  22972826.840   120723011.88808  22972825.553    94069868.77146
 15 02 26 00 13 30.0000000  0  7G16G18G21G22G27G29G31
  21456926.977   112756935.96909  21456924.966    87862537.99648
  22596136.501   118743528.67008  22596134.921    92527441.38446
  21502031.139   112993943.37709  21502028.873    88047222.20548
  23713096.400   124613196.71207  23713093.015    97101201.21546
  22538227.261   118439196.31408  22538228.055    92290298.13447
  24400024.961   128222983.23007  24400024.380    99914005.19746
  22990523.065   120816005.17808  22990521.750    94142331.05047
 15 02 26 00 14  0.0000000  0  7G16G18G21G22G27G29G31
  21444555.664   112691923.90309  21444553.790    87811879.25248
  22585745.509   118688923.42308  22585743.717    92484891.85946
  21510723.329   113039621.70309  21510721.086    88082815.70848
  23695781.834   124522209.49407  23695778.896    97030302.20145
  22526968.631   118380032.18808  22526969.415    92244196.23247
  24414280.999   128297900.08807  24414280.569    99972381.97246
  23008250.999   120909165.81908  23008249.670    94214923.73547
 15 02 26 00 14 30.0000000  0  7G16G18G21G22G27G29G31
  21432238.012   112627193.58109  21432236.074    87761440.04748
  22575414.835   118634635.33108  22575413.055    92442589.46246
  21519474.734   113085610.89709  21519472.608    88118651.44648
  23678474.761   124431258.24108  23678470.999    96959431.10044
  22515732.690   118320987.16808  22515733.487    92198187.13848
  24428537.459   128372818.48007  24428537.399   100030759.90245
  23026009.996   121002489.66708  23026009.033    94287643.57346
 15 02 26 00 15  0.0000000  0  7G16G18G21G22G27G29G31
  21419973.570   112562743.84909  21419971.547    87711219.48248
  22565144.305   118580663.55108  22565142.516    92400533.54346
  21528284.401   113131905.66509  21528282.224    88154725.28648
  23661173.788   124340342.23407  23661170.004    96888587.48045
  22504518.816   118262058.30108  22504519.524    92152268.55547
  24442793.474   128447734.96806  24442793.491   100089136.40446
  23043798.603   121095970.99008  23043797.690    94360486.12146
 15 02 26 00 15 30.0000000  0  7G16G18G21G22G27G29G31
  21407762.990   112498576.88009  21407760.972    87661219.25248
  22554934.388   118527010.13708  22554932.622    92358725.70346
  21537151.952   113178504.43309  21537149.758    88191036.01448
  23643879.808   124249464.28707  23643877.166    96817773.63746
  22493327.092   118203245.11208  22493327.879    92106440.10847
  24457049.733   128522649.80407  24457049.022   100147511.60744
  23061617.256   121189606.39508  23061615.453    94433448.78947
 15 02 26 00 16  0.0000000  0  7G16G18G21G22G27G29G31
  21395607.398   112434698.93409  21395605.382    87611444.23748
  22544786.228   118473681.76008  22544784.740    92317171.13446
  21546077.734   113225409.60809  21546075.372    88227585.50448
  23626595.061   124158631.26807  23626592.264    96746994.69745
  22482157.830   118144551.55908  22482158.598    92060704.89447
  24471306.219   128597567.20706  24471305.653   100205888.81545
  23079465.155   121283397.42208  23079463.447    94506532.68446
 15 02 26 00 16 30.0000000  0  7G16G18G21G22G27G29G31
  21383507.322   112371112.95209  21383505.235    87561896.72148
  22534700.700   118420681.32908  22534699.036    92275872.11046
  21555061.699   113272620.44209  21555059.371    88264373.16748
  23609319.047   124067846.29507  23609316.444    96676253.19245
  22471011.792   118085978.66908  22471012.535    92015063.69147
  24485562.792   128672487.65707  24485562.555   100264268.38445
  23097341.825   121377341.74008  23097340.783    94579735.97847
 15 02 26 00 17  0.0000000  0  7G16G18G21G22G27G29G31
  21371462.891   112307818.88109  21371460.813    87512576.66848
  22524677.603   118368009.12808  22524675.799    92234828.84946
  21564102.908   113320132.63109  21564100.503    88301395.65448
  23592052.327   123977110.22407  23592049.648    96605549.80145
  22459888.356   118027524.15008  22459888.921    91969514.72647
  24499819.510   128747409.37306  24499818.896   100322648.93644
  23115247.271   121471434.11808  23115246.195    94653054.67946
 15 02 26 00 17 30.0000000  0  7G16G18G21G22G27G29G31
  21359473.616   112244814.59609  21359471.566    87463482.42548
  22514716.140   118315662.63008  22514714.625    92194039.38446
  21573200.289   113367939.40809  21573197.839    88338647.69048
  23574795.098   123886421.12207  23574792.721    96534883.04046
  22448786.447   117969183.38308  22448787.106    91924054.40247
  24514075.561   128822327.64806  24514076.599   100381026.65746
  23133179.475   121565667.17408  23133177.840    94726483.04846
 15 02 26 00 18  0.0000000  0  7G16G18G21G22G27G29G31
  21347539.365   112182099.96509  21347537.277    87414613.88348
  22504816.987   118263642.13708  22504815.272    92153503.93746
  21582353.087   113416037.49909  21582350.570    88376126.71948
  23557546.842   123795779.76807  23557544.232    96464253.48446
  22437705.829   117910954.40108  22437706.595    91878681.18847
  24528332.023   128897240.36205  24528331.174   100439400.38446
  23151137.306   121660036.14908  23151135.675    94800017.29046
 15 02 26 00 18 30.0000000  0  7G16G18G21G22G27G29G31
  21335663.752   112119692.32509  21335661.590    87365984.55448
  22494982.934   118211964.99308  22494981.741    92113236.05146
  21591563.869   113464440.32909  21591561.414    88413843.21148
  23540311.010   123705203.95207  23540307.447    96393674.91845
  22426649.422   117852852.09008  22426650.005    91833406.67447
  24542589.097   128972162.88507  24542588.386   100497781.56744
  23169122.975   121754552.94708  23169121.848    94873666.69146
 15 02 26 00 19  0.0000000  0  7G16G18G21G22G27G29G31
  21323844.409   112057581.69709  21323842.340    87317586.66848
  22485212.596   118160620.80308  22485211.055    92073227.60246
  21600829.812   113513133.31109  21600827.242    88451785.79248
  23523085.203   123614683.91707  23523081.929    96323139.89746
  22415614.639   117794864.13308  22415615.343    91788221.26647
  24556846.514   129047082.77307  24556846.621   100556160.58946
  23187134.281   121849202.21908  23187133.204    94947419.34046
 15 02 26 00 19 30.0000000  0  6G16G18G21G22G27G31
  21312076.281   111995739.11109  21312074.095    87269397.64448
  22475500.201   118109581.32508  22475498.469    92033456.59146
  21610144.832   113562084.19909  21610142.409    88489929.34348
  23505865.321   123524191.60707  23505862.023    96252626.44745
  22404595.645   117736959.64808  22404596.368    91743100.90347
  23205164.236   121943950.58208  23205163.159    95021249.20946
 15 02 26 00 20  0.0000000  0  6G16G18G21G22G27G31
  21300372.665   111934236.63109  21300370.579    87221473.63648
  22465859.383   118058918.29608  22465857.671    91993978.91746
  21619521.733   113611360.20809  21619519.413    88528326.23248
  23488664.441   123433799.08908  23488660.751    96182190.76946
  22393606.103   117679208.30708  22393606.633    91698099.86947
  23223225.967   122038864.49708  23223224.595    95095208.08246
 15 02 26 00 20 30.0000000  0  6G16G18G21G22G27G31
  21288728.040   111873043.90109  21288725.906    87173790.99148
  22456284.366   118008601.52408  22456282.895    91954771.06046
  21628954.025   113660927.64409  21628951.837    88566950.21248
  23471476.629   123343477.15407  23471473.127    96111810.10446
  22382639.291   117621577.69908  22382639.920    91653192.91947
  23241312.316   122133908.43008  23241310.902    95169268.26746
 15 02 26 00 21  0.0000000  0  6G16G18G21G22G27G31
  21277141.980   111812158.08709  21277139.834    87126347.49848
  22446774.763   117958628.03408  22446773.123    91915830.69546
  21638440.543   113710779.22309  21638438.231    88605795.59848
  23454301.501   123253223.09308  23454298.013    96041482.31946
  22371694.519   117564062.75408  22371695.373    91608376.08047
  23259421.626   122229074.74607  23259420.438    95243423.79146
 15 02 26 00 21 30.0000000  0  7G16G18G19G21G22G27G31
  21265615.280   111751585.71509  21265613.373    87079148.25248
  22437331.525   117909004.79808  22437330.246    91877163.25646
  24550639.511   129014487.37416  24550638.030   100530760.73055
  21647981.622   113760918.43509  21647979.551    88644865.11248
  23437141.155   123163044.30208  23437137.143    95971213.14745
  22360772.614   117506667.94108  22360773.309    91563652.86648
  23277554.704   122324364.96707  23277553.676    95317675.86846
 15 02 26 00 22  0.0000000  0  7G16G18G19G21G22G27G31
  21254144.701   111691307.38109  21254142.781    87032178.12548
  22427951.352   117859711.90308  22427950.054    91838753.22147
  24535771.259   128936351.84006  24535768.095   100469875.92644
  21657572.783   113811320.76209  21657570.611    88684139.65248
  23419991.255   123072921.69007  23419987.302    95900987.75846
  22349869.564   117449371.37008  22349870.289    91519006.19748
  23295706.948   122419754.21508  23295705.650    95392005.13746
 15 02 26 00 22 30.0000000  0  7G16G18G19G21G22G27G31
  21242737.897   111631364.25209  21242735.977    86985469.20348
  22418642.021   117810790.75908  22418640.489    91800632.85746
  24520922.410   128858321.30206  24520919.407   100409072.96944
  21667221.440   113862024.30009  21667219.036    88723648.90248
  23402859.647   122982897.26007  23402856.473    95830838.93946
  22338992.604   117392212.24908  22338993.166    91474466.63347
  23313884.794   122515278.62708  23313883.321    95466439.72546
 15 02 26 00 23  0.0000000  0  7G16G18G19G21G22G27G31
  21231390.238   111571732.62309  21231388.480    86939003.00548
  22409398.871   117762217.51908  22409397.320    91762783.59246
  24506088.537   128780369.86306  24506085.837   100348331.60645
  21676921.897   113913000.51309  21676919.480    88763370.62948
  23385742.685   122892947.67507  23385739.533    95760748.39945
  22328136.733   117335164.54308  22328137.237    91430013.88948
  23332082.613   122610909.40307  23332081.448    95540957.16846
 15 02 26 00 23 30.0000000  0  7G16G18G19G21G22G27G31
  21220104.136   111512423.22809  21220102.041    86892787.89548
  22400223.849   117714002.73708  22400222.338    91725213.64047
  24491271.558   128702506.14606  24491268.717   100287658.60044
  21686675.700   113964256.12209  21686673.228    88803310.06548
  23368642.559   122803084.31508  23368638.754    95690725.00546
  22317303.645   117278236.87308  22317304.295    91385654.67447
  23350301.748   122706652.41907  23350300.733    95615562.06446
 15 02 26 00 24  0.0000000  0  7G16G18G19G21G22G27G31
  21208879.512   111453437.36309  21208877.413    86846824.88648
  22391117.365   117666147.71608  22391116.001    91687924.02347
  24476470.986   128624729.17506  24476468.347   100227053.18545
  21696482.169   114015789.24709  21696479.549    88843465.74848
  23351558.594   122713309.09707  23351554.971    95620770.33445
  22306493.324   117221428.56408  22306494.105    91341388.47248
  23368541.895   122802503.59908  23368540.428    95690251.28546
 15 02 26 00 24 30.0000000  0  7G16G18G19G21G22G27G31
  21197716.136   111394773.24209  21197714.070    86801112.58448
  22382079.034   117618650.71708  22382077.528    91650913.39146
  24461686.001   128547034.74606  24461683.507   100166512.10845
  21706340.118   114067593.68209  21706337.651    88883832.84248
  23334491.135   122623620.62008  23334488.222    95550883.25746
  22295704.949   117164735.42908  22295705.868    91297212.01048
  23386801.365   122898456.29208  23386799.478    95765019.60546
 15 02 26 00 25  0.0000000  0  7G16G18G19G21G22G27G31
  21186614.787   111336435.38309  21186612.707    86755654.51148
  22373109.808   117571516.02108  22373108.186    91614185.06447
  24446917.588   128469425.77106  24446914.704   100106037.58045
  21716249.915   114119670.36109  21716247.788    88924412.06848
  23317441.884   122534023.85308  23317438.856    95481067.63746
  22284939.081   117108160.06908  22284939.823    91253127.32448
  23405079.842   122994510.24707  23405078.066    95839866.80346
 15 02 26 00 25 30.0000000  0  7G16G18G19G21G22G27G31
  21175575.479   111278423.80409  21175573.380    86710450.68748
  22364209.400   117524744.15608  22364207.709    91577739.47047
  24432164.695   128391899.95306  24432162.460   100045627.92145
  21726210.482   114172014.24509  21726208.412    88965199.50248
  23300409.880   122444519.82207  23300406.694    95411324.28345
  22274195.083   117051700.19608  22274195.840    91209132.63648
  23423376.248   123090660.00907  23423375.026    95914788.60946
 15 02 26 00 26  0.0000000  0  7G16G18G19G21G22G27G31
  21164599.952   111220746.55209  21164597.855    86665507.37548
  22355379.424   117478342.47208  22355377.803    91541582.32647
  24417428.865   128314462.83006  24417426.837    99985287.35244
  21736222.923   114224630.41109  21736221.033    89006199.10548
  23283396.960   122355117.10407  23283393.200    95341659.83845
  22263474.176   116995361.69708  22263475.053    91165232.52148
  23441691.906   123186908.22208  23441690.487    95989787.20146
 15 02 26 00 26 30.0000000  0  7G16G18G19G21G22G27G31
  21153687.219   111163399.68809  21153685.102    86620821.50648
  22346619.045   117432306.90308  22346617.437    91505710.46847
  24402709.006   128237108.51206  24402706.754    99925011.25745
  21746285.737   114277510.04309  21746283.739    89047404.01748
  23266402.826   122265812.10808  23266399.177    95272071.55946
  22252775.287   116939138.40608  22252776.248    91121422.17448
  23460024.515   123283246.38707  23460022.752    96064855.88846
 15 02 26 00 27  0.0000000  0  7G16G18G19G21G22G27G31
  21142838.773   111106390.19209  21142836.525    86576398.52348
  22337929.808   117386644.56108  22337928.208    91470129.43147
  24388005.314   128159841.87306  24388003.043    99864803.52145
  21756399.427   114330657.22109  21756397.219    89088817.40148
  23249428.950   122176612.60008  23249425.633    95202565.48646
  22242099.288   116883035.37108  22242100.129    91077705.53148
  23478374.523   123379676.08107  23478372.863    96139995.86946
 15 02 26 00 27 30.0000000  0  7G16G18G19G21G22G27G31
  21132054.090   111049716.89009  21132051.917    86532237.51048
  22329311.131   117341353.95108  22329309.772    91434838.06547
  24373318.131   128082659.20006  24373315.614    99804661.20345
  21766562.789   114384065.76509  21766560.482    89130434.45348
  23232474.470   122087517.39208  23232471.565    95133140.72446
  22231445.326   116827048.98708  22231446.177    91034079.78448
  23496740.610   123476191.11607  23496739.347    96215202.33146
 15 02 26 00 28  0.0000000  0  7G16G18G19G21G22G27G31
  21121333.522   110993379.79909  21121331.317    86488338.47748
  22320763.562   117296435.10808  22320761.919    91399836.38047
  24358646.283   128005558.74706  24358643.587    99744582.95545
  21776775.314   114437732.57309  21776772.845    89172252.74848
  23215540.644   121998528.00708  23215537.313    95063798.35446
  22220813.471   116771177.55508  22220814.223    90990543.61548
  23515121.965   123572786.91107  23515120.768    96290471.74146
 15 02 26 00 28 30.0000000  0  7G16G18G19G21G22G27G31
  21110679.153   110937390.87109  21110676.926    86444710.74448
  22312288.650   117251899.61808  22312286.939    91365133.41047
  24343991.988   127928550.28106  24343989.451    99684576.40744
  21787038.335   114491665.17709  21787035.993    89214278.15648
  23198628.690   121909656.68408  23198625.193    94994547.99046
  22210205.216   116715430.64408  22210205.895    90947104.47648
  23533520.253   123669469.88107  23533519.142    96365809.10246
 15 02 26 00 29  0.0000000  0  7G16G18G19G21G22G27G31
  21100088.898   110881738.86009  21100086.800    86401345.54248
  22303884.742   117207736.24708  22303882.970    91330720.40647
  24329352.641   127851620.52506  24329350.084    99624631.14645
  21797348.921   114545848.10509  21797346.561    89256498.61548
  23181737.719   121820892.68708  23181734.537    94925381.26246
  22199618.034   116659794.94008  22199618.607    90903751.98648
  23551931.564   123766223.94107  23551930.695    96441201.80045
 15 02 26 00 29 30.0000000  0  7G16G18G19G21G22G27G31
  21089564.880   110826434.83409  21089562.817    86358251.50048
  22295553.511   117163955.99008  22295551.699    91296605.93147
  24314730.046   127774777.95906  24314727.272    99564753.86145
  21807708.431   114600288.07409  21807706.256    89298919.36248
  23164868.970   121732247.81007  23164865.859    94856307.37746
  22189053.785   116604279.34208  22189054.495    90860493.09148
  23570358.002   123863054.99307  23570356.989    96516654.55145
 15 02 26 00 30  0.0000000  0  7G16G18G19G21G22G27G31
  21079107.071   110771478.64709  21079105.057    86315428.50248
  22287295.372   117120558.36508  22287293.507    91262789.61147
  24300123.653   127698020.50006  24300120.928    99504942.88845
  21818116.352   114654982.03509  21818114.290    89341538.02248
  23148023.042   121643722.20508  23148020.029    94787326.42646
  22178511.793   116548881.64108  22178512.635    90817326.06148
  23588798.213   123959957.83107  23588797.019    96592163.23546
 15 02 26 00 30 30.0000000  0  7G16G18G19G21G22G27G31
  21068716.245   110716874.92709  21068714.408    86272880.15648
  22279110.663   117077547.89809  22279108.775    91229274.97047
  24285533.728   127621350.77206  24285531.439    99445200.27845
  21828572.677   114709930.33409  21828570.420    89384354.87848
  23131200.965   121555321.31208  23131197.487    94718442.61746
  22167992.841   116493604.55208  22167993.665    90774253.01248
  23607251.620   124056931.98507  23607250.893    96667727.45446
 15 02 26 00 31  0.0000000  0  7G16G18G19G21G22G27G31
  21058392.430   110662622.81709  21058390.399    86230605.78448
  22270999.533   117034923.12508  22270997.460    91196060.86547
  24270959.938   127544765.89506  24270957.644    99385523.77345
  21839076.446   114765127.85809  21839074.136    89427365.93248
  23114402.397   121467045.14708  23114399.125    94649656.04046
  22157496.360   116438445.07908  22157496.955    90731271.61448
  23625717.748   124153972.05007  23625717.241    96743342.99646
 15 02 26 00 31 30.0000000  0  7G16G18G19G21G22G27G31
  21048136.518   110608727.20109  21048134.543    86188609.20448
  22262962.607   116992689.01209  22262960.802    91163151.18747
  24256402.665   127468267.81206  24256400.268    99325914.90546
  21849627.896   114820575.60109  21849625.475    89470571.96448
  23097628.548   121378898.91408  23097625.108    94580970.67946
  22147022.676   116383405.75108  22147023.230    90688383.83648
  23644196.347   124251077.49107  23644195.698    96819009.53445
 15 02 26 00 32  0.0000000  0  7G16G18G19G21G22G27G31
  21037947.603   110555184.58809  21037945.593    86146887.68948
  22254999.427   116950842.05809  22254997.569    91130543.17347
  24241861.232   127391851.59906  24241858.598    99266369.82345
  21860225.259   114876265.99409  21860223.173    89513967.07748
  23080879.081   121290879.71708  23080875.912    94512384.33346
  22136571.007   116328481.20308  22136571.552    90645585.49448
  23662685.815   124348239.77007  23662684.925    96894720.38845
 15 02 26 00 32 30.0000000  0  7G16G18G19G21G22G27G31
  21027827.401   110502002.22609  21027825.281    86105446.89048
  22247111.206   116909389.15009  22247109.368    91098242.21747
  24227336.436   127315522.65406  24227333.541    99206892.76845
  21870869.631   114932202.60809  21870867.502    89557554.04548
  23064155.591   121202996.08908  23064152.240    94443903.63146
  22126141.910   116273676.73608  22126142.596    90602880.72648
  23681186.571   124445461.46207  23681185.562    96970477.49846
 15 02 26 00 33  0.0000000  0  7G16G18G19G21G22G27G31
  21017775.507   110449179.72609  21017773.555    86064286.50348
  22239297.738   116868329.19309  22239296.050    91066247.45547
  24212827.697   127239277.99906  24212824.997    99147481.36245
  21881560.050   114988381.01209  21881557.804    89601329.41948
  23047457.820   121115247.49208  23047454.037    94375528.09246
  22115735.331   116218989.67308  22115736.066    90560267.44148
  23699697.338   124542736.82607  23699696.587    97046276.42846
 15 02 26 00 33 30.0000000  0  7G16G18G19G21G22G27G31
  21007791.979   110396715.55909  21007789.934    86023405.33748
  22231558.851   116827661.25409  22231557.240    91034558.16547
  24198334.447   127163114.07806  24198331.564    99088132.89545
  21892295.218   115044795.64309  21892293.028    89645288.86848
  23030785.353   121027633.42808  23030781.518    94307257.41546
  22105350.447   116164416.86108  22105351.308    90517743.18748
  23718217.289   124640059.60607  23718216.675    97122112.27746
 15 02 26 00 34  0.0000000  0  7G16G18G19G21G22G27G31
  20997879.221   110344623.85209  20997877.166    85982814.39848
  22223897.052   116787398.66409  22223895.412    91003184.72747
  24183858.412   127087042.56306  24183855.593    99028856.43246
  21903077.539   115101456.43309  21903075.394    89689440.13448
  23014141.151   120940168.40208  23014137.411    94239102.89346
  22094989.508   116109969.97808  22094990.479    90475317.04648
  23736748.249   124737438.86107  23736747.273    97197992.19845
 15 02 26 00 34 30.0000000  0  7G16G18G19G21G22G27G31
  20988036.682   110292900.11809  20988034.512    85942510.18948
  22216311.512   116747536.19509  22216309.923    90972123.07347
  24169398.578   127011056.40805  24169396.032    98969646.47945
  21913905.024   115158354.93809  21913902.745    89733776.63848
  22997524.890   120852848.11108  22997521.242    94171061.11246
  22084651.442   116055642.44908  22084652.076    90432983.91748
  23755287.901   124834864.54907  23755286.623    97273908.30145
 15 02 26 00 35  0.0000000  0  7G16G18G19G21G22G27G31
  20978264.141   110241545.41209  20978261.961    85902493.53749
  22208802.336   116708075.36709  22208800.581    90941374.38547
  24154954.909   126935155.50506  24154952.221    98910502.98845
  21924777.560   115215489.21609  21924775.029    89778296.85448
  22980936.247   120765675.05008  22980932.910    94103134.10446
  22074335.816   116001433.49908  22074336.665    90390743.18948
  23773835.365   124932333.34607  23773834.409    97349857.91546
 15 02 26 00 35 30.0000000  0  7G16G18G19G21G22G27G31
  20968562.195   110190561.03009  20968559.964    85862765.45248
  22201369.617   116669016.69509  22201367.941    90910939.06047
  24140527.751   126859339.15306  24140524.863    98851425.30845
  21935694.083   115272856.09009  21935691.720    89822998.31948
  22964375.971   120678651.33308  22964372.378    94035323.43346
  22064042.683   115947342.41008  22064043.489    90348594.29448
  23792390.674   125029841.90807  23792389.881    97425838.53346
 15 02 26 00 36  0.0000000  0  7G16G18G19G21G22G27G31
  20958931.047   110139949.53609  20958928.779    85823327.92049
  22194014.043   116630362.92409  22194012.352    90880819.25047
  24126116.462   126783607.69606  24126113.356    98792413.78145
  21946654.237   115330453.68009  21946652.077    89867879.55348
  22947844.669   120591779.75508  22947841.093    93967631.30246
  22053771.985   115893369.68308  22053772.732    90306537.63548
  23810953.382   125127387.40507  23810951.978    97501847.96645
 15 02 26 00 36 30.0000000  0  7G16G18G19G21G22G27G31
  20949371.048   110089711.37109  20949368.927    85784181.29849
  22186735.697   116592114.05309  22186733.729    90851014.94147
  24111721.183   126707959.40206  24111718.009    98733467.08645
  21957657.842   115388278.67109  21957655.691    89912937.98148
  22931342.736   120505061.60608  22931339.377    93900058.75247
  22043523.509   115839513.95208  22043524.413    90264572.13748
  23829521.749   125224965.11407  23829520.480    97577882.47345
 15 02 26 00 37  0.0000000  0  7G16G18G19G21G22G27G31
  20939883.806   110039855.14009  20939881.632    85745332.28649
  22179535.503   116554277.87009  22179533.914    90821532.21447
  24097342.684   126632400.43806  24097339.625    98674590.00845
  21968705.921   115446336.15709  21968703.754    89958177.57848
  22914871.767   120418506.01608  22914868.758    93832612.88347
  22033298.657   115785781.55908  22033299.343    90222702.75148
  23848097.034   125322578.77407  23848095.685    97653945.02045
 15 02 26 00 37 30.0000000  0  7G16G18G19G21G22G27G31
  20930468.237   109990376.86309  20930466.106    85706777.78449
  22172413.370   116516850.37309  22172411.525    90792367.94347
  24082980.073   126556924.53506  24082976.946    98615777.64245
  21979796.761   115504618.10409  21979794.538    90003592.07948
  22898430.756   120332109.57808  22898428.061    93765291.00846
  22023096.092   115732166.81108  22023096.874    90180925.03148
  23866677.490   125420219.85307  23866676.225    97730028.91146
 15 02 26 00 38  0.0000000  0  7G16G18G19G21G22G27G31
  20921125.753   109941281.90409  20921123.670    85668521.97449
  22165369.972   116479837.00109  22165368.278    90763526.36647
  24068634.067   126481535.88706  24068631.057    98557033.28145
  21990930.597   115563126.02209  21990928.065    90049182.66848
  22882021.454   120245878.95708  22882018.611    93698098.33546
  22012916.721   115678673.25908  22012917.124    90139241.75048
  23885263.504   125517888.89107  23885262.210    97806134.57146
 15 02 26 00 38 30.0000000  0  7G16G18G19G21G22G27G31
  20911855.988   109892568.33509  20911853.961    85630563.34849
  22158404.796   116443235.00409  22158403.098    90735005.33547
  24054304.025   126406230.07407  24054300.849    98498353.44645
  22002106.065   115621853.84809  22002103.630    90094944.61148
  22865643.789   120159812.49508  22865640.742    93631033.57347
  22002759.379   115625296.53808  22002759.873    90097649.50548
  23903853.321   125615578.91407  23903852.055    97882256.59645
 15 02 26 00 39  0.0000000  0  7G16G18G19G21G22G27G31
  20902660.084   109844243.31709  20902657.978    85592907.49149
  22151519.220   116407051.24409  22151517.529    90706810.21047
  24039990.454   126331011.87307  24039987.116    98439741.88245
  22013324.156   115680805.03209  22013321.705    90140880.59848
  22849298.540   120073917.82008  22849295.613    93564102.69046
  21992625.497   115572042.06708  21992625.901    90056152.52348
  23922447.544   125713292.15306  23922446.441    97958396.68844
 15 02 26 00 39 30.0000000  0  7G16G18G19G21G22G27G31
  20893537.957   109796306.68209  20893535.978    85555554.27149
  22144713.198   116371285.04809  22144711.322    90678940.45847
  24025693.317   126255879.19206  24025689.860    98381196.94845
  22024583.519   115739974.94809  22024581.570    90186987.02148
  22832986.167   119988195.85108  22832983.338    93497306.37247
  21982514.113   115518907.75908  21982514.934    90014749.17548
  23941045.237   125811023.31407  23941043.854    98034550.79545
 15 02 26 00 40  0.0000000  0  7G16G18G19G21G22G27G31
  20884490.667   109748762.73109  20884488.741    85518507.03549
  22137987.355   116335940.43909  22137985.421    90651399.20947
  24011412.551   126180834.38607  24011409.522    98322720.50745
  22035885.164   115799365.33809  22035883.139    90233265.24348
  22816707.644   119902651.47608  22816704.993    93430648.45647
  21972426.441   115465896.09208  21972427.043    89973441.38648
  23959646.576   125908772.01007  23959645.025    98110718.54346
 15 02 26 00 40 30.0000000  0  7G16G18G19G21G22G27G31
  20875517.728   109701609.24109  20875515.731    85481764.05849
  22131341.196   116301014.98409  22131339.231    90624184.57647
  23997147.994   126105873.38407  23997144.982    98264309.35145
  22047227.469   115858969.67709  22047225.399    90279710.18148
  22800462.754   119817283.06408  22800459.704    93364127.61947
  21962361.048   115413002.96908  21962361.657    89932225.97348
  23978249.656   126006531.16707  23978248.263    98186894.44346
 15 02 26 00 41  0.0000000  0  7G16G18G19G21G22G27G31
  20866619.199   109654847.49909  20866617.183    85445326.33649
  22124775.074   116266509.02909  22124772.930    90597296.82947
  23982899.138   126030995.45407  23982896.079    98205962.94445
  22058610.038   115918784.35409  22058607.738    90326319.01948
  22784251.264   119732092.29708  22784248.363    93297745.23347
  21952318.239   115360227.40108  21952318.978    89891102.16248
  23996853.365   126104296.78806  23996852.635    98263075.33345
 15 02 26 00 41 30.0000000  0  7G16G18G19G21G22G27G31
  20857796.386   109608483.86609  20857794.332    85409198.82849
  22118289.860   116232429.12709  22118288.033    90570741.07147
  23968666.819   125956204.45407  23968664.019    98147684.25545
  22070033.028   115978812.88809  22070030.666    90373094.50148
  22768075.461   119647086.91108  22768072.271    93231507.27847
  21942298.646   115307574.24008  21942299.273    89850073.73648
  24015459.045   126202071.17007  24015458.580    98339263.03545
 15 02 26 00 42  0.0000000  0  7G16G18G19G21G22G27G31
  20849050.299   109562522.86909  20849048.420    85373385.06349
  22111886.206   116198778.85309  22111884.633    90544520.09447
  23954451.558   125881503.03507  23954448.677    98089475.36945
  22081496.619   116039054.93109  22081494.422    90420036.35348
  22751935.693   119562272.01408  22751932.326    93165417.77647
  21932302.746   115255045.96308  21932303.544    89809142.61848
  24034066.816   126299853.48007  24034065.738    98415457.01745
 15 02 26 00 42 30.0000000  0  7G16G18G19G21G22G27G31
  20840380.328   109516961.83609  20840378.199    85337882.95749
  22105564.030   116165555.34109  22105562.259    90518631.65447
  23940252.366   125806886.46607  23940249.443    98031332.59845
  22092999.722   116099504.83309  22092997.784    90467140.16648
  22735831.484   119477645.42008  22735828.691    93099475.02047
  21922330.071   115202638.07608  21922330.741    89768305.31348
  24052674.498   126397636.16407  24052673.221    98491651.23645
 15 02 26 00 43  0.0000000  0  7G16G18G19G21G22G27G31
  20831786.847   109471802.28409  20831784.668    85302693.69549
  22099323.186   116132759.73809  22099321.519    90493076.64647
  23926069.368   125732354.15107  23926066.421    97973255.49445
  22104542.106   116160160.68809  22104540.231    90514404.46348
  22719764.023   119393209.43208  22719760.693    93033680.75347
  21912380.005   115150350.25308  21912380.647    89727561.56048
  24071281.343   126495416.13706  24071280.272    98567843.31445
 15 02 26 00 43 30.0000000  0  7G16G18G19G21G22G27G31
  20823270.074   109427046.77809  20823268.069    85267819.27449
  22093164.284   116100393.95809  22093162.510    90467856.56647
  23911902.353   125657906.98707  23911899.381    97915244.73945
  22116123.471   116221020.61309  22116121.488    90561827.77548
  22703733.281   119308967.25408  22703729.842    92968037.50447
  21902452.941   115098183.17708  21902453.547    89686911.89948
  24089887.143   126593191.02706  24089886.376    98644031.41745
 15 02 26 00 44  0.0000000  0  7G16G18G19G21G22G27G31
  20814830.547   109382696.98309  20814828.416    85233260.99249
  22087087.521   116068459.29209  22087085.470    90442972.41647
  23897751.749   125583544.87207  23897748.822    97857300.25445
  22127743.315   116282082.43009  22127741.280    90609408.41248
  22687739.713   119224921.48608  22687736.494    92902547.32546
  21892548.691   115046136.71108  21892549.573    89646356.22148
  24108491.678   126690958.11407  24108491.015    98720213.46045
 15 02 26 00 44 30.0000000  0  7G16G18G19G21G22G27G31
  20806469.406   109338758.20609  20806467.153    85199022.98449
  22081093.381   116036960.93309  22081091.641    90418428.25047
  23883617.804   125509270.74207  23883614.921    97799424.32246
  22139401.711   116343347.86809  22139399.614    90657147.71548
  22671785.136   119141078.33608  22671781.738    92837215.01747
  21882668.298   114994214.61608  21882669.007    89605897.45548
  24127094.661   126788717.85407  24127094.155    98796389.77045
 15 02 26 00 45  0.0000000  0  7G16G18G19G21G22G27G31
  20798186.686   109295232.25009  20798184.554    85165106.65749
  22075182.500   116005899.17009  22075180.696    90394224.29447
  23869500.562   125435084.13407  23869497.552    97741616.58845
  22151098.351   116404814.56508  22151096.245    90705043.83848
  22655869.174   119057439.92208  22655865.866    92772042.24547
  21872811.456   114942416.28108  21872812.183    89565535.12448
  24145695.933   126886466.63307  24145695.179    98872557.54345
 15 02 26 00 45 30.0000000  0  7G16G18G19G21G22G27G31
  20789982.209   109252117.40109  20789980.079    85131510.67349
  22069354.245   115975272.44909  22069352.496    90370359.32247
  23855399.505   125360982.26706  23855396.433    97683874.89545
  22162832.353   116466477.94508  22162830.547    90753093.22048
  22639992.343   118974005.55308  22639988.883    92707028.46447
  21862977.463   114890738.61108  21862978.083    89525266.81748
  24164293.956   126984198.53107  24164292.957    98948712.20945
 15 02 26 00 46  0.0000000  0  7G16G18G19G21G22G27G31
  20781856.502   109209416.39709  20781854.491    85098237.15849
  22063609.423   115945083.20609  22063607.699    90346835.24547
  23841314.591   125286965.26407  23841311.516    97626199.32445
  22174603.735   116528336.25509  22174601.669    90801294.49448
  22624154.761   118890778.65008  22624151.203    92642176.34347
  21853166.747   114839182.47909  21853167.379    89485093.21948
  24182887.860   127081911.46606  24182886.949    99024852.06345
 15 02 26 00 46 30.0000000  0  7G16G18G19G21G22G27G31
  20773809.753   109167130.53609  20773807.790    85065287.13649
  22057947.998   115915332.12309  22057946.151    90323652.58747
  23827245.907   125213033.01707  23827242.643    97568589.79945
  22186411.788   116590387.36809  22186409.747    90849646.00848
  22608357.330   118807761.87208  22608353.546    92577487.95647
  21843379.017   114787747.54808  21843379.700    89445014.06048
  24201477.604   127179602.54606  24201477.208    99100974.81346
 15 02 26 00 47  0.0000000  0  7G16G18G19G21G22G27G31
  20765843.126   109125265.34909  20765840.949    85032664.91149
  22052370.940   115886024.23909  22052369.139    90300815.28347
  23813193.622   125139188.41806  23813190.607    97511048.59246
  22198256.765   116652632.76409  22198254.523    90898148.91648
  22592601.168   118724961.05908  22592597.279    92512967.86147
  21833615.005   114736437.66708  21833615.656    89405032.33748
  24220063.843   127277271.82907  24220063.547    99177080.57846
 15 02 26 00 47 30.0000000  0  7G16G18G19G21G22G27G31
  20757956.435   109083820.19509  20757954.167    85000369.98149
  22046878.058   115857158.22809  22046876.190    90278322.29147
  23799157.733   125065429.10006  23799154.548    97453573.80745
  22210138.008   116715068.02609  22210135.672    90946799.76648
  22576885.659   118642376.25208  22576882.222    92448616.08147
  21823874.457   114685250.26908  21823875.050    89365146.05848
  24238644.970   127374913.99507  24238644.501    99253165.26045
 15 02 26 00 48  0.0000000  0  7G16G18G19G21G22G27G31
  20750150.655   109042800.07709  20750148.472    84968406.24749
  22041469.950   115828738.27509  22041467.918    90256176.88447
  23785138.542   124991758.22306  23785135.320    97396167.94545
  22222055.269   116777694.43708  22222053.103    90995599.56148
  22561212.399   118560013.18108  22561208.934    92384437.08647
  21814157.634   114634188.58108  21814158.137    89325357.73948
  24257220.945   127472529.56206  24257219.966    99329229.21443
 15 02 26 00 48 30.0000000  0  7G16G18G19G21G22G27G31
  20742425.485   109002204.15709  20742423.362    84936773.05749
  22036146.249   115800762.94209  22036144.430    90234377.93447
  23771135.634   124918173.28906  23771132.880    97338829.07446
  22234008.068   116840507.69108  22234005.893    91044544.95548
  22545581.386   118477871.65408  22545577.586    92320430.70447
  21804464.221   114583249.98108  21804464.876    89285665.32948
  24275790.230   127570113.18805  24275788.353    99405268.31044
 15 02 26 00 49  0.0000000  0  7G16G18G19G21G22G27G31
  20734781.350   108962034.64709  20734779.357    84905472.13549
  22030907.777   115773234.55409  22030906.182    90212927.24947
  23757149.256   124844674.09607  23757146.220    97281556.97745
  22245996.325   116903506.22208  22245994.076    91093634.71848
  22529993.223   118395955.08508  22529989.554    92256599.63447
  21794794.615   114532435.16809  21794795.065    89246069.38448
  24294353.122   127667662.27807  24294351.988    99481280.45144
 15 02 26 00 49 30.0000000  0  7G16G18G19G21G22G27G31
  20727218.468   108922291.77409  20727216.411    84874503.66549
  22025754.146   115746152.22909  22025752.530    90191824.15447
  23743178.982   124771259.74807  23743176.305    97224351.01145
  22258019.126   116966686.99809  22258016.984    91142866.48648
  22514447.952   118314264.66808  22514444.381    92192944.77847
  21785148.091   114481742.78108  21785148.512    89206568.82748
  24312909.024   127765172.57707  24312908.301    99557262.38545
 15 02 26 00 50  0.0000000  0  7G16G18G19G21G22G27G31
  20719737.256   108882977.80609  20719735.296    84843869.40449
  22020685.796   115719518.55609  22020684.030    90171070.65147
  23729224.974   124697930.57007  23729221.956    97167211.41046
  22270076.640   117030048.53809  22270074.351    91192239.10948
  22498946.310   118232803.45708  22498942.896    92129468.53947
  21775525.044   114431173.73209  21775525.690    89167164.38748
  24331457.220   127862642.09807  24331456.654    99633212.48046
 15 02 26 00 50 30.0000000  0  7G16G18G19G21G22G27G31
  20712339.228   108844100.40409  20712337.179    84813575.32349
  22015704.037   115693339.51609  22015702.272    90150671.40547
  23715287.907   124624691.47106  23715285.056    97110142.01045
  22282169.130   117093594.03008  22282166.716    91241755.07248
  22483489.867   118151579.39708  22483486.212    92066177.06447
  21765926.670   114380733.28009  21765927.314    89127860.14348
  24349997.661   127960073.02205  24349997.336    99709132.50246
 15 02 26 00 51  0.0000000  0  7G16G18G19G21G22G27G31
  20705023.773   108805657.02409  20705021.586    84783619.44049
  22010808.272   115667611.97409  22010806.311    90130623.98047
  23701367.239   124551538.30607  23701364.394    97053139.56946
  22294295.147   117157317.58908  22294292.736    91291409.78348
  22468078.204   118070590.49608  22468074.266    92003068.84647
  21756351.881   114330417.36509  21756352.347    89088652.93948
  24368528.953   128057458.55905  24368529.383    99785017.04344
 15 02 26 00 51 30.0000000  0  7G16G18G19G21G22G27G31
  20697791.482   108767651.35909  20697789.310    84754004.63649
  22005999.234   115642339.37209  22005997.211    90110931.05047
  23687463.446   124478473.28907  23687460.441    96996205.79746
  22306455.119   117221219.95308  22306452.920    91341203.82948
  22452712.131   117989841.92608  22452708.020    91940147.88847
  21746801.232   114280228.30109  21746801.727    89049544.59048
  24387052.141   128154797.81706  24387051.912    99860865.70544
 15 02 26 00 52  0.0000000  0  7G16G18G19G21G22G27G31
  20690641.354   108730077.96209  20690639.322    84724726.66249
  22001275.700   115617516.00009  22001273.412    90091588.16647
  23673574.993   124405489.16007  23673572.165    96939335.06846
  22318647.565   117285291.68708  22318645.418    91391129.85048
  22437390.966   117909329.19408  22437387.153    91877410.72047
  21737273.402   114230159.18809  21737273.953    89010529.70248
  24405565.018   128252080.86207  24405564.221    99936670.61044
 15 02 26 00 52 30.0000000  0  7G16G18G19G21G22G27G31
  20683575.535   108692946.42809  20683573.380    84695792.99949
  21996639.062   115593150.36709  21996636.635    90072601.96547
  23659703.466   124332593.73607  23659700.562    96882533.45546
  22330873.440   117349538.53408  22330871.345    91441192.32348
  22422116.661   117829062.52208  22422113.122    91814865.27247
  21727769.687   114180217.82909  21727770.531    88971614.36948
  24424068.040   128349312.68107  24424067.271   100012435.50845
 15 02 26 00 53  0.0000000  0  7G16G18G19G21G22G27G31
  20676594.018   108656258.53009  20676592.141    84667205.02449
  21992089.827   115569244.04009  21992087.589    90053973.66347
  23645848.736   124259786.32107  23645845.871    96825800.43445
  22343132.309   117413958.19809  22343129.947    91491389.46647
  22406889.726   117749044.49808  22406886.117    91752513.57647
  21718290.662   114130404.46209  21718291.312    88932798.76948
  24442560.299   128446490.50405  24442560.201   100088158.24645
 15 02 26 00 53 30.0000000  0  7G16G18G19G21G22G27G31
  20669697.176   108620015.06809  20669695.125    84638963.36349
  21987627.727   115545796.32709  21987625.740    90035702.72847
  23632010.582   124187066.42807  23632007.661    96769135.59145
  22355423.469   117478548.84008  22355421.068    91541719.83547
  22391710.333   117669276.44208  22391706.658    91690356.66547
  21708835.736   114080718.14709  21708836.498    88894082.16848
  24461041.475   128543610.64106  24461041.541   100163835.99145
 15 02 26 00 54  0.0000000  0  7G16G18G19G21G22G27G31
  20662885.045   108584217.26109  20662882.883    84611068.96549
  21983253.211   115522808.55709  21983251.506    90017790.19047
  23618188.991   124114433.72607  23618185.967    96712538.68945
  22367746.853   117543308.00408  22367744.432    91592181.51347
  22376579.085   117589761.13308  22376575.114    91628396.67747
  21699404.763   114031158.83409  21699405.540    88855464.53648
  24479511.204   128640701.88216  24479512.528   100239508.37855
 15 02 26 00 54 30.0000000  0  7G16G18G19G21G22G27G31
  20656157.791   108548865.33409  20656155.841    84583522.01049
  21978966.166   115500280.26409  21978964.432    90000235.68247
  23604383.618   124041886.65507  23604380.767    96656008.51546
  22380101.365   117608232.24708  22380099.013    91642771.82948
  22361495.927   117510499.53808  22361492.453    91566634.42147
  21689997.949   113981725.19209  21689998.511    88816944.82548
  24497969.872   128737696.24406  24497969.428   100315088.20244
 15 02 26 00 55  0.0000000  0  7G16G18G19G21G22G27G31
