     2.11           OBSERVATION DATA    G                   RINEX VERSION / TYPE
SPIDER V4,0,0,3554                      2015 03 12 00:01    PGM / RUN BY / DATE 
EECH                                                        MARKER NAME         
EECH                                                        MARKER NUMBER       
                                                            OBSERVER / AGENCY   
462240              LEICA GRX1200PRO    8.20/2.127          REC # / TYPE / VERS 
103299              LEIAT504                                ANT # / TYPE        
  5154282.7593   121017.3605  3742656.9418                  APPROX POSITION XYZ 
        0.0590        0.0000        0.0000                  ANTENNA: DELTA H/E/N
     1     1                                                WAVELENGTH FACT L1/2
     4    C1    L1    P2    L2                              # / TYPES OF OBSERV 
    30.000                                                  INTERVAL            
  2015    02    26    18    42    0.0000000     GPS         TIME OF FIRST OBS   
  2015    02    26    23    59   30.0000000     GPS         TIME OF LAST OBS    
    16                                                      LEAP SECONDS        
    14                                                      # OF SATELLITES     
   G 2   274   274   269   269                              PRN / # OF OBS      
   G 6    25    25    25    25                              PRN / # OF OBS      
   G12   347   347   347   347                              PRN / # OF OBS      
   G14   356   356   356   356                              PRN / # OF OBS      
   G15    61    61    61    61                              PRN / # OF OBS      
   G16   187   187   187   187                              PRN / # OF OBS      
   G18   115   115   115   115                              PRN / # OF OBS      
   G21   387   387   387   387                              PRN / # OF OBS      
   G22    22    22    22    22                              PRN / # OF OBS      
   G24   230   230   230   230                              PRN / # OF OBS      
   G25   543   543   543   543                              PRN / # OF OBS      
   G27   135   135   135   135                              PRN / # OF OBS      
   G29   569   569   569   569                              PRN / # OF OBS      
   G31   458   458   458   458                              PRN / # OF OBS      
BIT 2 OF LLI FLAGS DATA COLLECTED UNDER A/S CONDITION       COMMENT             
SNR is mapped to RINEX snr flag value [2-9]                 COMMENT             
Lx:     = 25dBHz -> 1; 26-27dBHz -> 2; 28-31dBHz -> 3       COMMENT             
       32-35dBHz -> 4; 36-38dBHz -> 5; 39-41dBHz -> 6       COMMENT             
       42-44dBHz -> 7; 45-48dBHz -> 8; >=49dBHz -> 9        COMMENT             
                                                            END OF HEADER       
 15 02 26 18 42  0.0000000  0  6G12G14G15G24G25G29
  20367400.980   107031414.32909  20367400.520    83401100.12649
  22968082.640   120698088.21407  22968083.320    94050462.14746
  23740767.420   124758574.66707  23740772.980    97214494.64646
  20733608.500   108955848.18209  20733611.500    84900672.25849
  21290999.380   111884955.88409  21291002.520    87183095.13548
  22864201.120   120152187.29407  22864204.680    93625094.78446
 15 02 26 18 42 30.0000000  0  7G02G12G14G15G24G25G29
  24266122.240   127519329.30905  24266123.060    99365714.51444
  20371906.740   107055091.98509  20371906.120    83419550.25549
  22953341.100   120620622.12607  22953342.220    93990099.03046
  23760881.080   124864271.67607  23760886.540    97296855.52046
  20738833.920   108983307.70309  20738836.860    84922069.29149
  21282774.960   111841736.17309  21282778.020    87149417.48648
  22843905.980   120045536.83807  22843909.580    93541990.83546
 15 02 26 18 43  0.0000000  0  7G02G12G14G15G24G25G29
  24255360.800   127462777.41004  24255361.820    99321648.26945
  20376464.100   107079041.55409  20376463.540    83438212.26949
  22938666.780   120543508.47408  22938668.100    93930010.53246
  23781008.720   124970041.47707  23781014.120    97379273.11146
  20744120.320   109011087.95409  20744123.300    84943716.24249
  21274601.780   111798785.91409  21274604.760    87115949.79748
  22823645.720   119939070.13807  22823649.460    93459030.04847
 15 02 26 18 43 30.0000000  0  7G02G12G14G15G24G25G29
  24244634.960   127406412.81704  24244635.840    99277727.93644
  20381075.720   107103276.68709  20381075.420    83457096.80349
  22924063.020   120466764.92108  22924064.440    93870210.42746
  23801152.700   125075896.86807  23801158.160    97461757.37846
  20749470.660   109039204.17509  20749473.700    84965624.99049
  21266482.540   111756119.88408  21266485.600    87082703.58748
  22803423.840   119832804.94907  22803427.840    93376226.26546
 15 02 26 18 44  0.0000000  0  7G02G12G14G15G24G25G29
  24233946.220   127350242.99104  24233947.040    99233959.35744
  20385742.340   107127800.90209  20385742.300    83476206.60149
  22909531.080   120390398.44908  22909532.360    93810704.14445
  23821313.380   125181840.28007  23821318.900    97544310.21146
  20754886.120   109067662.17309  20754889.060    84987800.05749
  21258418.220   111713742.55108  21258421.460    87049682.33148
  22783241.760   119726748.64007  22783245.960    93293585.24846
 15 02 26 18 44 30.0000000  0  7G02G12G14G15G24G25G29
  24223295.060   127294271.34805  24223296.160    99190345.19644
  20390463.980   107152613.90009  20390464.060    83495541.43049
  22895071.460   120314412.29708  22895072.600    93751494.21746
  23841490.480   125287869.95607  23841495.920    97626930.23246
  20760366.820   109096463.11809  20760369.660    85010242.34849
  21250409.000   111671654.58809  21250412.440    87016886.55648
  22763100.200   119620904.89808  22763104.540    93211109.86447
 15 02 26 18 45  0.0000000  0  7G02G12G14G15G24G25G29
  24212681.700   127238498.33505  24212682.560    99146885.79344
  20395239.800   107177710.90909  20395239.780    83515097.56349
  22880684.200   120238807.29207  22880685.300    93692581.29246
  23861683.140   125393981.35307  23861688.520    97709613.90646
  20765912.460   109125605.49009  20765915.320    85032950.68949
  21242454.440   111629853.51609  21242458.040    86984314.32548
  22742999.180   119515274.34707  22743003.660    93128800.60447
 15 02 26 18 45 30.0000000  0  7G02G12G14G15G24G25G29
  24202106.160   127182922.46205  24202106.180    99103580.02944
  20400068.900   107203087.39409  20400068.680    83534871.47049
  22866369.020   120163581.62007  22866370.140    93633963.95246
  23881890.160   125500167.97407  23881895.480    97792356.18645
  20771522.260   109155085.24609  20771525.200    85055921.92849
  21234553.640   111588334.88609  21234557.360    86951962.18348
  22722938.320   119409855.17207  22722943.000    93046656.04047
 15 02 26 18 46  0.0000000  0  7G02G12G14G15G24G25G29
  24191569.120   127127547.54405  24191568.580    99060430.83943
  20404951.060   107228742.90009  20404950.720    83554862.79249
  22852126.680   120088739.03707  22852127.860    93575645.13046
  23902111.260   125606428.36407  23902116.540    97875155.92945
  20777196.500   109184903.72009  20777199.460    85079157.09849
  21226706.820   111547099.52709  21226710.520    86919830.78248
  22702918.420   119304651.18807  22702923.280    92964679.16047
 15 02 26 18 46 30.0000000  0  7G02G12G14G15G24G25G29
  24181071.960   127072383.35804  24181070.680    99017445.79641
  20409887.520   107254683.96009  20409887.140    83575076.61949
  22837959.060   120014289.17307  22837960.400    93517632.31746
  23922347.340   125712767.44407  23922352.660    97958016.95646
  20782936.840   109215069.46809  20782939.780    85102662.87049
  21218915.300   111506154.55609  21218918.880    86887925.65648
  22682941.400   119199672.55607  22682946.380    92882877.86347
 15 02 26 18 47  0.0000000  0  7G02G12G14G15G24G25G29
  24170614.680   127017431.66804  24170613.660    98974626.44043
  20414877.760   107280908.04009  20414877.440    83595510.98949
  22823866.580   119940233.66307  22823868.060    93459926.80246
  23942597.660   125819182.02206  23942603.220    98040936.77646
  20788743.240   109245582.05909  20788746.120    85126438.91749
  21211178.800   111465498.86909  21211182.240    86856245.93948
  22663007.620   119094921.08608  22663012.640    92801253.58546
 15 02 26 18 47 30.0000000  0  6G12G14G15G24G25G29
  20419924.500   107307429.34409  20419924.300    83616176.95949
  22809852.740   119866590.97507  22809854.280    93402542.94946
  23962864.940   125925685.70806  23962870.820    98123926.00246
  20794618.660   109276457.45509  20794621.560    85150497.66949
  21203500.240   111425148.01309  21203503.640    86824803.75148
  22643120.720   118990415.53008  22643125.620    92719820.91246
 15 02 26 18 48  0.0000000  0  7G02G12G14G15G24G25G29
  24149819.580   126908161.46104  24149819.140    98889478.16041
  20425014.760   107334179.34809  20425014.660    83637021.13949
  22795905.100   119793295.68808  22795906.640    93345429.81046
  23983135.920   126032208.36206  23983142.120    98206929.98946
  20800550.280   109307628.34709  20800553.200    85174786.66849
  21195866.740   111385033.98609  21195870.100    86793546.10448
  22623268.180   118886090.27508  22623272.860    92638528.72847
 15 02 26 18 48 30.0000000  0  7G02G12G14G15G24G25G29
  24139485.340   126853852.93404  24139486.540    98847162.52441
  20430162.460   107361230.96209  20430162.380    83658100.33749
  22782038.300   119720424.78908  22782039.780    93288647.35846
  24003424.080   126138821.73506  24003430.620    98290004.62946
  20806552.360   109339169.79809  20806555.280    85199364.41149
  21188292.460   111345230.87309  21188295.700    86762530.74148
  22603464.600   118782022.50608  22603469.080    92557437.17146
 15 02 26 18 49  0.0000000  0  8G02G06G12G14G15G24G25G29
  24129189.880   126799753.87304  24129191.360    98805007.55145
  24543386.340   128976371.49004  24543389.100   100501075.57144
  20435360.940   107388549.41709  20435360.860    83679387.46349
  22768246.520   119647947.64208  22768247.800    93232171.71546
  24023722.780   126245490.34006  24023729.580    98373122.25046
  20812618.820   109371049.13709  20812621.680    85224205.45549
  21180771.020   111305705.34209  21180774.220    86731731.66348
  22583704.260   118678181.87708  22583708.480    92476522.60947
 15 02 26 18 49 30.0000000  0  8G02G06G12G14G15G24G25G29
  24118937.940   126745875.82404  24118942.080    98763035.79543
  24540770.920   128962629.59005  24540775.060   100490367.62043
  20440613.660   107416152.60509  20440613.520    83700896.45949
  22754533.760   119575885.92308  22754534.840    93176019.77846
  24044035.260   126352230.78306  24044042.340    98456295.83646
  20818753.280   109403285.71809  20818756.080    85249324.87149
  21173305.880   111266476.07709  21173309.160    86701163.43948
  22563991.380   118574590.19608  22563995.340    92395802.03347
 15 02 26 18 50  0.0000000  0  8G02G06G12G14G15G24G25G29
  24108729.440   126692229.37404  24108732.820    98721233.46744
  24538245.680   128949360.97505  24538250.280   100480028.48044
  20445917.000   107444021.78709  20445916.820    83722612.71749
  22740896.860   119504223.51208  22740897.880    93120178.98746
  24064357.640   126459022.88606  24064364.860    98539509.62646
  20824952.320   109435861.79309  20824955.160    85274708.81749
  21165893.620   111227524.63709  21165896.980    86670811.71748
  22544322.940   118471231.93808  22544326.680    92315263.33347
 15 02 26 18 50 30.0000000  0  8G02G06G12G14G15G24G25G29
  24098564.000   126638807.95705  24098566.720    98679606.45343
  24535811.420   128936570.92104  24535816.240   100470062.19745
  20451271.180   107472158.26109  20451271.000    83744537.25049
  22727337.280   119432967.20408  22727338.240    93064654.64246
  24084690.060   126565867.55506  24084697.520    98622764.33646
  20831216.780   109468782.11809  20831219.760    85300361.01449
  21158534.940   111188854.62309  21158538.320    86640679.28548
  22524700.180   118368113.56008  22524703.740    92234911.55547
 15 02 26 18 51  0.0000000  0  8G02G06G12G14G15G24G25G29
  24088441.780   126585613.74505  24088443.860    98638156.47742
  24533468.580   128924260.00204  24533473.580   100460469.30244
  20456675.900   107500560.40109  20456675.700    83766668.79649
  22713855.260   119362118.60108  22713856.300    93009447.98746
  24105032.100   126672762.08907  24105039.600    98706057.84946
  20837546.640   109502046.03009  20837549.740    85326280.93849
  21151229.660   111150465.08109  21151232.980    86610765.38948
  22505123.560   118265237.56208  22505126.920    92154748.63047
 15 02 26 18 51 30.0000000  0  7G02G12G14G15G24G25G29
  24078362.960   126532646.84005  24078364.120    98596883.70944
  20462130.560   107529225.10309  20462130.380    83789004.93849
  22700450.720   119291677.92208  22700451.880    92954559.20046
  24125382.900   126779701.92207  24125390.260    98789386.61245
  20843941.600   109535651.87409  20843944.720    85352467.29949
  21143977.260   111112353.64009  21143980.540    86581068.20648
  22485593.060   118162603.75308  22485596.180    92074774.43047
 15 02 26 18 52  0.0000000  0  7G02G12G14G15G24G25G29
  24068329.080   126479916.04805  24068329.520    98555794.73743
  20467636.080   107558157.17109  20467635.920    83811549.41749
  22687125.360   119221653.66808  22687126.560    92899994.89746
  24145743.200   126886690.66807  24145750.320    98872753.43045
  20850402.880   109569606.14009  20850406.060    85378925.16549
  21136778.880   111074526.01909  21136782.160    86551592.17648
  22466110.180   118060221.03708  22466113.220    91994995.87447
 15 02 26 18 52 30.0000000  0  8G02G06G12G14G15G24G25G29
  24058340.360   126427422.52405  24058340.380    98514890.78543
  24526991.260   128890207.14304  24526995.900   100433946.84744
  20473192.020   107587353.72509  20473191.840    83834299.99349
  22673879.640   119152046.96808  22673880.560    92845755.94546
  24166112.200   126993724.64707  24166119.060    98956155.42345
  20856930.340   109603908.00909  20856933.580    85405653.88749
  21129634.200   111036980.56909  21129637.480    86522336.01248
  22446675.200   117958090.68108  22446678.300    91915413.95947
 15 02 26 18 53  0.0000000  0  8G02G06G12G14G15G24G25G29
  24048398.060   126375175.67605  24048398.340    98474179.07043
  24525018.600   128879840.04304  24525023.140   100425868.64644
  20478799.380   107616820.47209  20478799.180    83857261.10249
  22660715.160   119082867.01408  22660715.740    92791849.53146
  24186490.700   127100808.44707  24186497.400    99039596.17145
  20863525.240   109638564.62309  20863528.540    85432659.03649
  21122544.540   110999723.70309  21122547.740    86493304.72248
  22427289.900   117856222.02108  22427293.220    91836035.96147
 15 02 26 18 53 30.0000000  0  7G02G12G14G15G24G25G29
  24038498.920   126323156.45905  24038499.280    98433644.68644
  20484453.800   107646534.46309  20484453.620    83880414.86649
  22647628.200   119014094.52008  22647628.640    92738260.62446
  24206874.100   127207917.87307  24206880.740    99123056.81945
  20870183.580   109673554.70909  20870186.920    85459924.02349
  21115505.580   110962733.61609  21115508.780    86464481.31348
  22407950.800   117754596.43808  22407954.360    91756847.36847
 15 02 26 18 54  0.0000000  0  7G02G12G14G15G24G25G29
  24028650.120   126271402.10506  24028649.980    98393316.61544
  20490161.580   107676528.83109  20490161.400    83903787.11149
  22634625.780   118945766.53408  22634626.340    92685018.08046
  24227268.440   127315085.18507  24227275.120    99206562.50745
  20876912.080   109708913.27909  20876915.400    85487476.15349
  21108523.740   110926044.49809  21108527.080    86435892.43548
  22388665.040   117653250.76108  22388668.760    91677876.86347
 15 02 26 18 54 30.0000000  0  8G02G06G12G14G15G24G25G29
  24018846.320   126219883.77106  24018846.140    98353172.53244
  24519656.220   128851659.00105  24519658.240   100403899.99142
  20495916.540   107706771.26109  20495916.340    83927352.64749
  22621702.360   118877854.01008  22621703.200    92632099.26946
  24247667.320   127422276.62906  24247674.020    99290086.86445
  20883704.780   109744609.24509  20883708.100    85515291.18649
  21101593.160   110889624.70609  21101596.620    86407513.41548
  22369427.280   117552156.56708  22369431.000    91599102.30347
 15 02 26 18 55  0.0000000  0  8G02G06G12G14G15G24G25G29
  24009089.820   126168613.58506  24009089.480    98313221.79544
  24518054.440   128843243.51104  24518057.900   100397342.52041
  20501720.180   107737269.43209  20501719.920    83951117.46449
  22608860.320   118810368.92908  22608861.340    92579513.53046
  24268072.060   127529499.19006  24268079.020    99373635.42144
  20890563.580   109780652.57409  20890566.900    85543376.89549
  21094715.660   110853483.25509  21094719.140    86379351.27648
  22350239.700   117451325.69208  22350243.320    91520532.94047
 15 02 26 18 55 30.0000000  0  8G02G06G12G14G15G24G25G29
  23999381.400   126117596.10906  23999381.000    98273468.00144
  24516546.380   128835321.09605  24516551.200   100391169.17443
  20507572.700   107768024.46709  20507572.340    83975082.43449
  22596100.520   118743315.66708  22596101.560    92527264.27846
  24288482.640   127636752.71406  24288490.000    99457207.96245
  20897488.920   109817045.56309  20897492.220    85571735.05549
  21087891.600   110817622.16509  21087894.960    86351407.59848
  22331103.260   117350763.50508  22331106.840    91442172.94747
 15 02 26 18 56  0.0000000  0  8G02G06G12G14G15G24G25G29
  23989721.620   126066833.25407  23989720.940    98233912.56145
  24515132.380   128827892.23905  24515138.040   100385380.48941
  20513473.740   107799034.56209  20513473.260    83999246.14949
  22583423.160   118676696.02708  22583424.160    92475352.92046
  24308898.700   127744034.23906  24308906.340    99540802.25645
  20904480.700   109853787.57009  20904484.000    85600365.18949
  21081120.660   110782040.32209  21081123.860    86323681.51648
  22312018.140   117250471.11608  22312021.720    91364023.17347
 15 02 26 18 56 30.0000000  0  8G02G06G12G14G15G24G25G29
  23980109.820   126016322.90407  23980109.000    98194553.90645
  24513812.040   128820953.54005  24513817.640   100379973.79743
  20519422.200   107830293.99109  20519421.720    84023604.15749
  22570827.840   118610507.69108  22570828.700    92423777.63446
  24329318.760   127851336.91606  24329326.940    99624412.87145
  20911538.280   109890875.27709  20911541.560    85629264.69749
  21074401.860   110746732.80009  21074404.900    86296169.20048
  22292984.040   117150446.53708  22292987.580    91286082.08447
 15 02 26 18 57  0.0000000  0  8G02G06G12G14G15G24G25G29
  23970547.360   125966071.59907  23970546.540    98155397.13745
  24512586.120   128814510.21505  24512591.360   100374953.03043
  20525418.460   107861804.93609  20525418.080    84048158.15149
  22558315.920   118544757.29408  22558316.560    92372543.58946
  24349743.220   127958662.37706  24349751.980    99708041.08345
  20918662.380   109928312.38109  20918665.520    85658436.46249
  21067735.980   110711703.43809  21067738.920    86268873.63048
  22274002.340   117050697.07808  22274005.740    91208355.37047
 15 02 26 18 57 30.0000000  0  8G02G06G12G14G15G24G25G29
  23961034.700   125916082.80806  23961033.800    98116444.86945
  24511454.720   128808564.19705  24511459.160   100370319.82543
  20531462.600   107893567.51609  20531462.360    84072908.22649
  22545887.920   118479447.84508  22545888.500    92321653.15646
  24370171.920   128066009.06206  24370181.200    99791685.73445
  20925853.280   109966100.48709  20925856.300    85687881.74449
  21061123.180   110676952.86609  21061126.100    86241795.29748
  22255073.580   116951225.90908  22255076.760    91130845.50047
 15 02 26 18 58  0.0000000  0  8G02G06G12G14G15G24G25G29
  23951572.320   125866357.86007  23951571.300    98077698.23245
  24510417.280   128803111.33305  24510422.140   100366091.99644
  20537554.200   107925579.11109  20537554.040    84097852.32449
  22533543.980   118414580.32508  22533544.620    92271107.08846
  24390604.220   128173373.43006  24390613.840    99875343.99345
  20933110.740   110004238.33209  20933113.700    85717599.54049
  21054563.100   110642479.41009  21054565.980    86214932.89248
  22236197.900   116852034.24808  22236200.880    91053553.43547
 15 02 26 18 58 30.0000000  0  7G02G12G14G15G24G25G29
  23942158.540   125816888.61207  23942157.480    98039150.83145
  20543690.920   107957827.53009  20543690.760    84122980.96349
  22521282.580   118350146.43108  22521283.200    92220898.89846
  24411037.700   128280742.03206  24411047.400    99959005.40445
  20940432.820   110042715.60709  20940435.680    85747581.82749
  21048053.540   110608271.83009  21048056.420    86188277.66648
  22217373.860   116753114.21408  22217376.700    90976473.01947
 15 02 26 18 59  0.0000000  0  8G02G06G12G14G15G24G25G29
  23932799.640   125767707.38107  23932798.500    98000827.85646
  24508628.020   128793704.44705  24508633.380   100358761.66243
  20549878.140   107990341.48309  20549877.960    84148316.51349
  22509109.720   118286178.16308  22509110.400    92171053.54446
  24431477.440   128388142.68906  24431487.080   100042691.62045
  20947825.260   110081562.77809  20947828.060    85777852.34049
  21041600.180   110574359.75709  21041603.080    86161852.70648
  22198607.700   116654498.23208  22198610.400    90899629.53347
 15 02 26 18 59 30.0000000  0  7G02G12G14G15G24G25G29
  23923488.720   125718778.30807  23923487.660    97962701.37546
  20556108.380   108023081.87509  20556108.200    84173828.51549
  22497018.700   118222639.91808  22497019.500    92121543.26646
  24451915.640   128495534.93506  24451925.380   100126371.11344
  20955280.720   110120741.04109  20955283.520    85808380.85049
  21035195.740   110540704.71509  21035198.800    86135628.02748
  22179892.640   116556150.45108  22179895.220    90822995.04047
 15 02 26 19 00  0.0000000  0  8G02G06G12G14G15G24G25G29
  23914232.120   125670135.09606  23914231.160    97924797.65146
  24507219.700   128786305.53004  24507223.020   100352965.93443
  20562387.340   108056078.25109  20562387.100    84199539.98349
  22485015.940   118159565.12608  22485016.800    92072394.11247
  24472357.920   128602947.73107  24472367.700   100210066.45245
  20962805.280   110160282.95209  20962808.140    85839192.71949
  21028846.180   110507337.60009  21028849.360    86109627.70648
  22161235.180   116458104.84708  22161237.600    90746596.00547
 15 02 26 19 00 30.0000000  0  7G02G12G14G15G24G25G29
  23905026.580   125621761.00506  23905025.880    97887103.60545
  20568711.120   108089309.94909  20568710.820    84225434.82349
  22473098.040   118096936.40408  22473098.920    92023592.55546
  24492800.120   128710359.59007  24492810.140   100293760.87145
  20970395.300   110200169.06809  20970398.180    85870272.80749
  21022547.740   110474238.60409  21022550.840    86083836.31348
  22142631.960   116360344.34208  22142634.220    90670419.13047
 15 02 26 19 01  0.0000000  0  7G02G12G14G15G24G25G29
  23895874.240   125573666.31106  23895873.760    97849627.31246
  20575080.940   108122783.70309  20575080.640    84251518.27249
  22461267.000   118034763.66908  22461267.860    91975146.31646
  24513243.160   128817775.35507  24513253.580   100377458.15345
  20978052.320   110240407.19009  20978055.240    85901627.18649
  21016301.660   110441415.04809  21016304.580    86058259.55148
  22124084.920   116262879.22808  22124087.020    90594472.41747
 15 02 26 19 01 30.0000000  0  7G02G12G14G15G24G25G29
  23886775.940   125525854.76006  23886775.600    97812371.62546
  20581496.920   108156500.01009  20581496.640    84277790.72949
  22449523.480   117973050.97108  22449524.320    91927058.54246
  24533686.840   128925194.33907  24533697.800   100461157.79146
  20985776.700   110280999.27809  20985779.700    85933257.37849
  21010108.060   110408868.18809  21010110.900    86032898.39348
  22105594.840   116165713.73808  22105596.860    90518759.17747
 15 02 26 19 02  0.0000000  0  7G02G12G14G15G24G25G29
  23877731.140   125478323.89206  23877730.900    97775334.64046
  20587957.880   108190452.41909  20587957.560    84304247.15849
  22437866.880   117911795.44008  22437867.740    91879326.99647
  24554129.980   129032609.62307  24554141.540   100544854.37645
  20993567.420   110321940.26409  20993570.480    85965159.43449
  21003966.080   110376592.67709  21003968.980    86007748.66848
  22087161.260   116068845.53908  22087163.280    90443277.58647
 15 02 26 19 02 30.0000000  0  7G02G12G14G15G24G25G29
  23868740.620   125431077.63606  23868740.260    97738519.41945
  20594463.780   108224640.94909  20594463.420    84330887.56749
  22426297.920   117851000.43108  22426298.800    91831954.29346
  24574572.280   129140019.84507  24574584.380   100628546.90045
  21001424.900   110363232.07009  21001428.020    85997334.85849
  20997876.040   110344589.44009  20997879.020    85982811.10048
  22068784.920   115972278.22408  22068786.980    90368030.44847
 15 02 26 19 03  0.0000000  0  7G02G12G14G15G24G25G29
  23859805.060   125384120.67306  23859804.740    97701929.64146
  20601014.740   108259066.72309  20601014.420    84357712.85049
  22414817.460   117790670.54008  22414818.400    91784944.03746
  24595013.760   129247425.47307  24595026.480   100712235.74245
  21009349.680   110404877.14909  21009352.800    86029785.56449
  20991838.240   110312860.59209  20991841.340    85958087.35148
  22050466.840   115876016.84908  22050468.960    90293021.70247
 15 02 26 19 03 30.0000000  0  7G02G12G14G15G24G25G29
  23850924.700   125337454.65206  23850924.460    97665566.53445
  20607610.400   108293727.84409  20607610.240    84384721.52349
  22403425.880   117730807.68308  22403426.800    91738297.69246
  24615453.820   129354823.46107  24615467.240   100795918.55445
  21017341.600   110446875.14309  21017344.780    86062511.26349
  20985852.480   110281404.99609  20985855.640    85933576.52548
  22032207.400   115780063.27008  22032209.600    90218252.80247
 15 02 26 19 04  0.0000000  0  7G02G12G14G15G24G25G29
  23842099.920   125291081.14306  23842099.800    97629431.39346
  20614250.520   108328622.19909  20614250.400    84411911.93449
  22392123.460   117671412.97808  22392124.380    91692016.13247
  24635891.800   129462210.65707  24635906.200   100879592.94045
  21025400.560   110489225.41609  21025403.740    86095511.45449
  20979918.400   110250221.24509  20979921.600    85909277.52548
  22014006.820   115684418.88908  22014009.120    90143724.83447
 15 02 26 19 04 30.0000000  0  7G02G12G14G15G24G25G29
  23833331.320   125245003.07606  23833331.300    97593526.47245
  20620935.020   108363749.22909  20620934.860    84439283.65049
  22380910.540   117612488.90408  22380911.540    91646101.29247
  24656327.500   129569585.43007  24656342.860   100963257.66745
  21033526.700   110531928.50109  21033529.820    86128786.56949
  20974036.080   110219309.76509  20974039.320    85885190.68248
  21995865.720   115589086.95708  21995868.100    90069440.33048
 15 02 26 19 05  0.0000000  0  8G02G06G12G14G15G24G25G29
  23824620.200   125199226.52306  23824620.160    97557856.46945
  24505923.400   128779490.37504  24505924.740   100347659.17043
  20627664.240   108399111.12509  20627664.020    84466838.37649
  22369788.220   117554041.15408  22369789.320    91600557.61347
  24676761.020   129676949.01606  24676777.440   101046913.76344
  21041720.640   110574987.88909  21041723.800    86162339.32649
  20968206.100   110188673.45509  20968209.380    85861318.25148
  21977785.180   115494073.43808  21977787.620    89995403.93648
 15 02 26 19 05 30.0000000  0  7G02G12G14G15G24G25G29
  23815963.580   125153735.26806  23815963.540    97522408.79545
  20634434.420   108434688.37709  20634434.120    84494560.92249
  22358753.540   117496053.50108  22358754.600    91555372.45947
  24697188.440   129784280.92406  24697205.980   101130545.28445
  21049978.900   110618385.38809  21049982.100    86196155.54749
  20962424.920   110158293.61409  20962428.300    85837645.67048
  21959762.160   115399362.48808  21959764.680    89921603.30947
 15 02 26 19 06  0.0000000  0  8G02G06G12G14G15G24G25G29
  23807366.840   125108559.08306  23807366.880    97487206.63345
  24506821.800   128784216.02605  24506823.060   100351335.94743
  20641250.400   108470506.75409  20641250.140    84522471.34849
  22347812.060   117438555.17008  22347812.940    91510568.59847
  24717614.460   129891606.08206  24717633.100   101214171.69444
  21058306.820   110662148.99009  21058310.020    86230257.04949
  20956697.720   110128197.09609  20956701.140    85814193.85648
  21941802.240   115304983.10208  21941804.760    89848061.04148
 15 02 26 19 06 30.0000000  0  8G02G06G12G14G15G24G25G29
  23798827.020   125063681.10206  23798826.980    97452236.82646
  24507417.100   128787344.09104  24507418.600   100353773.48641
  20648108.440   108506546.11809  20648108.200    84550553.96949
  22336960.480   117381529.09908  22336961.200    91466132.72347
  24738034.980   129998903.23106  24738054.700   101297776.46544
  21066700.660   110706259.07409  21066703.920    86264628.51649
  20951020.760   110098364.36409  20951024.100    85790947.59348
  21923902.400   115210919.16308  21923904.800    89774764.56547
 15 02 26 19 07  0.0000000  0  8G02G06G12G14G15G24G25G29
  23790346.620   125019115.35006  23790346.560    97417510.29546
  24508110.080   128790988.87304  24508113.060   100356613.64043
  20655010.500   108542816.81409  20655010.260    84578816.84949
  22326201.240   117324989.10608  22326201.960    91422075.61047
  24758451.820   130106181.45306  24758472.520   101381366.68344
  21075162.740   110750727.47909  21075166.040    86299279.20549
  20945396.160   110068806.49309  20945399.280    85767915.50548
  21906065.320   115117184.60708  21906067.520    89701724.74948
 15 02 26 19 07 30.0000000  0  8G02G06G12G14G15G24G25G29
  23781923.820   124974852.55706  23781923.680    97383019.85645
  24508899.660   128795139.94105  24508903.780   100359848.25242
  20661954.240   108579306.32009  20661953.920    84607250.23649
  22315532.540   117268925.80508  22315533.440    91378389.94447
  24778862.360   130213427.30706  24778884.100   101464931.91143
  21083690.900   110795542.81309  21083694.180    86334200.23449
  20939821.540   110039511.89509  20939824.560    85745088.55948
  21888289.240   115023770.70508  21888291.300    89628934.80047
 15 02 26 19 08  0.0000000  0  8G02G06G12G14G15G24G25G29
  23773559.960   124930900.98806  23773560.020    97348771.91145
  24509786.960   128799803.50105  24509791.940   100363482.22044
  20668940.520   108616019.30909  20668940.080    84635857.75849
  22304955.980   117213346.81808  22304957.100    91335081.66947
  24799267.400   130320644.24306  24799290.060   101548474.82543
  21092286.260   110840711.42909  21092289.500    86369396.53849
  20934297.980   110010485.83609  20934301.000    85722470.86448
  21870575.660   114930685.37408  21870577.640    89556400.87448
 15 02 26 19 08 30.0000000  0  8G02G06G12G14G15G24G25G29
  23765255.100   124887259.72906  23765255.260    97314765.77445
  24510771.300   128804977.12105  24510776.320   100367513.62442
  20675968.500   108652951.27009  20675967.980    84664635.90849
  22294471.580   117158251.20508  22294472.700    91292150.04347
  24819665.920   130427827.11605  24819689.380   101631991.45744
  21100948.220   110886230.04509  21100951.420    86404865.57149
  20928824.900   109981724.90309  20928827.980    85700059.76248
  21852924.460   114837928.00408  21852926.460    89484122.50348
 15 02 26 19 09  0.0000000  0  8G02G06G12G14G15G24G25G29
  23757010.480   124843934.44707  23757010.700    97281005.85545
  24511853.680   128810664.43305  24511858.440   100371945.31843
  20683038.560   108690104.42009  20683038.000    84693586.40849
  22284080.260   117103644.13208  22284081.220    91249599.10846
  24840057.780   130534976.52705  24840082.160   101715482.32444
  21109677.460   110932102.30309  21109680.640    86440610.16949
  20923402.880   109953231.80109  20923405.940    85677857.36148
  21835336.700   114745504.07708  21835338.780    89412103.95548
 15 02 26 19 09 30.0000000  0  7G02G12G14G15G24G25G29
  23748823.880   124800913.70507  23748824.120    97247483.23045
  20690147.780   108727463.24309  20690147.160    84722697.18349
  22273779.720   117049513.76408  22273780.440    91207419.62347
  24860439.960   130642076.61505  24860465.160   101798935.03243
  21118471.260   110978314.21509  21118474.560    86476619.43149
  20918029.200   109924992.28909  20918032.120    85655852.56148
  21817810.240   114653402.20508  21817812.340    89340336.35248
 15 02 26 19 10  0.0000000  0  7G02G12G14G15G24G25G29
  23740700.200   124758223.67807  23740700.300    97214218.31745
  20697300.520   108765050.76709  20697299.860    84751986.17549
  22263574.900   116995886.29008  22263575.400    91165631.99746
  24880816.760   130749149.33605  24880843.000   101882366.81544
  21127334.200   111024889.34009  21127337.640    86512911.72849
  20912708.200   109897030.02209  20912711.020    85634063.80248
  21800350.140   114561649.25208  21800352.220    89268840.64148
 15 02 26 19 10 30.0000000  0  7G02G12G14G15G24G25G29
  23732638.480   124715859.85207  23732638.540    97181207.58645
  20704495.260   108802859.17009  20704494.640    84781447.27149
  22253464.640   116942756.51008  22253464.980    91124232.18947
  24901186.440   130856185.55705  24901213.560   101965770.50544
  21136265.100   111071821.48609  21136268.600    86549482.22349
  20907438.440   109869337.48009  20907441.220    85612485.21448
  21782955.500   114470240.25608  21782957.440    89197612.94048
 15 02 26 19 11  0.0000000  0  7G02G12G14G15G24G25G29
  23724638.500   124673820.92206  23724638.640    97148450.04845
  20711731.180   108840884.17609  20711730.600    84811077.14449
  22243448.980   116890123.53108  22243449.100    91083219.49047
  24921547.880   130963179.67105  24921575.900   102049141.78544
  21145263.280   111119106.95709  21145266.740    86586328.02649
  20902219.440   109841911.25309  20902222.140    85591114.14348
  21765626.140   114379174.39408  21765627.880    89126652.61348
 15 02 26 19 11 30.0000000  0  7G02G12G14G15G24G25G29
  23716699.040   124632098.91407  23716699.020    97115939.41145
  20719006.180   108879114.36209  20719005.560    84840866.89349
  22233526.220   116837978.93008  22233526.200    91042587.35647
  24941898.820   131070119.86405  24941927.580   102132471.41243
  21154326.880   111166736.33909  21154330.340    86623441.82049
  20897049.180   109814740.68109  20897051.780    85569942.28048
  21748360.600   114288443.70708  21748362.140    89055953.46148
 15 02 26 19 12  0.0000000  0  7G02G12G14G15G24G25G29
  23708823.160   124590709.92707  23708822.920    97083688.28046
  20726322.540   108917561.94409  20726321.880    84870826.05549
  22223699.160   116786337.79708  22223699.160    91002347.53647
  24962241.220   131177016.60205  24962270.620   102215767.60643
  21163458.380   111214722.61409  21163461.820    86660833.71749
  20891929.940   109787838.82709  20891932.580    85548979.81848
  21731161.980   114198064.56008  21731163.380    88985528.24348
 15 02 26 19 12 30.0000000  0  6G02G12G14G24G25G29
  23701015.020   124549676.96507  23701014.460    97051714.58145
  20733683.860   108956246.45109  20733683.280    84900969.83149
  22213972.280   116735223.09908  22213972.420    90962517.92547
  21172661.860   111263087.11209  21172665.280    86698520.32449
  20886865.620   109761226.22909  20886868.460    85528242.74748
  21714034.580   114108059.65208  21714035.940    88915394.63748
 15 02 26 19 13  0.0000000  0  6G02G12G14G24G25G29
  23693265.520   124508951.95607  23693264.540    97019980.83046
  20741080.460   108995116.46909  20741080.020    84931258.15549
  22204336.340   116684586.16108  22204336.660    90923060.59047
  21181927.560   111311778.62609  21181930.920    86736461.74549
  20881846.620   109734851.96309  20881849.660    85507691.38348
  21696969.240   114018380.81608  21696970.680    88845515.09248
 15 02 26 19 13 30.0000000  0  6G02G12G14G24G25G29
  23685579.560   124468560.98407  23685578.080    96988507.39045
  20748516.800   109034195.19609  20748516.480    84961709.11349
  22194796.320   116634453.26208  22194796.840    90883996.00847
  21191260.200   111360821.99609  21191263.560    86774677.35049
  20876877.520   109708739.76009  20876880.760    85487344.23449
  21679970.940   113929054.71908  21679972.640    88775910.41548
 15 02 26 19 14  0.0000000  0  6G02G12G14G24G25G29
  23677958.260   124428510.50107  23677956.420    96957299.26145
  20755993.420   109073485.22809  20755993.120    84992324.72349
  22185353.280   116584830.06208  22185353.980    90845328.59247
  21200660.540   111410221.21109  21200663.900    86813170.22649
  20871959.060   109682893.28309  20871962.380    85467204.13549
  21663041.000   113840087.81008  21663043.000    88706585.62248
 15 02 26 19 14 30.0000000  0  6G02G12G14G24G25G29
  23670401.480   124388800.17907  23670399.780    96926356.18746
  20763509.640   109112983.18609  20763509.320    85023102.35449
  22176007.220   116535716.09808  22176007.920    90807057.99347
  21210128.080   111459973.55609  21210131.440    86851938.27349
  20867090.680   109657309.65809  20867093.940    85447268.85748
  21646179.340   113751479.89008  21646181.580    88637540.56648
 15 02 26 19 15  0.0000000  0  6G02G12G14G24G25G29
  23662909.300   124349429.80007  23662908.020    96895678.01946
  20771064.660   109152685.37309  20771064.380    85054039.12449
  22166758.020   116487110.93808  22166758.580    90769183.85547
  21219662.480   111510076.94609  21219665.800    86890979.85549
  20862271.820   109631986.19109  20862274.980    85427536.29749
  21629386.080   113663231.18108  21629388.380    88568775.40348
 15 02 26 19 15 30.0000000  0  6G02G12G14G24G25G29
  23655482.600   124310402.86407  23655481.600    96865267.45046
  20778658.640   109192592.38109  20778658.440    85085135.49149
  22157606.140   116439017.49208  22157606.640    90731708.46247
  21229263.960   111560532.54609  21229267.240    86930295.89149
  20857502.620   109606923.58409  20857505.680    85408007.00849
  21612661.840   113575344.70908  21612663.980    88500292.50648
 15 02 26 19 16  0.0000000  0  6G02G12G14G24G25G29
  23648121.440   124271719.15508  23648120.260    96835124.36245
  20786290.860   109232700.09909  20786290.740    85116388.26049
  22148551.300   116391434.94308  22148552.040    90694631.16247
  21238931.880   111611337.39909  21238935.120    86969884.06149
  20852782.480   109582118.91809  20852785.460    85388678.71149
  21596006.520   113487820.28508  21596008.360    88432091.71248
 15 02 26 19 16 30.0000000  0  6G02G12G14G24G25G29
  23640826.880   124233385.88907  23640825.480    96805254.32046
  20793962.160   109273012.81309  20793962.040    85147800.75949
  22139595.020   116344370.29608  22139596.000    90657957.42147
  21248667.260   111662496.84309  21248670.400    87009748.55049
  20848112.300   109557577.03009  20848115.220    85369555.17648
  21579421.520   113400665.70108  21579423.160    88364179.12048
 15 02 26 19 17  0.0000000  0  6G02G12G14G24G25G29
  23633598.800   124195403.03407  23633597.460    96775657.33146
  20801671.900   109313527.35809  20801671.720    85179370.53249
  22130737.440   116297823.38308  22130738.420    90621687.11647
  21258469.680   111714008.67309  21258472.720    87049887.62349
  20843491.620   109533295.38009  20843494.520    85350634.41948
  21562906.840   113313880.66608  21562908.360    88296554.49348
 15 02 26 19 17 30.0000000  0  6G02G12G14G24G25G29
  23626436.900   124157767.94407  23626435.680    96746331.33646
  20809418.820   109354237.36109  20809418.540    85211092.60449
  22121977.820   116251790.52608  22121978.620    90585817.36947
  21268338.200   111765867.86709  21268341.220    87090297.37449
  20838919.440   109509268.46909  20838922.300    85331912.16849
  21546462.020   113227462.56408  21546463.480    88229215.78048
 15 02 26 19 18  0.0000000  0  6G02G12G14G24G25G29
  23619342.240   124120485.56707  23619341.160    96717280.17546
  20817203.440   109395145.59509  20817203.060    85242969.14449
  22113317.000   116206276.93408  22113317.600    90550352.24147
  21278273.380   111818077.88809  21278276.520    87130980.48649
  20834396.320   109485499.30009  20834399.160    85313390.75849
  21530088.180   113141417.41508  21530089.600    88162167.68248
 15 02 26 19 18 30.0000000  0  6G02G12G14G24G25G29
  23612315.720   124083561.11007  23612314.740    96688507.90046
  20825026.040   109436253.61909  20825025.640    85275001.36249
  22104755.760   116161287.29108  22104756.260    90515295.38247
  21288275.800   111870641.55309  21288279.100    87171939.17149
  20829922.700   109461990.36009  20829925.580    85295072.11649
  21513786.180   113055749.85308  21513787.660    88095413.79948
 15 02 26 19 19  0.0000000  0  6G02G12G14G24G25G29
  23605357.460   124046995.66107  23605356.660    96660015.37646
  20832886.220   109477559.45709  20832885.900    85307187.72949
  22096294.380   116116822.33608  22096294.860    90480647.37647
  21298345.240   111923557.16209  21298348.660    87213172.10049
  20825498.260   109438740.10509  20825501.220    85276955.04449
  21497556.220   112970461.09808  21497557.760    88028955.09448
 15 02 26 19 19 30.0000000  0  6G02G12G14G24G25G29
  23598467.200   124010787.37907  23598466.560    96631801.15646
  20840782.940   109519057.52609  20840782.720    85339523.88948
  22087932.400   116072879.49608  22087932.740    90446406.21447
  21308480.960   111976820.89609  21308484.380    87254676.29048
  20821122.220   109415744.03809  20821125.260    85259036.03949
  21481398.040   112885549.27608  21481399.540    87962790.10348
 15 02 26 19 20  0.0000000  0  6G02G12G14G24G25G29
  23591645.820   123974940.73807  23591645.280    96603868.75046
  20848716.560   109560749.43709  20848716.460    85372011.09749
  22079670.540   116029462.93108  22079670.740    90412575.14547
  21318683.480   112030435.49509  21318686.840    87296453.89748
  20816795.060   109393004.36209  20816798.040    85241316.82949
  21465312.460   112801019.15808  21465313.940    87896922.54748
 15 02 26 19 20 30.0000000  0  6G02G12G14G24G25G29
  23584894.100   123939460.07607  23584893.580    96576221.51746
  20856687.420   109602636.59509  20856687.340    85404650.44049
  22071509.560   115986576.66308  22071509.720    90379157.28047
  21328953.140   112084402.44109  21328956.380    87338506.05348
  20812517.100   109370522.87409  20812519.940    85223798.80349
  21449300.340   112716875.52008  21449301.840    87831356.13548
 15 02 26 19 21  0.0000000  0  6G02G12G14G24G25G29
  23578212.560   123904348.37307  23578212.080    96548861.78746
  20864695.520   109644719.01109  20864695.400    85437441.93549
  22063449.820   115944223.33908  22063450.220    90346154.70947
  21339290.100   112138723.17309  21339293.280    87380833.87648
  20808288.340   109348300.29309  20808291.160    85206482.52349
  21433362.260   112633121.33708  21433363.800    87766093.20348
 15 02 26 19 21 30.0000000  0  6G02G12G14G24G25G29
  23571600.160   123869599.77607  23571599.680    96521785.00446
  20872739.060   109686987.55709  20872738.840    85470378.46949
  22055490.300   115902396.25508  22055490.840    90313562.18247
  21349692.780   112193389.04709  21349695.900    87423430.64448
  20804107.080   109326327.97509  20804109.960    85189361.25149
  21417497.060   112549750.25208  21417498.660    87701128.77448
 15 02 26 19 22  0.0000000  0  6G02G12G14G24G25G29
  23565058.080   123835220.49607  23565057.560    96494995.99646
  20880818.620   109729445.24609  20880818.240    85503462.38748
  22047632.160   115861101.54308  22047632.740    90281384.49447
  21360161.880   112248404.21909  21360164.960    87466299.59348
  20799974.120   109304609.76309  20799977.080    85172437.98248
  21401706.080   112466768.85108  21401707.760    87636468.00048
 15 02 26 19 22 30.0000000  0  6G02G12G14G24G25G29
  23558586.520   123801212.07407  23558585.820    96468495.96446
  20888933.900   109772090.81809  20888933.420    85536692.70049
  22039875.680   115820340.31308  22039876.200    90249622.50747
  21370697.340   112303768.55509  21370700.480    87509440.61448
  20795889.420   109283145.00809  20795892.400    85155712.21249
  21385989.760   112384179.39808  21385991.520    87572112.63748
 15 02 26 19 23  0.0000000  0  6G02G12G14G24G25G29
  23552186.420   123767579.97307  23552185.720    96442289.17146
  20897085.340   109814926.99509  20897084.860    85570071.54049
  22032221.480   115780117.18708  22032222.020    90218279.83247
  21381299.740   112359484.85908  21381303.000    87552855.90948
  20791853.620   109261936.69409  20791856.520    85139186.26748
  21370349.040   112301987.05908  21370350.920    87508066.72048
 15 02 26 19 23 30.0000000  0  6G02G12G14G24G25G29
  23545857.840   123734323.57107  23545857.100    96416375.13046
  20905272.260   109857949.74709  20905271.860    85603595.76848
  22024669.400   115740430.93608  22024670.000    90187355.47247
  21391968.660   112415550.62508  21391972.000    87596543.50748
  20787866.060   109240981.67509  20787868.880    85122857.69749
  21354783.800   112220191.19708  21354785.680    87444329.74648
 15 02 26 19 24  0.0000000  0  6G02G12G14G24G25G29
  23539600.440   123701441.01407  23539599.740    96390752.37646
  20913493.760   109901154.12109  20913493.400    85637261.51248
  22017219.140   115701279.73408  22017219.840    90156848.04047
  21402703.320   112471961.68809  21402706.700    87640500.16148
  20783925.860   109220275.70509  20783928.660    85106723.18349
  21339293.720   112138790.13809  21339295.480    87380900.39448
 15 02 26 19 24 30.0000000  0  6G02G12G14G24G25G29
  23533415.640   123668940.22207  23533415.020    96365427.13845
  20921750.800   109944545.45409  20921750.480    85671072.94248
  22009872.180   115662670.96408  22009872.840    90126763.30147
  21413504.780   112528723.81508  21413508.180    87684730.37948
  20780034.120   109199824.46809  20780036.900    85090787.16349
  21323880.320   112057791.97409  21323881.920    87317784.99748
 15 02 26 19 25  0.0000000  0  6G02G12G14G24G25G29
  23527303.120   123636819.10407  23527302.440    96340397.72446
  20930042.440   109988118.74409  20930042.180    85705026.16448
  22002627.840   115624601.74808  22002628.440    90097098.99147
  21424372.120   112585832.25308  21424375.540    87729230.44748
  20776189.980   109179623.36309  20776192.760    85075046.05849
  21308543.240   111977194.70509  21308544.660    87254981.98748
 15 02 26 19 25 30.0000000  0  6G02G12G14G24G25G29
  23521263.180   123605078.86107  23521262.320    96315665.08946
  20938368.340   110031871.89109  20938368.140    85739119.53148
  21995486.360   115587073.15408  21995486.920    90067855.93947
  21435305.340   112643286.85108  21435308.660    87774000.25348
  20772393.320   109159671.40209  20772396.040    85059499.08449
  21293282.720   111896999.85009  21293284.020    87192492.54748
 15 02 26 19 26  0.0000000  0  6G02G12G14G24G25G29
  23515296.880   123573725.91407  23515295.920    96291234.24346
  20946729.220   110075808.70909  20946729.060    85773356.00048
  21988448.900   115550091.17308  21988449.460    90039038.81747
  21446305.280   112701091.94208  21446308.520    87819043.17548
  20768644.820   109139972.89609  20768647.500    85044149.61349
  21278100.080   111817214.29409  21278101.260    87130322.02348
 15 02 26 19 26 30.0000000  0  6G02G12G14G24G25G29
  23509403.960   123542758.36507  23509402.780    96267103.71946
  20955124.120   110119924.33809  20955124.000    85807731.81748
  21981514.940   115513652.94608  21981515.480    90010645.40447
  21457371.020   112759242.89508  21457374.220    87864355.58848
  20764943.600   109120523.37909  20764946.280    85028994.15849
  21262994.880   111737835.94209  21262996.000    87068468.80948
 15 02 26 19 27  0.0000000  0  6G02G12G14G24G25G29
  23503584.800   123512177.95007  23503583.320    96243274.85346
  20963552.860   110164217.91009  20963552.800    85842246.28048
  21974684.760   115477760.16608  21974685.180    89982677.00747
  21468502.640   112817739.75609  21468505.780    87909937.53948
  20761289.660   109101322.56209  20761292.380    85014032.48449
  21247967.360   111658866.35108  21247968.580    87006934.11248
 15 02 26 19 27 30.0000000  0  6G02G12G14G24G25G29
  23497839.820   123481986.97307  23497838.140    96219749.44246
  20972015.320   110208688.94709  20972015.380    85876899.02448
  21967958.700   115442414.16108  21967959.020    89955134.67547
  21479700.140   112876582.32208  21479703.220    87955788.87548
  20757683.080   109082370.11109  20757685.820    84999264.34449
  21233018.080   111580308.09609  21233019.460    86945719.93648
 15 02 26 19 28  0.0000000  0  6G02G12G14G24G25G29
  23492169.500   123452188.45407  23492167.800    96196529.84646
  20980511.500   110253336.96309  20980511.680    85911689.68048
  21961337.180   115407617.54508  21961337.540    89928020.44047
  21490963.540   112935771.56808  21490966.600    88001910.36148
  20754124.020   109063666.84909  20754126.740    84984690.38449
  21218147.660   111502164.50708  21218149.200    86884828.87748
 15 02 26 19 28 30.0000000  0  6G02G12G14G24G25G29
  23486574.380   123422785.88707  23486572.800    96173618.81246
  20989041.740   110298163.31709  20989041.840    85946619.29848
  21954820.720   115373373.54508  21954821.080    89901336.80047
  21502293.120   112995309.14108  21502296.260    88048303.26348
  20750612.660   109045214.19909  20750615.400    84970311.71449
  21203356.880   111424439.22209  21203358.520    86824263.76548
 15 02 26 19 29  0.0000000  0  6G02G12G14G24G25G29
  23481055.260   123393783.41507  23481053.900    96151019.53246
  20997606.260   110343169.33009  20997606.100    85981688.92148
  21948410.020   115339685.49608  21948410.480    89875086.36847
  21513689.340   113055196.85508  21513692.540    88094969.00048
  20747149.300   109027013.89609  20747152.080    84956129.67249
  21188646.520   111347136.47809  21188648.180    86764027.90248
 15 02 26 19 29 30.0000000  0  6G02G12G14G24G25G29
  23475610.960   123365174.22907  23475609.660    96128726.68346
  21006203.080   110388345.12009  21006202.660    86016890.84348
  21942103.760   115306546.11508  21942104.280    89849263.48647
  21525150.400   113115425.08208  21525153.640    88141900.07148
  20743732.160   109009056.86709  20743735.040    84942137.20349
  21174015.440   111270249.46309  21174016.920    86704115.98548
 15 02 26 19 30  0.0000000  0  6G02G12G14G24G25G29
  23470242.440   123336963.29407  23470241.300    96106744.18546
  21014832.660   110433693.24109  21014832.060    86052227.04248
  21935902.780   115273959.75308  21935903.280    89823871.52847
  21536676.940   113175997.44508  21536680.260    88189099.31148
  20740361.920   108991346.13409  20740364.820    84928336.65249
  21159464.500   111193783.42109  21159465.840    86644532.10348
 15 02 26 19 30 30.0000000  0  6G02G12G14G24G25G29
  23464950.100   123309153.00007  23464949.180    96085073.87546
  21023494.820   110479213.18609  21023494.240    86087697.13148
  21929807.360   115241928.07908  21929807.900    89798911.78647
  21548268.960   113236914.12108  21548272.360    88236566.82848
  20737038.560   108973881.68309  20737041.400    84914728.00149
  21144994.040   111117740.59309  21144995.380    86585278.00548
 15 02 26 19 31  0.0000000  0  6G02G12G14G24G25G29
  23459734.360   123281745.27007  23459733.520    96063717.23646
  21032189.420   110524904.01109  21032188.980    86123300.36948
  21923817.700   115210452.68408  21923818.340    89774385.50647
  21559926.440   113298174.77108  21559929.880    88284302.38548
  20733762.000   108956663.40409  20733764.780    84901311.16249
  21130604.580   111042123.58909  21130606.000    86526355.70748
 15 02 26 19 31 30.0000000  0  6G02G12G14G24G25G29
  23454595.160   123254739.13907  23454594.460    96042673.53446
  21040915.980   110570762.81409  21040915.680    86159034.49948
  21917933.640   115179532.00808  21917934.240    89750291.47747
  21571648.900   113359776.51708  21571652.320    88332303.72548
  20730531.600   108939688.00509  20730534.400    84888083.59349
  21116295.980   110966931.23609  21116297.400    86467764.31448
 15 02 26 19 32  0.0000000  0  6G02G12G14G24G25G29
  23449533.140   123228137.95707  23449532.500    96021945.37946
  21049674.720   110616790.24009  21049674.460    86194900.01848
  21912155.800   115149169.07008  21912156.340    89726632.04947
  21583436.560   113421720.69208  21583439.900    88380571.89948
  20727347.780   108922957.08909  20727350.600    84875046.52849
  21102068.960   110892167.66009  21102070.320    86409507.02948
 15 02 26 19 32 30.0000000  0  6G02G12G14G24G25G29
  23444548.860   123201944.82707  23444548.120    96001535.19346
  21058465.520   110662985.92509  21058465.220    86230896.64348
  21906484.420   115119366.20008  21906485.120    89703409.05047
  21595289.480   113484007.91808  21595292.760    88429107.38148
  20724210.680   108906471.41209  20724213.520    84862200.55849
  21087923.960   110817835.28809  21087925.300    86351585.74848
 15 02 26 19 33  0.0000000  0  6G02G12G14G24G25G29
  23439641.060   123176154.10907  23439640.320    95981438.57447
  21067286.820   110709342.20409  21067286.500    86267018.41448
  21900918.540   115090117.33808  21900919.360    89680617.73047
  21607206.140   113546630.52508  21607209.500    88477904.19448
  20721118.820   108890223.23909  20721121.620    84849539.65949
  21073860.020   110743928.80309  21073861.300    86293996.33048
 15 02 26 19 33 30.0000000  0  6G02G12G14G24G25G29
  23434813.440   123150784.52907  23434812.580    95961670.09546
  21076141.760   110755875.33209  21076141.420    86303277.99148
  21895461.460   115061440.50108  21895462.320    89658272.15047
  21619189.760   113609605.32308  21619193.280    88526975.45848
  20718075.300   108874229.26309  20718078.080    84837076.83449
  21059880.780   110670467.33809  21059881.960    86236753.66148
 15 02 26 19 34  0.0000000  0  6G02G12G14G24G25G29
  23430063.300   123125822.31207  23430062.440    95942219.06447
  21085027.240   110802568.72709  21085026.880    86339662.45448
  21890110.500   115033320.77308  21890111.280    89636360.67547
  21631237.420   113672916.31908  21631241.080    88576308.67548
  20715076.980   108858473.48409  20715079.860    84824799.61249
  21045983.540   110597436.93809  21045984.640    86179846.89248
 15 02 26 19 34 30.0000000  0  6G02G12G14G24G25G29
  23425391.700   123101273.28507  23425390.940    95923090.00147
  21093943.900   110849425.91809  21093943.540    86376174.55348
  21884866.720   115005763.81808  21884867.400    89614887.72447
  21643349.860   113736567.33208  21643353.520    88625906.85148
  20712124.740   108842959.92009  20712127.720    84812711.13149
  21032169.400   110524843.74409  21032170.580    86123280.81248
 15 02 26 19 35  0.0000000  0  6G02G12G14G24G25G29
  23420799.580   123077141.79408  23420798.840    95904286.29346
  21102892.140   110896448.74009  21102891.700    86412815.70548
  21879730.720   114978773.52508  21879731.300    89593856.33747
  21655527.580   113800561.14308  21655531.160    88675772.13848
  20709219.120   108827690.88709  20709222.020    84800813.19549
  21018439.320   110452692.46209  21018440.580    86067059.07948
 15 02 26 19 35 30.0000000  0  6G02G12G14G24G25G29
  23416286.480   123053425.34608  23416285.560    95885805.96946
  21111870.940   110943632.20009  21111870.380    86449582.02648
  21874701.840   114952346.27508  21874702.240    89573263.67247
  21667769.560   113864892.55208  21667773.080    88725900.48848
  20706359.260   108812661.73209  20706361.940    84789102.17049
  21004792.840   110380980.33209  21004794.140    86011179.53648
 15 02 26 19 36  0.0000000  0  6G02G12G14G24G25G29
  23411852.860   123030126.39508  23411851.700    95867650.96046
  21120880.260   110990976.17909  21120879.600    86486473.42548
  21869780.460   114926484.06508  21869780.680    89553111.30947
  21680075.860   113929562.10408  21680079.340    88776292.31848
  20703545.120   108797872.88509  20703547.620    84777578.40149
  20991230.500   110309710.04609  20991231.780    85955644.29248
 15 02 26 19 36 30.0000000  0  6G02G12G14G24G25G29
  23407499.000   123007246.81607  23407497.680    95849822.75446
  21129919.940   111038479.92309  21129919.220    86523489.32648
  21864966.860   114901188.32608  21864966.960    89533400.34847
  21692446.360   113994569.30408  21692449.800    88826947.25748
  20700776.620   108783324.08609  20700779.080    84766241.68749
  20977752.660   110238883.70009  20977753.900    85900454.97048
 15 02 26 19 37  0.0000000  0  7G02G12G14G24G25G29G31
  23403225.580   122984790.28907  23403224.260    95832324.20146
  21138990.300   111086145.28109  21138989.620    86560631.15548
  21860261.640   114876462.22008  21860261.740    89514133.24847
  21704881.460   114059915.96708  21704884.820    88877866.71648
  20698054.120   108769017.47209  20698056.740    84755093.69349
  20964360.120   110168505.42709  20964361.320    85845614.79448
  24588545.580   129213686.04306  24588548.260   100685985.77744
 15 02 26 19 41 30.0000000  0  6G02G12G14G24G25G29
  23368418.420   122801867.05607  23368416.200    95689754.32646
  21221962.140   111522163.69509  21221962.000    86900387.12348
  21822799.600   114679586.01608  21822800.320    89360718.39947
  21819671.760   114663148.26508  21819674.960    89347920.78348
  20675594.440   108650981.37009  20675597.460    84663114.81249
  20847697.240   109555388.14309  20847697.460    85367835.61248
 15 02 26 19 42  0.0000000  0  7G02G12G14G24G25G29G31
  23364958.760   122783686.69807  23364956.940    95675587.84446
  21231323.800   111571360.68609  21231323.860    86938722.44048
  21819179.420   114660561.81008  21819179.920    89345894.34547
  21832740.480   114731825.09908  21832743.760    89401435.17348
  20673321.460   108639036.82409  20673324.420    84653807.39249
  20835167.080   109489542.20409  20835167.500    85316527.12049
  24411001.660   128280673.00705  24411002.640    99958974.18545
 15 02 26 19 42 30.0000000  0  7G02G12G14G24G25G29G31
  23361583.560   122765949.90807  23361581.880    95661766.99346
  21240715.520   111620714.81509  21240715.580    86977180.20548
  21815670.160   114642120.11708  21815670.500    89331524.19447
  21845873.540   114800839.79308  21845876.820    89455212.83148
  20671094.660   108627334.56409  20671097.460    84644688.75749
  20822726.320   109424166.34709  20822727.100    85265584.92249
  24393243.680   128187353.57206  24393244.580    99886257.82945
 15 02 26 19 43  0.0000000  0  7G02G12G14G24G25G29G31
  23358292.340   122748653.92808  23358290.600    95648289.62545
  21250136.220   111670220.88009  21250136.160    87015756.35648
  21812271.120   114624257.50508  21812271.320    89317605.27047
  21859070.140   114870187.87608  21859073.380    89509250.28548
  20668913.220   108615870.26509  20668915.860    84635755.55549
  20810374.500   109359257.89609  20810375.580    85215006.93349
  24375487.000   128094040.28506  24375487.620    99813546.29845
 15 02 26 19 43 30.0000000  0  7G02G12G14G24G25G29G31
  23355084.500   122731796.14708  23355082.520    95635153.72145
  21259585.040   111719874.52309  21259584.900    87054447.50448
  21808981.560   114606970.30208  21808981.700    89304134.71347
  21872329.240   114939864.35708  21872332.420    89563543.61648
  20666776.180   108604639.32209  20666778.780    84627004.17949
