     2.11           OBSERVATION DATA    G                   RINEX VERSION / TYPE
SPIDER V4,0,0,3554                      2015 03 15 00:33    PGM / RUN BY / DATE 
EMHD                                                        MARKER NAME         
EMHD                                                        MARKER NUMBER       
                                                            OBSERVER / AGENCY   
462397              LEICA GRX1200PRO    8.20/2.127          REC # / TYPE / VERS 
103297              LEIAT504                                ANT # / TYPE        
  5146535.6892   265261.6083  3747697.6292                  APPROX POSITION XYZ 
        0.0470        0.0000        0.0000                  ANTENNA: DELTA H/E/N
     1     1                                                WAVELENGTH FACT L1/2
     4    C1    L1    P2    L2                              # / TYPES OF OBSERV 
    30.000                                                  INTERVAL            
  2015    02    26    00    00    0.0000000     GPS         TIME OF FIRST OBS   
  2015    02    26    23    59   30.0000000     GPS         TIME OF LAST OBS    
    16                                                      LEAP SECONDS        
    30                                                      # OF SATELLITES     
   G 1   806   806   806   806                              PRN / # OF OBS      
   G 2   921   921   921   921                              PRN / # OF OBS      
   G 3   830   830   830   830                              PRN / # OF OBS      
   G 4   830   830   831   831                              PRN / # OF OBS      
   G 5   661   661   661   661                              PRN / # OF OBS      
   G 6   756   756   756   756                              PRN / # OF OBS      
   G 7   652   652   652   652                              PRN / # OF OBS      
   G 9   770   770   770   770                              PRN / # OF OBS      
   G10   759   759   759   759                              PRN / # OF OBS      
   G11   770   770   770   770                              PRN / # OF OBS      
   G12   814   814   814   814                              PRN / # OF OBS      
   G13   792   792   792   792                              PRN / # OF OBS      
   G14   886   886   886   886                              PRN / # OF OBS      
   G15   719   719   719   719                              PRN / # OF OBS      
   G16   676   676   676   676                              PRN / # OF OBS      
   G17   930   930   930   930                              PRN / # OF OBS      
   G18   893   893   893   893                              PRN / # OF OBS      
   G19   764   764   764   764                              PRN / # OF OBS      
   G20   779   779   778   778                              PRN / # OF OBS      
   G21   676   676   676   676                              PRN / # OF OBS      
   G22   760   760   760   760                              PRN / # OF OBS      
   G23   733   733   733   733                              PRN / # OF OBS      
   G24   794   794   794   794                              PRN / # OF OBS      
   G25   819   819   819   819                              PRN / # OF OBS      
   G27   811   811   811   811                              PRN / # OF OBS      
   G28   873   873   872   872                              PRN / # OF OBS      
   G29   743   743   743   743                              PRN / # OF OBS      
   G30   682   682   682   682                              PRN / # OF OBS      
   G31   807   807   807   807                              PRN / # OF OBS      
   G32   740   740   740   740                              PRN / # OF OBS      
BIT 2 OF LLI FLAGS DATA COLLECTED UNDER A/S CONDITION       COMMENT             
SNR is mapped to RINEX snr flag value [2-9]                 COMMENT             
Lx:     = 25dBHz -> 1; 26-27dBHz -> 2; 28-31dBHz -> 3       COMMENT             
       32-35dBHz -> 4; 36-38dBHz -> 5; 39-41dBHz -> 6       COMMENT             
       42-44dBHz -> 7; 45-48dBHz -> 8; >=49dBHz -> 9        COMMENT             
                                                            END OF HEADER       
 15 02 26 00 00  0.0000000  0  7G16G18G21G22G27G29G31
  21786325.260   114487930.41107  21786322.880    89211354.42547
  22902605.720   120354014.63306  22902604.020    93782339.64445
  21220770.460   111515904.69607  21220767.820    86895500.68748
  24295330.380   127672832.11904  24295326.780    99485325.29145
  22930962.300   120503031.83906  22930963.120    93898483.78347
  23852358.980   125344980.75904  23852358.140    97671407.65545
  22683396.780   119202048.45206  22683395.040    92884700.68647
 15 02 26 00 00 30.0000000  0  7G16G18G21G22G27G29G31
  21772623.080   114415925.55007  21772620.820    89155246.75347
  22890202.820   120288837.41606  22890201.220    93731552.23345
  21227059.220   111548952.70507  21227056.620    86921252.38948
  24277660.640   127579978.46204  24277657.300    99412971.95444
  22918451.260   120437285.92706  22918452.060    93847253.22547
  23866763.440   125420676.42604  23866762.540    97730391.27445
  22700377.060   119291279.98706  22700375.300    92954231.74447
 15 02 26 00 01  0.0000000  0  7G16G18G21G22G27G29G31
  21758967.380   114344164.61907  21758965.160    89099329.14747
  22877847.560   120223909.99406  22877846.000    93680959.43946
  21233417.320   111582365.42407  21233414.800    86947288.27048
  24259983.540   127487085.35704  24259980.280    99340587.84844
  22905962.800   120371659.17106  22905963.700    93796115.51447
  23881171.760   125496391.93604  23881170.720    97789390.32946
  22717400.500   119380738.61806  22717398.800    93023939.74447
 15 02 26 00 01 30.0000000  0  7G16G18G21G22G27G29G31
  21745358.080   114272647.39707  21745355.860    89043601.43947
  22865539.980   120159232.56806  22865538.300    93630561.45146
  21239844.120   111616138.76707  21239841.620    86973605.16048
  24242298.920   127394152.53304  24242295.480    99268172.81345
  22893496.620   120306149.15506  22893497.420    93745068.76047
  23895583.320   125572124.95604  23895582.320    97848403.02947
  22734466.120   119470419.12506  22734464.540    93093820.64447
 15 02 26 00 02  0.0000000  0  7G16G18G21G22G27G29G31
  21731795.300   114201374.44407  21731793.080    88988064.07747
  22853280.180   120094806.61106  22853278.480    93580359.43345
  21246339.060   111650269.88607  21246336.560    87000200.84248
  24224607.080   127301181.20705  24224603.520    99195727.77245
  22881052.400   120240754.44306  22881053.260    93694111.86647
  23909997.940   125647873.79404  23909996.760    97907428.07346
  22751573.120   119560316.97706  22751571.600    93163870.90047
 15 02 26 00 02 30.0000000  0  7G16G18G21G22G27G29G31
  21718279.960   114130350.78707  21718277.800    88932720.97447
  22841069.120   120030637.04206  22841067.360    93530357.19446
  21252902.400   111684760.21007  21252899.860    87027076.42748
  24206908.740   127208176.79904  24206905.180    99123256.92546
  22868630.680   120175477.87706  22868631.600    93643247.01847
  23924415.960   125723640.61905  23924414.680    97966467.13546
  22768721.500   119650432.28806  22768720.040    93234090.61547
 15 02 26 00 03  0.0000000  0  7G16G18G21G22G27G29G31
  21704812.140   114059576.70807  21704810.000    88877572.34747
  22828906.960   119966724.56506  22828905.020    93480555.25646
  21259533.280   111719605.70907  21259530.780    87054228.76648
  24189204.140   127115139.92204  24189200.380    99050760.76245
  22856231.120   120110317.42406  22856231.860    93592472.65747
  23938837.060   125799423.97705  23938835.780    98025519.08846
  22785910.440   119740760.07806  22785908.880    93304475.88847
 15 02 26 00 03 30.0000000  0  7G16G18G21G22G27G29G31
  21691392.400   113989055.35907  21691390.240    88822620.65547
  22816794.400   119903073.10806  22816792.460    93430956.73246
  21266231.660   111754805.97807  21266229.180    87081657.54548
  24171493.980   127022074.36804  24171490.700    98978242.27344
  22843853.820   120045274.41506  22843854.500    93541789.81047
  23953261.480   125875224.91305  23953260.120    98084584.71546
  22803139.540   119831298.68306  22803137.840    93375025.42947
 15 02 26 00 04  0.0000000  0  7G16G18G21G22G27G29G31
  21678020.720   113918786.75107  21678018.600    88767865.90147
  22804731.460   119839682.66606  22804729.760    93381561.60146
  21272996.840   111790357.18907  21272994.320    87109359.78848
  24153778.480   126928980.50304  24153775.480    98905701.71245
  22831498.360   119980346.66506  22831499.040    93491196.78447
  23967688.720   125951040.70205  23967687.500    98143661.93744
  22820407.780   119922042.99806  22820405.880    93445735.27747
 15 02 26 00 04 30.0000000  0  7G16G18G21G22G27G29G31
  21664697.460   113848772.77807  21664695.360    88713309.56548
  22792718.740   119776555.54106  22792717.020    93332371.63145
  21279828.580   111826258.08607  21279825.960    87137334.52148
  24136058.340   126835860.85204  24136055.400    98833141.04344
  22819164.940   119915533.86106  22819165.460    93440693.30547
  23982118.800   126026871.05305  23982117.600    98202750.48446
  22837714.440   120012989.81806  22837712.460    93516602.90446
 15 02 26 00 05  0.0000000  0  7G16G18G21G22G27G29G31
  21651423.820   113779019.43407  21651421.680    88658956.32048
  22780757.380   119713698.09906  22780755.660    93283391.83546
  21286727.280   111862510.85707  21286724.560    87165583.43948
  24118334.400   126742721.44404  24118331.480    98760564.98345
  22806854.020   119850839.71306  22806854.600    93390282.31147
  23996552.360   126102719.97505  23996551.360    98261853.53246
  22855059.660   120104139.76106  22855057.720    93587628.81247
 15 02 26 00 05 30.0000000  0  7G16G18G21G22G27G29G31
  21638199.740   113709526.35407  21638197.520    88604805.87648
  22768847.280   119651110.16906  22768845.500    93234622.03646
  21293692.020   111899110.80507  21293689.300    87194102.88548
  24100606.780   126649562.20104  24100603.640    98687973.45344
  22794565.180   119786261.61806  22794565.820    93339961.73647
  24010988.860   126178584.43705  24010988.060    98320968.69745
  22872442.520   120195487.65406  22872440.680    93658808.96947
 15 02 26 00 06  0.0000000  0  7G16G18G21G22G27G29G31
  21625025.100   113640293.06907  21625022.820    88550857.86647
  22756988.300   119588791.58406  22756986.640    93186062.10446
  21300722.060   111936054.09607  21300719.400    87222889.86348
  24082875.520   126556383.27004  24082872.020    98615366.58645
  22782298.060   119721797.23606  22782298.660    93289729.77647
  24025427.940   126254461.98305  24025427.100    98380094.05345
  22889861.940   120287027.58906  22889860.160    93730138.78147
 15 02 26 00 06 30.0000000  0  7G16G18G21G22G27G29G31
  21611901.360   113571327.40807  21611899.120    88497118.39448
  22745182.240   119526750.80306  22745180.580    93137718.65946
  21307818.080   111973344.58407  21307815.560    87251947.38348
  24065142.120   126463193.09804  24065138.540    98542750.96345
  22770053.620   119657452.20906  22770054.240    93239590.81147
  24039870.460   126330358.31904  24039869.680    98439234.00644
  22907318.540   120378762.79106  22907316.700    93801620.74247
 15 02 26 00 07  0.0000000  0  7G16G18G21G22G27G29G31
  21598828.380   113502628.52607  21598826.220    88443586.80648
  22733429.120   119464987.62306  22733427.380    93089591.51945
  21314979.380   112010977.75407  21314976.880    87281271.92648
  24047406.520   126369991.27104  24047402.880    98470126.24845
  22757831.340   119593223.60206  22757831.900    93189542.57047
  24054315.840   126406269.65304  24054315.080    98498385.68545
  22924811.200   120470687.38506  22924809.240    93873250.26947
 15 02 26 00 07 30.0000000  0  7G16G18G21G22G27G29G31
  21585806.920   113434200.30007  21585804.780    88390266.11748
  22721729.540   119403505.71006  22721727.740    93041683.54346
  21322206.000   112048953.52007  21322203.420    87310863.43648
  24029669.420   126276782.00605  24029665.660    98397495.74445
  22745631.520   119529112.97106  22745632.040    93139586.26347
  24068764.400   126482197.88404  24068763.800    98557550.52445
  22942339.700   120562799.90906  22942337.680    93945026.24147
 15 02 26 00 08  0.0000000  0  7G16G18G21G22G27G29G31
  21572836.780   113366041.66207  21572834.660    88337155.49248
  22710083.340   119342304.17406  22710081.480    92993994.05146
  21329496.920   112087267.13507  21329494.260    87340718.20148
  24011930.860   126183564.69204  24011927.000    98324858.97046
  22733453.600   119465117.22006  22733454.120    93089719.46647
  24083215.680   126558140.06804  24083215.180    98616726.22445
  22959902.660   120655094.33606  22959900.700    94016943.96847
 15 02 26 00 08 30.0000000  0  7G16G18G21G22G27G29G31
  21559918.460   113298155.32707  21559916.320    88284257.05748
  22698491.140   119281386.32406  22698489.240    92946525.61346
  21336851.780   112125917.33207  21336849.160    87370835.24048
  23994191.300   126090342.60705  23994187.320    98252218.45845
  22721297.600   119401236.93506  22721298.040    93039942.63347
  24097669.860   126634096.53704  24097669.200    98675913.05945
  22977499.740   120747568.21706  22977497.960    94089001.52647
 15 02 26 00 09  0.0000000  0  7G16G18G21G22G27G29G31
  21547052.680   113230545.12607  21547050.540    88231573.79248
  22686953.660   119220756.22306  22686951.660    92899281.38746
  21344270.640   112164904.09107  21344268.080    87401214.52848
  23976451.560   125997119.80904  23976447.460    98179577.39145
  22709163.900   119337473.59806  22709164.300    92990256.94147
  24112127.040   126710068.53704  24112126.140    98735111.98846
  22995130.820   120840220.28606  22995129.180    94161197.92546
 15 02 26 00 09 30.0000000  0  7G16G18G21G22G27G29G31
  21534240.120   113163214.71607  21534237.960    88179108.53948
  22675471.580   119160417.50906  22675469.580    92852264.23046
  21351753.660   112204227.69707  21351751.120    87431856.30648
  23958712.340   125903900.34304  23958708.260    98106938.91145
  22697052.740   119273828.91806  22697053.120    92940663.69847
  24126587.340   126786057.65304  24126586.340    98794324.28045
  23012795.520   120933049.00606  23012793.960    94233531.95746
 15 02 26 00 10  0.0000000  0  7G16G18G21G22G27G29G31
  21521481.180   113096165.87407  21521478.920    88126862.69848
  22664045.360   119100372.37306  22664043.420    92805475.82846
  21359300.340   112243885.59707  21359297.840    87462758.55948
  23940974.100   125810686.38204  23940970.200    98034304.71546
  22684964.020   119210302.25506  22684964.320    92891162.41447
  24141050.640   126862063.27304  24141049.760    98853549.42446
  23030493.240   121026050.91606  23030491.620    94306000.95546
 15 02 26 00 10 30.0000000  0  7G16G18G21G22G27G29G31
  21508775.760   113029398.09707  21508773.360    88074835.85748
  22652674.880   119040620.49706  22652673.060    92758915.94346
  21366909.860   112283873.75607  21366907.460    87493918.16148
  23923236.940   125717478.16005  23923233.240    97961675.01244
  22672897.260   119146891.36306  22672897.560    92841751.35047
  24155516.640   126938082.80804  24155515.660    98912785.40445
  23048222.880   121119220.71105  23048221.260    94378600.77346
 15 02 26 00 11  0.0000000  0  7G16G18G21G22G27G29G31
  21496124.040   112962912.86207  21496121.580    88023029.18948
  22641360.520   118981163.56706  22641358.880    92712585.87646
  21374581.760   112324189.31607  21374579.300    87525332.88348
  23905501.160   125624277.44404  23905497.780    97889051.13745
  22660852.400   119083595.23306  22660852.660    92792429.70947
  24169985.200   127014115.23304  24169984.220    98972031.44844
  23065983.700   121212554.39406  23065982.140    94451328.31146
 15 02 26 00 11 30.0000000  0  7G16G18G21G22G27G29G31
  21483526.940   112896714.67807  21483524.400    87971446.19548
  22630103.280   118922006.66606  22630101.800    92666489.60646
  21382316.060   112364833.18907  21382313.520    87557003.44248
  23887767.940   125531089.53005  23887764.740    97816437.22646
  22648829.900   119020416.48506  22648830.100    92743199.53047
  24184456.780   127090163.22704  24184455.640    99031289.62145
  23083775.680   121306051.71805  23083774.040    94524183.33747
 15 02 26 00 12  0.0000000  0  7G16G18G21G22G27G29G31
  21470984.900   112830805.92408  21470982.340    87920088.73248
  22618903.520   118863151.89006  22618902.080    92620628.75046
  21390112.560   112405804.36307  21390109.980    87588929.03248
  23870037.720   125437917.02005  23870034.680    97743835.29845
  22636829.740   118957355.39506  22636829.960    92694061.03547
  24198931.200   127166226.89404  24198930.120    99090559.98645
  23101598.280   121399710.02106  23101596.600    94597163.81047
 15 02 26 00 12 30.0000000  0  7G16G18G21G22G27G29G31
  21458498.560   112765189.79308  21458496.000    87868959.27748
  22607761.960   118804602.48606  22607760.460    92575005.85046
  21397970.940   112447100.33107  21397968.280    87621107.70948
  23852311.200   125344763.15604  23852308.060    97671247.94546
  22624852.060   118894412.46706  22624852.360    92645014.62247
  24213408.500   127242306.58304  24213407.720    99149842.85445
  23119451.040   121493526.85505  23119449.340    94670267.82946
 15 02 26 00 13  0.0000000  0  7G16G18G21G22G27G29G31
  21446067.680   112699865.11708  21446065.220    87818056.94348
  22596678.480   118746358.30906  22596676.860    92529620.81045
  21405890.660   112488718.30207  21405887.920    87653537.30448
  23834588.220   125251627.93405  23834584.980    97598675.08145
  22612896.460   118831585.19906  22612896.700    92596058.31847
  24227888.500   127318399.74604  24227887.780    99209136.22645
  23137332.960   121587496.66106  23137331.200    94743491.02246
 15 02 26 00 13 30.0000000  0  7G16G18G21G22G27G29G31
  21433692.540   112634833.50707  21433690.200    87767382.96548
  22585653.360   118688421.10106  22585651.560    92484474.93045
  21413871.100   112530655.80007  21413868.380    87686215.88048
  23816869.100   125158513.36105  23816865.860    97526118.31445
  22600962.700   118768872.75106  22600962.880    92547191.49647
  24242371.000   127394505.42204  24242370.300    99268439.31944
  23155243.320   121681615.67105  23155241.460    94816830.48746
 15 02 26 00 14  0.0000000  0  7G16G18G21G22G27G29G31
  21421374.240   112570100.63707  21421371.980    87716941.77848
  22574687.580   118630795.87206  22574685.720    92439572.17246
  21421912.420   112572913.57907  21421909.760    87719144.01048
  23799155.000   125065425.11405  23799151.700    97453582.05646
  22589051.300   118706278.24806  22589051.500    92498416.57247
  24256856.520   127470626.65504  24256855.700    99327754.56845
  23173182.060   121775884.07606  23173180.180    94890286.37147
 15 02 26 00 14 30.0000000  0  7G16G18G21G22G27G29G31
  21409113.640   112505670.95107  21409111.420    87666736.82848
  22563782.140   118573487.62406  22563780.340    92394916.40946
  21430014.840   112615492.55907  21430012.260    87752322.43248
  23781446.900   124972368.34405  23781443.520    97381070.31444
  22577162.820   118643804.23206  22577163.000    92449735.53147
  24271345.200   127546765.87804  24271344.580    99387083.81044
  23191149.060   121870301.17205  23191147.320    94963858.11846
 15 02 26 00 15  0.0000000  0  7G16G18G21G22G27G29G31
  21396910.420   112441542.61108  21396908.160    87616766.69448
  22552936.820   118516494.76806  22552934.960    92350506.40546
  21438177.300   112658386.74607  21438174.760    87785746.47248
  23763744.640   124879341.66505  23763741.200    97308582.06246
  22565296.520   118581447.17406  22565296.760    92401145.62847
  24285836.520   127622918.93304  24285836.060    99446423.82046
  23209143.040   121964860.53505  23209141.500    95037540.70946
 15 02 26 00 15 30.0000000  0  7G16G18G21G22G27G29G31
  21384765.000   112377717.88708  21384762.680    87567033.14248
  22542152.020   118459819.55906  22542150.040    92306343.90746
  21446399.500   112701594.78607  21446396.980    87819415.07648
  23746048.560   124786348.01005  23746044.960    97236119.50545
  22553452.500   118519206.79106  22553452.840    92352646.64347
  24300330.500   127699086.04004  24300330.300    99505774.80344
  23227163.480   122059558.97805  23227161.980    95111331.68146
 15 02 26 00 16  0.0000000  0  7G16G18G21G22G27G29G31
  21372677.520   112314197.62008  21372675.140    87517536.83148
  22531427.840   118403463.19006  22531425.800    92262429.87445
  21454680.920   112745113.67107  21454678.340    87853325.89648
  23728358.900   124693388.60305  23728355.120    97163683.64345
  22541630.420   118457081.71206  22541630.860    92304237.49447
  24314827.120   127775265.95004  24314826.740    99565135.78646
  23245209.620   122154392.47505  23245208.120    95185227.88646
 15 02 26 00 16 30.0000000  0  7G16G18G21G22G27G29G31
  21360648.440   112250984.44608  21360646.060    87468279.81548
  22520764.580   118347428.28506  22520762.740    92218766.32746
  21463021.260   112788942.42407  21463018.660    87887478.16548
  23710676.340   124600466.41005  23710672.340    97091276.75746
  22529830.540   118395072.69806  22529831.040    92255918.80147
  24329326.180   127851458.66804  24329325.720    99624506.71045
  23263281.000   122249358.39405  23263279.560    95259227.26746
 15 02 26 00 17  0.0000000  0  7G16G18G21G22G27G29G31
  21348678.840   112188083.62708  21348676.400    87419266.19348
  22510163.640   118291720.51006  22510161.900    92175357.67646
  21471420.800   112833082.08707  21471418.140    87921872.71548
  23693002.060   124507587.54405  23692998.020    97018903.68246
  22518053.360   118333182.94006  22518053.780    92207693.02347
  24343828.400   127927667.71804  24343827.820    99683890.36545
  23281377.640   122344456.85505  23281376.220    95333329.94246
 15 02 26 00 17 30.0000000  0  7G16G18G21G22G27G29G31
  21336768.780   112125495.97008  21336766.400    87370496.59548
  22499625.120   118236340.27106  22499623.360    92132204.25346
  21479878.740   112877528.94807  21479876.060    87956506.63348
  23675336.080   124414752.97305  23675332.100    96946565.08045
  22506298.520   118271410.80206  22506298.820    92159558.90647
  24358333.300   128003891.32404  24358332.540    99743285.37945
  23299498.740   122439683.34005  23299497.260    95407532.38146
 15 02 26 00 18  0.0000000  0  7G16G18G21G22G27G29G31
  21324918.840   112063224.51208  21324916.580    87321973.38748
  22489149.700   118181291.00306  22489147.780    92089308.73846
  21488395.120   112922282.90607  21488392.480    87991379.84748
  23657679.040   124321966.49305  23657675.480    96874263.99146
  22494566.280   118209757.58806  22494566.480    92111517.44747
  24372841.160   128080130.57204  24372840.340    99802692.57944
  23317643.840   122535036.28905  23317642.400    95481833.35846
 15 02 26 00 18 30.0000000  0  7G16G18G21G22G27G29G31
  21313129.300   112001270.25807  21313127.100    87273697.35148
  22478737.540   118126573.80306  22478735.360    92046671.96946
  21496969.460   112967341.15907  21496966.840    88026490.16848
  23640031.520   124229229.72905  23640028.140    96802001.61445
  22482856.420   118148221.97406  22482856.580    92063567.63847
  24387351.800   128156384.14504  24387351.080    99862110.94746
  23335812.240   122630511.23505  23335810.700    95556229.38646
 15 02 26 00 19  0.0000000  0  7G16G18G21G22G27G29G31
  21301400.200   111939633.56108  21301398.000    87225668.75848
  22468388.360   118072188.58906  22468386.120    92004293.89546
  21505600.880   113012699.47507  21505598.280    88061834.31448
  23622393.720   124136543.07405  23622390.340    96729778.25845
  22471168.540   118086802.08106  22471168.820    92015707.98947
  24401864.740   128232650.14904  24401864.080    99921538.95345
  23354002.920   122726103.26705  23354001.200    95630716.66046
 15 02 26 00 19 30.0000000  0  7G16G18G21G22G27G29G31
  21289732.100   111878317.44208  21289729.920    87177889.96848
  22458102.880   118018139.13106  22458100.800    91962177.45246
  21514289.320   113058357.65607  21514286.740    88097412.11848
  23604766.340   124043910.41204  23604762.900    96657597.00646
  22459502.880   118025499.04706  22459503.340    91967939.41047
  24416380.280   128308929.56904  24416379.720    99980977.48945
  23372215.640   122821810.83705  23372213.740    95705293.96346
 15 02 26 00 20  0.0000000  0  7G16G18G21G22G27G29G31
  21278126.160   111817327.85708  21278123.960    87130365.62148
  22447882.400   117964431.09206  22447880.500    91920327.03446
  21523035.020   113104316.91207  21523032.480    88133224.52948
  23587150.360   123951337.82805  23587146.940    96585462.55246
  22447860.140   117964316.58706  22447860.740    91920264.78047
  24430898.980   128385225.83704  24430898.380   100040429.10245
  23390450.360   122917634.39405  23390448.380    95779961.64046
 15 02 26 00 20 30.0000000  0  7G16G18G21G22G27G29G31
  21266582.020   111756663.02408  21266579.840    87083094.32048
  22437726.780   117911062.89806  22437724.860    91878741.42946
  21531837.080   113150572.17807  21531834.560    88169267.59648
  23569545.660   123858824.58405  23569542.420    96513374.35945
  22436239.700   117903250.98106  22436240.340    91872681.18547
  24445420.200   128461535.10504  24445419.520   100099890.88645
  23408705.800   123013566.91905  23408703.800    95854714.22645
 15 02 26 00 21  0.0000000  0  7G16G18G21G22G27G29G31
  21255100.600   111696327.80408  21255098.420    87036079.86748
  22427636.820   117858039.22806  22427634.800    91837424.30146
  21540695.640   113197123.85507  21540693.140    88205541.63548
  23551953.220   123766375.57205  23551950.060    96441336.20145
  22424642.080   117842304.90306  22424642.740    91825190.75747
  24459944.400   128537859.91804  24459943.500   100159364.74245
  23426981.940   123109608.49605  23426979.940    95929551.78246
 15 02 26 00 21 30.0000000  0  7G16G18G21G22G27G29G31
  21243681.760   111636321.41408  21243679.580    86989321.64748
  22417612.340   117805359.84906  22417610.260    91796375.44746
  21549609.860   113243968.28707  21549607.420    88242043.78848
  23534373.140   123673990.96305  23534369.820    96369348.23945
  22413066.760   117781475.65506  22413067.380    91777791.35547
  24474471.060   128614198.05604  24474470.180   100218848.98445
  23445277.640   123205753.36605  23445275.740    96004469.84346
 15 02 26 00 22  0.0000000  0  7G16G18G21G22G27G29G31
  21232326.400   111576648.57608  21232324.220    86942823.33148
  22407654.100   117753028.99506  22407652.000    91755598.16446
  21558579.680   113291105.10307  21558577.320    88278773.77348
  23516806.080   123581675.76305  23516802.740    96297414.33746
  22401514.140   117720765.54706  22401514.560    91730484.78347
  24489000.620   128690551.20604  24488999.820   100278344.95644
  23463592.840   123302000.80205  23463590.980    96079467.81646
 15 02 26 00 22 30.0000000  0  7G16G18G21G22G27G29G31
  21221034.720   111517310.57308  21221032.600    86896585.92548
  22397762.400   117701048.17306  22397760.320    91715093.63846
  21567604.800   113338532.56607  21567602.480    88315730.23148
  23499252.640   123489431.99205  23499249.280    96225536.11344
  22389984.020   117660174.03106  22389984.260    91683270.62447
  24503532.880   128766918.91904  24503532.200   100337852.23344
  23481926.880   123398346.94805  23481925.060    96154542.70247
 15 02 26 00 23  0.0000000  0  7G16G18G21G22G27G29G31
  21209807.320   111458310.14008  21209805.200    86850611.56848
  22387937.880   117649420.05306  22387935.860    91674863.95246
  21576684.820   113386248.65607  21576682.500    88352911.59848
  23481713.440   123397262.81605  23481710.000    96153715.99645
  22378476.420   117599701.59506  22378476.660    91636149.25547
  24518068.040   128843301.71104  24518067.320   100397371.29444
  23500279.220   123494789.55305  23500277.560    96229692.75346
 15 02 26 00 23 30.0000000  0  7G16G18G21G22G27G29G31
  21198644.280   111399647.86708  21198642.080    86804900.70948
  22378180.480   117598145.09806  22378178.560    91634909.45046
  21585819.100   113434250.02807  21585816.800    88390315.26148
  23464188.660   123305169.42505  23464185.220    96081954.95845
  22366991.180   117539346.86406  22366991.500    91589119.60947
  24532605.660   128919697.78504  24532605.080   100456900.70043
  23518649.180   123591324.31305  23518647.660    96304914.60146
 15 02 26 00 24  0.0000000  0  7G16G18G21G22G27G29G31
  21187546.160   111341326.73408  21187543.900    86759455.67148
  22368490.940   117547226.25306  22368489.000    91595232.42646
  21595007.660   113482536.52907  21595005.380    88427941.09548
  23446678.860   123213155.39105  23446675.540    96010255.74946
  22355528.600   117479110.98506  22355529.020    91542182.57348
  24547146.100   128996108.01004  24547145.480   100516441.05243
  23537036.260   123687948.85205  23537034.740    96380206.43146
 15 02 26 00 24 30.0000000  0  6G16G18G21G22G27G31
  21176506.040   111283310.39108  21176503.720    86714248.13548
  22358862.300   117496627.21206  22358860.400    91555804.61646
  21604242.800   113531067.44907  21604240.540    88465757.39448
  23429177.280   123121184.68805  23429174.020    95938590.29746
  22344081.320   117418955.16206  22344081.740    91495307.91047
  23555432.600   123784621.99305  23555431.060    96455536.11746
 15 02 26 00 25  0.0000000  0  6G16G18G21G22G27G31
  21165541.640   111225691.83908  21165539.240    86669350.55348
  22349312.200   117446440.92106  22349310.320    91516698.43046
  21613541.520   113579932.30007  21613539.240    88503833.89548
  23411701.680   123029350.79605  23411698.580    95867031.44146
  22332666.740   117358970.74306  22332667.100    91448566.81847
  23573854.860   123881431.99305  23573853.480    96530972.46246
 15 02 26 00 25 30.0000000  0  6G16G18G21G22G27G31
  21154642.060   111168414.01208  21154639.620    86624718.48548
  22339829.780   117396610.80406  22339827.940    91477869.78446
  21622891.980   113629069.06507  21622889.640    88542122.29048
  23394241.480   122937597.69805  23394238.460    95795535.55746
  22321273.480   117299098.45306  22321273.860    91401913.09847
  23592291.260   123978316.17105  23592289.940    96606466.57346
 15 02 26 00 26  0.0000000  0  6G16G18G21G22G27G31
  21143808.040   111111480.87108  21143805.620    86580354.99848
  22330415.760   117347140.11806  22330413.960    91439321.20646
  21632294.360   113678478.69007  21632291.920    88580623.29848
  23376797.720   122845929.85805  23376794.600    95724106.09845
  22309901.880   117239340.11506  22309902.320    91355348.17648
  23610741.720   124075273.31705  23610740.260    96682017.57046
 15 02 26 00 26 30.0000000  0  6G16G18G21G22G27G31
  21133041.160   111054900.75508  21133038.820    86536266.60148
  22321071.840   117298037.16907  22321070.020    91401059.17647
  21641749.320   113728164.80607  21641746.860    88619339.75248
  23359371.860   122754355.87805  23359368.580    95652749.78945
  22298553.040   117179702.00006  22298553.620    91308876.92747
  23629206.780   124172307.15605  23629205.160    96757628.31446
 15 02 26 00 27  0.0000000  0  6G16G18G21G22G27G31
  21122342.840   110998680.69408  21122340.540    86492458.76748
  22311799.260   117249309.11506  22311797.340    91363089.29146
  21651257.660   113778131.58307  21651255.220    88658274.90148
  23341965.300   122662883.59605  23341962.060    95581472.70646
  22287228.040   117120189.38506  22287228.640    91262503.48248
  23647686.740   124269419.33905  23647685.000    96833300.12046
 15 02 26 00 27 30.0000000  0  7G16G18G19G21G22G27G31
  21111702.640   110942766.21808  21111700.400    86448889.04348
  22302587.580   117200901.28907  22302585.600    91325368.91246
  24482197.840   128654813.72304  24482193.840   100250490.42745
  21660808.140   113828319.60207  21660805.640    88697382.44548
  23324567.660   122571458.54905  23324564.420    95510232.43846
  22275916.160   117060745.39606  22275916.660    91216183.49547
  23666170.320   124366550.34805  23666168.440    96908986.58246
 15 02 26 00 28  0.0000000  0  7G16G18G19G21G22G27G31
  21101140.840   110887263.51108  21101138.600    86405640.18248
  22293456.980   117152919.81906  22293455.080    91287980.76046
  24466992.620   128574909.98604  24466989.080   100188227.81845
  21670420.340   113878832.02207  21670417.780    88736742.77448
  23307199.500   122480188.38905  23307196.260    95439112.86046
  22264637.380   117001474.67906  22264637.720    91169998.53648
  23684676.680   124463801.82105  23684674.840    96984766.91846
 15 02 26 00 28 30.0000000  0  7G16G18G19G21G22G27G31
  21090647.700   110832121.58808  21090645.420    86362672.45248
  22284397.720   117105313.46007  22284395.980    91250884.90846
  24451801.940   128495083.68804  24451798.860   100126025.54044
  21680083.700   113929613.50007  21680081.160    88776312.75948
  23289851.100   122389022.42305  23289847.860    95368074.47546
  22253381.400   116942323.91306  22253381.720    91123907.04747
  23703195.160   124561117.29805  23703193.420    97060597.14346
 15 02 26 00 29  0.0000000  0  7G16G18G19G21G22G27G31
  21080221.560   110777331.81008  21080219.240    86319979.12548
  22275408.300   117058073.63107  22275406.580    91214074.66847
  24436624.060   128415324.30204  24436621.040   100063875.39046
  21689795.820   113980651.28007  21689793.320    88816082.45848
  23272521.140   122297952.51305  23272517.740    95297110.90646
  22242146.220   116883282.54406  22242146.540    91077900.79148
  23721723.180   124658483.25205  23721721.540    97136466.67746
 15 02 26 00 29 30.0000000  0  7G16G18G19G21G22G27G31
  21069864.780   110722906.61108  21069862.440    86277569.88348
  22266490.960   117011212.78007  22266489.280    91177559.72946
  24421460.900   128335641.70004  24421457.980   100001785.10246
  21699558.300   114031953.45907  21699555.860    88856058.17348
  23255212.040   122206991.87205  23255208.560    95226232.52346
  22230933.780   116824361.00506  22230934.140    91031987.90848
  23740262.260   124755907.06705  23740260.720    97212381.28946
 15 02 26 00 30  0.0000000  0  7G16G18G19G21G22G27G31
  21059579.020   110668854.51508  21059576.660    86235451.37148
  22257647.260   116964739.09106  22257645.580    91141346.46947
  24406313.560   128256042.48504  24406310.700    99939759.78045
  21709372.220   114083525.74607  21709369.800    88896244.37148
  23237925.260   122116149.24105  23237921.720    95155446.08946
  22219745.480   116765565.84006  22219745.780    90986173.51247
  23758812.920   124853392.18105  23758811.620    97288343.68146
 15 02 26 00 30 30.0000000  0  7G16G18G19G21G22G27G31
  21049363.180   110615169.62408  21049360.740    86193618.98648
  22248876.120   116918646.66806  22248874.480    91105430.30146
  24391180.560   128176518.98904  24391177.920    99877793.45345
  21719235.620   114135358.05807  21719233.160    88936633.18348
  23220659.920   122025419.51605  23220656.420    95084747.62746
  22208579.700   116706889.37206  22208580.020    90940451.60548
  23777373.220   124950927.63905  23777372.000    97364345.29546
 15 02 26 00 31  0.0000000  0  7G16G18G19G21G22G27G31
  21039218.220   110561857.60208  21039215.800    86152077.15748
  22240178.540   116872940.56607  22240176.940    91069815.16146
  24376062.760   128097074.93704  24376060.020    99815888.97444
  21729148.720   114187451.83907  21729146.220    88977225.74548
  23203417.320   121934809.30705  23203413.920    95014142.30446
  22197437.200   116648335.21806  22197437.540    90894824.99648
  23795943.360   125048514.52304  23795942.120    97440386.98645
 15 02 26 00 31 30.0000000  0  7G16G18G19G21G22G27G31
  21029143.220   110508913.08608  21029140.780    86110821.68648
  22231553.460   116827615.58006  22231551.840    91034497.00147
  24360958.680   128017702.08504  24360955.460    99754040.01144
  21739109.880   114239797.97007  21739107.340    89018014.93348
  23186196.440   121844313.51305  23186193.140    94943626.13846
  22186316.520   116589895.83206  22186316.900    90849287.82248
  23814521.220   125146142.19104  23814520.020    97516460.46746
 15 02 26 00 32  0.0000000  0  7G16G18G19G21G22G27G31
  21019140.100   110456346.27508  21019137.680    86069860.53848
  22223002.820   116782681.94707  22223001.260    90999483.79747
  24345869.780   127938409.20404  24345866.540    99692253.39345
  21749120.260   114292402.57507  21749117.740    89059005.53948
  23168999.540   121753943.02805  23168996.320    94873207.60346
  22175219.280   116531579.56806  22175219.640    90803846.58648
  23833107.760   125243815.80904  23833106.640    97592569.72044
 15 02 26 00 32 30.0000000  0  7G16G18G19G21G22G27G31
  21009209.480   110404160.79308  21009207.100    86029196.52948
  22214527.320   116738143.00706  22214525.800    90964778.13947
  24330796.420   127859198.34704  24330793.360    99630530.68446
  21759179.780   114345265.75407  21759177.340    89100197.61448
  23151827.420   121663702.66305  23151824.260    94802890.45246
  22164145.840   116473388.38706  22164146.200    90758502.81548
  23851702.880   125341534.36504  23851701.860    97668714.03145
 15 02 26 00 33  0.0000000  0  7G16G18G19G21G22G27G31
  20999350.240   110352350.24708  20999347.860    85988824.67748
  22206125.540   116693991.68406  22206124.080    90930374.52547
  24315737.100   127780060.55804  24315733.780    99568864.90544
  21769286.540   114398377.11307  21769284.120    89141583.08248
  23134678.780   121573585.91505  23134675.740    94732669.63646
  22153094.580   116415313.62707  22153094.920    90713249.76747
  23870304.400   125439286.07804  23870303.520    97744884.14444
 15 02 26 00 33 30.0000000  0  7G16G18G19G21G22G27G31
  20989564.840   110300927.41008  20989562.400    85948754.93448
  22197800.060   116650241.44307  22197798.680    90896283.43647
  24300693.660   127701006.62404  24300690.400    99507264.45245
  21779442.160   114451745.46107  21779439.740    89183168.81248
  23117556.360   121483606.60905  23117553.200    94662555.90346
  22142067.600   116357366.57107  22142067.960    90668096.22348
  23888913.880   125537079.14804  23888912.940    97821086.47946
 15 02 26 00 34  0.0000000  0  7G16G18G19G21G22G27G31
  20979852.920   110249890.71608  20979850.460    85908986.08548
  22189550.600   116606890.00907  22189549.120    90862503.09947
  24285665.240   127622032.80504  24285662.200    99445726.44441
  21789645.760   114505365.17107  21789643.180    89224950.40648
  23100459.840   121393763.54105  23100456.480    94592548.36146
  22131064.200   116299543.40106  22131064.580    90623039.21848
  23907530.160   125634906.90705  23907528.880    97897315.86745
 15 02 26 00 34 30.0000000  0  7G16G18G19G21G22G27G31
  20970213.800   110199236.87208  20970211.340    85869515.55848
  22181376.260   116563933.30507  22181374.700    90829030.34846
  24270651.140   127543133.25104  24270648.340    99384246.28244
  21799895.780   114559228.96707  21799893.120    89266922.20148
  23083388.640   121304053.58805  23083385.000    94522644.50546
  22120083.340   116241838.76007  22120083.700    90578074.57348
  23926151.380   125732760.57604  23926149.820    97973565.42346
 15 02 26 00 35  0.0000000  0  7G16G18G19G21G22G27G31
  20960649.320   110148975.10408  20960646.840    85830350.54148
  22173278.880   116521381.22607  22173277.240    90795872.89246
  24255652.740   127464316.15604  24255650.020    99322830.39847
  21810193.440   114613343.27207  21810190.780    89309089.18948
  23066344.780   121214487.48605  23066340.980    94452852.76445
  22109126.580   116184260.26407  22109126.880    90533208.21448
  23944778.440   125830645.02005  23944776.600    98049838.98046
 15 02 26 00 35 30.0000000  0  7G16G18G19G21G22G27G31
  20951159.520   110099105.91608  20951157.080    85791491.43448
  22165258.420   116479233.45007  22165256.680    90763030.48647
  24240669.180   127385576.11004  24240666.380    99261478.66945
  21820537.960   114667704.16807  21820535.320    89351448.32448
  23049328.540   121125066.54605  23049324.660    94383174.13046
  22098193.540   116126806.53607  22098193.740    90488439.08148
  23963410.400   125928556.12404  23963408.420    98126133.29546
 15 02 26 00 36  0.0000000  0  7G16G18G19G21G22G27G31
  20941741.840   110049615.77608  20941739.480    85752927.69648
  22157312.360   116437476.73607  22157310.560    90730492.78947
  24225698.900   127306905.40404  24225695.940    99200176.84145
  21830925.940   114722293.72607  21830923.320    89393985.65048
  23032337.240   121035777.45005  23032333.560    94313598.24446
  22087281.260   116069462.09107  22087281.500    90443755.11148
  23982043.740   126026475.08905  23982041.760    98202433.73845
 15 02 26 00 36 30.0000000  0  7G16G18G19G21G22G27G31
  20932401.460   110000531.76308  20932399.160    85714680.41248
  22149445.880   116396137.80507  22149443.960    90698280.64747
  24210745.520   127228325.17004  24210742.480    99138945.53245
  21841361.860   114777135.37907  21841359.240    89436719.40848
  23015376.400   120946648.21006  23015372.820    94244146.90046
  22076394.560   116012252.35607  22076394.880    90399176.10548
  24000682.820   126124423.85804  24000680.900    98278757.39946
 15 02 26 00 37  0.0000000  0  6G16G18G21G22G27G31
  20923139.020   109951857.40708  20923136.800    85676752.34048
  22141659.400   116355219.42707  22141657.480    90666396.20646
  21851845.780   114832229.21307  21851843.240    89479649.66448
  22998446.900   120857682.85806  22998443.280    94174823.26446
  22065533.780   115955178.67706  22065534.140    90354703.10648
  24019327.340   126222401.17805  24019325.400    98355103.33046
 15 02 26 00 37 30.0000000  0  7G16G18G19G21G22G27G31
  20913945.080   109903543.11808  20913942.900    85639104.84048
  22133943.440   116314672.04107  22133941.680    90634800.85347
  24180881.020   127071383.96404  24180878.700    99016655.84346
  21862367.500   114887521.69707  21862365.100    89522734.70848
  22981539.220   120768832.39206  22981535.580    94105589.15346
  22054689.120   115898189.95406  22054689.580    90310296.32348
  24037967.020   126320352.84204  24037965.220    98431429.23245
 15 02 26 00 38  0.0000000  0  7G16G18G19G21G22G27G31
  20904832.200   109855654.91308  20904830.060    85601789.35548
  22126310.700   116274561.85507  22126308.980    90603546.17147
  24165973.100   126993040.04804  24165970.280    98955608.64246
  21872938.980   114943075.03707  21872936.600    89566023.02148
  22964666.220   120680164.15806  22964662.560    94036497.04746
  22043872.820   115841350.47107  22043873.380    90266005.82748
  24056613.360   126418340.21704  24056611.680    98507782.99245
 15 02 26 00 38 30.0000000  0  7G16G18G19G21G22G27G31
  20895795.000   109808164.08808  20895792.820    85564783.52448
  22118755.560   116234859.36607  22118753.780    90572609.18546
  24151079.280   126914770.06004  24151075.940    98894619.07845
  21883553.940   114998856.54207  21883551.460    89609489.12948
  22947822.620   120591649.72806  22947818.800    93967524.78446
  22033079.200   115784629.36007  22033079.740    90221807.55948
  24075260.160   126516329.56004  24075258.520    98584138.26545
 15 02 26 00 39  0.0000000  0  7G16G18G19G21G22G27G31
  20886834.700   109761077.32808  20886832.480    85528092.54248
  22111279.280   116195571.08407  22111277.380    90541994.95647
  24136200.300   126836578.28204  24136196.620    98833690.40846
  21894212.840   115054869.21607  21894210.280    89653135.36848
  22931009.560   120503296.27506  22931005.740    93898677.97346
  22022309.100   115728031.53007  22022309.560    90177705.36248
  24093907.540   126614322.60004  24093906.080    98660496.44946
 15 02 26 00 39 30.0000000  0  7G16G18G19G21G22G27G31
  20877953.080   109714403.94508  20877950.820    85491723.67048
  22103883.520   116156705.87207  22103881.600    90511710.37346
  24121337.320   126758472.18804  24121333.580    98772828.54544
  21904916.640   115111118.03107  21904914.060    89696965.62048
  22914229.080   120415114.23106  22914225.200    93829964.71046
  22011563.920   115671564.61807  22011564.280    90133705.18748
  24112556.480   126712323.73604  24112554.940    98736860.88746
 15 02 26 00 40  0.0000000  0  7G16G18G19G21G22G27G31
  20869149.880   109668142.68208  20869147.580    85455675.93748
  22096567.940   116118262.28907  22096566.080    90481754.35147
  24106489.740   126680448.71404  24106486.280    98712031.06345
  21915664.680   115167599.24407  21915662.160    89740976.94048
  22897481.060   120327102.96606  22897477.160    93761384.52446
  22000843.040   115615225.69507  22000843.300    90089804.73648
  24131205.820   126810327.04904  24131204.280    98813227.05446
 15 02 26 00 40 30.0000000  0  7G16G18G19G21G22G27G31
  20860424.040   109622287.81008  20860421.680    85419944.86848
  22089331.520   116080234.43807  22089329.580    90452122.27147
  24091656.540   126602500.47804  24091653.120    98651292.21745
  21926455.040   115224302.91107  21926452.640    89785161.60748
  22880764.500   120239257.36706  22880760.620    93692933.43146
  21990145.000   115559007.28707  21990145.220    90045998.19248
  24149853.700   126908321.97304  24149852.080    98889586.69044
 15 02 26 00 41  0.0000000  0  7G16G18G19G21G22G27G31
  20851776.620   109576845.02008  20851774.200    85384534.89848
  22082175.140   116042627.18407  22082173.120    90422817.92347
  24076838.480   126524631.19504  24076834.820    98590614.86845
  21937287.920   115281229.93007  21937285.480    89829520.32348
  22864080.600   120151583.52506  22864076.760    93624616.17146
  21979470.500   115502912.92807  21979470.780    90002288.31748
  24168500.060   127006308.94104  24168498.440    98965940.06344
 15 02 26 00 41 30.0000000  0  7G16G18G19G21G22G27G31
  20843208.360   109531818.44108  20843205.920    85349449.25248
  22075099.620   116005444.88407  22075097.520    90393844.71547
  24062035.760   126446842.66004  24062031.900    98530000.44145
  21948163.540   115338381.69007  21948161.040    89874054.16147
  22847430.440   120064086.89806  22847426.620    93556437.00446
  21968820.180   115446945.38707  21968820.540    89958677.25248
  24187144.800   127104288.07704  24187143.480    99042287.38846
 15 02 26 00 42  0.0000000  0  7G16G18G19G21G22G27G31
  20834719.920   109487211.59608  20834717.500    85314690.67148
  22068105.400   115968690.27007  22068103.380    90365204.76447
  24047248.640   126369136.61904  24047244.700    98469450.28345
  21959081.660   115395756.92207  21959079.100    89918762.13648
  22830814.920   119976771.80606  22830810.980    93488399.27446
  21958194.280   115391106.28607  21958194.760    89915166.27248
  24205787.900   127202257.79504  24205786.480    99118627.33245
 15 02 26 00 42 30.0000000  0  7G16G18G19G21G22G27G31
  20826311.380   109443024.60408  20826308.960    85280259.24448
  22061192.520   115932363.31807  22061190.580    90336898.05246
  24032476.900   126291511.34404  24032473.080    98408963.07545
  21970041.800   115453352.81707  21970039.240    89963642.05448
  22814234.080   119889638.77306  22814230.120    93420503.42046
  21947592.600   115335394.12907  21947593.100    89871754.21248
  24224428.380   127300213.26904  24224426.900    99194956.23044
 15 02 26 00 43  0.0000000  0  7G16G18G19G21G22G27G31
  20817982.500   109399256.17008  20817980.080    85246153.97648
  22054360.760   115896462.43507  22054358.860    90308923.34646
  24017719.980   126213963.52404  24017716.400    98348536.23945
  21981043.040   115511164.81807  21981040.560    90008690.36548
  22797687.800   119802687.26106  22797683.800    93352749.01847
  21937014.480   115279805.87507  21937015.000    89828438.70048
  24243065.120   127398148.60104  24243063.460    99271269.40245
 15 02 26 00 43 30.0000000  0  7G16G18G19G21G22G27G31
  20809734.000   109355910.19408  20809731.620    85212377.88648
  22047610.800   115860990.99207  22047608.880    90281283.27247
  24002978.280   126136495.50504  24002974.820    98288171.56546
  21992085.280   115569192.43307  21992082.900    90053906.68048
  22781176.880   119715921.96706  22781172.960    93285139.71046
  21926460.360   115224343.71607  21926460.940    89785221.44348
  24261697.820   127496062.89404  24261696.000    99347566.17046
 15 02 26 00 44  0.0000000  0  7G16G18G19G21G22G27G31
  20801566.540   109312989.96008  20801564.180    85178933.54249
  22040943.200   115825951.92407  22040941.120    90253980.10647
  23988252.100   126059108.91204  23988248.720    98227870.34445
  22003168.500   115627435.21607  22003166.120    90099290.66647
  22764702.200   119629347.14406  22764698.380    93217678.82246
  21915930.580   115169009.28307  21915931.120    89742103.71548
  24280326.200   127593955.14004  24280324.520    99423845.74346
 15 02 26 00 44 30.0000000  0  7G16G18G19G21G22G27G31
  20793480.480   109270497.29408  20793478.120    85145822.37348
  22034358.120   115791347.12407  22034356.020    90227015.34347
  23973541.400   125981803.39104  23973537.900    98167632.28046
  22014292.380   115685891.50007  22014289.900    90144841.02847
  22748264.320   119542965.45206  22748260.600    93150368.41846
  21905425.220   115113802.99707  21905425.660    89699085.83448
  24298949.720   127691822.37204  24298948.340    99500105.83644
 15 02 26 00 45  0.0000000  0  7G16G18G19G21G22G27G31
  20785476.080   109228433.96408  20785473.740    85113045.74948
  22027855.740   115757176.89707  22027853.620    90200389.19847
  23958846.080   125904578.64204  23958842.500    98107457.16645
  22025456.400   115744558.98107  22025453.940    90190555.94848
  22731863.600   119456779.08406  22731859.860    93083210.23046
  21894944.160   115058724.39707  21894944.520    89656167.46148
  24317567.920   127789661.08804  24317566.500    99576343.70046
 15 02 26 00 45 30.0000000  0  7G16G18G19G21G22G27G31
  20777554.300   109186804.88708  20777552.000    85080607.50948
  22021437.040   115723446.41407  22021434.940    90174105.70747
  23944166.640   125827438.50504  23944163.280    98047347.99145
  22036660.920   115803439.78606  22036658.600    90236437.08448
  22715501.240   119370794.04106  22715497.380    93016208.91146
  21884488.080   115003777.11807  21884488.380    89613351.40648
  24336180.760   127887471.94104  24336179.280    99652559.91047
 15 02 26 00 46  0.0000000  0  7G16G18G19G21G22G27G31
  20769714.460   109145606.38908  20769712.200    85048504.78549
  22015101.240   115690151.81507  22015099.200    90148161.87647
  23929502.260   125750377.04704  23929498.920    97987300.11345
  22047904.520   115862525.91707  22047902.400    90282478.19948
  22699176.660   119285007.34506  22699172.620    92949362.13646
  21874055.900   114948955.79707  21874056.180    89570633.50448
  24354786.700   127985246.58704  24354785.180    99728747.84245
 15 02 26 00 46 30.0000000  0  7G16G18G19G21G22G27G31
  20761957.200   109104841.53608  20761954.920    85016739.96948
  22008848.880   115657295.62007  22008846.900    90122559.65447
  23914853.180   125673395.80404  23914849.780    97927314.74946
  22059187.360   115921817.06907  22059185.180    90328679.08847
  22682890.640   119199423.47206  22682886.500    92882673.43147
  21863648.060   114894262.06907  21863648.340    89528015.02248
  24373385.560   128082983.91904  24373384.040    99804906.69045
 15 02 26 00 47  0.0000000  0  7G16G18G19G21G22G27G31
  20754283.120   109064513.75808  20754280.840    84985315.72849
  22002680.580   115624880.82507  22002678.480    90097301.38047
  23900219.580   125596495.88504  23900216.100    97867392.75945
  22070509.120   115981312.63907  22070506.720    90375039.28747
  22666643.820   119114046.15106  22666639.680    92816145.65846
  21853264.800   114839697.81907  21853265.100    89485497.43548
  24391976.980   128180682.01504  24391975.680    99881035.00445
 15 02 26 00 47 30.0000000  0  7G16G18G19G21G22G27G31
  20746692.640   109024625.22208  20746690.300    84954233.75248
  21996596.600   115592909.10207  21996594.440    90072388.35647
  23885601.600   125519677.87104  23885598.120    97807534.56846
  22081869.420   116041011.29207  22081866.860    90421557.71847
  22650436.880   119028878.34806  22650432.860    92749781.15347
  21842906.280   114785263.49507  21842906.620    89443081.09748
  24410560.420   128278338.62804  24410559.220    99957130.94546
 15 02 26 00 48  0.0000000  0  7G16G18G19G21G22G27G31
  20739186.740   108985181.40208  20739184.360    84923498.30448
  21990597.820   115561385.16407  21990595.740    90047824.25647
  23870999.720   125442945.51704  23870996.520    97747743.14245
  22093268.600   116100914.76007  22093266.060    90468235.73547
  22634270.920   118943926.29606  22634267.120    92683584.78047
  21832573.240   114730962.82707  21832573.520    89400768.89048
  24429136.200   128375954.59304  24429135.180   100033195.21145
 15 02 26 00 48 30.0000000  0  7G16G18G19G21G22G27G31
  20731764.080   108946175.21508  20731761.740    84893103.86848
  21984682.780   115530301.42407  21984680.780    90023603.16847
  23856412.700   125366290.24104  23856409.600    97688011.78745
  22104704.780   116161012.59907  22104702.380    90515065.21247
  22618144.860   118859183.57906  22618141.120    92617551.49547
  21822263.960   114676787.22607  21822264.180    89358554.14948
  24447702.120   128473518.35404  24447701.040   100109218.79042
 15 02 26 00 49  0.0000000  0  7G16G18G19G21G22G27G31
  20724426.080   108907614.00108  20724423.800    84863056.17449
  21978852.860   115499665.44207  21978851.000    89999730.98547
  23841841.360   125289717.16104  23841838.380    97628344.44246
  22116178.720   116221308.54507  22116176.360    90562049.06847
  22602060.340   118774658.84006  22602056.680    92551688.07546
  21811979.560   114622742.63607  21811979.800    89316441.49448
  24466258.700   128571032.74704  24466257.480   100185203.90745
 15 02 26 00 49 30.0000000  0  7G16G18G19G21G22G27G31
  20717173.120   108869499.47308  20717170.860    84833356.53949
  21973108.420   115469477.99907  21973106.560    89976208.31247
  23827285.720   125213226.94104  23827282.620    97568741.68146
  22127690.180   116281801.13207  22127687.740    90609186.15047
  22586017.800   118690354.81006  22586014.180    92485996.63546
  21801720.160   114568829.38807  21801720.400    89274431.18348
  24484805.340   128668495.10004  24484804.040   100261148.49045
 15 02 26 00 50  0.0000000  0  7G16G18G19G21G22G27G31
  20710005.400   108831832.78708  20710003.140    84804005.87349
  21967449.660   115439740.61207  21967447.720    89953036.32547
  23812745.640   125136818.96404  23812742.400    97509203.02545
  22139238.560   116342487.85307  22139236.080    90656474.50248
  22570017.600   118606273.44106  22570014.000    92420478.69347
  21791485.840   114515047.42907  21791486.040    89232523.16748
  24503341.260   128765902.23004  24503340.140   100337050.01945
 15 02 26 00 50 30.0000000  0  7G16G18G19G21G22G27G31
  20702923.980   108794619.50108  20702921.640    84775008.50549
  21961877.200   115410457.27907  21961875.220    89930218.15147
  23798221.780   125060496.21104  23798218.560    97449730.76246
  22150824.040   116403369.87207  22150821.520    90703915.02847
  22554060.940   118522420.64506  22554057.260    92355138.86347
  21781277.120   114461400.05407  21781277.300    89190720.02648
  24521866.580   128863254.40804  24521865.640   100412908.73846
 15 02 26 00 51  0.0000000  0  7G16G18G19G21G22G27G31
  20695927.960   108757855.13608  20695925.560    84746360.94249
  21956390.120   115381623.01807  21956388.220    89907749.89847
  23783713.180   124984252.74905  23783709.980    97390320.27246
  22162445.240   116464439.51107  22162442.620    90751501.75847
  22538147.160   118438792.60706  22538143.320    92289974.17446
  21771092.860   114407881.46507  21771093.080    89149017.24148
  24540379.960   128960542.82904  24540379.200   100488717.71345
 15 02 26 00 51 30.0000000  0  6G16G18G19G21G22G27
  20689017.640   108721541.10108  20689015.200    84718064.28349
  21950988.780   115353239.13907  21950986.920    89885632.60247
  23769219.800   124908088.73205  23769216.620    97330971.72646
  22174101.880   116525695.29707  22174099.220    90799233.53647
  22522276.640   118355392.16706  22522272.740    92224986.83147
  21760933.080   114354491.82607  21760933.320    89107414.93548
 15 02 26 00 52  0.0000000  0  7G16G18G19G21G22G27G31
  20682195.140   108685688.60408  20682192.720    84690127.27249
  21945675.340   115325316.66907  21945673.440    89863874.84347
  23754743.320   124832013.70105  23754740.140    97271692.50446
  22185795.260   116587144.60507  22185792.740    90847116.10347
  22506451.740   118272231.65906  22506447.840    92160186.44547
  21750799.780   114301241.13007  21750800.000    89065920.89448
  24577370.620   129154949.80004  24577369.920   100640219.45246
 15 02 26 00 52 30.0000000  0  7G16G18G19G21G22G27G31
  20675459.120   108650290.51708  20675456.700    84662544.34749
  21940448.180   115297847.53907  21940446.200    89842470.32447
  23740282.060   124756018.82004  23740278.940    97212475.73445
  22197523.420   116648776.52807  22197521.000    90895140.96847
  22490671.260   118189304.62206  22490667.380    92095567.98947
  21740691.240   114248120.58007  21740691.500    89024528.26548
  24595846.320   129252040.39304  24595845.860   100715874.33945
 15 02 26 00 53  0.0000000  0  7G16G18G19G21G22G27G31
  20668811.260   108615355.82108  20668808.860    84635322.50649
  21935308.940   115270840.63007  21935306.940    89821425.98747
  23725837.200   124680110.85505  23725834.240    97153326.71145
  22209287.240   116710596.12707  22209284.900    90943312.08047
  22474937.060   118106620.85906  22474933.200    92031139.10347
  21730608.860   114195137.79607  21730609.260    88983242.98948
  24614309.240   129349063.88904  24614308.840   100791476.83446
 15 02 26 00 53 30.0000000  0  6G16G18G19G21G22G27
  20662249.540   108580873.61308  20662247.100    84608453.25349
  21930255.300   115244283.62507  21930253.260    89800732.21747
  23711406.600   124604277.72105  23711403.840    97094235.98845
  22221084.220   116772589.91407  22221081.880    90991618.92147
  22459247.200   118024170.10606  22459243.340    91966891.76547
  21720550.320   114142280.30607  21720550.820    88942055.34048
 15 02 26 00 54  0.0000000  0  6G16G18G19G21G22G27
  20655777.400   108546862.05408  20655774.900    84581950.73649
  21925290.840   115218194.99607  21925288.780    89780403.42847
  23696993.360   124528536.20205  23696990.620    97035216.62246
  22232917.200   116834772.52107  22232914.800    91040072.90247
  22443605.440   117941972.08706  22443601.600    91902841.38147
  21710518.940   114089565.15907  21710519.460    88900978.60848
 15 02 26 00 54 30.0000000  0  7G16G18G19G21G22G27G31
  20649394.280   108513318.32208  20649391.740    84555812.75449
  21920414.860   115192571.29607  21920412.760    89760436.91547
  23682596.740   124452881.96005  23682593.880    96976265.28345
  22244784.900   116897137.58906  22244782.460    91088669.05347
  22428011.300   117860024.89606  22428007.580    91838986.44147
  21700513.840   114036988.23707  21700514.380    88860009.59548
  24669610.980   129639677.49804  24669610.640   101017931.98644
 15 02 26 00 55  0.0000000  0  7G16G18G19G21G22G27G31
  20643098.540   108480233.89508  20643096.040    84530032.68649
  21915625.620   115167403.49107  21915623.500    89740825.64247
  23668214.920   124377304.54405  23668211.660    96917373.76844
  22256684.960   116959673.15306  22256682.600    91137398.05148
  22412463.360   117778320.46106  22412459.640    91775320.65047
  21690533.160   113984539.60107  21690533.640    88819140.53648
