     2.11           OBSERVATION DATA    M                   RINEX VERSION / TYPE
SPIDER V4,0,0,3554                      2015 03 19 01:33    PGM / RUN BY / DATE 
OBHM                                                        MARKER NAME         
OBHM                                                        MARKER NUMBER       
                                                            OBSERVER / AGENCY   
496638              LEICA GRX1200+GNSS  8.20/4.007          REC # / TYPE / VERS 
10321015            LEIAR25         NONE                    ANT # / TYPE        
  5268006.0133   -44062.8765  3585543.8986                  APPROX POSITION XYZ 
        0.1200        0.0000        0.0000                  ANTENNA: DELTA H/E/N
     1     1                                                WAVELENGTH FACT L1/2
     4    C1    L1    P2    L2                              # / TYPES OF OBSERV 
    30.000                                                  INTERVAL            
  2015    02    26    00    00    0.0000000     GPS         TIME OF FIRST OBS   
  2015    02    26    23    59   30.0000000     GPS         TIME OF LAST OBS    
    16                                                      LEAP SECONDS        
    38                                                      # OF SATELLITES     
   G 1   845   844   844   844                              PRN / # OF OBS      
   G 2   919   919   918   918                              PRN / # OF OBS      
   G 3   842   842   842   842                              PRN / # OF OBS      
   G 4   854   854   854   854                              PRN / # OF OBS      
   G 5   683   682   682   682                              PRN / # OF OBS      
   G 6   643   643   643   643                              PRN / # OF OBS      
   G 7   743   743   743   743                              PRN / # OF OBS      
   G 9   781   781   781   781                              PRN / # OF OBS      
   G10   795   795   795   795                              PRN / # OF OBS      
   G11   810   810   809   809                              PRN / # OF OBS      
   G12   812   811   811   811                              PRN / # OF OBS      
   G13   834   833   833   833                              PRN / # OF OBS      
   G14   929   928   928   928                              PRN / # OF OBS      
   G15   743   743   743   743                              PRN / # OF OBS      
   G16   703   702   702   702                              PRN / # OF OBS      
   G17   925   925   924   924                              PRN / # OF OBS      
   G18   944   944   944   944                              PRN / # OF OBS      
   G19   794   794   794   794                              PRN / # OF OBS      
   G20   817   817   816   816                              PRN / # OF OBS      
   G21   707   707   707   707                              PRN / # OF OBS      
   G22   817   817   817   817                              PRN / # OF OBS      
   G23   723   723   723   723                              PRN / # OF OBS      
   G24   846   835   832   831                              PRN / # OF OBS      
   G25   862   862   862   862                              PRN / # OF OBS      
   G27   843   843   843   843                              PRN / # OF OBS      
   G28   917   917   917   917                              PRN / # OF OBS      
   G29   748   748   747   747                              PRN / # OF OBS      
   G30   687   687   687   687                              PRN / # OF OBS      
   G31   745   745   745   745                              PRN / # OF OBS      
   G32   735   735   735   735                              PRN / # OF OBS      
   R 3    30    30    30    30                              PRN / # OF OBS      
   R 4    23    23    22    20                              PRN / # OF OBS      
   R 9    30    30    30    30                              PRN / # OF OBS      
   R10    30    30    30    30                              PRN / # OF OBS      
   R16    30    30    30    30                              PRN / # OF OBS      
   R18    30    30    30    30                              PRN / # OF OBS      
   R19    30    30    30    30                              PRN / # OF OBS      
   R20    30    30    30    30                              PRN / # OF OBS      
BIT 2 OF LLI FLAGS DATA COLLECTED UNDER A/S CONDITION       COMMENT             
SNR is mapped to RINEX snr flag value [2-9]                 COMMENT             
Lx:     = 25dBHz -> 1; 26-27dBHz -> 2; 28-31dBHz -> 3       COMMENT             
       32-35dBHz -> 4; 36-38dBHz -> 5; 39-41dBHz -> 6       COMMENT             
       42-44dBHz -> 7; 45-48dBHz -> 8; >=49dBHz -> 9        COMMENT             
                                                            END OF HEADER       
 15 02 26 00 00  0.0000000  0 14G16G18G21G22G27G29G31R03R09R10R16R18
                                R19R20
  21750924.080   114301892.27109  21750920.140    89066406.33348
  22997681.100   120853686.89008  22997678.740    94171713.15646
  21365123.540   112274787.26109  21365119.760    87486972.34048
  24182398.600   127079393.75708  24182395.060    99022915.24345
  22700734.480   119293191.99509  22700734.240    92955739.58347
  24201211.520   127178682.60708  24201209.080    99100462.19245
  22429979.880   117870388.49609  22429976.540    91847069.19348
  23144313.340   123893322.80107  23144313.640    96361468.64606
  19587652.440   104596995.98708  19587652.660    81353222.10006
  22452480.180   119684359.37408  22452485.700    93087853.65506
  20667257.180   110400827.27708  20667259.300    85867340.51508
  22132130.300   118143173.17008  22132132.860    91889251.95207
  19947077.580   106703676.83709  19947076.540    82991802.60508
  22159040.320   118494383.36107  22159043.220    92162313.82907
 15 02 26 00 00 30.0000000  0 14G16G18G21G22G27G29G31R03R09R10R16R18
                                R19R20
  21737622.560   114231992.38209  21737618.560    89011938.89848
  22986145.840   120793068.11709  22986143.380    94124477.76746
  21372508.440   112313594.72009  21372504.560    87517211.92348
  24165462.440   126990394.99108  24165458.820    98953565.79346
  22689348.860   119233359.96909  22689348.560    92909117.23548
  24215641.440   127254512.24608  24215639.020    99159550.21145
  22446663.600   117958061.81309  22446660.220    91915386.04348
  23136460.200   123851283.64807  23136460.460    96328771.56806
  19585959.460   104587955.86209  19585959.740    81346190.88706
  22431462.160   119572320.96709  22431467.480    93000712.69506
  20687022.340   110506409.69508  20687024.520    85949460.15508
  22148069.520   118228257.11208  22148071.880    91955428.34307
  19949351.100   106715838.51809  19949350.020    83001261.69508
  22146759.100   118428710.25207  22146761.920    92111234.77307
 15 02 26 00 01  0.0000000  0 14G16G18G21G22G27G29G31R03R09R10R16R18
                                R19R20
  21724361.880   114162307.20709  21724357.840    88957638.76148
  22974656.880   120732692.79909  22974654.300    94077432.07946
  21379961.480   112352760.43709  21379957.560    87547730.65948
  24148518.740   126901356.57108  24148515.220    98884185.42945
  22677988.580   119173660.65609  22677988.160    92862598.29448
  24230068.800   127330329.06008  24230066.460    99218628.21745
  22463395.000   118045985.55809  22463391.480    91983898.03848
  23128717.320   123809835.30407  23128717.600    96296534.00607
  19584418.940   104579729.63009  19584419.220    81339792.69406
  22410516.840   119460669.94509  22410521.840    92913873.01905
  20706881.840   110612496.16708  20706884.100    86031971.82808
  22164007.460   118313334.36808  22164009.740    92021599.52407
  19951682.940   106728311.90709  19951681.820    83010963.21508
  22134531.620   118363324.18907  22134534.300    92060378.97807
 15 02 26 00 01 30.0000000  0 14G16G18G21G22G27G29G31R03R09R10R16R18
                                R19R20
  21711142.680   114092840.17809  21711138.580    88903508.62148
  22963215.000   120672564.95908  22963212.280    94030579.23146
  21387482.540   112392284.03108  21387478.680    87578528.26948
  24131568.140   126812282.18308  24131564.780    98814777.03646
  22666653.720   119114095.28309  22666653.300    92816183.74248
  24244493.960   127406134.52907  24244491.680    99277697.39044
  22480173.740   118134158.38709  22480170.200    92052604.12448
  23121085.660   123768982.47607  23121086.020    96264759.62607
  19583031.280   104572319.34109  19583031.540    81334029.13606
  22389645.280   119349412.25008  22389650.020    92827339.27306
  20726835.260   110719084.23608  20726837.620    86114873.64508
  22179944.180   118398404.95208  22179946.340    92087765.52707
  19954072.860   106741096.44009  19954071.800    83020906.75108
  22122357.960   118298225.96107  22122360.560    92009747.04907
 15 02 26 00 02  0.0000000  0 14G16G18G21G22G27G29G31R03R09R10R16R18
                                R19R20
  21697965.060   114023591.77509  21697961.000    88849548.83448
  22951820.480   120612685.95809  22951817.640    93983920.28446
  21395071.100   112432162.46709  21395067.320    87609602.37748
  24114610.940   126723172.98208  24114607.580    98745341.49446
  22655343.960   119054662.19609  22655343.600    92769872.26448
  24258916.580   127481926.95907  24258914.620    99336756.41746
  22496998.940   118222575.77309  22496995.500    92121500.76848
  23113565.340   123728726.19507  23113565.940    96233449.21007
  19581796.280   104565724.22709  19581796.540    81328899.59906
  22368848.000   119238550.63108  22368852.540    92741113.58606
  20746881.680   110826168.76309  20746884.060    86198161.58308
  22195879.040   118483465.95108  22195881.140    92153924.07007
  19956520.280   106754188.86109  19956519.320    83031089.75208
  22110237.680   118233413.91407  22110240.320    91959337.71507
 15 02 26 00 02 30.0000000  0 14G16G18G21G22G27G29G31R03R09R10R16R18
                                R19R20
  21684829.880   113954566.38709  21684825.840    88795762.81848
  22940474.160   120553060.16309  22940471.180    93937458.63646
  21402727.340   112472396.59509  21402723.600    87640953.64348
  24097648.120   126634033.92308  24097644.760    98675882.66945
  22644059.800   118995363.63709  22644059.480    92723665.61648
  24273337.080   127557708.21807  24273335.500    99395806.70745
  22513870.660   118311237.39109  22513867.300    92190587.71548
  23106157.360   123689072.06506  23106158.280    96202607.13106
  19580714.520   104559947.42209  19580714.780    81324406.52006
  22348126.140   119128091.70208  22348130.540    92655201.09606
  20767020.800   110933747.91009  20767023.160    86281834.23308
  22211812.320   118568518.66808  22211814.440    92220076.17007
  19959025.360   106767589.69209  19959024.480    83041512.62308
  22098171.300   118168890.04407  22098174.000    91909152.51407
 15 02 26 00 03  0.0000000  0 14G16G18G21G22G27G29G31R03R09R10R16R18
                                R19R20
  21671736.720   113885761.61409  21671732.720    88742148.71948
  22929175.660   120493685.78709  22929172.500    93891192.90146
  21410449.980   112512979.67609  21410446.320    87672576.83448
  24080679.360   126544863.03708  24080675.760    98606399.05246
  22632800.320   118936194.78909  22632800.040    92677560.04448
  24287754.780   127633474.06308  24287753.380    99454845.00845
  22530787.480   118400135.69609  22530784.180    92259859.10748
  23098861.600   123650017.82906  23098862.600    96172231.65506
  19579785.260   104554984.98008  19579785.480    81320546.84306
  22327479.660   119018034.87608  22327484.040    92569601.37205
  20787250.960   111041813.22709  20787253.260    86365885.02508
  22227742.860   118653556.97808  22227745.060    92286217.07007
  19961586.820   106781292.07509  19961586.000    83052170.03608
  22086157.960   118104649.43907  22086160.660    91859187.62007
 15 02 26 00 03 30.0000000  0 15G16G18G21G22G27G29G31R03R04R09R10R16
                                R18R19R20
  21658685.920   113817179.14209  21658681.960    88688707.83648
  22917925.380   120434565.26908  22917922.180    93845124.98146
  21418238.680   112553909.78309  21418235.020    87704470.42448
  24063705.100   126455662.78808  24063701.180    98536892.52045
  22621565.460   118877155.40809  22621565.180    92631555.35748
  24302169.640   127709224.23008  24302168.300    99513871.09446
  22547748.760   118489267.70609  22547745.480    92329312.59248
  23091678.480   123611566.64607  23091679.480    96142325.21106
  23576214.100   126249554.95407                                
  19579008.520   104550837.28008  19579008.700    81317320.84106
  22306909.440   118908384.58008  22306913.780    92484317.80406
  20807571.380   111150360.56709  20807573.600    86450310.71408
  22243670.420   118738579.51608  22243672.700    92352345.69607
  19964204.460   106795294.24809  19964203.500    83063060.62108
  22074197.600   118040691.59407  22074200.260    91809442.66708
 15 02 26 00 04  0.0000000  0 15G16G18G21G22G27G29G31R03R04R09R10R16
                                R18R19R20
  21645678.360   113748823.89009  21645674.420    88635444.00948
  22906724.300   120375703.67008  22906721.100    93799258.82646
  21426093.700   112595188.06309  21426090.020    87736635.31748
  24046726.240   126366438.55508  24046722.140    98467367.30745
  22610355.800   118818248.19809  22610355.480    92585653.65248
  24316582.120   127784961.14108  24316580.580    99572886.83245
  22564754.520   118578633.39409  22564751.240    92398948.17948
  23084609.040   123573723.74407  23084609.940    96112891.86806
  23557444.380   126149046.11107  23557446.020                  
  19578385.000   104547507.93708  19578385.220    81314731.34606
  22286416.720   118799147.65308  22286421.200    92399355.78505
  20827981.840   111259388.95309  20827984.020    86535110.55608
  22259595.320   118823587.88508  22259597.700    92418463.30407
  19966878.460   106809597.50809  19966877.220    83074185.37908
  22062290.600   117977018.96307  22062293.240    91759919.54308
 15 02 26 00 04 30.0000000  0 15G16G18G21G22G27G29G31R03R04R09R10R16
                                R18R19R20
  21632714.660   113680699.08709  21632710.740    88582359.75748
  22895573.100   120317104.61708  22895569.940    93753597.24346
  21434015.000   112636814.50009  21434011.280    87769071.49848
  24029743.580   126277194.33908  24029739.460    98397826.52446
  22599171.520   118759474.16309  22599171.080    92539855.72148
  24330992.360   127860685.96608  24330990.540    99631893.16845
  22581804.420   118668231.01909  22581801.140    92468764.48748
  23077654.120   123536493.16207  23077654.700    96083934.78006
  23538695.740   126048649.18607  23538697.520                  
  19577915.020   104544998.55508  19577915.300    81312779.59706
  22266002.560   118690329.59108  22266007.160    92314719.51405
  20848481.740   111368895.47709  20848483.900    86620282.27808
  22275517.620   118908582.04608  22275519.920    92484569.86707
  19969608.500   106824200.80109  19969607.060    83085543.49508
  22050437.020   117913632.40007  22050439.700    91710618.91308
 15 02 26 00 05  0.0000000  0 15G16G18G21G22G27G29G31R03R04R09R10R16
                                R18R19R20
  21619795.220   113612807.09509  21619791.320    88529456.90948
  22884472.420   120258771.03809  22884469.260    93708142.53346
  21442002.300   112678787.67409  21441998.500    87801777.87348
  24012757.560   126187932.64108  24012753.380    98328272.08945
  22588012.500   118700833.26109  22588012.040    92494161.53748
  24345400.400   127936399.16708  24345398.220    99690890.45746
  22598897.900   118758057.69409  22598894.680    92538759.27348
  23070814.240   123499877.77807  23070814.500    96055456.16806
  23519969.060   125948368.90106  23519971.000    97959847.35805
  19577598.740   104543309.85708  19577599.040    81311466.15406
  22245667.920   118581935.19408  22245672.580    92230412.77606
  20869070.380   111478876.21909  20869072.520    86705822.83708
  22291437.140   118993560.87408  22291439.240    92550664.49807
  19972394.260   106839102.86909  19972392.800    83097133.98908
  22038636.860   117850531.55307  22038639.600    91661540.50408
 15 02 26 00 05 30.0000000  0 15G16G18G21G22G27G29G31R03R04R09R10R16
                                R18R19R20
  21606919.940   113545146.82609  21606916.000    88476734.63248
  22873422.120   120200702.03709  22873418.960    93662893.97746
  21450054.520   112721102.15509  21450050.660    87834750.20648
  23995768.080   126098652.81508  23995763.780    98258703.53345
  22576878.180   118642322.14109  22576877.640    92448568.48548
  24359805.420   128012097.18308  24359803.100    99749875.90446
  22616033.880   118848107.69009  22616030.680    92608928.07648
  23064089.300   123463877.04407  23064089.100    96027455.61406
  23501264.340   125848206.43006  23501266.460    97881943.28006
  19577435.660   104542439.06708  19577435.980    81310788.87106
  22225412.840   118473964.92308  22225417.620    92146435.91506
  20889746.460   111589324.21308  20889748.580    86791726.81108
  22307352.940   119078519.77208  22307354.960    92616743.63107
  19975234.740   106854298.14809  19975233.420    83108952.54308
  22026889.420   117787712.73307  22026892.140    91612681.45508
 15 02 26 00 06  0.0000000  0 15G16G18G21G22G27G29G31R03R04R09R10R16
                                R18R19R20
  21594089.740   113477723.24709  21594085.760    88424196.78248
  22862423.280   120142902.95009  22862420.080    93617855.74446
  21458171.940   112763759.45909  21458168.040    87867989.67248
  23978776.260   126009360.51308  23978771.960    98189125.24746
  22565769.100   118583943.76509  22565768.480    92403078.85448
  24374208.040   128087783.07808  24374205.680    99808851.91446
  22633212.340   118938380.63909  22633209.040    92679270.61148
  23057480.220   123428497.01107  23057479.700    95999937.83906
  23482583.160   125748169.24307  23482585.200    97804136.64406
  19577426.400   104542389.58409  19577426.720    81310750.37406
  22205238.820   118366426.46308  22205243.740    92062794.90106
  20910509.820   111700238.45108  20910511.900    86877993.41408
  22323265.480   119163460.83308  22323267.320    92682808.88607
  19978130.220   106869787.91209  19978129.160    83121000.13508
  22015195.260   117725178.83707  22015197.900    91564044.00908
 15 02 26 00 06 30.0000000  0 15G16G18G21G22G27G29G31R03R04R09R10R16
                                R18R19R20
  21581304.500   113410536.27309  21581300.520    88371843.29848
  22851476.020   120085374.39209  22851472.660    93573028.30646
  21466353.800   112806755.55709  21466349.960    87901493.12748
  23961782.140   125920056.28808  23961777.860    98119537.67645
  22554684.880   118525695.83809  22554684.200    92357690.87748
  24388607.820   128163454.78208  24388605.480    99867816.84946
  22650432.360   119028871.99509  22650428.980    92749783.32848
  23050987.100   123393737.78707  23050986.320    95972902.90606
  23463925.900   125648259.86307  23463927.780    97726429.40506
  19577570.700   104543159.82809  19577570.980    81311349.44706
  22185146.240   118259321.96608  22185151.380    91979491.42006
  20931359.340   111811612.72409  20931361.380    86964617.83008
  22339174.000   119248380.70409  22339175.680    92748857.65007
  19981080.080   106885568.36209  19981079.240    83133273.82508
  22003553.820   117662927.20807  22003556.480    91515626.10508
 15 02 26 00 07  0.0000000  0 15G16G18G21G22G27G29G31R03R04R09R10R16
                                R18R19R20
  21568565.420   113343591.72509  21568561.400    88319678.72748
  22840581.520   120028122.94309  22840577.900    93528416.79646
  21474600.500   112850092.55809  21474596.700    87935262.22748
  23944787.040   125830746.67408  23944782.740    98049945.89246
  22543626.220   118467582.00909  22543625.480    92312407.39048
  24403005.320   128239115.27708  24403003.200    99926773.05946
  22667694.040   119119582.63109  22667690.700    92820466.92348
  23044611.120   123359605.88007  23044610.220    95946355.89506
  23445294.000   125548486.10607  23445295.660    97648827.65806
  19577869.300   104544753.83609  19577869.540    81312589.23506
  22165136.580   118152659.35208  22165141.820    91896531.61506
  20952294.960   111923446.89908  20952297.000    87051599.95308
  22355079.000   119333282.00908  22355080.600    92814891.99007
  19984084.680   106901641.30909  19984083.940    83145775.00808
  21991965.720   117600961.24207  21991968.520    91467430.38708
 15 02 26 00 07 30.0000000  0 15G16G18G21G22G27G29G31R03R04R09R10R16
                                R18R19R20
  21555872.420   113276889.16809  21555868.340    88267702.71148
  22829739.640   119971148.03309  22829735.820    93484020.77446
  21482911.260   112893766.07509  21482907.500    87969293.53548
  23927790.880   125741431.61008  23927786.580    97980349.86546
  22532592.500   118409599.44309  22532591.780    92267226.18248
  24417400.140   128314762.34808  24417398.360    99985718.80646
  22684996.360   119210506.97009  22684993.040    92891317.03348
  23038352.200   123326101.34007  23038351.180    95920296.82506
  23426687.920   125448849.99708  23426689.280    97571332.95306
  19578321.680   104547169.02409  19578321.820    81314467.71006
  22145210.220   118046440.23808  22145215.500    91813916.75906
  20973315.300   112035734.18008  20973317.400    87138934.48008
  22370979.660   119418160.82808  22370981.240    92880908.82907
  19987143.140   106918002.27009  19987142.420    83158500.20408
  21980430.580   117539277.99607  21980433.460    91419454.56408
 15 02 26 00 08  0.0000000  0 15G16G18G21G22G27G29G31R03R04R09R10R16
                                R18R19R20
  21543225.440   113210428.67209  21543221.320    88215915.31148
  22818950.420   119914449.96009  22818946.480    93439840.47246
  21491285.380   112937772.45209  21491281.620    88003584.21848
  23910793.780   125652111.71208  23910789.500    97910750.06546
  22521583.360   118351746.16309  22521582.660    92222145.71948
  24431792.100   128390394.31908  24431790.640   100044652.77246
  22702338.380   119301640.26309  22702335.120    92962329.95648
  23032210.380   123293224.73507  23032209.480    95894726.14706
  23408108.060   125349353.91808  23408109.000    97493947.15907
  19578927.540   104550404.04509  19578927.620    81316983.82906
  22125367.560   117940667.11009  22125372.820    91731648.77906
  20994419.360   112148468.43308  20994421.520    87226616.65208
  22386875.540   119503014.28908  22386877.180    92946905.94607
  19990254.780   106934647.51809  19990253.960    83171446.50608
  21968947.840   117477874.74007  21968950.720    91371696.49908
 15 02 26 00 08 30.0000000  0 15G16G18G21G22G27G29G31R03R04R09R10R16
                                R18R19R20
  21530625.200   113144213.92409  21530621.000    88164319.41048
  22808214.660   119858033.05809  22808210.620    93395879.26446
  21499722.820   112982111.31909  21499719.040    88038133.99548
  23893796.560   125562791.39608  23893792.340    97841149.95246
  22510599.040   118294023.55808  22510598.380    92177167.08448
  24446181.600   128466012.60807  24446180.400   100103576.09246
  22719719.880   119392981.05609  22719716.680    93033504.58048
  23026186.520   123260980.12307  23026185.880    95869647.01606
  23389555.460   125250004.06108  23389556.100    97416675.09207
  19579687.160   104554460.36809  19579687.220    81320138.74906
  22105609.660   117835345.49009  22105614.880    91649731.97106
  21015606.740   112261647.32008  21015608.920    87314644.66308
  22402766.680   119587842.53208  22402768.420    93012883.45407
  19993419.560   106951576.90909  19993418.600    83184613.81608
  21957517.700   117416752.67107  21957520.560    91324157.14808
 15 02 26 00 09  0.0000000  0 15G16G18G21G22G27G29G31R03R04R09R10R16
                                R18R19R20
  21518072.220   113078247.73409  21518068.020    88112917.19448
  22797532.920   119801900.40909  22797528.740    93352139.54746
  21508223.420   113026781.65109  21508219.540    88072942.05448
  23876799.820   125473473.80208  23876795.640    97771551.94446
  22499639.580   118236432.08508  22499639.060    92132290.63248
  24460568.680   128541617.55007  24460567.560   100162489.01546
  22737140.480   119484527.22909  22737137.360    93104839.23947
  23020281.440   123229370.80607  23020281.020    95845062.01906
  23371031.020   125150805.41508  23371031.420    97339520.63907
  19580600.720   104559338.76409  19580600.760    81323933.04906
  22085937.300   117730479.94409  22085942.460    91568169.90106
  21036876.720   112375267.42308  21036878.900    87403015.83108
  22418653.040   119672645.18808  22418654.880    93078841.07107
  19996637.200   106968789.03309  19996636.180    83198001.02208
  21946140.240   117355912.25807  21946143.060    91276836.85308
 15 02 26 00 09 30.0000000  0 15G16G18G21G22G27G29G31R03R04R09R10R16
                                R18R19R20
  21505566.320   113012528.79209  21505562.120    88061707.63348
  22786904.980   119746050.84308  22786900.760    93308620.42446
  21516786.160   113071778.79909  21516782.280    88108004.76548
  23859803.400   125384158.10508  23859799.260    97701955.42246
  22488704.420   118178968.39308  22488703.980    92087513.75648
  24474952.800   128617205.94107  24474951.540   100221389.02545
  22754598.960   119576272.45209  22754595.900    93176328.99748
  23014494.780   123198395.48907  23014494.540    95820970.12606
  23352534.900   125051759.17308  23352535.180    97262484.73206
  19581667.580   104565036.01808  19581667.660    81328364.24206
  22066350.780   117626072.17909  22066355.840    91486963.87406
  21058227.860   112489321.22308  21058230.040    87491724.32808
  22434533.800   119757418.01608  22434535.760    93144775.49107
  19999906.740   106986278.77909  19999905.780    83211604.16208
  21934814.620   117295349.43107  21934817.480    91229732.46208
 15 02 26 00 10  0.0000000  0 15G16G18G21G22G27G29G31R03R04R09R10R16
                                R18R19R20
  21493108.140   112947060.67709  21493103.980    88010693.50948
  22776331.600   119690488.29709  22776327.520    93265324.94546
  21525410.880   113117101.88809  21525407.020    88143321.44148
  23842808.120   125294848.32508  23842804.100    97632363.48846
  22477793.840   118121633.55708  22477793.400    92042837.26848
  24489334.260   128692778.98907  24489332.580   100280277.08445
  22772095.060   119668215.12009  22772092.020    93247972.60648
  23008827.440   123168058.24207  23008827.300    95797374.50906
  23334068.140   124952870.97807  23334068.400    97185571.72706
  19582888.080   104571553.49208  19582888.200    81333433.37206
  22046851.020   117522127.11709  22046856.000    91406117.72506
  21079659.740   112603806.06208  21079661.900    87580768.05808
  22450408.900   119842160.93308  22450411.040    93210686.62407
  20003228.040   107004045.68709  20003227.260    83225422.86408
  21923540.940   117235065.02207  21923543.980    91182844.60608
 15 02 26 00 10 30.0000000  0 15G16G18G21G22G27G29G31R03R04R09R10R16
                                R18R19R20
  21480698.180   112881845.90809  21480694.100    87959876.81448
  22765813.460   119635215.67308  22765809.480    93222255.38146
  21534097.380   113162749.93209  21534093.600    88178891.34948
  23825814.720   125205547.96808  23825810.700    97562778.90246
  22466908.060   118064428.23709  22466907.500    91998261.70448
  24503713.040   128768337.45007  24503710.860   100339153.78445
  22789628.360   119760353.05509  22789625.340    93319768.37948
  23003279.980   123138362.02207  23003279.820    95774277.46506
  23315631.760   124854146.20807  23315632.180    97108785.85006
  19584262.300   104578891.94508  19584262.440    81339141.04706
  22027439.120   117418650.20509  22027443.960    91325635.69406
  21101171.660   112718718.57608  21101173.840    87670144.43708
  22466278.320   119926873.77608  22466280.720    93276574.37207
  20006600.860   107022088.39009  20006600.300    83239456.08408
  21912319.420   117175059.52507  21912322.620    91136173.69708
 15 02 26 00 11  0.0000000  0 15G16G18G21G22G27G29G31R03R04R09R10R16
                                R18R19R20
  21468337.200   112816888.20909  21468333.140    87909260.42348
  22755351.200   119580236.82709  22755347.360    93179414.74046
  21542845.560   113208722.23309  21542841.840    88214713.92848
  23808823.900   125116261.00008  23808819.840    97493204.75046
  22456047.220   118007353.61709  22456046.540    91953787.98548
  24518089.060   128843882.52407  24518086.500   100398020.06344
  22807198.580   119852684.61709  22807195.500    93391715.02848
  22997853.060   123109310.47007  22997852.720    95751681.83006
  23297226.940   124755590.56307  23297227.540    97032131.51206
  19585790.540   104587052.66409  19585790.700    81345488.26506
  22008115.920   117315646.42509  22008120.640    91245521.65806
  21122763.060   112834055.93508  21122765.300    87759851.25308
  22482142.140   120011556.87508  22482144.780    93342438.99107
  20010025.280   107040406.79209  20010024.820    83253703.73608
  21901150.240   117115333.44307  21901153.480    91089720.09908
 15 02 26 00 11 30.0000000  0 15G16G18G21G22G27G29G31R03R04R09R10R16
                                R18R19R20
  21456025.360   112752188.97209  21456021.320    87858845.44148
  22744945.280   119525553.95108  22744941.520    93136804.71946
  21551654.980   113255016.62309  21551651.360    88250787.48548
  23791836.140   125026989.82608  23791831.980    97423642.89146
  22445211.220   117950409.08309  22445210.320    91909415.63148
  24532462.340   128919413.91608  24532459.560   100456875.69344
  22824805.000   119945206.56909  22824801.840    93463810.03948
  22992547.000   123080905.78607  22992546.520    95729589.33406
  23278854.520   124657207.94007  23278855.120    96955611.73806
  19587472.700   104596035.10109  19587472.820    81352474.59306
  21988882.180   117213119.91609  21988886.840    91165778.82606
  21144433.100   112949813.43108  21144435.340    87849884.83008
  22498000.140   120096208.68408  22498002.840    93408279.27107
  20013500.820   107058998.28609  20013500.280    83268163.79508
  21890033.320   117055886.15007  21890036.500    91043483.34008
 15 02 26 00 12  0.0000000  0 15G16G18G21G22G27G29G31R03R04R09R10R16
                                R18R19R20
  21443763.100   112687750.43709  21443759.120    87808633.60648
  22734596.040   119471168.89208  22734592.460    93094426.77146
  21560525.500   113301631.92509  21560521.940    88287111.10548
  23774851.880   124937736.94308  23774847.580    97354095.27446
  22434399.960   117893594.73509  22434398.940    91865144.72148
  24546832.920   128994931.70808  24546830.000   100515720.74045
  22842447.080   120037916.25909  22842443.940    93536051.32948
  22987362.100   123053150.04607  22987361.520    95708001.56306
  23260515.440   124559003.32807  23260515.880    96879230.41706
  19589308.800   104605839.39609  19589308.820    81360100.15806
  21969738.800   117111075.23509  21969743.500    91086410.75506
  21166181.080   113065987.27408  21166183.340    87940242.23708
  22513852.220   120180828.33708  22513854.840    93474094.54207
  20017027.220   107077861.48709  20017026.480    83282835.18008
  21878968.460   116996717.29907  21878971.560    90997463.14408
 15 02 26 00 12 30.0000000  0 15G16G18G21G22G27G29G31R03R04R09R10R16
                                R18R19R20
  21431551.140   112623576.30409  21431547.240    87758627.78448
  22724304.300   119417085.57009  22724300.820    93052283.93546
  21569456.700   113348566.02609  21569453.220    88323683.13248
  23757871.800   124848506.21708  23757867.380    97284564.90646
  22423613.580   117836911.41609  22423612.540    91820975.90048
  24561201.000   129070436.92708  24561198.200   100574555.96644
  22860124.460   120130811.74409  22860121.400    93608437.39347
  22982298.980   123026046.57607  22982298.360    95686921.11106
  23242210.640   124460982.23107  23242210.880    96802991.80505
  19591298.920   104616466.16009  19591298.940    81368365.40806
  21950686.620   117009516.93109  21950691.320    91007420.97906
  21188006.420   113182574.36308  21188008.720    88030921.06108
  22529698.300   120265415.76708  22529700.900    93539884.74107
  20020604.140   107096995.36509  20020603.220    83297717.08208
  21867955.740   116937827.06307  21867958.760    90951659.64808
 15 02 26 00 13  0.0000000  0 14G16G18G21G22G27G31R03R04R09R10R16R18
                                R19R20
  21419389.520   112559666.75609  21419385.680    87708828.15148
  22714070.280   119363305.21609  22714066.760    93010377.18946
  21578448.340   113395817.50209  21578444.840    88360502.47448
  23740896.200   124759299.08208  23740891.780    97215052.94646
  22412851.840   117780357.93309  22412850.800    91776908.27448
  22877836.400   120223888.98709  22877833.440    93680965.09447
  22977357.820   122999596.60107  22977357.320    95666348.93606
  23223940.640   124363147.81107  23223940.660    96726898.38505
  19593442.780   104627914.18409  19593442.840    81377269.42606
  21931726.400   116908448.67809  21931731.080    90928812.35706
  21209908.140   113299569.40708  21209910.400    88121917.19108
  22545538.040   120349969.00108  22545540.540    93605648.36107
  20024231.140   107116397.13309  20024230.060    83312807.35308
  21856994.760   116879213.86807  21856997.700    90906071.65108
 15 02 26 00 13 30.0000000  0 14G16G18G21G22G27G31R03R04R09R10R16R18
                                R19R20
  21407278.960   112496025.71009  21407275.180    87659237.72348
  22703894.700   119309831.92509  22703891.100    92968709.69546
  21587500.380   113443386.10709  21587496.780    88397568.91348
  23723925.900   124670119.92908  23723921.460    97145562.76346
  22402114.960   117723935.65509  22402114.000    91732942.87348
  22895582.760   120317146.61209  22895579.800    93753633.34147
  22972539.360   122973804.07207  22972539.080    95646288.10907
  23205706.700   124265506.29107  23205706.520    96650955.00006
  19595740.640   104640184.66809  19595740.780    81386813.12006
  21912859.220   116807875.99109  21912863.920    90850589.16506
  21231885.720   113416969.61408  21231887.980    88213228.44108
  22561371.440   120434488.54108  22561373.940    93671385.76007
  20027908.180   107136066.65809  20027906.980    83328105.86408
  21846085.760   116820878.83907  21846088.700    90860699.97408
 15 02 26 00 14  0.0000000  0 14G16G18G21G22G27G31R03R04R09R10R16R18
                                R19R20
  21395219.660   112432654.16709  21395215.980    87609857.30148
  22693777.680   119256666.08809  22693773.980    92927281.78246
  21596612.060   113491267.93009  21596608.360    88434879.41948
  23706961.140   124580969.88908  23706956.660    97076095.27346
  22391402.700   117667642.92109  22391401.880    91689078.41948
  22913362.620   120410580.18409  22913359.660    93826438.68947
  22967843.780   122948669.27707  22967843.720    95626738.83807
  23187509.340   124168060.39708  23187509.100    96575163.75706
  19598192.140   104653275.72309  19598192.280    81396995.04106
  21894085.460   116707801.33209  21894090.160    90772753.32906
  21253938.160   113534769.49708  21253940.380    88304850.54708
  22577198.080   120518971.69708  22577200.640    93737094.86307
  20031634.660   107156000.40609  20031633.380    83343609.88808
  21835228.380   116762819.60007  21835231.280    90815542.81508
 15 02 26 00 14 30.0000000  0 14G16G18G21G22G27G31R03R04R09R10R16R18
                                R19R20
  21383211.660   112369552.09009  21383208.080    87560686.85948
  22683719.260   119203808.27709  22683715.420    92886093.88846
  21605782.660   113539459.35109  21605778.860    88472431.17148
  23690002.080   124491849.70308  23689997.600    97006651.04846
  22380714.720   117611477.70909  22380714.020    91645313.33348
  22931175.060   120504184.70709  22931172.020    93899377.26047
  22963271.180   122924192.28907  22963271.140    95607701.21906
  23169349.140   124070813.12308  23169348.920    96499527.00506
  19600796.860   104667185.15309  19600797.060    81407813.48006
  21875405.580   116608227.32409  21875410.360    90695306.88806
  21276064.280   113652962.85208  21276066.440    88396778.68908
  22593017.300   120603415.78408  22593019.960    93802773.58307
  20035409.780   107176194.47509  20035408.440    83359316.37808
  21824422.180   116705034.15307  21824425.040    90770598.59708
 15 02 26 00 15  0.0000000  0  6G16G18G21G22G27G31
  21371255.820   112306723.89309  21371252.300    87511729.83048
  22673720.300   119151263.24009  22673716.420    92845149.71846
  21615012.280   113587960.60709  21615008.360    88510224.35748
  23673049.660   124402764.38708  23673045.120    96937233.99046
  22370051.480   117555442.62209  22370050.980    91601649.64848
  22949019.920   120597960.04309  22949016.940    93972448.92147
 15 02 26 00 15 30.0000000  0  7G16G18G19G21G22G27G31
  21359352.040   112244168.99609  21359348.520    87462985.76348
  22663780.680   119099030.37909  22663776.760    92804448.80546
  24546254.260   128991435.18308  24546250.580   100512790.23046
  21624299.980   113636767.41309  21624295.980    88548255.63548
  23656103.940   124313714.11908  23656099.300    96867844.24546
  22359412.420   117499534.43109  22359412.060    91558084.84648
  22966896.140   120691900.18609  22966893.300    94045649.00247
 15 02 26 00 16  0.0000000  0  7G16G18G19G21G22G27G31
  21347497.180   112181871.09709  21347493.660    87414441.95048
  22653897.480   119047093.84109  22653893.500    92763978.78446
  24531419.620   128913479.66908  24531416.000   100452045.72145
  21633641.920   113685859.60809  21633637.900    88586509.28548
  23639161.860   124224683.03308  23639157.200    96798469.43346
  22348794.060   117443734.47009  22348793.740    91514604.36548
  22984799.720   120785984.15509  22984796.920    94118961.14947
 15 02 26 00 16 30.0000000  0  7G16G18G19G21G22G27G31
  21335700.240   112119877.83809  21335696.720    87366135.52448
  22644079.680   118995501.28809  22644075.700    92723776.82146
  24516608.960   128835649.08408  24516605.260   100391398.55945
  21643046.480   113735281.18009  21643042.540    88625019.60348
  23622232.540   124135719.21808  23622227.860    96729147.02846
  22338205.020   117388088.49509  22338204.700    91471243.87948
  23002738.760   120880254.32109  23002735.940    94192418.39247
 15 02 26 00 17  0.0000000  0  7G16G18G19G21G22G27G31
  21323956.140   112058162.11009  21323952.560    87318045.35548
  22634322.280   118944226.00209  22634318.240    92683822.05946
  24501816.520   128757914.58408  24501812.880   100330826.27046
  21652507.740   113785000.76309  21652503.860    88663762.13548
  23605310.980   124046796.45108  23605306.280    96659856.62346
  22327639.680   117332567.12709  22327639.340    91427980.49248
  23020707.180   120974678.56609  23020704.320    94265995.70447
 15 02 26 00 17 30.0000000  0  7G16G18G19G21G22G27G31
  21312266.180   111996730.89509  21312262.560    87270176.88648
  22624626.480   118893274.65409  22624622.500    92644119.73146
  24487043.160   128680280.38108  24487039.600   100270332.14045
  21662026.200   113835020.73409  21662022.360    88702738.74448
  23588398.640   123957921.96108  23588393.980    96590603.82946
  22317098.860   117277174.87009  22317098.480    91384817.71948
  23038705.260   121069258.63409  23038702.280    94339694.43547
 15 02 26 00 18  0.0000000  0  7G16G18G19G21G22G27G31
  21300630.180   111935583.20809  21300626.460    87222529.33848
  22614992.200   118842646.70508  22614988.400    92604669.39346
  24472288.420   128602743.96208  24472284.740   100209914.18845
  21671601.040   113885336.94409  21671597.200    88741946.17948
  23571495.500   123869095.74008  23571490.820    96521388.64946
  22306582.020   117221908.81109  22306581.640    91341753.27148
  23056731.900   121163988.96209  23056728.880    94413510.24147
 15 02 26 00 18 30.0000000  0  7G16G18G19G21G22G27G31
  21289049.520   111874726.23709  21289045.740    87175108.33248
  22605420.900   118792349.45409  22605417.260    92565476.75346
  24457553.180   128525309.89508  24457549.220   100149575.99245
  21681232.940   113935952.73909  21681229.100    88781387.06648
  23554603.020   123780325.51808  23554598.300    96452217.11746
  22296090.120   117166773.73009  22296089.700    91298790.90248
  23074787.500   121258871.39709  23074784.460    94487444.58747
 15 02 26 00 19  0.0000000  0  7G16G18G19G21G22G27G31
  21277523.580   111814156.82509  21277519.720    87127911.38748
  22595911.940   118742379.35409  22595908.400    92526539.02446
  24442836.400   128447972.93108  24442832.180   100089313.45645
  21690920.380   113986860.31209  21690916.520    88821055.30048
  23537720.700   123691608.39308  23537715.860    96383086.92746
  22285622.140   117111764.11609  22285621.660    91255926.27348
  23092870.400   121353897.48609  23092867.340    94561490.85547
 15 02 26 00 19 30.0000000  0  7G16G18G19G21G22G27G31
  21266053.220   111753879.30509  21266049.240    87080941.89148
  22586466.240   118692741.56309  22586462.760    92487860.23046
  24428138.600   128370735.85108  24428134.240   100029128.74945
  21700663.540   114038060.75009  21700659.620    88860951.74048
  23520849.520   123602949.61308  23520844.480    96314002.21446
  22275178.520   117056882.33109  22275177.980    91213161.25648
  23110980.620   121449067.16109  23110977.560    94635649.00947
 15 02 26 00 20  0.0000000  0  7G16G18G19G21G22G27G31
  21254638.960   111693896.79909  21254634.920    87034202.27848
  22577084.260   118643438.86208  22577080.920    92449442.56047
  24413459.920   128293599.21208  24413455.500    99969022.30946
  21710462.160   114089552.31509  21710458.140    88901075.03148
  23503990.040   123514352.42608  23503984.860    96244965.50746
  22264759.400   117002129.06809  22264758.780    91170496.38448
  23129117.700   121544378.07309  23129114.660    94709917.22347
 15 02 26 00 20 30.0000000  0  7G16G18G19G21G22G27G31
  21243281.640   111634213.67909  21243277.540    86987695.96548
  22567766.940   118594475.89909  22567763.580    92411289.62246
  24398800.720   128216564.96908  24398796.420    99908995.67246
  21720316.320   114141336.06809  21720312.300    88941426.01148
  23487143.360   123425822.36808  23487138.020    96175981.10146
  22254365.160   116947506.67909  22254364.480    91127933.50048
  23147281.480   121639829.41509  23147278.500    94784294.86447
 15 02 26 00 21  0.0000000  0  7G16G18G19G21G22G27G31
  21231980.720   111574826.95209  21231976.600    86941420.59348
  22558513.700   118545849.60809  22558510.280    92373399.01046
  24384160.100   128139628.39908  24384155.900    99849045.14346
  21730224.640   114193404.59409  21730220.620    88981998.88248
  23470308.900   123337356.64108  23470303.580    96107046.81446
  22243994.840   116893009.89009  22243994.060    91085468.47648
  23165470.540   121735413.47409  23165467.600    94858775.90747
 15 02 26 00 21 30.0000000  0  7G16G18G19G21G22G27G31
  21220737.080   111515741.37209  21220733.000    86895379.89048
  22549325.520   118497565.23109  22549322.040    92335774.83246
  24369538.660   128062792.33908  24369534.580    99789172.92746
  21740187.460   114245759.61109  21740183.440    89022795.01248
  23453487.720   123248960.92008  23453482.480    96038167.07246
  22233648.880   116838641.37209  22233648.080    91043103.41448
  23183684.820   121831130.08509  23183681.920    94933360.24947
 15 02 26 00 22  0.0000000  0  7G16G18G19G21G22G27G31
  21209550.860   111456957.72509  21209546.840    86849574.45748
  22540202.460   118449623.08809  22540199.060    92298417.33046
  24354936.020   127986054.64808  24354931.840    99729377.34746
  21750203.940   114298396.76809  21750199.940    89063810.97948
  23436680.100   123160636.37808  23436674.940    95969342.80047
  22223327.040   116784399.37209  22223326.080    91000836.92248
  23201923.420   121926974.57209  23201920.540    95008044.23047
 15 02 26 00 22 30.0000000  0  7G16G18G19G21G22G27G31
  21198423.020   111398481.14609  21198419.140    86804008.29448
  22531145.560   118402028.63409  22531142.220    92261330.76347
  24340352.740   127909418.83708  24340348.520    99669661.17546
  21760274.460   114351318.14709  21760270.460    89105048.42148
  23419887.100   123072389.03708  23419882.160    95900578.69047
  22213029.880   116730287.06309  22213028.760    90958671.49748
  23220186.380   122022947.15909  23220183.540    95082828.03347
 15 02 26 00 23  0.0000000  0  7G16G18G19G21G22G27G31
  21187353.540   111340311.20909  21187349.800    86758681.06648
  22522154.780   118354781.35909  22522151.440    92224514.71547
  24325788.280   127832882.24308  24325784.080    99610022.30446
  21770398.060   114404518.53609  21770394.100    89146503.27048
  23403108.800   122984218.89108  23403103.980    95831874.73547
  22202756.820   116676301.67109  22202755.680    90916604.97048
  23238472.640   122119042.32709  23238469.960    95157707.34447
 15 02 26 00 23 30.0000000  0  7G16G18G19G21G22G27G31
  21176342.840   111282450.25009  21176339.260    86713594.61248
  22513230.440   118307883.43809  22513227.160    92187970.89747
  24311242.680   127756445.19608  24311238.560    99550461.02747
  21780574.440   114457996.19709  21780570.540    89188174.17648
  23386345.760   122896128.92608  23386341.080    95763233.27447
  22192507.880   116622443.35109  22192506.840    90874637.45448
  23256781.760   122215257.58109  23256779.100    95232680.23647
 15 02 26 00 24  0.0000000  0  7G16G18G19G21G22G27G31
  21165391.820   111224902.67109  21165388.340    86668752.34948
  22504373.500   118261339.37609  22504370.220    92151702.80747
  24296716.400   127680109.81808  24296712.480    99490978.94747
  21790803.880   114511752.42209  21790800.040    89230062.14048
  23369599.000   122808124.26808  23369594.340    95694658.26947
  22182283.540   116568714.54909  22182282.600    90832770.87648
  23275113.580   122311592.10509  23275110.980    95307746.06147
 15 02 26 00 24 30.0000000  0  7G16G18G19G21G22G27G31
  21154499.980   111167666.14409  21154496.640    86624152.45848
  22495583.500   118215146.89509  22495580.160    92115708.67847
  24282208.700   127603871.52108  24282204.800    99431572.51947
  21801085.060   114565780.40609  21801081.260    89272161.87348
  23352868.160   122720203.01409  23352863.420    95626148.24147
  22172082.860   116515110.45809  22172082.040    90791001.46648
  23293466.800   122408038.70609  23293464.220    95382899.22047
 15 02 26 00 25  0.0000000  0  7G16G18G19G21G22G27G31
  21143668.560   111110746.87909  21143665.260    86579799.78448
  22486861.540   118169312.05209  22486858.100    92079993.22747
  24267720.380   127527734.71708  24267716.440    99372245.17246
  21811418.460   114620082.81309  21811414.720    89314475.43348
  23336154.480   122632371.82708  23336149.660    95557708.39547
  22161906.680   116461635.34809  22161906.020    90749332.56248
  23311841.600   122504598.82209  23311839.060    95458140.82747
 15 02 26 00 25 30.0000000  0  7G16G18G19G21G22G27G31
  21132897.340   111054144.02509  21132894.100    86535693.66648
  22478207.560   118123834.57909  22478204.060    92044556.23647
  24253250.820   127451696.41108  24253246.860    99312994.58546
  21821802.980   114674653.74509  21821799.240    89356998.23548
  23319458.000   122544630.97509  23319453.120    95489338.94147
  22151754.440   116408286.06009  22151753.940    90707761.70048
  23330236.820   122601266.19009  23330234.260    95533466.00447
 15 02 26 00 26  0.0000000  0  7G16G18G19G21G22G27G31
  21122186.800   110997859.87009  21122183.640    86491835.89148
  22469621.880   118078716.09209  22469618.300    92009398.99047
  24238799.920   127375756.30408  24238795.860    99253820.50446
  21832238.440   114729492.48609  21832234.700    89399729.72448
  23302779.260   122456983.36108  23302774.340    95421042.14947
  22141626.300   116355062.68009  22141625.800    90666288.95048
  23348651.880   122698037.86509  23348649.340    95608872.46347
 15 02 26 00 26 30.0000000  0  7G16G18G19G21G22G27G31
  21111538.660   110941903.29909  21111535.500    86448233.37048
  22461106.140   118033965.41909  22461102.540    91974528.34647
  24224368.980   127299921.42808  24224364.940    99194728.42446
  21842725.620   114784603.08909  21842721.880    89442673.04548
  23286119.840   122369438.16908  23286115.020    95352825.15647
  22131523.540   116301971.80809  22131522.940    90624919.44848
  23367087.620   122794918.13309  23367085.120    95684363.53247
 15 02 26 00 27  0.0000000  0  7G16G18G19G21G22G27G31
  21100952.160   110886270.46709  21100948.980    86404883.11948
  22452659.640   117989578.90409  22452656.040    91939941.46947
  24209956.900   127224185.84608  24209952.860    99135713.71446
  21853263.260   114839978.77909  21853259.460    89485822.93948
  23269479.320   122281992.38508  23269474.580    95284685.61947
  22121445.020   116249007.68509  22121444.220    90583648.71548
  23385542.300   122891897.77908  23385539.760    95759932.04847
 15 02 26 00 27 30.0000000  0  7G16G18G19G21G22G27G31
  21090427.580   110830963.03709  21090424.380    86361786.42548
  22444282.660   117945557.93909  22444279.100    91905639.43047
  24195563.540   127148548.68608  24195559.500    99076775.69346
  21863850.680   114895616.21809  21863846.880    89529176.79448
  23252858.060   122194647.84908  23252853.440    95216624.99347
  22111390.400   116196169.47009  22111389.460    90542476.09648
  23404015.200   122988973.52608  23404012.740    95835575.44147
 15 02 26 00 28  0.0000000  0  7G16G18G19G21G22G27G31
  21079965.600   110775984.42509  21079962.300    86318945.95048
  22435975.900   117901905.98309  22435972.440    91871624.92747
  24181189.260   127073011.59508  24181185.300    99017915.65946
  21874488.000   114951515.73009  21874484.180    89572734.85348
  23236257.060   122107409.41008  23236252.480    95148647.02547
  22101359.980   116143458.81309  22101358.940    90501402.86548
  23422506.180   123086144.24308  23422503.780    95911292.82547
 15 02 26 00 28 30.0000000  0  7G16G18G19G21G22G27G31
  21069566.260   110721335.15409  21069562.880    86276362.10248
  22427739.400   117858623.28809  22427735.980    91837898.16047
  24166833.720   126997572.94908  24166829.740    98959132.33246
  21885174.480   115007673.37509  21885170.640    89616494.05748
  23219676.460   122020278.01309  23219671.900    95080752.45947
  22091353.400   116090873.82509  22091352.320    90460427.56048
  23441014.280   123183404.97208  23441011.900    95987080.34747
 15 02 26 00 29  0.0000000  0  7G16G18G19G21G22G27G31
  21059230.380   110667019.52209  21059226.920    86234038.23648
  22419574.000   117815714.19009  22419570.640    91804462.51747
  24152497.340   126922234.97908  24152493.360    98900427.43846
  21895910.120   115064089.25209  21895906.220    89660454.47748
  23203117.200   121933258.41709  23203112.600    95012945.02247
  22081371.060   116038416.68709  22081370.020    90419551.87848
  23459539.460   123280755.14808  23459537.080    96062937.57547
 15 02 26 00 29 30.0000000  0  7G16G18G19G21G22G27G31
  21048958.060   110613038.31309  21048954.600    86191974.96248
  22411479.780   117773179.45709  22411476.500    91771318.58747
  24138179.740   126846995.94308  24138175.740    98841799.64946
  21906694.240   115120759.77309  21906690.260    89704613.32048
  23186579.560   121846352.25109  23186574.880    94945225.96147
  22071412.760   115986085.98709  22071411.820    90378774.72048
  23478080.820   123378190.51308  23478078.360    96138861.17547
 15 02 26 00 30  0.0000000  0  7G16G18G19G21G22G27G31
  21038750.340   110559396.74009  21038746.920    86150176.34248
  22403457.760   117731023.99909  22403454.520    91738470.19147
  24123881.620   126771859.08608  24123877.580    98783251.47346
  21917527.280   115177687.27009  21917523.220    89748972.40648
  23170064.460   121759565.03608  23170059.720    94877599.59447
  22061479.160   115933884.84309  22061478.240    90338098.51848
  23496638.520   123475711.23108  23496635.920    96214851.30047
 15 02 26 00 30 30.0000000  0  7G16G18G19G21G22G27G31
  21028606.560   110506091.06809  21028603.140    86108639.45148
  22395507.240   117689244.06209  22395503.980    91705914.40947
  24109601.900   126696818.73308  24109597.880    98724778.49946
  21928407.660   115234863.69009  21928403.580    89793525.45548
  23153571.360   121672893.89608  23153566.720    94810063.67647
  22051569.120   115881807.54909  22051568.280    90297518.81348
  23515210.780   123573308.51408  23515208.060    96290901.07347
 15 02 26 00 31  0.0000000  0  7G16G18G19G21G22G27G31
  21018528.180   110453129.04509  21018524.760    86067370.34248
  22387629.540   117647846.80809  22387626.280    91673656.81647
  24095341.600   126621880.57908  24095337.520    98666385.15946
  21939336.020   115292292.52509  21939331.980    89838275.19148
  23137101.960   121586347.53708  23137097.420    94742624.98947
  22041683.740   115829859.67909  22041682.980    90257039.96548
  23533798.240   123670985.57908  23533795.460    96367013.01347
 15 02 26 00 31 30.0000000  0  7G16G18G19G21G22G27G31
  21008514.920   110400509.19209  21008511.560    86026367.87148
  22379824.380   117606830.91209  22379821.160    91641696.39647
  24081100.020   126547040.27708  24081095.800    98608068.07746
  21950311.300   115349968.41608  21950307.360    89883217.44548
  23120656.080   121499924.77908  23120651.620    94675282.62147
  22031822.260   115778037.34609  22031821.580    90216658.94948
  23552399.560   123768735.57108  23552396.760    96443181.79347
 15 02 26 00 32  0.0000000  0  7G16G18G19G21G22G27G31
  20998567.720   110348236.22709  20998564.320    85985635.69148
  22372092.700   117566201.09909  22372089.560    91610036.81347
  24066877.620   126472300.98708  24066873.340    98549829.70246
  21961333.660   115407891.95509  21961329.880    89928352.66448
  23104234.820   121413631.02009  23104230.380    94608040.76147
  22021985.220   115726343.32809  22021984.560    90176377.90548
  23571014.680   123866558.20409  23571011.820    96519407.15947
 15 02 26 00 32 30.0000000  0  7G16G18G19G21G22G27G31
  20988686.440   110296309.80309  20988682.980    85945173.54248
  22364434.380   117525956.72309  22364431.280    91578677.57047
  24052674.100   126397660.63308  24052669.720    98491668.40846
  21972402.340   115466059.13809  21972398.700    89973677.74648
  23087838.420   121327467.24609  23087833.860    94540900.17747
  22012172.180   115674775.31609  22012171.480    90136195.04248
  23589642.700   123964448.51609  23589639.740    96595685.27347
 15 02 26 00 33  0.0000000  0  7G16G18G19G21G22G27G31
  20978871.600   110244732.36809  20978868.060    85904983.34148
  22356849.820   117486099.59709  22356846.680    91547620.08347
  24038489.320   126323119.03008  24038485.000    98433584.07546
  21983517.100   115524468.39509  21983513.600    90019191.45348
  23071467.240   121241435.79409  23071462.520    94473862.72247
  22002383.200   115623333.44809  22002382.400    90096110.48048
  23608283.020   124062403.63309  23608280.000    96672013.87747
 15 02 26 00 33 30.0000000  0  7G16G18G19G21G22G27G31
  20969123.700   110193506.70809  20969120.160    85865067.24548
  22349339.660   117446633.12209  22349336.420    91516866.99447
  24024323.480   126248676.91708  24024319.260    98375577.26246
  21994677.720   115583118.39809  21994674.240    90064892.75648
  23055122.020   121155540.52309  23055117.100    94406931.36547
  21992618.440   115572018.75409  21992617.500    90056125.01748
  23626935.220   124160421.60508  23626932.220    96748391.45846
 15 02 26 00 34  0.0000000  0  7G16G18G19G21G22G27G31
  20959443.360   110142636.19609  20959439.880    85825427.88948
  22341904.360   117407559.95709  22341900.940    91486420.38447
  24010176.780   126174335.28608  24010172.560    98317648.75146
  22005884.080   115642008.38308  22005880.560    90110781.05048
  23038803.440   121069785.26009  23038798.420    94340109.11147
  21982878.060   115520832.22309  21982876.960    90016239.41648
  23645599.100   124258500.85408  23645596.160    96824816.78847
 15 02 26 00 34 30.0000000  0  7G16G18G19G21G22G27G31
  20949830.840   110092122.10209  20949827.380    85786066.25748
  22334543.960   117368880.64409  22334540.400    91456280.66247
  23996048.980   126100092.82608  23996044.720    98259797.49846
  22017135.660   115701135.61709  22017132.020    90156854.22547
  23022511.780   120984171.40409  23022506.700    94273397.05147
  21973161.860   115469772.89009  21973160.660    89976452.92348
  23664273.800   124356637.11809  23664270.960    96901286.52547
 15 02 26 00 35  0.0000000  0  7G16G18G19G21G22G27G31
  20940286.540   110041966.53609  20940283.100    85746983.99748
  22327259.000   117330597.81609  22327255.300    91426449.89347
  23981940.240   126025950.46608  23981935.880    98202024.25346
  22028432.220   115760499.23009  22028428.460    90203111.57448
  23006247.720   120898702.65609  23006242.560    94206798.04947
  21963469.840   115418841.01809  21963468.640    89936765.75848
  23682958.920   124454828.02008  23682956.140    96977798.85646
 15 02 26 00 35 30.0000000  0  7G16G18G19G21G22G27G31
  20930810.600   109992170.19809  20930807.140    85708181.66648
  22320049.440   117292711.43809  22320045.660    91396928.06047
  23967850.220   125951906.87908  23967845.760    98144327.98246
  22039773.120   115820095.39709  22039769.160    90249550.15447
  22990011.440   120813380.51309  22990006.300    94140313.30547
  21953801.700   115368035.24909  21953800.700    89897176.86948
  23701653.720   124553069.81508  23701650.960    97054350.84446
 15 02 26 00 36  0.0000000  0  7G16G18G19G21G22G27G31
  20921403.460   109942735.62709  20921400.080    85669661.22648
  22312915.900   117255224.26909  22312911.980    91367717.28247
  23953779.060   125877962.37408  23953774.380    98086708.90646
  22051157.920   115879922.21009  22051153.760    90296168.43747
  22973803.580   120728207.80509  22973798.440    94073944.98947
  21944157.620   115317355.96809  21944156.800    89857686.53148
  23720357.640   124651359.62308  23720354.980    97130940.23546
 15 02 26 00 36 30.0000000  0  7G16G18G19G21G22G27G31
  20912065.900   109893666.75209  20912062.600    85631425.73748
  22305858.960   117218139.84709  22305855.040    91338820.34147
  23939727.000   125804118.78408  23939722.160    98029168.47546
  22062586.620   115939979.84009  22062582.320    90342966.58748
  22957625.020   120643189.34709  22957619.860    94007696.86147
  21934538.040   115266805.27009  21934537.380    89818296.38748
  23739070.440   124749696.19308  23739067.940    97207566.05447
 15 02 26 00 37  0.0000000  0  7G16G18G19G21G22G27G31
  20902797.700   109844961.93809  20902794.400    85593473.93548
  22298878.160   117181455.76809  22298874.280    91310235.35547
  23925693.320   125730371.98108  23925688.420    97971703.47046
  22074058.220   116000263.11109  22074053.840    90389940.56247
  22941475.620   120558324.09009  22941470.460    93941568.11247
  21924942.220   115216379.20809  21924941.640    89779003.36648
  23757790.980   124848073.11808  23757788.620    97284223.33546
 15 02 26 00 37 30.0000000  0  7G16G18G19G21G22G27G31
  20893600.100   109796628.20009  20893596.800    85555811.28048
  22291974.880   117145179.06309  22291971.040    91281967.80547
  23911679.000   125656726.67908  23911674.000    97914317.53946
  22085573.260   116060775.00009  22085568.920    90437092.67047
  22925356.820   120473619.66309  22925351.720    93875564.69147
  21915371.140   115166083.01909  21915370.540    89739811.53648
