     2.11           OBSERVATION DATA    M                   RINEX VERSION / TYPE
SPIDER V4,0,0,3554                      2015 03 24 04:24    PGM / RUN BY / DATE 
OJGS                                                        MARKER NAME         
OJGS                                                        MARKER NUMBER       
                                                            OBSERVER / AGENCY   
496552              LEICA GRX1200+GNSS  8.20/4.007          REC # / TYPE / VERS 
10401003            LEIAR25         NONE                    ANT # / TYPE        
  5198100.9450    88691.2920  3684205.7148                  APPROX POSITION XYZ 
        0.1200        0.0000        0.0000                  ANTENNA: DELTA H/E/N
     1     1                                                WAVELENGTH FACT L1/2
     4    C1    L1    P2    L2                              # / TYPES OF OBSERV 
    30.000                                                  INTERVAL            
  2015    02    26    00    00    0.0000000     GPS         TIME OF FIRST OBS   
  2015    02    26    23    59   30.0000000     GPS         TIME OF LAST OBS    
    16                                                      LEAP SECONDS        
    38                                                      # OF SATELLITES     
   G 1   833   832   832   832                              PRN / # OF OBS      
   G 2   925   925   925   925                              PRN / # OF OBS      
   G 3   839   839   839   839                              PRN / # OF OBS      
   G 4   844   844   844   844                              PRN / # OF OBS      
   G 5   674   674   674   674                              PRN / # OF OBS      
   G 6   732   732   732   732                              PRN / # OF OBS      
   G 7   724   724   724   724                              PRN / # OF OBS      
   G 9   782   782   782   782                              PRN / # OF OBS      
   G10   784   784   783   783                              PRN / # OF OBS      
   G11   798   798   798   798                              PRN / # OF OBS      
   G12   811   811   811   811                              PRN / # OF OBS      
   G13   822   822   822   822                              PRN / # OF OBS      
   G14   932   932   932   932                              PRN / # OF OBS      
   G15   733   733   733   733                              PRN / # OF OBS      
   G16   694   694   694   694                              PRN / # OF OBS      
   G17   930   929   929   929                              PRN / # OF OBS      
   G18   940   940   940   940                              PRN / # OF OBS      
   G19   782   782   782   782                              PRN / # OF OBS      
   G20   805   805   805   805                              PRN / # OF OBS      
   G21   712   712   712   712                              PRN / # OF OBS      
   G22   804   804   804   804                              PRN / # OF OBS      
   G23   726   726   726   726                              PRN / # OF OBS      
   G24   841   838   837   837                              PRN / # OF OBS      
   G25   855   855   855   855                              PRN / # OF OBS      
   G27   832   832   832   832                              PRN / # OF OBS      
   G28   914   914   914   914                              PRN / # OF OBS      
   G29   752   752   752   752                              PRN / # OF OBS      
   G30   692   692   692   692                              PRN / # OF OBS      
   G31   795   794   794   794                              PRN / # OF OBS      
   G32   740   740   740   740                              PRN / # OF OBS      
   R 3    30    30    30    30                              PRN / # OF OBS      
   R 4    25    25    25    24                              PRN / # OF OBS      
   R 9    30    30    30    30                              PRN / # OF OBS      
   R10    30    30    30    30                              PRN / # OF OBS      
   R16    30    30    30    30                              PRN / # OF OBS      
   R18    30    30    30    30                              PRN / # OF OBS      
   R19    30    30    30    30                              PRN / # OF OBS      
   R20    30    30    30    30                              PRN / # OF OBS      
BIT 2 OF LLI FLAGS DATA COLLECTED UNDER A/S CONDITION       COMMENT             
SNR is mapped to RINEX snr flag value [2-9]                 COMMENT             
Lx:     = 25dBHz -> 1; 26-27dBHz -> 2; 28-31dBHz -> 3       COMMENT             
       32-35dBHz -> 4; 36-38dBHz -> 5; 39-41dBHz -> 6       COMMENT             
       42-44dBHz -> 7; 45-48dBHz -> 8; >=49dBHz -> 9        COMMENT             
                                                            END OF HEADER       
 15 02 26 00 00  0.0000000  0 14G16G18G21G22G27G29G31R03R09R10R16R18
                                R19R20
  21745144.660   114271515.27309  21745141.060    89042740.86747
  22974204.480   120730294.03009  22974201.800    94075557.35246
  21293083.800   111896211.55808  21293080.140    87191968.67948
  24261697.300   127496097.23308  24261693.180    99347605.28345
  22792083.660   119773225.91608  22792083.220    93329799.67347
  24039033.080   126326450.95308  24039031.160    98436407.01546
  22563243.100   118570687.84909  22563240.160    92392754.66947
  22985905.860   123045356.40808  22985906.720    95701947.51807
  19631271.560   104829914.80008  19631272.140    81534366.84205
  22417968.420   119500393.05108  22417973.620    92944765.79806
  20761194.400   110902613.98008  20761196.600    86257623.35408
  21972804.980   117292683.22308  21972807.020    91227758.06107
  19935979.540   106644226.13709  19935978.940    82945574.27708
  22294107.280   119216638.02107  22294110.400    92724063.22807
 15 02 26 00 00 30.0000000  0 14G16G18G21G22G27G29G31R03R09R10R16R18
                                R19R20
  21731715.680   114200945.42009  21731712.100    88987751.37748
  22962188.320   120667148.43309  22962185.580    94026353.00346
  21299887.600   111931965.45308  21299883.940    87219828.85548
  24244398.860   127405194.00908  24244394.720    99276771.77446
  22780112.080   119710314.67808  22780111.580    93280777.96248
  24053536.820   126402669.52308  24053535.000    98495798.03946
  22580150.400   118659536.36809  22580147.460    92461987.26247
  22977814.520   123002042.16808  22977815.460    95668258.71707
  19630258.740   104824506.07208  19630259.240    81530160.04506
  22397284.720   119390136.74409  22397289.800    92859010.83206
  20781403.900   111010569.11408  20781406.100    86341588.44208
  21988431.100   117376096.74008  21988433.240    91292635.20907
  19937371.120   106651670.44109  19937370.600    82951364.28708
  22281258.320   119147929.01507  22281261.420    92670622.91307
 15 02 26 00 01  0.0000000  0 14G16G18G21G22G27G29G31R03R09R10R16R18
                                R19R20
  21718330.180   114130603.88509  21718326.500    88932939.79848
  22950218.060   120604244.26909  22950215.340    93977336.78446
  21306760.040   111968080.02408  21306756.340    87247970.08248
  24227091.980   127314245.98708  24227087.580    99205903.37445
  22768164.300   119647528.96508  22768163.800    93231854.03447
  24068040.740   126478887.99208  24068038.800    98555189.05046
  22597102.400   118748619.62909  22597099.460    92531402.77447
  22969835.620   122959329.16708  22969836.200    95635037.52507
  19629399.100   104819915.41808  19629399.520    81526589.53206
  22376677.460   119280288.47409  22376682.640    92773573.33206
  20801704.380   111119010.13008  20801706.500    86425931.45208
  22004059.440   117459521.32808  22004061.440    91357521.00007
  19938821.440   106659428.84109  19938820.960    82957398.59308
  22268459.520   119079487.89307  22268462.460    92617390.95107
 15 02 26 00 01 30.0000000  0 14G16G18G21G22G27G29G31R03R09R10R16R18
                                R19R20
  21704988.820   114060494.18209  21704985.060    88878308.86448
  22938294.500   120541585.66408  22938291.800    93928511.91946
  21313701.040   112004555.02808  21313697.320    87276392.15948
  24209777.240   127223256.88508  24209772.740    99135002.94746
  22756240.660   119584870.07908  22756240.320    93183028.95647
  24082545.060   126555107.83308  24082543.100    98614581.11847
  22614098.780   118837936.31909  22614095.820    92601000.17747
  22961969.860   122917222.12608  22961970.140    95602287.62306
  19628693.000   104816144.69108  19628693.320    81523656.73806
  22356147.880   119170854.34309  22356152.960    92688457.91306
  20822095.340   111227934.52408  20822097.400    86510650.40408
  22019689.800   117542957.10408  22019691.660    91422415.48407
  19940330.400   106667500.96209  19940329.980    82963676.92308
  22255710.960   119011315.60007  22255713.880    92564368.09907
 15 02 26 00 02  0.0000000  0 14G16G18G21G22G27G29G31R03R09R10R16R18
                                R19R20
  21691692.120   113990619.36209  21691688.280    88823860.95948
  22926418.440   120479176.51609  22926415.780    93879881.43146
  21320710.580   112041390.04208  21320706.780    87305094.76748
  24192455.340   127132230.28008  24192450.660    99064073.28046
  22744341.400   119522339.00108  22744341.000    93134303.46447
  24097049.620   126631329.93108  24097047.860    98673974.90947
  22631139.160   118927484.41209  22631136.200    92670777.89147
  22954217.900   122875724.69108  22954217.840    95570011.86106
  19628140.760   104813195.51208  19628141.000    81521362.92206
  22335696.900   119061839.65709  22335702.100    92603668.73506
  20842576.220   111337339.64708  20842578.260    86595743.25308
  22035322.200   117626403.77008  22035324.080    91487318.41307
  19941898.020   106675886.31409  19941897.540    82970198.86708
  22243012.980   118943413.11807  22243015.760    92511555.06907
 15 02 26 00 02 30.0000000  0 15G16G18G21G22G27G29G31R03R04R09R10R16
                                R18R19R20
  21678440.900   113920983.74409  21678437.100    88769599.45548
  22914590.700   120417021.12109  22914587.980    93831448.67446
  21327788.740   112078585.80808  21327784.860    87334078.48348
  24175127.160   127041171.09908  24175122.560    98993118.23446
  22732466.920   119459937.97208  22732466.400    93085679.28747
  24111554.840   126707556.02308  24111553.200    98733371.82346
  22648223.540   119017263.42209  22648220.600    92740735.54347
  22946580.780   122834842.37008  22946580.340    95538214.50906
  23563960.540   126183936.10008  23563960.280                  
  19627742.880   104811070.61508  19627743.080    81519710.22006
  22315325.960   118953250.91609  22315331.500    92519210.84106
  20863146.680   111447223.41908  20863148.740    86681208.39408
  22050956.760   117709862.46008  22050959.060    91552230.71307
  19943524.360   106684585.42209  19943523.760    82976964.84808
  22230365.700   118875782.38007  22230368.440    92458953.42007
 15 02 26 00 03  0.0000000  0 15G16G18G21G22G27G29G31R03R04R09R10R16
                                R18R19R20
  21665234.840   113851585.21509  21665230.940    88715522.68948
  22902810.960   120355117.90609  22902808.160    93783212.41146
  21334934.360   112116135.94009  21334930.420    87363338.32248
  24157792.460   126950077.51808  24157787.960    98922136.38146
  22720616.320   119397662.42808  22720615.840    93037152.91647
  24126060.100   126783782.03108  24126058.420    98792768.69646
  22665350.480   119107266.06809  22665347.600    92810867.45247
  22939058.000   122794573.16107  22939057.100    95506894.02806
  23544648.900   126080522.94708  23544648.800    98062633.84806
  19627498.580   104809766.09608  19627498.760    81518695.58806
  22295034.900   118845087.74809  22295040.060    92435083.92306
  20883805.180   111557577.61108  20883807.300    86767039.41308
  22066592.500   117793327.38808  22066595.000    91617147.85407
  19945208.080   106693591.86809  19945207.400    82983969.86608
  22217768.380   118808418.80908  22217771.240    92406559.55207
 15 02 26 00 03 30.0000000  0 15G16G18G21G22G27G29G31R03R04R09R10R16
                                R18R19R20
  21652074.380   113782426.18409  21652070.400    88661632.53747
  22891079.800   120293470.03209  22891076.880    93735175.12246
  21342147.160   112154039.20209  21342143.300    87392873.34348
  24140451.840   126858952.73308  24140447.340    98851130.19846
  22708789.640   119335512.95008  22708789.240    92988724.76547
  24140565.540   126860008.30708  24140563.620    98852165.82046
  22682519.520   119197489.99009  22682516.700    92881171.78247
  22931650.400   122754920.91407  22931649.160    95476053.39905
  23525356.520   125977213.09108  23525356.420    97982281.78205
  19627408.100   104809282.80408  19627408.280    81518319.68006
  22274824.540   118737355.20009  22274829.920    92351292.00206
  20904551.060   111668398.61808  20904553.220    86853233.51608
  22082229.260   117876797.84808  22082231.760    91682069.30707
  19946949.060   106702904.68809  19946948.240    82991213.17308
  22205221.080   118741322.63107  22205223.740    92354373.67907
 15 02 26 00 04  0.0000000  0 15G16G18G21G22G27G29G31R03R04R09R10R16
                                R18R19R20
  21638960.280   113713510.68709  21638956.240    88607932.14248
  22879397.980   120232081.62209  22879395.000    93687340.01046
  21349427.200   112192295.93208  21349423.380    87422683.77848
  24123106.100   126767801.09308  24123101.640    98780103.08945
  22696987.220   119273491.44508  22696986.860    92940396.32648
  24155071.260   126936236.45608  24155069.460    98911564.33946
  22699730.540   119287934.22909  22699727.700    92951647.78447
  22924358.740   122715889.96007  22924357.420    95445695.99505
  23506084.540   125874012.90108  23506084.760    97902015.00906
  19627471.840   104809623.19608  19627472.100    81518584.42306
  22254696.160   118630059.27409  22254701.320    92267839.56606
  20925383.940   111779684.46808  20925386.140    86939789.15408
  22097867.280   117960274.49808  22097869.560    91746995.57107
  19948747.300   106712524.45509  19948746.520    82998695.21208
  22192724.080   118674495.50807  22192726.820    92302397.04007
 15 02 26 00 04 30.0000000  0 15G16G18G21G22G27G29G31R03R04R09R10R16
                                R18R19R20
  21625892.260   113644838.22309  21625888.280    88554421.14948
  22867765.580   120170952.60009  22867762.600    93639707.01846
  21356773.800   112230902.41009  21356770.000    87452766.75448
  24105755.380   126676622.92708  24105750.880    98709055.29746
  22685208.700   119211595.18008  22685208.320    92892165.48948
  24169576.900   127012463.76008  24169575.260    98970962.17347
  22716982.420   119378593.26009  22716979.580    93022291.16647
  22917183.080   122677480.47307  22917182.440    95415821.98806
  23486833.360   125770924.06008  23486833.620    97821834.83906
  19627689.360   104810784.83708  19627689.720    81519487.91305
  22234649.900   118523201.55609  22234655.100    92184728.04906
  20946302.560   111891428.37208  20946304.800    87026701.06408
  22113505.800   118043753.48608  22113507.900    91811923.67507
  19950602.100   106722446.44409  19950601.240    83006412.32208
  22180276.840   118607934.52707  22180279.600    92250627.42407
 15 02 26 00 05  0.0000000  0 15G16G18G21G22G27G29G31R03R04R09R10R16
                                R18R19R20
  21612871.120   113576411.89909  21612867.180    88501101.94048
  22856183.180   120110086.56509  22856180.240    93592278.96146
  21364186.820   112269857.93209  21364183.000    87483121.71348
  24088400.100   126585421.33708  24088395.780    98637989.26446
  22673454.320   119149824.90508  22673453.760    92844032.81747
  24184082.660   127088691.24708  24184081.120    99030360.19847
  22734274.780   119469464.85809  22734271.900    93093100.18947
  22910124.340   122639696.12807  22910124.380    95386434.18206
  23467604.060   125667952.00708  23467604.280    97741745.51306
  19628060.900   104812768.88808  19628061.300    81521031.06206
  22214686.900   118416787.52509  22214692.040    92101961.58006
  20967306.320   112003626.98108  20967308.580    87113966.63308
  22129144.620   118127234.47308  22129146.800    91876853.30307
  19952513.280   106732670.23009  19952512.380    83014364.16408
  22167879.440   118541640.10607  22167882.080    92199065.14007
 15 02 26 00 05 30.0000000  0 15G16G18G21G22G27G29G31R03R04R09R10R16
                                R18R19R20
  21599897.560   113508235.33409  21599893.560    88447977.34748
  22844651.520   120049487.32209  22844648.560    93545058.78646
  21371666.100   112309161.82709  21371662.280    87513748.12648
  24071041.140   126494200.35108  24071036.740    98566908.07745
  22661724.220   119088182.04408  22661723.560    92795999.42947
  24198588.660   127164920.10008  24198586.940    99089759.30346
  22751607.380   119560547.95709  22751604.420    93164074.01447
  22903183.360   122602541.08107  22903183.800    95357535.85306
  23448397.720   125565102.70608  23448397.780    97661751.64706
  19628586.780   104815577.13308  19628587.160    81523215.23906
  22194808.040   118310822.38809  22194813.260    92019544.28306
  20988394.780   112116278.03808  20988397.100    87201584.10708
  22144783.920   118210717.56608  22144786.140    91941784.60607
  19954480.800   106743195.18309  19954479.940    83022550.24108
  22155532.020   118475613.42907  22155534.840    92147711.08707
 15 02 26 00 06  0.0000000  0 15G16G18G21G22G27G29G31R03R04R09R10R16
                                R18R19R20
  21586972.060   113440311.28909  21586968.040    88395049.52248
  22833171.200   119989158.00109  22833168.240    93498048.94046
  21379211.540   112348813.43208  21379207.720    87544645.48948
  24053679.220   126402963.41108  24053674.820    98495814.46946
  22650018.560   119026667.42908  22650017.860    92748065.97548
  24213094.780   127241151.20807  24213093.220    99149160.13346
  22768979.720   119651839.96509  22768976.640    93235210.62147
  22896360.760   122566019.19307  22896361.420    95329129.96306
  23429215.220   125462381.46708  23429215.240    97581857.39606
  19629267.160   104819210.44909  19629267.540    81526041.14806
  22175014.460   118205311.55309  22175019.760    91937480.30906
  21009567.380   112229378.18708  21009569.700    87289550.86408
  22160423.540   118294202.63108  22160425.920    92006717.39307
  19956504.500   106754020.45609  19956503.660    83030969.90008
  22143234.840   118409855.14907  22143237.520    92096565.78707
 15 02 26 00 06 30.0000000  0 15G16G18G21G22G27G29G31R03R04R09R10R16
                                R18R19R20
  21574094.460   113372639.12009  21574090.480    88342317.96848
  22821742.300   119929098.65009  22821739.280    93451249.46946
  21386822.280   112388808.21409  21386818.500    87575810.25648
  24036314.180   126311710.44808  24036309.860    98424708.38146
  22638336.700   118965278.22008  22638335.880    92700230.23848
  24227600.880   127317381.72808  24227599.420    99208560.48346
  22786390.780   119743335.65309  22786387.700    93306505.94047
  22889656.500   122530129.89207  22889657.200    95301216.11207
  23410056.920   125359790.03908  23410056.720    97502064.11306
  19630101.580   104823666.43508  19630102.080    81529506.90306
  22155306.340   118100256.51409  22155311.640    91855770.83606
  21030822.720   112342920.49408  21030825.000    87377861.52908
  22176062.760   118377685.71408  22176064.900    92071648.67507
  19958583.520   106765141.78709  19958582.660    83039619.82208
  22130987.300   118344362.08607  22130990.000    92045626.75907
 15 02 26 00 07  0.0000000  0 15G16G18G21G22G27G29G31R03R04R09R10R16
                                R18R19R20
  21561265.280   113305221.73709  21561261.380    88289784.95948
  22810365.440   119869312.81009  22810362.440    93404663.10646
  21394498.140   112429145.32808  21394494.360    87607241.76548
  24018946.800   126220444.98008  24018942.460    98353592.51646
  22626678.800   118904015.21108  22626677.880    92652492.81848
  24242107.100   127393611.65608  24242105.580    99267960.39247
  22803840.220   119835032.96109  22803837.140    93377958.36547
  22883071.240   122494876.78008  22883071.820    95273797.03807
  23390923.760   125257333.29908  23390923.600    97422375.57506
  19631090.240   104828945.87008  19631090.720    81533613.12106
  22135684.700   117995662.17109  22135689.980    91774419.70906
  21052160.280   112456901.78408  21052162.500    87466513.61408
  22191701.560   118461166.42108  22191703.580    92136578.10907
  19960717.720   106776558.13909  19960716.900    83048499.19808
  22118789.400   118279134.69507  22118792.160    91994894.36907
 15 02 26 00 07 30.0000000  0 15G16G18G21G22G27G29G31R03R04R09R10R16
                                R18R19R20
  21548484.680   113238059.50609  21548480.900    88237450.75948
  22799040.680   119809800.79009  22799037.680    93358290.11546
  21402238.460   112469821.22308  21402234.740    87638937.26248
  24001577.200   126129167.73308  24001572.940    98282467.47546
  22615044.480   118842876.40008  22615043.580    92604852.20948
  24256613.060   127469839.42908  24256611.260    99327358.66746
  22821327.100   119926927.03309  22821324.040    93449564.11747
  22876604.960   122460260.59608  22876605.420    95246873.36807
  23371816.340   125155014.11708  23371816.180    97342794.01806
  19632232.740   104835046.71409  19632233.180    81538358.21106
  22116149.960   117891530.89509  22116155.120    91693428.70806
  21073578.880   112571315.89808  21073581.060    87555502.36308
  22207339.420   118544641.61908  22207341.500    92201503.24907
  19962906.460   106788265.94309  19962905.640    83057605.27008
  22106640.900   118214170.94307  22106643.500    91944367.03807
 15 02 26 00 08  0.0000000  0 15G16G18G21G22G27G29G31R03R04R09R10R16
                                R18R19R20
  21535754.520   113171162.06709  21535750.680    88185322.88448
  22787769.840   119750572.39609  22787766.840    93312138.13546
  21410044.380   112510841.89308  21410040.740    87670901.41848
  23984207.260   126037888.83208  23984203.020    98211341.17546
  22603435.180   118781869.49208  22603434.320    92557314.37348
  24271119.880   127546073.13307  24271117.740    99386761.53945
  22838852.340   120019022.65709  22838849.260    93521326.91647
  22870259.620   122426291.70108  22870259.860    95220453.13907
  23352736.840   125052844.57707  23352736.820    97263328.85206
  19633530.600   104841977.11708  19633531.080    81543748.51106
  22096704.300   117787874.79509  22096709.520    91612807.32206
  21095079.100   112686166.42208  21095081.400    87644830.51608
  22222977.400   118628118.18608  22222979.560    92266429.44507
  19965150.800   106800271.38109  19965149.980    83066942.83108
  22094542.960   118149477.88007  22094545.480    91894050.23607
 15 02 26 00 08 30.0000000  0 15G16G18G21G22G27G29G31R03R04R09R10R16
                                R18R19R20
  21523073.880   113104525.03209  21523070.120    88133397.93748
  22776552.280   119691623.90209  22776549.320    93266204.25546
  21417914.300   112552198.89608  21417910.720    87703127.65048
  23966836.340   125946604.60908  23966832.120    98140210.69446
  22591849.680   118720987.83608  22591848.880    92509874.12748
  24285626.280   127622305.87008  24285623.980    99446163.66145
  22856414.080   120111310.24209  22856411.040    93593239.30247
  22864034.300   122392965.87908  22864034.300    95194533.08707
  23333684.860   124950822.61107  23333684.900    97183978.48006
  19634982.480   104849730.08108  19634983.060    81549778.58706
  22077347.360   117684691.19909  22077352.520    91532553.42706
  21116659.040   112801442.65508  21116661.360    87734489.79708
  22238614.080   118711587.98408  22238616.240    92331350.40407
  19967449.200   106812566.21009  19967448.360    83076505.47608
  22082494.260   118085048.54507  22082496.980    91843938.55207
 15 02 26 00 09  0.0000000  0 15G16G18G21G22G27G29G31R03R04R09R10R16
                                R18R19R20
  21510443.120   113038149.93809  21510439.360    88081677.08447
  22765388.360   119632957.07209  22765385.320    93220489.85346
  21425847.820   112593889.93609  21425844.220    87735614.18148
  23949464.720   125855316.85208  23949460.580    98069077.46745
  22580287.860   118660230.64508  22580287.020    92462530.87247
  24300132.500   127698536.59708  24300130.280    99505564.22245
  22874011.720   120203786.35909  22874008.640    93665298.58946
  22857929.280   122360285.13308  22857929.320    95169114.74907
  23314661.160   124848951.97708  23314661.160    97104745.79706
  19636588.260   104858304.78708  19636588.800    81556447.79506
  22058079.620   117581983.25209  22058084.800    91452669.48006
  21138317.800   112917139.78308  21138320.080    87824476.43408
  22254249.200   118795049.31908  22254251.480    92396264.75507
  19969801.160   106825147.77909  19969800.320    83086291.13608
  22070494.780   118020882.15007  22070497.580    91794031.37607
 15 02 26 00 09 30.0000000  0 15G16G18G21G22G27G29G31R03R04R09R10R16
                                R18R19R20
  21497862.760   112972039.94709  21497859.060    88030162.82048
  22754278.680   119574575.21509  22754275.540    93174997.51747
  21433844.900   112635914.90608  21433841.300    87768360.90348
  23932093.160   125764029.18208  23932089.060    97997944.30347
  22568750.100   118599599.11808  22568749.160    92415285.54248
  24314638.700   127774766.57208  24314636.700    99564964.17446
  22891644.900   120296449.09609  22891641.740    93737503.29747
  22851945.300   122328252.68708  22851945.340    95144200.65607
  23295666.820   124747238.44308  23295666.840    97025635.32306
  19638348.140   104867702.36309  19638348.640    81563757.01206
  22038902.340   117479757.19609  22038907.320    91373160.32706
  21160054.760   113033254.73008  21160057.000    87914788.03808
  22269882.700   118878502.53008  22269885.120    92461172.79707
  19972206.640   106838015.73109  19972205.800    83096299.54208
  22058544.600   117956979.23907  22058547.440    91744329.13307
 15 02 26 00 10  0.0000000  0 15G16G18G21G22G27G29G31R03R04R09R10R16
                                R18R19R20
  21485333.460   112906198.40109  21485329.840    87978857.72148
  22743223.900   119516481.99609  22743220.600    93129730.08846
  21441905.300   112678272.67309  21441901.640    87801366.96148
  23914722.320   125672745.27208  23914718.280    97926814.07046
  22557236.360   118539094.12608  22557235.420    92368138.80848
  24329144.900   127850996.72408  24329143.040    99624364.25746
  22909313.220   120389296.57609  22909309.980    93809851.96047
  22846083.080   122296872.32608  22846083.160    95119793.74407
  23276702.840   124645687.28007  23276702.840    96946651.11606
  19640262.300   104877923.60308  19640262.680    81571706.85606
  22019816.320   117378017.55909  22019821.200    91294029.52306
  21181869.380   113149784.51408  21181871.580    88005422.28807
  22285514.560   118961947.22608  22285517.020    92526074.20407
  19974665.480   106851169.44009  19974664.660    83106530.21008
  22046643.860   117893340.49007  22046646.600    91694832.36107
 15 02 26 00 10 30.0000000  0 15G16G18G21G22G27G29G31R03R04R09R10R16
                                R18R19R20
  21472855.980   112840629.06409  21472852.400    87927764.73548
  22732224.780   119458681.56409  22732221.520    93084690.79746
  21450029.100   112720963.55909  21450025.420    87834632.58648
  23897353.060   125581469.86208  23897349.100    97855690.44846
  22545747.060   118478717.65508  22545746.160    92321092.23248
  24343651.380   127927228.96108  24343649.720    99683765.95045
  22927016.500   120482327.81709  22927013.200    93882343.80947
  22840343.520   122266148.26408  22840343.620    95095897.27207
  23257770.320   124544305.21007  23257770.500    96867798.43406
  19642331.060   104888970.30109  19642331.400    81580298.72106
  22000822.720   117276771.01209  22000827.500    91215282.22206
  21203761.240   113266726.89808  21203763.380    88096377.46507
  22301145.080   119045384.44908  22301147.560    92590969.80807
  19977177.860   106864608.94109  19977176.920    83116983.15808
  22034792.860   117829967.70107  22034795.400    91645542.44607
 15 02 26 00 11  0.0000000  0 15G16G18G21G22G27G29G31R03R04R09R10R16
                                R18R19R20
  21460430.060   112775330.47209  21460426.500    87876882.71348
  22721281.160   119401172.54209  22721277.960    93039878.60246
  21458215.180   112763981.68109  21458211.440    87868153.20548
  23879985.280   125490201.73608  23879981.260    97784572.48846
  22534281.480   118418465.74108  22534280.600    92274142.69948
  24358157.560   128003459.19408  24358155.780    99743166.13945
  22944753.440   120575535.92909  22944750.160    93954973.49147
  22834726.300   122236078.82408  22834726.340    95072509.94707
  23238869.600   124443092.60208  23238869.740    96789077.55506
  19644553.580   104900838.19309  19644553.920    81589529.30206
  21981921.500   117176017.22009  21981926.360    91136918.18006
  21225728.820   113384073.75708  21225730.880    88187647.22607
  22316773.240   119128809.27208  22316775.800    92655855.77907
  19979742.740   106878328.97509  19979741.760    83127654.29908
  22022990.760   117766856.12707  22022993.160    91596455.69707
 15 02 26 00 11 30.0000000  0 15G16G18G21G22G27G29G31R03R04R09R10R16
                                R18R19R20
  21448056.180   112710305.38509  21448052.700    87826213.82148
  22710393.680   119343958.49909  22710390.520    92995296.22746
  21466463.440   112807326.27509  21466459.640    87901928.21648
  23862619.580   125398944.50008  23862615.500    97713463.03846
  22522839.760   118358339.19908  22522839.020    92227290.86248
  24372663.600   128079688.44208  24372661.480    99802565.56745
  22962523.640   120668919.03909  22962520.460    94027739.52447
  22829232.100   122206667.60108  22829232.060    95049634.56407
  23220001.460   124342054.70108  23220001.580    96710492.55606
  19646929.980   104913527.87608  19646930.320    81599399.04506
  21963113.780   117075761.66409  21963118.720    91058941.63706
  21247771.440   113501821.62608  21247773.600    88279228.87307
  22332399.100   119212221.53108  22332401.880    92720731.98507
  19982359.860   106892328.43009  19982358.800    83138542.77908
  22011237.540   117704006.59707  22011239.960    91547572.74807
 15 02 26 00 12  0.0000000  0 15G16G18G21G22G27G29G31R03R04R09R10R16
                                R18R19R20
  21435735.280   112645558.91809  21435731.880    87775762.02448
  22699563.240   119287044.14409  22699560.040    92950947.38946
  21474774.160   112850999.06009  21474770.260    87935958.95148
  23845257.000   125307703.57908  23845252.860    97642366.27846
  22511422.420   118298341.07408  22511421.640    92180539.08748
  24387169.860   128155919.66008  24387167.800    99861966.49046
  22980327.180   120762477.27609  22980324.000    94100642.01647
  22823861.680   122177919.56108  22823861.640    95027274.99107
  23201167.420   124241199.51808  23201167.320    96632049.66106
  19649460.780   104927042.15908  19649461.120    81609910.14306
  21944400.880   116976011.71109  21944405.920    90981358.35606
  21269888.980   113619969.51708  21269891.200    88371121.65207
  22348022.960   119295623.24808  22348025.940    92785599.93507
  19985029.540   106906608.97409  19985028.420    83149649.85808
  21999533.880   117641421.77907  21999536.380    91498895.67407
 15 02 26 00 12 30.0000000  0 15G16G18G21G22G27G29G31R03R04R09R10R16
                                R18R19R20
  21423467.340   112581090.96309  21423463.980    87725527.26848
  22688789.840   119230429.55809  22688786.700    92906832.15046
  21483146.200   112894994.15109  21483142.220    87970240.84848
  23827897.480   125216478.99608  23827893.440    97571282.25946
  22500028.900   118238468.46908  22500028.180    92133885.13948
  24401675.940   128232149.99008  24401674.020    99921366.69646
  22998163.000   120856204.84809  22998159.780    94173676.47347
  22818615.060   122149834.11908  22818614.880    95005430.80207
  23182367.820   124140528.50607  23182367.500    96553750.01806
  19652145.320   104941377.49008  19652145.680    81621059.84306
  21925782.940   116876767.97609  21925788.080    90904168.78506
  21292080.080   113738510.45708  21292082.420    88463320.14407
  22363644.340   119379010.43708  22363647.400    92850456.62307
  19987750.800   106921165.84809  19987749.640    83160971.88608
  21987879.040   117579097.99507  21987881.540    91450421.64607
 15 02 26 00 13  0.0000000  0 15G16G18G21G22G27G29G31R03R04R09R10R16
                                R18R19R20
  21411252.600   112516902.50509  21411249.320    87675510.30048
  22678073.900   119174116.76409  22678070.740    92862952.06146
  21491579.440   112939310.95809  21491575.360    88004773.42148
  23810541.500   125125272.88708  23810537.440    97500212.61646
  22488659.240   118178721.04608  22488658.540    92087328.71848
  24416181.920   128308378.99408  24416179.960    99980765.91346
  23016030.440   120950098.51409  23016027.140    94246840.34847
  22813492.560   122122413.27008  22813492.380    94984103.51107
  23163603.260   124040045.82407  23163603.000    96475596.84806
  19654983.420   104956533.23708  19654983.880    81632847.63406
  21907260.820   116778034.87009  21907265.960    90827376.37706
  21314343.880   113857439.77708  21314346.300    88555820.70507
  22379262.840   119462381.93808  22379265.560    92915301.12206
  19990523.260   106935997.18809  19990522.180    83172507.37908
  21976272.880   117517034.58807  21976275.480    91402150.14307
 15 02 26 00 13 30.0000000  0 15G16G18G21G22G27G29G31R03R04R09R10R16
                                R18R19R20
  21399091.400   112452995.03809  21399088.200    87625712.27448
  22667415.700   119118107.44209  22667412.540    92819308.44446
  21500073.380   112983946.83809  21500069.220    88039554.62648
  23793189.440   125034087.19908  23793185.240    97429158.89346
  22477313.220   118119097.78408  22477312.500    92040869.04048
  24430687.540   128384605.63508  24430685.300   100040163.30246
  23033928.740   121044154.41809  23033925.360    94320130.63747
  22808494.540   122095658.53108  22808494.340    94963294.29607
  23144874.580   123939755.09708  23144874.680    96397592.98006
  19657974.880   104972507.87008  19657975.440    81645272.34406
  21888835.020   116679815.35809  21888840.160    90750983.44406
  21336679.460   113976752.22808  21336681.860    88648619.25507
  22394877.840   119545735.74808  22394880.340    92980131.83007
  19993346.520   106951100.50609  19993345.700    83184254.38908
  21964715.180   117455230.30807  21964717.920    91354080.17207
 15 02 26 00 14  0.0000000  0 15G16G18G21G22G27G29G31R03R04R09R10R16
                                R18R19R20
  21386984.780   112389374.29409  21386981.540    87576137.67348
  22656816.200   119062406.71809  22656813.000    92775905.30646
  21508628.220   113028902.66009  21508623.960    88074585.13947
  23775842.300   124942927.74908  23775838.100    97358125.60946
  22465991.520   118059601.86508  22465990.640    91994508.60848
  24445193.260   128460833.22708  24445190.640   100099561.44044
  23051857.940   121138372.84809  23051854.560    94393547.57047
  22803621.840   122069574.94508  22803621.520    94943007.09607
  23126183.180   123839663.90308  23126183.420    96319744.30706
  19661120.280   104989304.07209  19661120.800    81658336.05006
  21870506.960   116582116.68109  21870512.120    90674995.59706
  21359086.600   114096446.99508  21359088.980    88741715.16507
  22410489.980   119629073.96608  22410492.460    93044950.45807
  19996220.900   106966477.23109  19996220.300    83196214.07108
  21953206.340   117393687.64607  21953209.060    91306213.68507
 15 02 26 00 14 30.0000000  0 15G16G18G21G22G27G29G31R03R04R09R10R16
                                R18R19R20
  21374932.980   112326041.76809  21374929.720    87526787.65748
  22646275.860   119007016.62809  22646272.560    92732744.21046
  21517243.540   113074176.35109  21517239.260    88109863.34848
  23758500.600   124851796.77608  23758496.400    97287114.50046
  22454694.020   118000232.86008  22454693.100    91948247.04848
  24459698.880   128537061.25508  24459696.440   100158959.91645
  23069817.380   121232750.25009  23069813.960    94467088.37247
  22798874.640   122044164.13407  22798874.620    94923243.15707
  23107529.940   123739776.73208  23107530.180    96242054.30706
  19664419.360   105006920.93508  19664419.840    81672038.04306
  21852277.400   116484942.89809  21852282.580    90599415.98506
  21381564.460   114216519.34708  21381566.820    88835104.74907
  22426098.900   119712395.51308  22426101.400    93109756.08707
  19999145.940   106982125.10508  19999145.420    83208384.63708
  21941746.400   117332406.18607  21941749.140    91258550.33907
 15 02 26 00 15  0.0000000  0  7G16G18G21G22G27G29G31
  21362936.220   112262998.39009  21362932.980    87477662.94848
  22635794.860   118951938.49709  22635791.580    92689826.19646
  21525918.740   113119764.70909  21525914.420    88145386.74848
  23741164.600   124760695.81808  23741160.340    97216126.78946
  22443420.560   117940989.90209  22443419.560    91902083.72048
  24474204.340   128613288.34108  24474202.120   100218357.63046
  23087806.360   121327283.01509  23087802.920    94540750.24247
 15 02 26 00 15 30.0000000  0  7G16G18G21G22G27G29G31
  21350995.320   112200248.66609  21350992.040    87428767.06548
  22625374.000   118897176.76009  22625370.720    92647154.72946
  21534654.000   113165668.55209  21534649.660    88181155.98048
  23723835.320   124669629.98408  23723831.080    97145166.45946
  22432171.520   117881874.97609  22432170.420    91856020.15348
  24488710.180   128689517.03608  24488708.060   100277756.58146
  23105824.700   121421970.20109  23105821.300    94614532.43747
 15 02 26 00 16  0.0000000  0  7G16G18G21G22G27G29G31
  21339109.780   112137790.06509  21339106.600    87380098.03648
  22615013.000   118842729.34009  22615009.600    92604728.18646
  21543448.040   113211881.51009  21543443.760    88217166.08048
  23706512.340   124578597.23808  23706508.140    97074231.89046
  22420945.900   117822883.26109  22420944.700    91810052.59648
  24503215.480   128765742.74508  24503213.460   100337153.25445
  23123871.080   121516804.51009  23123867.760    94688429.27547
 15 02 26 00 16 30.0000000  0  7G16G18G21G22G27G29G31
  21327280.420   112075626.37509  21327277.240    87331658.80948
  22604712.520   118788600.06309  22604709.080    92562549.54746
  21552300.940   113258403.76909  21552296.680    88253417.19248
  23689196.420   124487601.75308  23689192.300    97003326.36546
  22409744.120   117764016.68009  22409742.760    91764182.54348
  24517720.420   128841966.72408  24517718.480   100396548.57145
  23141945.200   121611784.46009  23141941.800    94762439.61147
 15 02 26 00 17  0.0000000  0  7G16G18G21G22G27G29G31
  21315508.300   112013762.99409  21315505.040    87283453.58148
  22594473.680   118734794.67709  22594470.280    92520623.28346
  21561212.960   113305236.50909  21561208.700    88289910.24048
  23671888.820   124396649.77008  23671884.540    96932454.73346
  22398566.700   117705278.44709  22398565.180    91718412.50448
  24532225.640   128918192.71608  24532223.800   100455945.41346
  23160047.100   121706910.43209  23160043.760    94836563.70846
 15 02 26 00 17 30.0000000  0  7G16G18G21G22G27G29G31
  21303792.960   111952198.26909  21303789.640    87235481.08748
  22584296.060   118681311.26409  22584292.740    92478947.92346
  21570182.840   113352373.52009  21570178.660    88326640.37748
  23654589.240   124305739.87608  23654584.920    96861615.90646
  22387412.920   117646664.52009  22387411.300    91672739.33848
  24546730.500   128994416.46408  24546728.800   100515340.52745
  23178175.460   121802175.49609  23178172.180    94910796.20747
 15 02 26 00 18  0.0000000  0  7G16G18G21G22G27G29G31
  21292135.140   111890935.64609  21292131.720    87187743.98148
  22574180.440   118628153.68009  22574177.160    92437526.44146
  21579210.700   113399815.07909  21579206.560    88363607.83248
  23637298.440   124214876.41708  23637294.100    96790813.26146
  22376283.020   117588176.47709  22376281.360    91627164.25848
  24561235.280   129070639.51608  24561233.580   100574735.10545
  23196330.040   121897578.48709  23196326.840    94985136.17147
 15 02 26 00 18 30.0000000  0  6G16G18G21G22G27G31
  21280538.080   111829992.59009  21280534.560    87140255.89748
  22564130.180   118575339.53309  22564126.880    92396372.56646
  21588299.040   113447574.88009  21588294.980    88400823.25148
  23620019.900   124124077.37308  23620015.480    96720060.80446
  22365179.960   117529829.47209  22365178.260    91581699.06548
  23214513.220   121993131.51409  23214510.040    95059593.03747
 15 02 26 00 19  0.0000000  0  6G16G18G21G22G27G31
  21268996.720   111769342.36309  21268993.200    87092995.98048
  22554140.100   118522841.63409  22554136.860    92355465.13146
  21597442.000   113495621.52709  21597438.000    88438262.19548
  23602748.560   124033316.22908  23602744.160    96649337.86846
  22354098.200   117471594.43009  22354096.520    91536321.11948
  23232718.820   122088802.48509  23232715.680    95134141.82347
 15 02 26 00 19 30.0000000  0  6G16G18G21G22G27G31
  21257513.800   111708999.19509  21257510.260    87045975.33248
  22544213.100   118470675.09909  22544209.940    92314815.89146
  21606641.620   113543966.10909  21606637.720    88475933.29348
  23585487.360   123942608.13108  23585482.960    96578656.27846
  22343040.120   117413483.74309  22343038.420    91491040.08348
  23250948.780   122184601.26709  23250945.560    95208790.19946
 15 02 26 00 20  0.0000000  0  7G16G18G19G21G22G27G31
  21246090.400   111648968.46309  21246086.800    86999198.14648
  22534350.160   118418844.96309  22534347.000    92274428.79246
  24539946.400   128958288.72608  24539942.140   100486964.51545
  21615897.980   113592609.15108  21615894.220    88513836.96448
  23568237.300   123851958.47808  23568232.780    96508020.21846
  22332006.280   117355500.41509  22332004.600    91445858.28548
  23269203.040   122280527.70409  23269199.780    95283538.04047
 15 02 26 00 20 30.0000000  0  7G16G18G19G21G22G27G31
  21234714.040   111589185.15909  21234710.500    86952613.75748
  22524538.900   118367286.45409  22524535.700    92234253.34146
  24524836.980   128878884.52508  24524831.520   100425091.07745
  21625198.140   113641482.32608  21625194.440    88551919.95448
  23550986.180   123761303.46708  23550981.680    96437380.01746
  22320983.940   117297577.47209  22320982.300    91400723.52648
  23287468.220   122376511.58909  23287464.940    95358330.64946
 15 02 26 00 21  0.0000000  0  7G16G18G19G21G22G27G31
  21223412.440   111529794.90509  21223408.900    86906335.63648
  22514807.000   118316145.14009  22514803.780    92194402.98746
  24509758.680   128799647.92908  24509753.700   100363348.33346
  21634568.980   113690726.91108  21634565.320    88590292.35848
  23533761.820   123670788.86508  23533757.220    96366849.20146
  22310000.320   117239858.36209  22309998.700    91355747.61048
  23305771.100   122472693.82309  23305767.820    95433277.81347
 15 02 26 00 21 30.0000000  0  7G16G18G19G21G22G27G31
  21212169.800   111470714.92209  21212166.380    86860299.30148
  22505138.880   118265338.78709  22505135.580    92154813.63746
  24494696.280   128720494.52707  24494691.500   100301670.38145
  21643994.180   113740257.13408  21643990.620    88628887.33448
  23516548.620   123580332.82308  23516543.880    96296364.01746
  22299039.360   117182258.29409  22299037.640    91310864.45548
  23324095.020   122568986.70909  23324091.760    95508311.20446
 15 02 26 00 22  0.0000000  0  7G16G18G19G21G22G27G31
  21200987.400   111411951.23709  21200983.960    86814509.41948
  22495535.520   118214872.88909  22495532.240    92115489.57046
  24479650.240   128641427.39008  24479645.500   100240059.65745
  21653473.960   113790073.93209  21653470.480    88667705.61748
  23499347.760   123489941.61708  23499342.960    96225929.34646
  22288101.740   117124780.83609  22288099.960    91266076.84648
  23342440.100   122665390.76009  23342436.980    95583431.20546
 15 02 26 00 22 30.0000000  0  7G16G18G19G21G22G27G31
  21189866.600   111353510.86009  21189863.060    86768971.46148
  22485998.380   118164754.79609  22485995.120    92076436.52246
  24464621.540   128562451.78707  24464616.780   100178520.26345
  21663009.060   113840181.27809  21663005.600    88706750.29648
  23482160.820   123399623.16808  23482155.900    96155551.37446
  22277188.500   117067431.11509  22277186.660    91221388.76248
  23360806.720   122761908.06809  23360803.640    95658639.47147
 15 02 26 00 23  0.0000000  0  7G16G18G19G21G22G27G31
  21178805.060   111295382.04309  21178801.420    86723676.27548
  22476525.160   118114972.71509  22476521.920    92037645.31146
  24449607.620   128483554.03508  24449602.860   100117041.55345
  21672596.320   113890562.68609  21672592.860    88746008.54248
  23464985.540   123309366.14908  23464980.500    96085221.26946
  22266296.880   117010195.13709  22266294.880    91176789.31148
  23379191.760   122858521.80109  23379188.600    95733922.86647
 15 02 26 00 23 30.0000000  0  7G16G18G19G21G22G27G31
  21167806.640   111237585.16609  21167803.040    86678639.75948
  22467119.680   118065546.88709  22467116.520    91999131.68846
  24434612.220   128404752.48407  24434607.500   100055637.71046
  21682238.880   113941234.53109  21682235.300    88785493.09048
  23447825.900   123219191.58008  23447820.740    96014955.40946
  22255430.340   116953091.15809  22255428.260    91132292.71848
  23397598.100   122955247.49708  23397594.920    95809293.50147
 15 02 26 00 24  0.0000000  0  7G16G18G19G21G22G27G31
  21156871.600   111180121.13809  21156868.040    86633862.59548
  22457782.240   118016478.27109  22457779.080    91960896.40846
  24419634.640   128326045.66608  24419629.840    99994307.78945
  21691936.320   113992194.59309  21691932.580    88825202.23247
  23430682.280   123129101.01208  23430677.020    95944754.99846
  22244588.640   116896118.20409  22244586.680    91087898.21348
  23416024.900   123052080.80609  23416021.740    95884747.99947
 15 02 26 00 24 30.0000000  0  7G16G18G19G21G22G27G31
  21145998.240   111122981.07709  21145994.660    86589337.87648
  22448511.140   117967758.08409  22448507.900    91922932.63746
  24404673.240   128247422.61308  24404668.420    99933043.09145
  21701686.100   114043429.61009  21701682.280    88865125.62547
  23413553.000   123039085.99108  23413547.640    95874613.46446
  22233769.760   116839265.02109  22233767.960    91043597.04848
  23434469.560   123149007.99609  23434466.320    95960275.65346
 15 02 26 00 25  0.0000000  0  7G16G18G19G21G22G27G31
  21135188.840   111066176.86309  21135185.180    86545074.85848
  22439308.560   117919398.09109  22439305.260    91885249.54146
  24389729.680   128168893.43408  24389725.100    99871851.56646
  21711489.780   114094947.95209  21711485.860    88905269.78448
  23396440.480   122949158.84708  23396435.000    95804540.40446
  22222975.640   116782541.68309  22222973.820    90999397.05648
  23452933.420   123246036.18208  23452930.220    96035881.99146
 15 02 26 00 25 30.0000000  0  7G16G18G19G21G22G27G31
  21124443.160   111009707.83109  21124439.380    86501073.01348
  22430174.480   117871398.17409  22430171.160    91847847.01946
  24374803.440   128090455.42408  24374798.960    99810731.05545
  21721346.260   114146743.92309  21721342.240    88945630.28347
  23379344.740   122859319.98809  23379339.140    95734536.13446
  22212205.680   116725945.22909  22212203.880    90955295.94448
  23471415.320   123343159.24409  23471412.220    96111562.27446
 15 02 26 00 26  0.0000000  0  7G16G18G19G21G22G27G31
  21113761.460   110953574.69609  21113757.580    86457332.90848
  22421108.980   117823758.44509  22421105.660    91810725.16046
  24359894.160   128012106.71308  24359889.800    99749680.14244
  21731255.140   114198815.31009  21731251.020    88986205.38547
  23362266.060   122769570.72409  23362260.460    95664601.68646
  22201459.580   116669474.28909  22201457.840    90911292.62448
  23489914.420   123440372.68909  23489911.420    96187312.96146
 15 02 26 00 26 30.0000000  0  7G16G18G19G21G22G27G31
  21103144.440   110897781.82409  21103140.560    86413857.94748
  22412112.840   117776483.20109  22412109.500    91773887.31746
  24345002.300   127933849.86208  24344997.900    99688700.80945
  21741216.320   114251161.68809  21741212.180    89026994.77548
  23345205.340   122679915.74909  23345199.660    95594740.70446
  22190737.760   116613131.04509  22190736.140    90867388.80948
  23508430.660   123537676.29908  23508427.780    96263133.93246
 15 02 26 00 27  0.0000000  0  7G16G18G19G21G22G27G31
  21092591.700   110842326.75909  21092587.840    86370646.20448
  22403185.620   117729570.18009  22403182.200    91737331.72546
  24330127.100   127855680.37708  24330122.380    99627789.55445
  21751228.800   114303777.70109  21751224.680    89067994.26847
  23328162.220   122590353.35709  23328156.380    95524951.85846
  22180039.420   116556911.18309  22180037.960    90823581.13348
  23526962.600   123635062.22508  23526959.800    96339019.02647
 15 02 26 00 27 30.0000000  0  7G16G18G19G21G22G27G31
  21082104.340   110787215.01609  21082100.480    86327701.98448
  22394328.320   117683024.65409  22394324.860    91701062.50346
  24315269.180   127777601.32208  24315264.100    99566948.73946
  21761292.700   114356663.91308  21761288.680    89109204.30947
  23311137.780   122500889.24209  23311131.880    95455239.59946
  22169365.120   116500817.80209  22169363.740    90779872.02348
  23545510.260   123732531.01008  23545507.540    96414968.69847
 15 02 26 00 28  0.0000000  0  7G16G18G19G21G22G27G31
  21071683.500   110732452.97509  21071679.640    86285030.27048
  22385542.180   117636853.07509  22385538.720    91665084.66046
  24300429.100   127699617.32108  24300424.440    99506182.04045
  21771408.640   114409823.64708  21771404.700    89150627.47947
  23294133.480   122411531.18709  23294127.560    95385609.98546
  22158715.800   116444855.64209  22158714.580    90736265.15448
  23564074.080   123830084.52909  23564071.340    96490984.39047
 15 02 26 00 28 30.0000000  0  7G16G18G19G21G22G27G31
  21061328.380   110678036.36009  21061324.500    86242627.70948
  22376826.320   117591050.87609  22376822.880    91629394.64446
  24285605.980   127621722.07208  24285601.400    99445484.44745
  21781574.980   114463248.22908  21781571.060    89192257.01547
  23277148.660   122322275.31609  23277142.740    95316059.98446
  22148090.220   116389018.10709  22148089.080    90692755.39548
  23582652.160   123927713.02008  23582649.480    96567058.50447
 15 02 26 00 29  0.0000000  0  7G16G18G19G21G22G27G31
  21051039.660   110623968.42709  21051035.720    86200496.84848
  22368181.360   117545621.42109  22368177.900    91593995.07847
  24270799.960   127543916.82908  24270795.260    99384857.00845
  21791791.580   114516936.76708  21791787.660    89234092.23948
  23260183.960   122233125.34509  23260178.020    95246592.50947
  22137488.600   116333306.42009  22137487.560    90649343.70148
  23601244.220   124025414.87308  23601241.580    96643189.77347
 15 02 26 00 29 30.0000000  0  7G16G18G19G21G22G27G31
  21040818.360   110570254.74409  21040814.300    86158642.03448
  22359608.400   117500570.24609  22359604.920    91558890.28146
  24256011.580   127466204.63408  24256007.340    99324302.09646
  21802058.620   114570890.48108  21802054.740    89276134.09547
  23243240.620   122144087.67109  23243234.740    95177212.54047
  22126911.520   116277724.03409  22126910.640    90606032.76148
  23619850.380   124123190.59908  23619847.700    96719378.61446
 15 02 26 00 30  0.0000000  0  7G16G18G19G21G22G27G31
  21030663.600   110516891.23309  21030659.560    86117060.08448
  22351106.620   117455893.02709  22351103.080    91524076.87447
  24241239.980   127388579.59708  24241235.880    99263815.09046
  21812374.780   114625102.48108  21812370.960    89318377.20348
  23226317.940   122055158.55309  23226312.060    95107917.14447
  22116357.860   116222264.89309  22116357.080    90562817.85248
  23638468.820   124221031.15608  23638466.180    96795617.96047
 15 02 26 00 30 30.0000000  0  7G16G18G19G21G22G27G31
  21020576.860   110463885.15109  21020572.840    86075756.64348
  22342677.400   117411596.99609  22342673.820    91489560.49046
  24226485.980   127311047.03408  24226481.800    99203400.13945
  21822740.640   114679575.76408  21822736.960    89360823.90947
  23209417.460   121966346.01809  23209411.540    95038712.60446
  22105828.640   116166934.38309  22105828.060    90519703.17748
  23657100.000   124318938.66008  23657097.380    96871909.47846
 15 02 26 00 31  0.0000000  0  7G16G18G19G21G22G27G31
  21010557.360   110411232.48909  21010553.340    86034728.59948
  22334319.820   117367677.64309  22334316.180    91455337.62846
  24211748.520   127233600.96208  24211744.240    99143052.57945
  21833154.700   114734302.11808  21833151.120    89403467.81947
  23192538.600   121877647.08609  23192532.680    94969596.58847
  22095322.740   116111726.40709  22095322.320    90476683.99148
  23675742.320   124416904.66808  23675739.720    96948246.59346
 15 02 26 00 31 30.0000000  0  7G16G18G19G21G22G27G31
  21000607.120   110358943.51209  21000603.100    85993983.94148
  22326035.880   117324145.33109  22326032.240    91421416.36346
  24197028.960   127156248.84008  24197024.760    99082778.21945
  21843618.200   114789287.95308  21843614.600    89446313.92647
  23175683.320   121789072.25409  23175677.440    94900577.27147
  22084841.740   116056648.93509  22084841.460    90433766.47848
  23694396.720   124514934.02008  23694394.080    97024633.05646
 15 02 26 00 32  0.0000000  0  7G16G18G19G21G22G27G31
  20990725.920   110307017.30809  20990721.920    85953521.97048
  22317825.400   117280999.22009  22317821.820    91387796.02846
  24182326.860   127078988.36508  24182322.760    99022575.26045
  21854130.160   114844528.31308  21854126.520    89489358.36347
  23158851.620   121700621.32909  23158845.720    94831654.49747
  22074385.040   116001699.20709  22074384.900    90390948.52148
  23713062.100   124613020.83908  23713059.520    97101064.30046
 15 02 26 00 32 30.0000000  0  7G16G18G19G21G22G27G31
  20980914.620   110255458.47109  20980910.560    85913346.26348
  22309689.200   117238243.63909  22309685.700    91354480.00447
  24167642.540   127001822.27108  24167638.660    98962445.89145
  21864690.720   114900024.15708  21864687.040    89532601.87848
  23142044.600   121612300.16309  23142038.740    94762832.83847
  22063953.120   115946879.93809  22063953.200    90348232.22048
  23731738.420   124711165.09808  23731735.780    97177540.30946
 15 02 26 00 33  0.0000000  0  7G16G18G19G21G22G27G31
  20971172.280   110204261.95009  20971168.140    85873452.87048
  22301626.220   117195872.90809  22301622.860    91321463.86646
  24152974.840   126924743.11608  24152970.560    98902384.23045
  21875298.160   114955766.48608  21875294.460    89576037.44848
  23125261.300   121524103.62909  23125255.520    94694108.29847
  22053544.620   115892183.89009  22053544.860    90305611.93148
  23750423.640   124809356.45808  23750421.040    97254053.00646
 15 02 26 00 33 30.0000000  0  7G16G18G19G21G22G27G31
  20961500.380   110153435.72809  20961496.160    85833848.01448
  22293638.160   117153895.69509  22293634.920    91288754.35647
  24138324.720   126847756.83608  24138320.460    98842394.93346
  21885953.280   115011759.23108  21885949.600    89619668.15448
  23108503.440   121436040.77709  23108497.680    94625487.92347
  22043160.840   115837617.39109  22043161.160    90263092.58948
  23769118.480   124907598.18008  23769115.840    97330604.94446
 15 02 26 00 34  0.0000000  0  7G16G18G19G21G22G27G31
  20951898.700   110102978.90009  20951894.600    85794531.01648
  22285724.660   117112310.41109  22285721.500    91256350.24846
  24123691.700   126770860.28808  24123687.620    98782475.60945
  21896655.120   115067997.38009  21896651.320    89663490.09147
  23091770.900   121348111.16109  23091765.180    94556971.36047
  22032801.240   115783177.25709  22032801.620    90220671.70548
  23787821.760   125005884.43008  23787819.080    97407191.59346
 15 02 26 00 34 30.0000000  0  7G16G18G19G21G22G27G31
  20942368.240   110052896.27609  20942364.200    85755505.59848
  22277886.580   117071121.13309  22277883.380    91224254.71546
  24109076.280   126694055.73508  24109072.340    98722627.90345
  21907403.780   115124481.83309  21907399.880    89707503.94247
  23075064.640   121260319.71909  23075059.060    94488562.47247
  22022466.280   115728866.16309  22022466.560    90178351.38148
  23806533.380   125104214.48308  23806530.700    97483812.35246
 15 02 26 00 35  0.0000000  0  7G16G18G19G21G22G27G31
  20932909.560   110003190.69609  20932905.540    85716773.97548
  22270124.540   117030331.26409  22270121.240    91192470.41847
  24094478.640   126617344.85308  24094474.780    98662853.20245
  21918199.240   115181212.43709  21918195.360    89751709.59747
  23058385.520   121172670.83509  23058380.080    94420264.66547
  22012156.080   115674685.21009  22012156.240    90136132.45548
  23825253.060   125202586.71808  23825250.280    97560465.99146
 15 02 26 00 35 30.0000000  0  7G16G18G19G21G22G27G31
  20923521.660   109953857.14509  20923517.680    85678332.25448
  22262437.420   116989935.10509  22262434.120    91160992.90246
  24079897.600   126540720.77908  24079893.820    98603146.17645
  21929039.740   115238179.79309  21929035.820    89796099.74547
  23041732.760   121085160.33709  23041727.420    94352074.70047
  22001869.280   115620627.42509  22001869.360    90094009.51148
  23843978.960   125300991.71108  23843976.180    97637145.15746
 15 02 26 00 36  0.0000000  0  7G16G18G19G21G22G27G31
  20914206.040   109904903.42609  20914202.140    85640186.50048
  22254826.780   116949940.71709  22254823.480    91129828.44747
  24065334.180   126464189.12508  24065330.400    98543511.14445
  21939925.940   115295387.27608  21939922.080    89840676.99447
  23025107.860   120997796.27909  23025102.620    94283998.83947
  21991607.020   115566698.61709  21991607.040    90051987.06748
  23862711.560   125399431.87308  23862708.740    97713851.72446
 15 02 26 00 36 30.0000000  0  7G16G18G19G21G22G27G31
  20904962.840   109856330.06409  20904958.940    85602337.12948
  22247292.620   116910348.25709  22247289.260    91098977.18947
  24050788.100   126387748.36708  24050784.240    98483946.94645
  21950857.260   115352831.68709  21950853.340    89885438.87948
  23008511.120   120910580.12909  23008505.840    94216038.22347
  21981369.120   115512897.51409  21981369.040    90010064.14448
  23881449.960   125497902.56508  23881447.120    97790582.06946
 15 02 26 00 37  0.0000000  0  7G16G18G19G21G22G27G31
  20895793.000   109808142.32909  20895789.140    85564788.24948
  22239835.800   116871162.29109  22239832.400    91068442.69047
  24036259.760   126311401.45908  24036255.740    98424455.87345
  21961834.020   115410514.88208  21961830.140    89930386.82147
  22991943.600   120823517.68909  22991938.340    94148197.39147
  21971156.160   115459227.22709  21971155.800    89968243.15048
  23900194.260   125596404.34508  23900191.500    97867336.65046
 15 02 26 00 37 30.0000000  0  7G16G18G19G21G22G27G31
  20886695.860   109760336.88009  20886692.060    85527537.25448
  22232455.680   116832379.51909  22232452.300    91038222.35747
