     2.11           OBSERVATION DATA    G                   RINEX VERSION / TYPE
SPIDER V4,0,0,3554                      2015 04 15 05:10    PGM / RUN BY / DATE 
CABS                                                        MARKER NAME         
CABS                                                        MARKER NUMBER       
                                                            OBSERVER / AGENCY   
462287              LEICA GRX1200PRO    8.10/2.127          REC # / TYPE / VERS 
103298              LEIAT504                                ANT # / TYPE        
  5116912.3402   671231.6412  3737143.4301                  APPROX POSITION XYZ 
        0.0600        0.0000        0.0000                  ANTENNA: DELTA H/E/N
     1     1                                                WAVELENGTH FACT L1/2
     4    C1    L1    P2    L2                              # / TYPES OF OBSERV 
    30.000                                                  INTERVAL            
  2015    01    29    00    00    0.0000000     GPS         TIME OF FIRST OBS   
  2015    01    29    23    59   30.0000000     GPS         TIME OF LAST OBS    
    16                                                      LEAP SECONDS        
    30                                                      # OF SATELLITES     
   G 1   800   800   800   800                              PRN / # OF OBS      
   G 2   940   940   940   940                              PRN / # OF OBS      
   G 3   847   847   847   847                              PRN / # OF OBS      
   G 4   831   831   831   831                              PRN / # OF OBS      
   G 5   646   646   646   646                              PRN / # OF OBS      
   G 6   830   830   830   830                              PRN / # OF OBS      
   G 7   672   672   672   672                              PRN / # OF OBS      
   G 9   808   808   808   808                              PRN / # OF OBS      
   G10   752   752   752   752                              PRN / # OF OBS      
   G11   771   771   771   771                              PRN / # OF OBS      
   G12   836   836   836   836                              PRN / # OF OBS      
   G13   791   791   791   791                              PRN / # OF OBS      
   G14   942   942   942   942                              PRN / # OF OBS      
   G15   699   699   699   699                              PRN / # OF OBS      
   G16   657   657   657   657                              PRN / # OF OBS      
   G17   941   941   941   941                              PRN / # OF OBS      
   G18   898   898   898   898                              PRN / # OF OBS      
   G19   751   751   751   751                              PRN / # OF OBS      
   G20   820   820   820   820                              PRN / # OF OBS      
   G21   742   742   742   742                              PRN / # OF OBS      
   G22   657   657   657   657                              PRN / # OF OBS      
   G23   755   755   755   755                              PRN / # OF OBS      
   G24   815   815   815   815                              PRN / # OF OBS      
   G25   855   855   855   855                              PRN / # OF OBS      
   G27   793   793   793   793                              PRN / # OF OBS      
   G28   876   876   876   876                              PRN / # OF OBS      
   G29   779   779   779   779                              PRN / # OF OBS      
   G30   717   717   717   717                              PRN / # OF OBS      
   G31   871   871   871   871                              PRN / # OF OBS      
   G32   772   772   772   772                              PRN / # OF OBS      
BIT 2 OF LLI FLAGS DATA COLLECTED UNDER A/S CONDITION       COMMENT             
SNR is mapped to RINEX snr flag value [2-9]                 COMMENT             
Lx:     = 25dBHz -> 1; 26-27dBHz -> 2; 28-31dBHz -> 3       COMMENT             
       32-35dBHz -> 4; 36-38dBHz -> 5; 39-41dBHz -> 6       COMMENT             
       42-44dBHz -> 7; 45-48dBHz -> 8; >=49dBHz -> 9        COMMENT             
                                                            END OF HEADER       
 15 01 29 00 00  0.0000000  0  5G12G21G25G29G31
  24241028.200   127387985.17806  24241029.760    99263618.14345
  21955779.480   115378577.34608  21955780.320    89905462.66947
  21333171.480   112106731.70708  21333175.460    87355973.15148
  20668235.960   108612692.76409  20668237.160    84633451.08649
  21001599.080   110364151.49609  21001599.400    85998041.57749
 15 01 29 00 00 30.0000000  0  5G12G21G25G29G31
  24256259.660   127468028.11306  24256261.400    99325989.25144
  21942858.320   115310676.27108  21942859.160    89852552.75147
  21341803.700   112152094.30608  21341807.720    87391320.61448
  20676736.740   108657364.75109  20676737.960    84668260.42449
  20998593.300   110348356.10809  20998593.620    85985733.47749
 15 01 29 00 01  0.0000000  0  5G12G21G25G29G31
  24271517.020   127548206.60106  24271518.740    99388465.99345
  21930003.840   115243125.68608  21930004.680    89799915.94347
  21350490.720   112197744.70208  21350494.740    87426892.34748
  20685283.380   108702277.59409  20685284.600    84703257.45449
  20995692.420   110333111.97509  20995692.760    85973854.92449
 15 01 29 00 01 30.0000000  0  5G12G21G25G29G31
  24286800.160   127628519.08006  24286801.580    99451047.14344
  21917216.260   115175926.43408  21917217.020    89747552.91247
  21359232.380   112243682.11708  21359236.340    87462687.71948
  20693875.320   108747428.43109  20693876.500    84738439.91549
  20992896.460   110318419.13009  20992896.800    85962405.95049
 15 01 29 00 02  0.0000000  0  5G12G21G25G29G31
  24302109.980   127708971.53706  24302111.060    99513737.30944
  21904496.860   115109085.55908  21904497.580    89695469.13447
  21368029.760   112289912.26208  21368033.640    87498711.19648
  20702513.360   108792821.38809  20702514.480    84773811.05149
  20990206.480   110304283.43909  20990206.880    85951391.12249
 15 01 29 00 02 30.0000000  0  5G12G21G25G29G31
  24317445.860   127789560.84806  24317446.640    99576534.14044
  21891845.280   115042601.41708  21891846.040    89643663.33247
  21376882.300   112336432.40008  21376886.060    87534960.64248
  20711196.560   108838451.84109  20711197.660    84809367.24249
  20987622.180   110290702.95909  20987622.620    85940808.92949
 15 01 29 00 03  0.0000000  0  5G12G21G25G29G31
  24332807.760   127870287.33406  24332808.520    99639437.87345
  21879262.260   114976477.40308  21879263.060    89592138.14147
  21385790.180   112383243.69408  21385793.920    87571436.97148
  20719924.860   108884319.48309  20719925.980    84845108.25349
  20985143.940   110277679.55409  20985144.340    85930660.81849
 15 01 29 00 03 30.0000000  0  5G12G21G25G29G31
  24348195.800   127951151.48806  24348196.620    99702448.87045
  21866748.220   114910715.77908  21866749.000    89540895.32347
  21394753.680   112430347.22308  21394757.400    87608140.99748
  20728698.060   108930423.41408  20728699.260    84881033.38849
  20982772.000   110265214.78609  20982772.380    85920948.00349
 15 01 29 00 04  0.0000000  0  5G12G21G25G29G31
  24363610.220   128032154.68107  24363611.180    99765568.24145
  21854303.700   114845319.45108  21854304.520    89489937.15747
  21403773.120   112477744.72608  21403776.860    87645074.11048
  20737516.260   108976763.61508  20737517.520    84917142.63449
  20980506.720   110253310.58309  20980507.080    85911671.99949
 15 01 29 00 04 30.0000000  0  5G12G21G25G29G31
  24379050.300   128113292.79106  24379051.340    99828792.75045
  21841928.300   114780286.35608  21841929.120    89439262.03048
  21412847.700   112525432.11308  21412851.520    87682233.10048
  20746378.340   109023334.48608  20746379.680    84953431.62649
  20978347.460   110241963.45609  20978347.820    85902830.07349
 15 01 29 00 05  0.0000000  0  5G12G21G25G29G31
  24394516.260   128194567.01706  24394517.380    99892123.33345
  21829622.540   114715619.55008  21829623.400    89388872.32847
  21421977.820   112573411.32808  21421981.700    87719619.48548
  20755284.400   109070135.97309  20755285.720    84989900.31649
  20976294.680   110231176.04509  20976295.020    85894424.29549
 15 01 29 00 05 30.0000000  0  5G12G21G25G29G31
  24410008.660   128275980.51806  24410009.900    99955562.37945
  21817387.460   114651323.90508  21817388.320    89338771.83747
  21431164.160   112621685.62908  21431168.020    87757235.80948
  20764234.600   109117169.35809  20764235.880    85026549.70049
  20974349.020   110220951.80109  20974349.400    85886457.34549
 15 01 29 00 06  0.0000000  0  5G12G21G25G29G31
  24425526.520   128357527.25106  24425527.760   100019105.26044
  21805222.380   114587395.88008  21805223.160    89288957.80747
  21440405.720   112670250.05708  21440409.540    87795078.21548
  20773227.860   109164428.99308  20773229.100    85063375.39049
  20972509.700   110211286.39009  20972510.120    85878925.85449
 15 01 29 00 06 30.0000000  0  5G12G21G25G29G31
  24441069.780   128439207.19806  24441070.940   100082751.94744
  21793127.540   114523836.98608  21793128.200    89239431.40447
  21449702.500   112719104.56608  21449706.200    87833146.66048
  20782263.720   109211912.69509  20782264.940    85100375.67349
  20970776.840   110202180.18309  20970777.260    85871830.10949
 15 01 29 00 07  0.0000000  0  5G12G21G25G29G31
  24456638.820   128521022.23006  24456639.900   100146503.89545
  21781103.620   114460650.63408  21781104.160    89190195.30247
  21459054.960   112768251.53208  21459058.480    87871442.97848
  20791342.320   109259620.80509  20791343.500    85137550.82148
  20969150.940   110193635.82709  20969151.340    85865172.15449
 15 01 29 00 07 30.0000000  0  5G12G21G25G29G31
  24472233.880   128602974.50606  24472234.820   100210362.81745
  21769151.380   114397841.11008  21769151.860    89141252.83647
  21468463.540   112817693.50408  21468466.960    87909969.18048
  20800463.820   109307554.52408  20800464.980    85174901.76948
  20967632.540   110185656.43109  20967632.920    85858954.43749
 15 01 29 00 08  0.0000000  0  5G12G21G25G29G31
  24487854.580   128685062.21106  24487855.480   100274327.23145
  21757270.820   114335408.45608  21757271.340    89092604.03547
  21477927.940   112867428.97808  21477931.300    87948724.08048
  20809627.620   109355710.43909  20809628.740    85212425.85548
  20966221.380   110178240.62809  20966221.760    85853175.88349
 15 01 29 00 08 30.0000000  0  5G12G21G25G29G31
  24503500.420   128767281.79506  24503501.300   100338394.40445
  21745461.700   114273350.95908  21745462.240    89044247.55947
  21487447.520   112917454.85008  21487450.920    87987705.26548
  20818832.860   109404084.21009  20818833.940    85250119.70249
  20964917.000   110171385.86009  20964917.360    85847834.49949
 15 01 29 00 09  0.0000000  0  5G12G21G25G29G31
  24519171.580   128849634.21506  24519172.420   100402565.08845
  21733724.500   114211671.36508  21733725.080    88996185.54147
  21497022.580   112967772.62408  21497026.080    88026913.89548
  20828079.520   109452675.72109  20828080.600    85287983.21348
  20963719.680   110165093.88709  20963720.080    85842931.65949
 15 01 29 00 09 30.0000000  0  5G12G21G25G29G31
  24534868.480   128932122.11806  24534869.220   100466841.36245
  21722060.140   114150374.67908  21722060.740    88948421.89848
  21506653.880   113018385.91508  21506657.440    88066352.81748
  20837367.920   109501486.60008  20837369.000    85326017.66249
  20962630.160   110159368.61609  20962630.620    85838470.39649
 15 01 29 00 10  0.0000000  0  5G12G21G25G29G31
  24550590.760   129014743.65106  24550591.540   100531221.76144
  21710468.440   114089460.03208  21710469.140    88900955.95948
  21516341.000   113069292.42608  21516344.600    88106020.21648
  20846697.280   109550512.86508  20846698.400    85364219.94348
  20961648.080   110154208.00809  20961648.600    85834449.14349
 15 01 29 00 10 30.0000000  0  5G12G21G25G29G31
  24566338.460   129097498.77506  24566339.340   100595706.25044
  21698949.760   114028929.09608  21698950.520    88853789.01147
  21526084.020   113120492.46308  21526087.700    88145916.33048
  20856067.480   109599753.72209  20856068.660    85402589.43548
  20960773.620   110149612.79209  20960774.200    85830868.45049
 15 01 29 00 11  0.0000000  0  5G12G21G25G29G31
  24582111.220   129180385.69505  24582112.260   100660293.45544
  21687504.240   113968782.62208  21687505.020    88806921.64148
  21535882.840   113171985.18108  21535886.540    88186040.51048
  20865478.000   109649206.29909  20865479.180    85441123.91148
  20960006.680   110145582.44809  20960007.260    85827727.91849
 15 01 29 00 11 30.0000000  0  5G12G21G25G29G31
  24597908.940   129263403.39006  24597910.040   100724982.54544
  21676131.940   113909020.98408  21676132.700    88760354.14348
  21545737.140   113223769.67708  21545740.900    88226392.04948
  20874928.380   109698868.28609  20874929.540    85479821.56348
  20959347.080   110142116.12409  20959347.640    85825026.88049
 15 01 29 00 12  0.0000000  0  5G12G21G25G29G31
  24613731.660   129346552.30506  24613732.800   100789773.89745
  21664833.300   113849646.33308  21664834.040    88714088.19348
  21555647.160   113275847.25008  21555651.060    88266971.97648
  20884418.600   109748739.61909  20884419.720    85518682.34248
  20958795.140   110139215.48109  20958795.680    85822766.63049
 15 01 29 00 12 30.0000000  0  5G12G21G25G29G31
  24629579.760   129429834.72006  24629580.980   100854669.27344
  21653609.120   113790663.01908  21653609.860    88668127.18448
  21565613.320   113328220.11808  21565617.400    88307782.00148
  20893948.720   109798820.60309  20893949.840    85557706.49048
  20958351.300   110136882.93909  20958351.800    85820949.05949
 15 01 29 00 13  0.0000000  0  5G12G21G25G29G31
  24645452.700   129513248.11106  24645454.060   100919666.67145
  21642459.280   113732070.12708  21642460.000    88622470.40048
  21575635.240   113380886.14208  21575639.420    88348820.44448
  20903518.100   109849108.10009  20903519.260    85596891.54848
  20958015.160   110135116.50109  20958015.660    85819572.60649
 15 01 29 00 13 30.0000000  0  5G12G21G25G29G31
  24661350.420   129596790.63606  24661351.680   100984764.72044
  21631383.740   113673867.64308  21631384.420    88577117.82348
  21585712.840   113433844.13508  21585716.980    88390086.40148
  20913126.220   109899599.08309  20913127.400    85636235.17148
  20957786.560   110133915.13709  20957787.040    85818636.47149
 15 01 29 00 14  0.0000000  0  5G12G21G25G29G31
  24677272.920   129680462.59006  24677273.980   101049963.65645
  21620382.800   113616057.47608  21620383.480    88532070.95048
  21595846.220   113487094.72508  21595850.180    88431580.35948
  20922772.880   109950292.56508  20922774.060    85675736.58248
  20957665.660   110133279.79009  20957666.140    85818141.39249
 15 01 29 00 14 30.0000000  0  5G12G21G25G29G31
  24693220.680   129764267.70506  24693221.640   101115266.33244
  21609457.600   113558645.37008  21609458.280    88487334.25448
  21606036.140   113540642.42308  21606039.940    88473305.81548
  20932458.600   110001191.67208  20932459.840    85715398.22248
  20957653.360   110133215.30009  20957653.880    85818091.13049
 15 01 29 00 15  0.0000000  0  5G12G21G25G29G31
  24709192.940   129848201.50906  24709193.760   101180669.27345
  21598607.520   113501628.08608  21598608.220    88442905.21148
  21616281.640   113594482.37608  21616285.360    88515259.01148
  20942182.220   110052289.81408  20942183.500    85755214.95148
  20957748.740   110133716.61409  20957749.300    85818481.75849
 15 01 29 00 15 30.0000000  0  5G12G21G25G29G31
  24725189.700   129932265.02206  24725190.560   101246173.27144
  21587833.200   113445008.61008  21587833.920    88398786.15148
  21626582.960   113648616.34108  21626586.720    88557441.32048
  20951943.920   110103587.86408  20951945.200    85795187.45448
  20957952.160   110134785.68609  20957952.760    85819314.79149
 15 01 29 00 16  0.0000000  0  5G12G21G25G29G31
  24741210.800   130016456.66006  24741211.840   101311777.10445
  21577134.700   113388787.50808  21577135.420    88354977.51748
  21636939.980   113703043.33208  21636943.860    88599851.95448
  20961743.100   110155082.99208  20961744.400    85835313.51848
  20958263.520   110136421.69909  20958264.120    85820589.59649
 15 01 29 00 16 30.0000000  0  4G21G25G29G31
  21566498.820   113332895.41008  21566499.540    88311425.23948
  21647339.420   113757693.20508  21647343.360    88642436.26448
  20971566.180   110206703.83408  20971567.520    85875537.54248
  20958669.460   110138554.68709  20958670.020    85822251.65649
 15 01 29 00 17  0.0000000  0  4G21G25G29G31
  21555960.580   113277516.40908  21555961.280    88268272.78548
  21657815.980   113812748.07308  21657819.920    88685336.15348
  20981447.520   110258630.85208  20981448.920    85916000.15148
  20959204.600   110141366.65309  20959205.140    85824442.79149
 15 01 29 00 17 30.0000000  0  4G21G25G29G31
  21545491.360   113222500.20508  21545492.040    88225403.02648
  21668340.920   113868056.78508  21668344.800    88728433.83248
  20991358.160   110310711.53808  20991359.540    85956582.50048
  20959840.200   110144706.57309  20959840.680    85827045.31749
 15 01 29 00 18  0.0000000  0  4G21G25G29G31
  21535097.580   113167880.58908  21535098.260    88182842.29248
  21678920.340   113923651.73908  21678924.140    88771754.57048
  21001303.900   110362976.73008  21001305.300    85997308.61848
  20960582.500   110148607.00709  20960582.900    85830084.60449
 15 01 29 00 18 30.0000000  0  4G21G25G29G31
  21524784.040   113113682.83508  21524784.720    88140610.28348
  21689558.840   113979557.30008  21689562.560    88815317.33648
  21011289.180   110415449.26108  21011290.500    86038196.30048
  20961436.000   110153092.07709  20961436.400    85833579.45849
 15 01 29 00 19  0.0000000  0  4G21G25G29G31
  21514549.180   113059718.62908  21514549.880    88098484.52848
  21700254.460   114035763.35908  21700258.160    88859114.23948
  21021311.800   110468118.07408  21021313.020    86079236.93048
  20962398.800   110158151.77309  20962399.220    85837522.07449
 15 01 29 00 19 30.0000000  0  4G21G25G29G31
  21504392.000   113006342.13608  21504392.680    88056892.46848
  21711006.020   114092263.53508  21711009.800    88903140.33248
  21031370.280   110520975.42308  21031371.440    86120424.47048
  20963469.760   110163779.82609  20963470.200    85841907.56249
 15 01 29 00 20  0.0000000  0  4G21G25G29G31
  21494309.660   112953358.97908  21494310.260    88015606.89948
  21721810.500   114149041.66608  21721814.320    88947383.01847
  21041461.220   110574003.54408  21041462.340    86161745.08448
  20964645.760   110169959.97409  20964646.240    85846723.25549
 15 01 29 00 20 30.0000000  0  4G21G25G29G31
  21484304.540   112900781.80508  21484305.120    87974637.67748
  21732670.020   114206109.03408  21732673.880    88991851.09547
  21051586.540   110627212.73108  21051587.740    86203206.77748
  20965928.980   110176703.51109  20965929.500    85851977.94849
 15 01 29 00 21  0.0000000  0  4G21G25G29G31
  21474378.280   112848619.19308  21474378.900    87933991.49248
  21743586.000   114263472.85108  21743589.920    89036550.16348
  21061747.420   110680608.75208  21061748.680    86244814.06348
  20967320.760   110184017.58309  20967321.340    85857677.21249
 15 01 29 00 21 30.0000000  0  4G21G25G29G31
  21464529.700   112796864.84208  21464530.380    87893663.43448
  21754557.020   114321125.85808  21754561.000    89081474.56448
  21071942.140   110734182.67208  21071943.460    86286559.97048
  20968819.720   110191894.69409  20968820.320    85863815.21349
 15 01 29 00 22  0.0000000  0  4G21G25G29G31
  21454758.980   112745519.56208  21454759.720    87853654.13548
  21765583.080   114379067.78208  21765587.120    89126624.10548
  21082170.540   110787933.31908  21082171.860    86328443.59148
  20970425.820   110200334.58309  20970426.380    85870391.74149
 15 01 29 00 22 30.0000000  0  4G21G25G29G31
  21445068.280   112694594.76308  21445069.080    87813972.48448
  21776666.060   114437308.61808  21776670.120    89172006.55848
  21092434.180   110841869.28208  21092435.500    86370471.61048
  20972140.900   110209347.23509  20972141.440    85877414.57649
 15 01 29 00 23  0.0000000  0  4G21G25G29G31
  21435456.120   112644082.55808  21435456.920    87774612.33548
  21787804.280   114495839.84908  21787808.380    89217615.30148
  21102731.160   110895980.55608  21102732.520    86412636.23148
  20973963.300   110218923.80109  20973963.820    85884876.82849
 15 01 29 00 23 30.0000000  0  4G21G25G29G31
  21425922.560   112593983.31808  21425923.320    87735573.98048
  21798997.480   114554659.92308  21799001.560    89263449.10548
  21113060.960   110950264.22108  21113062.340    86454935.19148
  20975892.720   110229062.81909  20975893.220    85892777.35349
 15 01 29 00 24  0.0000000  0  4G21G25G29G31
  21416469.340   112544306.38208  21416470.080    87696864.69048
  21810247.280   114613777.41708  21810251.300    89309514.67748
  21123425.060   111004728.23608  21123426.520    86497374.67548
  20977930.720   110239772.52109  20977931.220    85901122.57349
 15 01 29 00 24 30.0000000  0  4G21G25G29G31
  21407097.300   112495055.92408  21407098.000    87658487.72448
  21821554.160   114673194.91308  21821558.060    89355814.01248
  21133823.760   111059373.86008  21133825.280    86539955.67448
  20980077.780   110251055.51609  20980078.300    85909914.51949
 15 01 29 00 25  0.0000000  0  4G21G25G29G31
  21397805.460   112446226.92308  21397806.160    87620439.15748
  21832916.940   114732906.39908  21832920.800    89402342.42848
  21144255.580   111114193.51208  21144257.180    86582672.27648
  20982332.740   110262905.34009  20982333.240    85919148.13649
 15 01 29 00 25 30.0000000  0  4G21G25G29G31
  21388594.720   112397824.21808  21388595.440    87582722.77048
  21844336.340   114792915.76408  21844340.140    89449102.95648
  21154721.100   111169189.90708  21154722.700    86625526.60848
  20984696.260   110275325.69009  20984696.760    85928826.32249
 15 01 29 00 26  0.0000000  0  4G21G25G29G31
  21379465.120   112349847.75208  21379465.800    87545338.52348
  21855812.000   114853221.17208  21855815.780    89496094.15447
  21165219.740   111224360.20508  21165221.300    86668516.44248
  20987168.020   110288314.81309  20987168.500    85938947.71149
 15 01 29 00 26 30.0000000  0  4G21G25G29G31
  21370415.560   112302292.01708  21370416.220    87508282.11648
  21867342.840   114913816.46008  21867346.620    89543311.24147
  21175750.080   111279697.20008  21175751.600    86711636.17448
  20989746.780   110301866.23609  20989747.260    85949507.26149
 15 01 29 00 27  0.0000000  0  4G21G25G29G31
  21361445.920   112255156.10408  21361446.500    87471552.84648
  21878928.480   114974699.69308  21878932.280    89590752.71547
  21186311.500   111335197.45008  21186312.940    86754883.11648
  20992432.100   110315977.57509  20992432.600    85960503.10149
 15 01 29 00 27 30.0000000  0  4G21G25G29G31
  21352557.200   112208445.42308  21352557.720    87435154.91948
  21890569.660   115035874.89808  21890573.540    89638421.70048
  21196904.540   111390863.92008  21196905.900    86798259.58448
  20995224.680   110330652.66609  20995225.180    85971938.23149
 15 01 29 00 28  0.0000000  0  4G21G25G29G31
  21343749.280   112162159.47508  21343749.800    87399087.95548
  21902266.140   115097340.42608  21902270.060    89686316.90247
  21207528.660   111446693.95508  21207530.020    86841763.50648
  20998124.140   110345889.55209  20998124.680    85983811.13049
 15 01 29 00 28 30.0000000  0  4G21G25G29G31
  21335021.240   112116293.59108  21335021.780    87363348.31148
  21914016.880   115159090.92408  21914020.820    89734434.16947
  21218182.720   111502681.22908  21218184.080    86885389.94748
  21001129.420   110361682.55409  21001130.000    85996117.36349
 15 01 29 00 29  0.0000000  0  4G21G25G29G31
  21326375.080   112070858.15508  21326375.700    87327944.08748
  21925823.400   115221134.92008  21925827.420    89782780.13047
  21228868.000   111558832.71808  21228869.380    86929144.34648
  21004242.180   110378040.22709  21004242.800    86008863.59949
 15 01 29 00 29 30.0000000  0  4G21G25G29G31
  21317810.900   112025853.40308  21317811.580    87292875.45848
  21937685.680   115283471.72808  21937689.720    89831354.23947
  21239584.300   111615147.23408  21239585.680    86973025.78048
  21007462.120   110394960.99909  21007462.740    86022048.61349
 15 01 29 00 30  0.0000000  0  4G21G25G29G31
  21309327.780   111981274.62508  21309328.540    87258138.75148
  21949602.760   115346096.04308  21949606.700    89880152.38747
  21250330.420   111671618.25508  21250331.760    87017029.16548
  21010788.180   110412439.49209  21010788.780    86035668.20349
 15 01 29 00 30 30.0000000  0  4G21G25G29G31
  21300926.920   111937127.98608  21300927.740    87223738.77948
  21961575.540   115409012.99108  21961579.340    89929178.55947
  21261107.040   111728249.64108  21261108.320    87061157.51048
  21014221.260   110430480.47009  21014221.860    86049726.10649
 15 01 29 00 31  0.0000000  0  4G21G25G29G31
  21292609.660   111893420.32208  21292610.460    87189680.86748
  21973604.920   115472227.33408  21973608.580    89978436.46847
  21271914.860   111785045.01108  21271916.080    87105413.63048
  21017762.180   110449088.05109  21017762.760    86064225.51249
 15 01 29 00 31 30.0000000  0  4G21G25G29G31
  21284374.840   111850145.69108  21284375.560    87155960.38248
  21985689.660   115535732.70608  21985693.240    90027921.15547
  21282752.500   111841997.26408  21282753.720    87149791.99948
  21021409.680   110468255.83309  21021410.240    86079161.44149
 15 01 29 00 32  0.0000000  0  4G21G25G29G31
  21276222.620   111807305.07308  21276223.240    87122578.09248
  21997829.800   115599529.42708  21997833.360    90077632.87847
  21293619.820   111899105.43708  21293621.020    87194291.86448
  21025163.720   110487983.55609  21025164.260    86094533.68349
 15 01 29 00 32 30.0000000  0  4G21G25G29G31
  21268152.920   111764898.19008  21268153.460    87089533.78248
  22010024.920   115663615.32108  22010028.560    90127569.93247
  21304516.220   111956366.55308  21304517.400    87238910.90948
  21029023.840   110508268.66609  21029024.380    86110340.25649
 15 01 29 00 33  0.0000000  0  4G21G25G29G31
  21260165.760   111722925.14208  21260166.240    87056827.52148
  22022275.020   115727990.35908  22022278.740    90177732.27947
  21315441.560   112013779.69908  21315442.740    87283648.41548
  21032989.900   110529110.61209  21032990.500    86126580.72549
 15 01 29 00 33 30.0000000  0  4G21G25G29G31
  21252261.060   111681385.70508  21252261.520    87024459.13348
  22034579.720   115792652.34308  22034583.540    90228118.23147
  21326395.240   112071341.65308  21326396.400    87328501.87748
  21037061.500   110550506.98809  21037062.120    86143253.22449
 15 01 29 00 34  0.0000000  0  4G21G25G29G31
  21244439.680   111640284.37508  21244440.160    86992432.13148
  22046939.840   115857605.13608  22046943.680    90278730.77647
  21337377.780   112129055.52908  21337378.940    87373473.72948
  21041239.260   110572461.04209  21041239.860    86160360.27749
 15 01 29 00 34 30.0000000  0  5G16G21G25G29G31
  24554974.200   129037254.63906  24554975.460   100548515.58744
  21236693.720   111599579.41708  21236694.220    86960713.99048
  22059347.360   115922806.85208  22059351.220    90329537.28747
  21348381.020   112186878.36308  21348382.240    87418530.47748
  21045515.040   110594930.42309  21045515.680    86177868.87949
 15 01 29 00 35  0.0000000  0  5G16G21G25G29G31
  24537660.400   128946270.39706  24537661.640   100477618.79445
  21229039.320   111559355.31508  21229039.820    86929370.54248
  22071817.940   115988339.80608  22071821.760    90380601.91047
  21359420.440   112244891.28208  21359421.740    87463735.35148
  21049904.460   110617996.84609  21049905.060    86195842.71249
 15 01 29 00 35 30.0000000  0  5G16G21G25G29G31
  24520342.200   128855262.77806  24520343.360   100406703.80345
  21221467.360   111519564.48108  21221467.900    86898364.70648
  22084342.340   116054155.56008  22084346.160    90431886.90147
  21370486.720   112303045.00508  21370488.020    87509049.93648
  21054398.160   110641611.32809  21054398.720    86214243.59749
 15 01 29 00 36  0.0000000  0  5G16G21G25G29G31
  24503020.880   128764238.78006  24503022.000   100335776.02245
  21213979.100   111480213.34908  21213979.620    86867701.49848
  22096921.560   116120259.91708  22096925.500    90483396.77647
  21381580.820   112361344.87108  21381582.120    87554478.39948
  21058997.200   110665779.22309  21058997.700    86233075.70849
 15 01 29 00 36 30.0000000  0  5G16G21G25G29G31
  24485696.780   128673200.21206  24485697.900   100264836.89745
  21206574.860   111441303.74708  21206575.360    86837382.33448
  22109555.700   116186653.26308  22109559.820    90535131.84247
  21392702.580   112419790.14508  21392703.920    87600020.16948
  21063701.520   110690500.36309  21063701.960    86252338.92049
 15 01 29 00 37  0.0000000  0  5G16G21G25G29G31
  24468369.680   128582145.75505  24468370.620   100193885.39644
  21199254.400   111402834.38908  21199254.860    86807406.21748
  22122244.400   116253333.30708  22122248.600    90587090.30547
  21403851.480   112478377.45608  21403852.740    87645672.61748
  21068510.560   110715771.96809  21068510.980    86272031.06749
 15 01 29 00 37 30.0000000  0  5G16G21G25G29G31
  24451039.900   128491077.31206  24451040.840   100122922.98444
  21192017.700   111364805.35508  21192018.160    86777773.21248
  22134987.740   116320300.27808  22134991.900    90639272.33747
  21415027.340   112537106.45008  21415028.520    87691435.46348
  21073424.260   110741593.54109  21073424.660    86292151.75749
 15 01 29 00 38  0.0000000  0  5G16G21G25G29G31
  24433707.380   128399994.50406  24433708.300   100051949.35744
  21184864.800   111327216.66408  21184865.280    86748483.33148
  22147785.460   116387552.40708  22147789.440    90691676.56447
  21426229.660   112595974.59508  21426230.780    87737306.73948
  21078442.160   110767962.56009  21078442.520    86312699.03749
 15 01 29 00 38 30.0000000  0  5G16G21G25G29G31
  24416372.680   128308900.73505  24416373.720    99980967.23844
  21177796.280   111290071.38608  21177796.820    86719538.96448
  22160637.840   116455091.60708  22160641.600    90744304.50647
  21437458.620   112654983.19908  21437459.760    87783287.46148
  21083564.500   110794880.62309  21083564.880    86333674.13849
 15 01 29 00 39  0.0000000  0  5G16G21G25G29G31
  24399035.940   128217795.55605  24399037.100    99909976.20845
  21170811.940   111253368.50508  21170812.540    86690939.32348
  22173544.500   116522916.11908  22173548.160    90797154.75547
  21448713.720   112714129.16208  21448714.840    87829375.22048
  21088790.800   110822345.20409  21088791.280    86355075.10049
 15 01 29 00 39 30.0000000  0  5G16G21G25G29G31
  24381697.440   128126681.11305  24381698.580    99838977.96744
  21163912.220   111217110.19708  21163912.860    86662686.11148
  22186505.560   116591026.72308  22186509.240    90850227.95347
  21459994.980   112773412.80708  21459996.120    87875570.26248
  21094121.180   110850356.71609  21094121.760    86376902.24049
 15 01 29 00 40  0.0000000  0  5G16G21G25G29G31
  24364357.600   128035559.53406  24364358.620    99767974.12544
  21157097.300   111181297.57508  21157097.940    86634780.18148
  22199521.060   116659424.05508  22199524.940    90903524.56147
  21471302.380   112832834.09708  21471303.660    87921872.56048
  21099555.600   110878914.92509  21099556.220    86399155.38049
 15 01 29 00 40 30.0000000  0  5G16G21G25G29G31
  24347016.320   127944430.20906  24347017.260    99696964.26945
  21150366.840   111145928.85808  21150367.480    86607220.14848
  22212590.660   116728105.88908  22212594.760    90957042.85347
  21482635.400   112892389.92608  21482636.800    87968279.69148
  21105093.480   110908016.82309  21105094.160    86421832.17149
 15 01 29 00 41  0.0000000  0  5G16G21G25G29G31
  24329673.820   127853294.33606  24329674.740    99625949.29945
  21143721.080   111111005.33508  21143721.720    86580007.01748
  22225714.440   116797072.32308  22225718.700    91010782.91947
  21493993.940   112952079.51408  21493995.360    88014791.05148
  21110734.760   110937661.94409  21110735.460    86444932.25349
 15 01 29 00 41 30.0000000  0  5G16G21G25G29G31
  24312330.320   127762153.54906  24312331.300    99554930.51345
  21137160.240   111076528.20608  21137160.880    86553141.73248
  22238892.460   116866323.25408  22238896.720    91064744.67747
  21505377.900   113011902.42008  21505379.280    88061406.30048
  21116479.300   110967849.58709  21116479.980    86468455.07849
 15 01 29 00 42  0.0000000  0  5G16G21G25G29G31
  24294985.860   127671007.87806  24294986.940    99483907.93245
  21130684.200   111042496.59408  21130684.860    86526623.59748
  22252124.360   116935856.75108  22252128.500    91118926.61647
  21516786.700   113071855.97708  21516788.060    88108123.34948
  21122326.600   110998577.04409  21122327.240    86492398.53448
 15 01 29 00 42 30.0000000  0  5G16G21G25G29G31
  24277640.960   127579859.78206  24277642.120    99412883.46645
  21124293.360   111008912.61008  21124294.020    86500454.26648
  22265410.300   117005674.42708  22265414.300    91173329.97447
  21528220.500   113131941.00408  21528221.900    88154942.84548
  21128276.820   111029845.47109  21128277.420    86516763.52849
 15 01 29 00 43  0.0000000  0  5G16G21G25G29G31
  24260295.860   127488710.89206  24260297.120    99341858.39044
  21117987.820   110975776.77908  21117988.480    86474634.14448
  22278750.260   117075776.39008  22278754.180    91227954.85147
  21539679.160   113192156.92908  21539680.620    88201864.33248
  21134329.760   111061653.81809  21134330.360    86541549.24249
 15 01 29 00 43 30.0000000  0  5G16G21G25G29G31
  24242950.740   127397561.73206  24242952.040    99270833.09344
  21111767.540   110943088.94508  21111768.180    86449163.11448
  22292143.940   117146160.88708  22292147.840    91282799.90047
  21551162.300   113252501.25008  21551163.740    88248885.87748
  21140484.980   111093999.69609  21140485.600    86566753.81449
 15 01 29 00 44  0.0000000  0  5G16G21G25G29G31
  24225605.700   127306413.02105  24225606.980    99199808.14445
  21105632.540   110910849.28208  21105633.160    86424041.30748
  22305591.300   117216827.42508  22305595.260    91337864.72047
  21562669.660   113312972.79808  21562671.040    88296006.55648
  21146742.240   111126881.76409  21146742.900    86592376.20149
 15 01 29 00 44 30.0000000  0  5G16G21G25G29G31
  24208260.840   127215265.29006  24208261.980    99128783.94445
  21099582.800   110879057.56008  21099583.340    86399268.54348
  22319092.140   117287775.00208  22319096.200    91393148.53047
  21574201.020   113373570.43808  21574202.400    88343225.48648
  21153101.160   111160298.26709  21153101.860    86618415.03049
 15 01 29 00 45  0.0000000  0  5G16G21G25G29G31
  24190916.460   127124120.62006  24190917.680    99057762.15044
  21093618.560   110847715.15208  21093619.060    86374845.89748
  22332646.620   117359004.02008  22332650.720    91448651.65547
  21585756.300   113434293.71108  21585757.660    88390542.31748
  21159561.760   111194249.10609  21159562.500    86644870.22448
 15 01 29 00 45 30.0000000  0  5G16G21G25G29G31
  24173572.700   127032978.84306  24173573.880    98986742.58845
  21087739.580   110816820.90108  21087740.060    86350772.46548
  22346254.400   117430512.55108  22346258.420    91504372.58247
  21597335.020   113495139.99008  21597336.360    88437955.00048
  21166123.540   111228731.48809  21166124.280    86671739.60648
 15 01 29 00 46  0.0000000  0  5G16G21G25G29G31
  24156230.000   126941842.10506  24156231.060    98915726.97745
  21081946.180   110786376.49108  21081946.700    86327049.55248
  22359915.460   117502301.30708  22359919.360    91560311.85647
  21608937.160   113556109.61308  21608938.500    88485463.78948
  21172786.460   111263745.18209  21172787.180    86699022.99248
 15 01 29 00 46 30.0000000  0  5G16G21G25G29G31
  24138888.580   126850712.10206  24138889.660    98844716.59944
  21076238.380   110756381.88608  21076238.940    86303677.13948
  22373629.800   117574370.22508  22373633.520    91616469.43947
  21620562.560   113617201.50508  21620563.900    88533067.85548
  21179550.300   111299289.17809  21179551.000    86726719.60449
 15 01 29 00 47  0.0000000  0  5G16G21G25G29G31
  24121548.720   126759590.19406  24121549.780    98773712.51145
  21070616.460   110726838.47908  21070617.060    86280656.30648
  22387397.320   117646718.88908  22387400.840    91672845.01447
  21632211.080   113678415.10608  21632212.480    88580766.76148
  21186414.860   111335362.44209  21186415.520    86754828.62949
 15 01 29 00 47 30.0000000  0  5G16G21G25G29G31
  24104210.820   126668478.74906  24104211.760    98702716.60645
  21065080.580   110697747.34908  21065081.220    86257987.90448
  22401218.100   117719347.99808  22401221.540    91729439.10846
  21643882.800   113739750.60908  21643884.260    88628560.65348
  21193380.080   111371964.73409  21193380.700    86783349.88549
 15 01 29 00 48  0.0000000  0  5G16G21G25G29G31
  24086874.940   126577377.90606  24086875.860    98631728.93444
  21059630.600   110669107.57108  21059631.260    86235671.20448
  22415091.880   117792255.71708  22415095.360    91786250.30547
  21655577.420   113801206.20708  21655578.880    88676448.12448
  21200445.380   111409093.30909  21200446.040    86812281.23648
 15 01 29 00 48 30.0000000  0  5G16G21G25G29G31
  24069540.960   126486287.30306  24069541.900    98560749.26844
  21054266.380   110640918.42808  21054267.040    86213705.64848
  22429018.380   117865440.24908  22429022.020    91843277.19347
  21667294.300   113862778.75908  21667295.740    88724426.73148
  21207610.320   111446745.58609  21207611.040    86841620.66849
 15 01 29 00 49  0.0000000  0  5G16G21G25G29G31
  24052209.120   126395208.11106  24052210.100    98489778.45944
  21048987.800   110613179.45308  21048988.480    86192090.87348
  22442997.520   117938900.77608  22443001.300    91900519.14647
  21679033.300   113924467.43608  21679034.660    88772495.82848
  21214874.560   111484919.70309  21214875.320    86871366.73248
 15 01 29 00 49 30.0000000  0  5G16G21G25G29G31
  24034879.960   126304142.91306  24034880.980    98418818.58944
  21043795.160   110585892.13508  21043795.820    86170828.03148
  22457029.400   118012638.32508  22457033.380    91957976.95647
  21690794.460   113986272.67808  21690795.840    88820655.74348
  21222238.160   111523615.78209  21222238.960    86901519.51848
 15 01 29 00 50  0.0000000  0  5G16G21G25G29G31
  24017553.800   126213093.25606  24017554.780    98347870.83545
  21038688.640   110559057.10408  21038689.240    86149917.63048
  22471113.960   118086652.58608  22471118.080    92015650.40247
  21702577.600   114048193.67008  21702579.020    88868905.85848
  21229700.940   111562832.90609  21229701.740    86932078.30648
 15 01 29 00 50 30.0000000  0  6G16G18G21G25G29G31
  24000231.900   126122065.93106  24000232.860    98276940.47545
  24504210.160   128770492.07005  24504214.920   100340673.94043
  21033669.340   110532680.30208  21033669.840    86129364.28848
  22485252.020   118160948.35608  22485256.260    92073543.20247
  21714383.680   114110235.08108  21714385.100    88917249.81348
  21237263.560   111602574.55909  21237264.320    86963045.81348
 15 01 29 00 51  0.0000000  0  6G16G18G21G25G29G31
  23982912.640   126031052.65606  23982913.680    98206021.05344
  24489155.240   128691378.68305  24489160.020   100279027.69143
  21028735.420   110506752.17808  21028735.820    86109160.56148
  22499441.660   118235515.39408  22499445.900    92131647.37747
  21726210.580   114172385.99408  21726212.040    88965679.09448
  21244923.920   111642829.71709  21244924.640    86994413.45748
 15 01 29 00 51 30.0000000  0  6G16G18G21G25G29G31
  23965596.920   125940057.90906  23965598.020    98135116.07744
  24474087.960   128612201.94305  24474093.340   100217332.12944
  21023887.460   110481275.93208  21023887.820    86089308.95348
  22513683.400   118310356.45008  22513687.580    92189965.07547
  21738058.860   114234648.95208  21738060.320    89014195.67948
  21252682.380   111683600.36909  21252683.040    87026182.78748
 15 01 29 00 52  0.0000000  0  6G16G18G21G25G29G31
  23948284.780   125849082.24406  23948285.940    98064225.95444
  24459009.200   128532963.74405  24459014.700   100155588.66944
  21019125.460   110456251.39008  21019125.780    86069809.31049
  22527977.060   118385470.48208  22527981.200    92248495.47147
  21749928.220   114297022.47708  21749929.620    89062798.41948
  21260538.500   111724884.43409  21260539.140    87058352.18548
 15 01 29 00 52 30.0000000  0  6G16G18G21G25G29G31
  23930976.900   125758128.71806  23930977.960    97993353.08944
  24443919.440   128453667.88105  24443924.580   100093800.19744
  21014449.720   110431680.23408  21014450.060    86050662.95748
  22542322.900   118460858.51707  22542326.920    92307239.37347
  21761818.700   114359507.12908  21761820.040    89111487.75848
  21268492.280   111766681.85109  21268492.940    87090921.59748
 15 01 29 00 53  0.0000000  0  6G16G18G21G25G29G31
  23913673.500   125667198.30106  23913674.380    97922498.24744
  24428819.000   128374316.92706  24428824.340   100031968.85644
  21009860.220   110407562.32208  21009860.620    86031869.78349
  22556720.760   118536519.46908  22556724.620    92366195.91547
  21773730.120   114422101.51708  21773731.320    89160262.60248
  21276543.360   111808990.49909  21276544.020    87123889.36848
 15 01 29 00 53 30.0000000  0  6G16G18G21G25G29G31
  23896374.340   125576290.23406  23896374.960    97851660.80244
  24413708.220   128294911.17305  24413713.660    99970094.76944
  21005356.520   110383895.47608  21005356.980    86013428.08148
  22571170.040   118612450.63007  22571173.840    92425363.04147
  21785661.860   114484802.72208  21785663.000    89209120.66948
  21284691.000   111851806.65809  21284691.680    87157252.60448
 15 01 29 00 54  0.0000000  0  6G16G18G21G25G29G31
  23879080.920   125485412.38006  23879081.360    97780846.90744
  24398588.440   128215459.31705  24398594.140    99908184.75343
  21000939.980   110360686.40508  21000940.440    85995343.09448
  22585671.780   118688657.81707  22585675.620    92484745.25646
  21797614.940   114547616.38908  21797616.080    89258066.37648
  21292936.180   111895135.34709  21292936.880    87191015.21648
 15 01 29 00 54 30.0000000  0  6G16G18G21G25G29G31
  23861791.680   125394556.84006  23861792.060    97710050.39844
  24383458.980   128135954.51706  24383464.420    99846233.47544
  20996608.780   110337925.75308  20996609.220    85977607.52748
  22600224.160   118765131.26907  22600228.140    92544334.94447
  21809587.520   114610532.48808  21809588.680    89307091.90148
  21301276.800   111938965.47509  21301277.460    87225168.55448
 15 01 29 00 55  0.0000000  0  6G16G18G21G25G29G31
  23844508.260   125303731.98106  23844508.660    97639277.80844
  24368321.120   128056406.26006  24368326.380    99784248.42443
  20992364.280   110315620.90008  20992364.720    85960227.13449
  22614828.340   118841877.37307  22614832.460    92604137.10547
  21821580.620   114673556.70108  21821581.820    89356201.68248
  21309713.880   111983302.63009  21309714.500    87259716.97848
 15 01 29 00 55 30.0000000  0  6G16G18G21G25G29G31
  23827230.140   125212934.87406  23827230.520    97568526.81745
  24353174.980   127976813.12706  24353179.500    99722228.27643
  20988205.640   110293767.21708  20988206.060    85943198.29949
  22629483.440   118918891.13707  22629487.660    92664147.83147
  21833593.220   114736683.79208  21833594.500    89405391.61348
  21318246.240   112028140.56309  21318246.840    87294655.62548
 15 01 29 00 56  0.0000000  0  6G16G18G21G25G29G31
  23809958.120   125122170.08506  23809958.520    97497801.01245
  24338021.320   127897180.83906  24338025.560    99660177.63644
  20984133.500   110272368.14508  20984133.900    85926523.70249
  22644189.980   118996175.35407  22644194.340    92724369.28846
  21845625.960   114799917.10308  21845627.360    89454664.31448
  21326874.240   112073481.30309  21326874.880    87329986.06248
 15 01 29 00 56 30.0000000  0  6G16G18G21G25G29G31
  23792692.220   125031437.07606  23792692.580    97427099.94545
  24322860.220   127817509.28606  24322863.880    99598096.37943
  20980147.480   110251421.47408  20980147.860    85910201.62649
  22658947.500   119073727.06507  22658951.880    92784799.17346
  21857678.320   114863252.96408  21857679.740    89504016.93147
  21335597.120   112119320.57009  21335597.820    87365704.96148
 15 01 29 00 57  0.0000000  0  6G16G18G21G25G29G31
  23775433.160   124940740.13006  23775433.520    97356427.00445
  24307692.540   127737804.34206  24307695.980    99535989.08143
  20976248.120   110230930.32708  20976248.500    85894234.50749
  22673756.440   119151548.68807  22673760.740    92845439.37446
  21869750.680   114926693.47008  21869752.020    89553451.09048
  21344415.200   112165659.94109  21344415.920    87401813.55348
 15 01 29 00 57 30.0000000  0  6G16G18G21G25G29G31
  23758180.660   124850077.59407  23758181.140    97285780.88945
  24292518.280   127658065.42506  24292521.800    99473855.30444
  20972434.900   110210891.76308  20972435.300    85878620.05649
  22688616.240   119229636.48207  22688620.260    92906286.96846
  21881842.240   114990234.78408  21881843.500    89602963.79647
  21353327.500   112212494.35909  21353328.220    87438307.89548
 15 01 29 00 58  0.0000000  0  6G16G18G21G25G29G31
  23740935.440   124759453.36407  23740936.060    97215164.62045
  24277338.400   127578297.53605  24277342.040    99411698.91144
  20968708.220   110191308.03008  20968708.640    85863360.01249
  22703527.140   119307992.39008  22703530.840    92967343.49746
  21893953.360   115053878.86808  21893954.540    89652556.58848
  21362334.240   112259824.97909  21362334.960    87475188.89548
 15 01 29 00 58 30.0000000  0  6G16G18G21G25G29G31
  23723697.540   124668867.56707  23723698.340    97144578.29545
  24262153.220   127498501.93506  24262157.020    99349520.97544
  20965067.860   110172177.89308  20965068.300    85848453.41849
  22718488.580   119386614.31507  22718492.140    93028607.32146
  21906083.500   115117623.06808  21906084.660    89702227.38248
  21371434.760   112307648.34809  21371435.480    87512453.84648
 15 01 29 00 59  0.0000000  0  6G16G18G21G25G29G31
  23706466.980   124578320.44506  23706467.900    97074022.10645
  24246963.100   127418679.77205  24246966.960    99287322.24844
  20961513.580   110153499.86508  20961513.980    85833899.11949
  22733500.100   119465500.24307  22733503.780    93090076.85546
  21918232.340   115181465.70108  21918233.520    89751974.87347
  21380628.440   112355961.40708  21380629.180    87550100.37948
 15 01 29 00 59 30.0000000  0  6G16G18G21G25G29G31
  23689244.540   124487816.10606  23689245.520    97003499.24145
  24231768.760   127338836.12706  24231772.920    99225106.81844
  20958045.800   110135276.41408  20958046.160    85819699.03349
  22748562.180   119544652.16607  22748566.120    93151753.66347
  21930400.240   115245408.57008  21930401.420    89801800.47747
  21389915.400   112404764.89508  21389916.140    87588129.06548
 15 01 29 01 00  0.0000000  0  6G16G18G21G25G29G31
  23672029.880   124397352.51806  23672030.860    96933008.14545
  24216570.460   127258970.78606  24216574.820    99162874.43944
  20954663.900   110117504.40208  20954664.260    85805850.72049
  22763674.080   119624066.10107  22763678.320    93213634.64846
  21942586.400   115309447.37608  21942587.620    89851700.83947
  21399294.760   112454054.02809  21399295.540    87626536.17348
 15 01 29 01 00 30.0000000  0  6G16G18G21G25G29G31
  23654823.620   124306933.16606  23654824.480    96862551.48345
  24201368.800   127179087.66005  24201373.020    99100628.16045
  20951368.200   110100185.40008  20951368.560    85792355.39648
  22778836.140   119703743.23307  22778840.540    93275720.71647
  21954790.940   115373583.08408  21954792.280    89901676.71047
  21408766.480   112503828.41309  21408767.280    87665321.40248
 15 01 29 01 01  0.0000000  0  6G16G18G21G25G29G31
  23637626.060   124216559.59706  23637626.760    96792130.53645
  24186164.240   127099189.28405  24186168.620    99038370.04944
  20948158.680   110083319.28708  20948159.060    85779212.97549
  22794048.220   119783682.77707  22794052.640    93338011.24847
  21967013.860   115437815.12308  21967015.260    89951727.64548
  21418330.280   112554086.32109  21418331.040    87704483.39648
 15 01 29 01 01 30.0000000  0  6G16G18G21G25G29G31
  23620437.060   124126231.03906  23620437.680    96721744.64145
  24170957.000   127019275.99905  24170961.640    98976100.30345
  20945034.820   110066903.31808  20945035.220    85766421.31349
  22809309.740   119863881.74407  22809313.960    93400503.92746
  21979254.540   115502140.22208  21979255.940    90001851.09748
  21427985.280   112604823.37809  21427985.980    87744018.75348
 15 01 29 01 02  0.0000000  0  6G16G18G21G25G29G31
  23603257.960   124035954.35106  23603258.640    96651399.17845
  24155748.280   126939355.89505  24155752.940    98913825.18944
  20941997.640   110050942.77708  20941998.020    85753984.53649
  22824621.460   119944344.70107  22824625.400    93463202.31246
  21991513.860   115566563.34208  21991515.260    90052050.91848
  21437732.200   112656043.39509  21437732.860    87783930.44048
 15 01 29 01 02 30.0000000  0  6G16G18G21G25G29G31
  23586088.000   123945725.90206  23586088.740    96581091.28344
  24140537.920   126859426.18305  24140542.600    98851542.60744
  20939046.180   110035432.85508  20939046.560    85741898.88949
  22839982.140   120025065.78207  22839985.920    93526101.83546
  22003790.620   115631078.24308  22003792.020    90102322.25747
  21447569.620   112707739.09409  21447570.240    87824212.79348
 15 01 29 01 03  0.0000000  0  6G16G18G21G25G29G31
  23568928.280   123855551.18006  23568929.020    96510825.25644
  24125326.840   126779493.84605  24125331.520    98789257.97043
  20936181.220   110020377.41508  20936181.580    85730167.38149
  22855392.480   120106048.57407  22855396.300    93589205.29846
  22016085.580   115695688.58608  22016087.000    90152667.97547
  21457497.960   112759912.88908  21457498.600    87864867.68848
 15 01 29 01 03 30.0000000  0  6G16G18G21G25G29G31
  23551777.960   123765425.83706  23551778.860    96440597.71045
  24110114.880   126699555.17906  24110119.240    98726968.36244
  20933401.500   110005769.98508  20933401.860    85718784.97449
  22870851.180   120187285.95007  22870855.200    93652507.14246
  22028397.420   115760387.42208  22028398.800    90203082.64247
  21467515.660   112812556.37808  21467516.340    87905888.57848
 15 01 29 01 04  0.0000000  0  6G16G18G21G25G29G31
  23534638.300   123675356.15606  23534639.200    96370413.53645
  24094903.060   126619617.71105  24094907.340    98664679.70644
  20930707.880   109991615.12708  20930708.260    85707755.21649
  22886359.180   120268782.20907  22886363.460    93716010.71746
  22040726.900   115825178.66408  22040728.160    90253569.31447
  21477623.320   112865672.62408  21477624.040    87947277.85348
 15 01 29 01 04 30.0000000  0  6G16G18G21G25G29G31
  23517508.820   123585339.91806  23517509.660    96300271.00745
  24079691.560   126539679.95806  24079695.380    98602390.75944
  20928099.580   109977908.50708  20928099.960    85697074.73749
  22901915.720   120350532.57507  22901920.100    93779712.28346
  22053073.080   115890057.94708  22053074.260    90304124.57747
  21487819.880   112919256.06408  21487820.660    87989031.16848
 15 01 29 01 05  0.0000000  0  6G16G18G21G25G29G31
  23500390.780   123495383.77406  23500391.560    96230175.32545
  24064481.380   126459749.81305  24064484.920    98540107.81844
  20925577.560   109964655.50708  20925578.000    85686747.73149
  22917521.560   120432541.48707  22917526.040    93843615.32546
  22065436.740   115955029.44708  22065437.900    90354751.70447
  21498105.900   112973309.56108  21498106.700    88031150.76648
 15 01 29 01 05 30.0000000  0  6G16G18G21G25G29G31
  23483283.600   123405485.26506  23483284.500    96160124.54945
  24049272.560   126379825.95506  24049275.700    98477829.72044
  20923141.000   109951851.33508  20923141.440    85676770.45649
  22933175.780   120514804.07807  22933180.220    93907716.03046
  22077817.160   116020088.81008  22077818.280    90405447.31147
  21508480.200   113027826.76209  21508480.980    88073631.69248
 15 01 29 01 06  0.0000000  0  6G16G18G21G25G29G31
  23466188.360   123315649.70306  23466189.440    96090122.82345
  24034066.080   126299915.00306  24034068.940    98415561.68144
  20920790.560   109939499.44808  20920790.980    85667145.62549
  22948878.800   120597323.37907  22948883.220    93972016.76946
  22090214.800   116085238.76108  22090215.900    90456213.50047
  21518943.160   113082809.88308  21518943.920    88116475.67448
 15 01 29 01 06 30.0000000  0  7G16G18G21G25G27G29G31
  23449105.460   123225878.50207  23449106.640    96020171.25645
  24018862.560   126220018.96506  24018865.060    98353305.26444
  20918526.160   109927599.64308  20918526.560    85657873.05449
  22964630.460   120680098.32507  22964634.800    94036516.71246
  24623165.240   129395603.47905  24623170.620   100827756.48844
  22102629.520   116150478.66508  22102630.660    90507049.78947
  21529494.340   113138256.49008  21529495.080    88159680.80848
 15 01 29 01 07  0.0000000  0  7G16G18G21G25G27G29G31
  23432034.100   123136167.92906  23432035.240    95950266.93245
  24003661.120   126140134.84506  24003663.200    98291058.08244
  20916346.720   109916146.22508  20916347.080    85648948.32149
  22980429.560   120763122.64107  22980433.800    94101210.96646
  24608377.940   129317895.21005  24608382.080   100767204.68844
  22115060.220   116215802.23808  22115061.360    90557951.26847
  21540132.240   113194158.97108  21540133.020    88203241.18148
 15 01 29 01 07 30.0000000  0  7G16G18G21G25G27G29G31
  23414975.080   123046521.92707  23414976.120    95880412.92445
  23988462.840   126060267.87006  23988464.860    98228824.25444
  20914252.580   109905141.13208  20914252.900    85640372.93249
  22996276.320   120846397.86707  22996280.440    94166100.74446
  24593606.280   129240271.53105  24593609.620   100706717.76444
  22127507.120   116281211.14608  22127508.280    90608919.25147
  21550856.980   113250517.56908  21550857.760    88247156.95948
 15 01 29 01 08  0.0000000  0  7G16G18G21G25G27G29G31
  23397929.600   122956947.06707  23397930.560    95810614.33345
  23973269.040   125980425.57806  23973270.920    98166609.65743
  20912244.520   109894588.72208  20912244.860    85632150.28349
  23012171.600   120929928.22907  23012175.540    94231189.32446
  24578851.980   129162737.52905  24578855.800   100646301.75344
  22139971.120   116346709.70108  22139972.260    90659957.08247
  21561669.060   113307335.27508  21561669.820    88291430.48648
 15 01 29 01 08 30.0000000  0  7G16G18G21G25G27G29G31
  23380896.880   122867439.59307  23380897.780    95740868.25545
  23958079.300   125900605.15506  23958081.380    98104412.11344
  20910321.420   109884483.18908  20910321.820    85624275.84749
  23028114.300   121013707.47807  23028118.000    94296471.82546
  24564113.740   129085287.97505  24564117.880   100585951.51344
  22152451.000   116412291.98408  22152452.160    90711060.14147
  21572567.080   113364604.68809  21572567.820    88336055.99048
 15 01 29 01 09  0.0000000  0  7G16G18G21G25G27G29G31
  23363877.800   122778003.80307  23363878.620    95671178.04345
  23942894.700   125820812.29206  23942896.880    98042236.02644
  20908483.880   109874827.27908  20908484.320    85616751.76449
  23044104.760   121097737.31407  23044108.220    94361949.60446
  24549392.040   129007925.26405  24549396.420   100525668.94844
  22164947.140   116477959.69008  22164948.300    90762229.76847
  21583551.080   113422325.90308  21583551.820    88381033.54848
 15 01 29 01 09 30.0000000  0  7G16G18G21G25G27G29G31
  23346871.900   122688637.14007  23346872.640    95601541.67645
  23927715.080   125741044.43706  23927717.300    97980079.41244
  20906731.020   109865616.27608  20906731.460    85609574.36649
  23060141.860   121182012.68307  23060145.260    94427618.71546
  24534686.180   128930645.26105  24534690.520   100465450.82845
  22177458.680   116543707.86408  22177459.740    90813462.10147
  21594619.900   113480492.84808  21594620.640    88426358.42848
 15 01 29 01 10  0.0000000  0  7G16G18G21G25G27G29G31
  23329880.160   122599344.89407  23329880.920    95531963.30144
  23912541.780   125661308.70406  23912543.800    97917947.81744
  20905063.440   109856853.43608  20905063.900    85602746.18749
  23076226.180   121266536.32907  23076229.660    94493481.28646
  24519996.800   128853451.67005  24520001.040   100405300.04145
  22189986.120   116609539.92408  22189987.120    90864759.78147
  21605773.780   113539106.92208  21605774.560    88472031.72448
 15 01 29 01 10 30.0000000  0  7G16G18G21G25G27G29G31
  23312902.760   122510128.26007  23312903.540    95462443.85845
  23897375.020   125581607.24706  23897376.940    97855842.97844
  20903480.960   109848537.36908  20903481.380    85596266.13449
  23092357.520   121351307.07907  23092361.140    94559536.39646
  24505323.780   128776344.17205  24505328.100   100345216.32645
  22202529.320   116675454.86908  22202530.280    90916122.06247
  21617012.240   113598165.48608  21617013.060    88518051.37648
 15 01 29 01 11  0.0000000  0  7G16G18G21G25G27G29G31
  23295939.980   122420988.50107  23295940.800    95392984.32245
  23882215.120   125501942.26806  23882217.040    97793766.53344
  20901983.420   109840667.43308  20901983.740    85590133.72549
  23108535.580   121436323.75307  23108539.460    94625783.15646
  24490667.100   128699322.39405  24490671.320   100285199.40344
  22215087.960   116741451.34608  22215088.940    90967547.88047
  21628334.840   113657666.09808  21628335.660    88564415.47948
 15 01 29 01 11 30.0000000  0  7G16G18G21G25G27G29G31
  23278992.120   122331926.97507  23278992.940    95323585.73845
  23867062.660   125422315.91606  23867064.460    97731720.16443
  20900570.600   109833242.96908  20900570.920    85584348.43749
  23124760.200   121521584.86407  23124764.240    94692220.36946
  24476026.620   128622385.96605  24476030.720   100225248.95845
  22227661.920   116807528.17008  22227662.940    91019036.30047
  21639741.060   113717606.14908  21639741.860    88611122.00048
 15 01 29 01 12  0.0000000  0  7G16G18G21G25G27G29G31
  23262059.920   122242947.42107  23262060.720    95254251.03845
  23851918.460   125342732.81505  23851920.300    97669707.51445
  20899242.780   109826265.41508  20899243.120    85578911.38149
  23141031.580   121607091.77707  23141035.740    94758849.12445
  24461402.520   128545534.04605  24461406.220   100165381.73045
  22240251.540   116873687.36408  22240252.620    91070588.92747
  21651230.880   113777985.49308  21651231.660    88658170.82148
 15 01 29 01 12 30.0000000  0  7G16G18G21G25G27G29G31
  23245142.960   122154048.34107  23245143.860    95184979.05445
  23836782.320   125263192.64306  23836784.280    97607728.29045
  20897999.340   109819731.36108  20897999.740    85573819.91549
  23157348.960   121692840.22407  23157353.120    94825666.07846
