     2.11           OBSERVATION DATA    G                   RINEX VERSION / TYPE
SPIDER V4,0,0,3554                      2015 04 15 06:47    PGM / RUN BY / DATE 
CABS                                                        MARKER NAME         
CABS                                                        MARKER NUMBER       
                                                            OBSERVER / AGENCY   
462287              LEICA GRX1200PRO    8.10/2.127          REC # / TYPE / VERS 
103298              LEIAT504                                ANT # / TYPE        
  5116912.3402   671231.6412  3737143.4301                  APPROX POSITION XYZ 
        0.0600        0.0000        0.0000                  ANTENNA: DELTA H/E/N
     1     1                                                WAVELENGTH FACT L1/2
     4    C1    L1    P2    L2                              # / TYPES OF OBSERV 
    30.000                                                  INTERVAL            
  2015    01    31    00    00    0.0000000     GPS         TIME OF FIRST OBS   
  2015    01    31    23    59   30.0000000     GPS         TIME OF LAST OBS    
    16                                                      LEAP SECONDS        
    30                                                      # OF SATELLITES     
   G 1   795   795   795   795                              PRN / # OF OBS      
   G 2   940   940   940   940                              PRN / # OF OBS      
   G 3   847   847   847   847                              PRN / # OF OBS      
   G 4   831   831   831   831                              PRN / # OF OBS      
   G 5   646   646   646   646                              PRN / # OF OBS      
   G 6   826   826   826   826                              PRN / # OF OBS      
   G 7   672   672   672   672                              PRN / # OF OBS      
   G 9   808   808   808   808                              PRN / # OF OBS      
   G10   752   752   752   752                              PRN / # OF OBS      
   G11   768   768   768   768                              PRN / # OF OBS      
   G12   836   836   836   836                              PRN / # OF OBS      
   G13   792   792   792   792                              PRN / # OF OBS      
   G14   940   940   940   940                              PRN / # OF OBS      
   G15   698   698   698   698                              PRN / # OF OBS      
   G16   657   657   657   657                              PRN / # OF OBS      
   G17   943   943   943   943                              PRN / # OF OBS      
   G18   896   896   896   896                              PRN / # OF OBS      
   G19   750   750   750   750                              PRN / # OF OBS      
   G20   816   816   816   816                              PRN / # OF OBS      
   G21   742   742   742   742                              PRN / # OF OBS      
   G22   657   657   657   657                              PRN / # OF OBS      
   G23   755   755   755   755                              PRN / # OF OBS      
   G24   818   818   818   818                              PRN / # OF OBS      
   G25   856   856   856   856                              PRN / # OF OBS      
   G27   793   793   793   793                              PRN / # OF OBS      
   G28   867   867   867   867                              PRN / # OF OBS      
   G29   784   784   784   784                              PRN / # OF OBS      
   G30   702   702   702   702                              PRN / # OF OBS      
   G31   870   870   870   870                              PRN / # OF OBS      
   G32   770   770   770   770                              PRN / # OF OBS      
BIT 2 OF LLI FLAGS DATA COLLECTED UNDER A/S CONDITION       COMMENT             
SNR is mapped to RINEX snr flag value [2-9]                 COMMENT             
Lx:     = 25dBHz -> 1; 26-27dBHz -> 2; 28-31dBHz -> 3       COMMENT             
       32-35dBHz -> 4; 36-38dBHz -> 5; 39-41dBHz -> 6       COMMENT             
       42-44dBHz -> 7; 45-48dBHz -> 8; >=49dBHz -> 9        COMMENT             
                                                            END OF HEADER       
 15 01 31 00 00  0.0000000  0  5G12G21G25G29G31
  24486972.180   128680231.28106  24486973.380   100270451.79544
  21750294.360   114298715.57008  21750295.400    89064003.00248
  21478136.980   112868490.66108  21478140.840    87949555.98248
  20817284.360   109396007.90408  20817285.760    85243851.80549
  20966803.100   110181299.18409  20966803.860    85855564.35049
 15 01 31 00 00 30.0000000  0  5G12G21G25G29G31
  24502622.840   128762476.09606  24502624.040   100334538.61745
  21738527.660   114236881.00008  21738528.720    89015820.24248
  21487663.880   112918555.32008  21487667.840    87988567.38748
  20826532.980   109444609.50109  20826534.320    85281723.18249
  20965519.840   110174555.38409  20965520.580    85850309.43649
 15 01 31 00 01  0.0000000  0  5G12G21G25G29G31
  24518299.140   128844855.53506  24518300.440   100398730.34545
  21726833.300   114175426.49208  21726834.360    88967933.63148
  21497246.640   112968913.47108  21497250.680    88027807.49648
  20835822.980   109493428.81208  20835824.320    85319764.20649
  20964343.960   110168376.12709  20964344.720    85845494.42549
 15 01 31 00 01 30.0000000  0  5G12G21G25G29G31
  24534001.260   128927370.76406  24534002.580   100463027.90144
  21715211.940   114114355.81508  21715213.020    88920346.11148
  21506885.620   113019567.06608  21506889.700    88067277.81948
  20845154.460   109542466.23408  20845155.860    85357975.17749
  20963275.860   110162763.42609  20963276.660    85841120.87949
 15 01 31 00 02  0.0000000  0  5G12G21G25G29G31
  24549728.780   129010019.93406  24549730.180   100527429.82345
  21703663.560   114053668.67308  21703664.680    88873057.45448
  21516580.500   113070514.26108  21516584.600    88106976.92148
  20854526.860   109591718.68108  20854528.320    85396353.70549
  20962315.280   110157715.79909  20962316.180    85837187.65949
 15 01 31 00 02 30.0000000  0  5G12G21G25G29G31
  24565481.500   129092801.65406  24565483.020   100591935.01845
  21692188.200   113993365.22608  21692189.320    88826067.77148
  21526331.180   113121754.38908  21526335.340    88146904.27248
  20863939.620   109641183.14708  20863941.120    85434897.44349
  20961462.140   110153232.64709  20961463.080    85833694.28849
 15 01 31 00 03  0.0000000  0  5G12G21G25G29G31
  24581259.460   129175715.62705  24581261.140   100656543.28245
  21680786.180   113933447.39608  21680787.300    88779378.57748
  21536137.680   113173287.52108  21536141.880    88187059.94948
  20873392.520   109690858.66908  20873394.040    85473605.63849
  20960716.600   110149314.70509  20960717.540    85830641.33649
 15 01 31 00 03 30.0000000  0  5G12G21G25G29G31
  24597062.300   129258760.02805  24597063.900   100721253.15845
  21669457.520   113873915.19308  21669458.660    88732989.86848
  21545999.700   113225112.59708  21546003.960    88227443.10948
  20882885.200   109740742.85809  20882886.660    85512476.43249
  20960078.420   110145960.88909  20960079.340    85828027.96449
 15 01 31 00 04  0.0000000  0  5G12G21G25G29G31
  24612890.220   129341935.88306  24612891.760   100786065.47344
  21658202.800   113814771.42108  21658203.920    88686903.83748
  21555917.480   113277230.93508  21555921.860    88268054.79348
  20892417.440   109790835.14608  20892418.920    85551509.38249
  20959547.940   110143173.09509  20959548.840    85825855.64949
 15 01 31 00 04 30.0000000  0  5G12G21G25G29G31
  24628743.240   129425244.01806  24628744.900   100850980.84644
  21647022.420   113756018.47008  21647023.580    88641122.33448
  21565891.140   113329643.17408  21565895.660    88308895.48248
  20901989.080   109841134.44608  20901990.580    85590703.64049
  20959125.300   110140951.80009  20959126.120    85824124.75749
 15 01 31 00 05  0.0000000  0  5G12G21G25G29G31
  24644621.940   129508687.58106  24644623.820   100916001.76944
  21635917.420   113697661.48208  21635918.600    88595649.37648
  21575921.580   113382353.64208  21575926.140    88349968.56048
  20911600.720   109891643.86509  20911602.240    85630061.62348
  20958811.280   110139301.57209  20958812.100    85822838.85749
 15 01 31 00 05 30.0000000  0  5G12G21G25G29G31
  24660524.680   129592256.22906  24660526.400   100981120.17045
  21624886.080   113639691.59308  21624887.280    88550478.05248
  21586006.840   113435351.95108  21586011.360    88391265.92748
  20921250.020   109942351.23408  20921251.560    85669573.85548
  20958604.000   110138212.26609  20958604.820    85821990.03949
 15 01 31 00 06  0.0000000  0  5G12G21G25G29G31
  24676452.460   129675956.03206  24676453.920   101046340.75745
  21613929.700   113582115.78008  21613930.900    88505613.80148
  21596148.160   113488644.44308  21596152.560    88432792.52648
  20930937.920   109993261.65808  20930939.480    85709244.31048
  20958504.700   110137690.50909  20958505.540    85821583.46949
 15 01 31 00 06 30.0000000  0  5G12G21G25G29G31
  24692405.380   129759788.09206  24692406.640   101111664.41145
  21603049.060   113524937.84608  21603050.280    88461059.58748
  21606345.840   113542232.87808  21606350.100    88474549.72548
  20940664.520   110044375.36808  20940666.120    85749073.16948
  20958513.780   110137738.28309  20958514.640    85821620.68349
 15 01 31 00 07  0.0000000  0  5G12G21G25G29G31
  24708382.680   129843748.10906  24708383.820   101177087.75244
  21592243.740   113468155.56208  21592244.920    88416813.66748
  21616599.080   113596113.77808  21616603.300    88516534.82848
  20950428.880   110095687.48108  20950430.480    85789056.62848
  20958630.580   110138352.07609  20958631.460    85822098.96049
 15 01 31 00 07 30.0000000  0  5G12G21G25G29G31
  24724384.840   129927839.71706  24724386.060   101242613.63145
  21581514.560   113411773.23508  21581515.720    88372879.41148
  21626908.500   113650290.36708  21626912.780    88558750.33948
  20960231.300   110147199.60308  20960232.920    85829195.94048
  20958855.740   110139535.30009  20958856.640    85823020.94849
 15 01 31 00 08  0.0000000  0  5G12G21G25G29G31
  24740411.460   130012060.49406  24740412.960   101308240.15545
  21570861.540   113355791.15608  21570862.720    88329257.03248
  21637273.820   113704760.97708  21637278.200    88601194.96548
  20970071.060   110198908.09408  20970072.720    85869488.25948
  20959188.960   110141286.30109  20959189.860    85824385.35949
 15 01 31 00 08 30.0000000  0  4G21G25G29G31
  21560264.860   113300105.00808  21560266.040    88285865.25448
  21647675.060   113759420.09608  21647679.440    88643786.47648
  20979928.080   110250707.28308  20979929.780    85909851.25848
  20959610.160   110143499.59309  20959611.040    85826109.99849
 15 01 31 00 09  0.0000000  0  4G21G25G29G31
  21549773.400   113244971.91408  21549774.560    88242904.41548
  21658160.940   113814523.81508  21658165.300    88686724.42448
  20989850.680   110302850.77408  20989852.380    85950482.54648
  20960168.180   110146431.76709  20960169.040    85828394.80049
 15 01 31 00 09 30.0000000  0  4G21G25G29G31
  21539349.960   113190196.37808  21539351.100    88200222.19848
  21668694.040   113869875.37108  21668698.300    88729855.49148
  20999801.160   110355140.76308  20999802.840    85991227.97948
  20960825.460   110149885.59909  20960826.280    85831086.09649
 15 01 31 00 10  0.0000000  0  4G21G25G29G31
  21529002.180   113135818.65808  21529003.340    88157849.96748
  21679281.820   113925513.98908  21679285.940    88773210.24648
  21009786.720   110407615.07008  21009788.360    86032117.04748
  20961589.520   110153900.55109  20961590.300    85834214.62049
 15 01 31 00 10 30.0000000  0  4G21G25G29G31
  21518735.740   113081868.25208  21518736.860    88115810.71048
  21689929.460   113981467.75208  21689933.540    88816810.56248
  21019812.440   110460300.19008  21019814.020    86073170.38248
  20962465.700   110158504.68009  20962466.440    85837802.25149
 15 01 31 00 11  0.0000000  0  4G21G25G29G31
  21508547.600   113028329.38008  21508548.720    88074092.13148
  21700633.780   114037719.55908  21700637.920    88860643.12548
  21029874.760   110513177.80708  21029876.300    86114373.71448
  20963450.700   110163680.94809  20963451.440    85841835.70049
 15 01 31 00 11 30.0000000  0  4G21G25G29G31
  21498436.480   112975195.14108  21498437.560    88032688.85048
  21711393.160   114094260.85608  21711397.400    88904701.26148
  21039971.800   110566238.11308  21039973.320    86155719.40048
  20964542.920   110169420.91809  20964543.700    85846308.39849
 15 01 31 00 12  0.0000000  0  4G21G25G29G31
  21488401.760   112922462.43408  21488402.800    87991598.45048
  21722206.920   114151087.72408  21722211.200    88948981.92848
  21050102.540   110619475.60608  21050104.060    86197203.15348
  20965741.640   110175720.48309  20965742.460    85851217.14849
 15 01 31 00 12 30.0000000  0  4G21G25G29G31
  21478442.800   112870127.84108  21478443.820    87950818.26648
  21733074.300   114208196.11808  21733078.580    88993481.97148
  21060266.000   110672885.00308  21060267.540    86238820.85748
  20967046.060   110182575.44909  20967046.900    85856558.66749
 15 01 31 00 13  0.0000000  0  4G21G25G29G31
  21468563.340   112818211.27208  21468564.420    87910363.81148
  21743998.600   114265603.62608  21744002.880    89038215.08448
  21070465.260   110726482.65508  21070466.840    86280585.25148
  20968459.520   110190003.43109  20968460.400    85862346.69749
 15 01 31 00 13 30.0000000  0  4G21G25G29G31
  21458761.940   112766704.97208  21458763.120    87870229.05248
  21754978.180   114323301.40608  21754982.480    89083174.37248
  21080698.460   110780258.53108  21080700.020    86322488.52948
  20969980.340   110197995.33309  20969981.220    85868574.14149
 15 01 31 00 14  0.0000000  0  4G21G25G29G31
  21449039.580   112715613.74108  21449040.780    87830417.71848
  21766013.800   114381293.59408  21766018.140    89128363.06848
  21090966.060   110834215.09908  21090967.600    86364532.60448
  20971609.300   110206555.45509  20971610.180    85875244.35849
 15 01 31 00 14 30.0000000  0  4G21G25G29G31
  21439395.520   112664934.06108  21439396.740    87790927.07048
  21777104.540   114439575.28508  21777108.880    89173777.35848
  21101266.900   110888346.37908  21101268.440    86406712.81148
  20973345.440   110215678.73309  20973346.300    85882353.39549
 15 01 31 00 15  0.0000000  0  4G21G25G29G31
  21429831.900   112614676.89108  21429833.080    87751765.66148
  21788252.240   114498156.29508  21788256.600    89219424.88448
  21111602.600   110942660.97508  21111604.180    86449035.87148
  20975190.580   110225374.90409  20975191.440    85889908.84949
 15 01 31 00 15 30.0000000  0  4G21G25G29G31
  21420349.260   112564845.21808  21420350.380    87712935.80148
  21799457.100   114557037.92908  21799461.480    89265306.67148
  21121973.180   110997158.96708  21121974.820    86491501.83148
  20977144.920   110235644.90409  20977145.780    85897911.43449
 15 01 31 00 16  0.0000000  0  4G21G25G29G31
  21410946.360   112515432.57708  21410947.420    87674432.46248
  21810717.740   114616212.78708  21810722.120    89311416.93548
  21132377.040   111051831.75208  21132378.760    86534103.99248
  20979207.060   110246481.44409  20979207.900    85906355.48349
 15 01 31 00 16 30.0000000  0  4G21G25G29G31
  21401622.160   112466433.46508  21401623.200    87636251.35248
  21822033.040   114675674.70408  21822037.360    89357750.88448
  21142812.740   111106671.81208  21142814.540    86576836.49948
  20981375.820   110257878.35709  20981376.660    85915236.18449
 15 01 31 00 17  0.0000000  0  4G21G25G29G31
  21392377.260   112417851.19808  21392378.300    87598395.05748
  21833403.340   114735425.81808  21833407.600    89404310.17548
  21153280.460   111161679.84708  21153282.280    86619699.89748
  20983651.460   110269837.03109  20983652.300    85924554.62149
 15 01 31 00 17 30.0000000  0  4G21G25G29G31
  21383216.020   112369708.52808  21383217.080    87560881.29848
  21844832.460   114795486.40908  21844836.720    89451110.61448
  21163783.840   111216875.32608  21163785.660    86662709.35548
  20986037.880   110282377.72409  20986038.700    85934326.58049
 15 01 31 00 18  0.0000000  0  4G21G25G29G31
  21374133.120   112321977.77608  21374134.200    87523688.52348
  21856315.220   114855829.03008  21856319.480    89498130.81947
  21174317.440   111272229.49508  21174319.240    86705842.47148
  20988529.880   110295473.06509  20988530.660    85944530.73149
 15 01 31 00 18 30.0000000  0  4G21G25G29G31
  21365130.840   112274670.57808  21365131.920    87486825.78648
  21867853.580   114916463.75508  21867857.840    89545378.64948
  21184882.960   111327751.37708  21184884.720    86749106.27248
  20991129.240   110309132.66009  20991130.000    85955174.56149
 15 01 31 00 19  0.0000000  0  4G21G25G29G31
  21356209.860   112227790.43308  21356210.900    87450295.81948
  21879447.940   114977392.63908  21879452.220    89592855.68648
  21195480.520   111383441.67408  21195482.200    86792501.30848
  20993836.260   110323358.24009  20993837.060    85966259.41949
 15 01 31 00 19 30.0000000  0  4G21G25G29G31
  21347370.220   112181337.80308  21347371.220    87414098.98348
  21891098.160   115038614.95508  21891102.460    89640561.38248
  21206109.760   111439298.66708  21206111.420    86836026.23648
  20996650.780   110338148.86609  20996651.660    85977784.57849
 15 01 31 00 20  0.0000000  0  4G21G25G29G31
  21338611.260   112135309.05008  21338612.200    87378232.44148
  21902803.440   115100126.46208  21902807.740    89688492.41148
  21216769.660   111495316.78808  21216771.360    86879676.71448
  20999571.980   110353499.97009  20999572.920    85989746.46549
 15 01 31 00 20 30.0000000  0  4G21G25G29G31
  21329931.960   112089699.12308  21329932.880    87342692.25048
  21914562.640   115161921.35208  21914566.940    89736644.26347
  21227458.900   111551489.04008  21227460.620    86923447.29348
  21002598.700   110369405.43609  21002599.680    86002140.32649
 15 01 31 00 21  0.0000000  0  4G21G25G29G31
  21321335.720   112044525.81308  21321336.660    87307492.28748
  21926378.680   115224015.27608  21926383.040    89785029.12148
  21238180.380   111607830.61108  21238182.080    86967349.81048
  21005733.880   110385880.63409  21005734.840    86014978.13549
 15 01 31 00 21 30.0000000  0  4G21G25G29G31
  21312821.600   111999784.05008  21312822.580    87272628.58848
  21938250.480   115286402.23808  21938254.880    89833642.31547
  21248932.660   111664333.98508  21248934.280    87011378.40848
  21008976.260   110402919.16209  21008977.180    86028254.90149
 15 01 31 00 22  0.0000000  0  4G21G25G29G31
  21304389.320   111955472.39508  21304390.360    87238100.03848
  21950177.680   115349080.22508  21950182.060    89882482.28947
  21259715.160   111720996.18908  21259716.740    87055530.77248
  21012325.360   110420518.82809  21012326.260    86041968.91449
 15 01 31 00 22 30.0000000  0  4G21G25G29G31
  21296039.000   111911591.24108  21296040.060    87203906.94348
  21962160.120   115412048.22308  21962164.400    89931548.24747
  21270527.460   111777815.07508  21270529.000    87099805.22048
  21015780.960   110438678.13109  21015781.860    86056119.01249
 15 01 31 00 23  0.0000000  0  4G21G25G29G31
  21287771.200   111868143.64808  21287772.280    87170051.68848
  21974198.120   115475308.15808  21974202.320    89980841.69347
  21281369.720   111834791.63808  21281371.280    87144202.53648
  21019343.320   110457398.52209  21019344.200    86070706.32249
 15 01 31 00 23 30.0000000  0  4G21G25G29G31
  21279585.760   111825128.62408  21279586.780    87136533.50848
  21986291.400   115538858.30308  21986295.480    90030361.27047
  21292241.460   111891923.10708  21292243.000    87188720.55748
  21023012.080   110476678.12309  21023012.960    86085729.37549
 15 01 31 00 24  0.0000000  0  4G21G25G29G31
  21271483.300   111782549.66208  21271484.260    87103355.11248
  21998440.240   115602700.64708  21998444.340    90080108.53247
  21303142.880   111949210.55608  21303144.400    87233360.11548
  21026787.560   110496518.38509  21026788.420    86101189.31249
 15 01 31 00 24 30.0000000  0  4G21G25G29G31
  21263463.280   111740404.01808  21263464.180    87070514.36548
  22010644.000   115666831.98308  22010648.200    90130080.98647
  21314073.120   112006649.49608  21314074.640    87278117.72748
  21030669.020   110516915.61609  21030669.880    86117083.25049
 15 01 31 00 25  0.0000000  0  4G21G25G29G31
  21255524.840   111698687.39908  21255525.720    87038007.92148
  22022901.780   115731247.40608  22022906.100    90180274.81047
  21325031.140   112064234.29308  21325032.620    87322988.99048
  21034655.480   110537864.64209  21034656.400    86133407.15649
 15 01 31 00 25 30.0000000  0  4G21G25G29G31
  21247669.820   111657409.22208  21247670.680    87005843.11848
  22035214.960   115795953.70708  22035219.340    90230695.29347
  21336018.000   112121970.77708  21336019.500    87367978.45348
  21038748.140   110559371.53409  21038749.080    86150165.76949
 15 01 31 00 26  0.0000000  0  4G21G25G29G31
  21239898.800   111616572.57808  21239899.680    86974022.37348
  22047584.040   115860953.67408  22047588.440    90281344.60247
  21347033.960   112179860.60708  21347035.560    87413087.40648
  21042947.400   110581438.81509  21042948.380    86167361.04549
 15 01 31 00 26 30.0000000  0  5G16G21G25G29G31
  24554541.840   129034987.78206  24554543.700   100546742.07444
  21232204.460   111576138.73208  21232205.340    86942515.49248
  22060001.580   115926207.86108  22060005.960    90332192.00647
  21358071.560   112237863.88108  21358073.200    87458284.75648
  21047245.680   110604026.39209  21047246.700    86184961.74649
 15 01 31 00 27  0.0000000  0  5G16G21G25G29G31
  24537222.240   128943972.88006  24537223.820   100475821.38344
  21224600.600   111536180.09908  21224601.460    86911378.91448
  22072481.100   115991787.73208  22072485.400    90383293.19047
  21369144.100   112296050.55808  21369145.740    87503625.02248
  21051656.480   110627205.21109  21051657.500    86203023.15749
 15 01 31 00 27 30.0000000  0  5G16G21G25G29G31
  24519898.320   128852934.92606  24519899.840   100404882.75344
  21217079.300   111496655.46708  21217080.200    86880580.51548
  22085014.520   116057650.97008  22085018.800    90434615.17647
  21380243.460   112354377.79208  21380245.060    87549074.80648
  21056171.680   110650932.54509  21056172.620    86221511.97849
 15 01 31 00 28  0.0000000  0  5G16G21G25G29G31
  24502571.320   128761880.69805  24502572.820   100333931.41345
  21209641.940   111457571.62908  21209642.820    86850125.59348
  22097602.780   116123802.83108  22097607.180    90486162.05547
  21391370.380   112412849.93808  21391371.980    87594637.51348
  21060792.140   110675213.12609  21060793.040    86240431.90449
 15 01 31 00 28 30.0000000  0  5G16G21G25G29G31
  24485241.660   128670812.61505  24485243.160   100262969.28845
  21202288.700   111418929.92708  21202289.520    86820015.19048
  22110246.080   116190244.40408  22110250.680    90537934.69847
  21402524.940   112471467.31808  21402526.500    87640313.38448
  21065518.000   110700047.40709  21065518.840    86259783.28149
 15 01 31 00 29  0.0000000  0  5G16G21G25G29G31
  24467908.980   128579729.22905  24467910.540   100191995.22845
  21195019.320   111380728.94008  21195020.100    86790248.19848
  22122944.040   116256973.28608  22122948.740    90589931.21247
  21413706.520   112530226.61808  21413708.060    87686099.84148
  21070348.600   110725432.38909  21070349.420    86279563.77649
 15 01 31 00 29 30.0000000  0  5G16G21G25G29G31
  24450573.320   128488629.96806  24450574.780   100121008.78644
  21187833.700   111342968.33608  21187834.480    86760824.36548
  22135696.380   116323987.38208  22135701.020    90642149.97647
  21424914.500   112589124.50708  21424915.960    87731994.29748
  21075283.500   110751365.52409  21075284.340    86299771.40449
 15 01 31 00 30  0.0000000  0  5G16G21G25G29G31
  24433235.120   128397517.43305  24433236.600   100050012.04644
  21180732.180   111305649.61308  21180732.980    86731744.85248
  22148503.280   116391287.68608  22148507.740    90694591.75347
  21436148.840   112648161.32208  21436150.320    87777996.99948
  21080322.800   110777847.01409  21080323.600    86320406.32749
 15 01 31 00 30 30.0000000  0  5G16G21G25G29G31
  24415894.760   128306393.77505  24415896.380    99979006.63444
  21173715.000   111268774.21908  21173715.860    86703010.79048
  22161364.760   116458874.73108  22161369.060    90747256.96547
  21447409.700   112707337.52808  21447411.180    87824108.32348
  21085466.460   110804876.98309  21085467.280    86341468.63049
 15 01 31 00 31  0.0000000  0  5G16G21G25G29G31
  24398552.580   128215260.48005  24398554.260    99907993.70743
  21166782.400   111232343.26608  21166783.300    86674623.04848
  22174280.880   116526748.92108  22174285.080    90800145.92847
  21458696.920   112766652.45308  21458698.440    87870327.73848
  21090714.420   110832455.31209  21090715.320    86362958.23149
 15 01 31 00 31 30.0000000  0  5G16G21G25G29G31
  24381208.460   128124116.43505  24381210.140    99836972.38644
  21159933.980   111196354.75208  21159934.900    86646580.06448
  22187251.060   116594907.44608  22187255.240    90853256.45047
  21470009.700   112826101.94408  21470011.300    87916652.01048
  21096066.000   110860578.23609  21096066.980    86384872.19349
 15 01 31 00 32  0.0000000  0  5G16G21G25G29G31
  24363862.960   128032965.41706  24363864.740    99765945.63745
  21153170.700   111160813.51508  21153171.600    86618885.60648
  22200275.820   116663353.28208  22200280.100    90906590.85347
  21481348.520   112885688.25808  21481350.220    87963082.89648
  21101521.680   110889248.27409  21101522.720    86407212.47149
 15 01 31 00 32 30.0000000  0  5G16G21G25G29G31
  24346516.180   127941807.12906  24346517.820    99694913.20044
  21146492.080   111125717.37708  21146493.020    86591537.97648
  22213354.780   116732084.07208  22213359.220    90960147.29547
  21492712.960   112945409.02708  21492714.740    88009618.55248
  21107080.900   110918462.37509  21107081.980    86429976.69949
 15 01 31 00 33  0.0000000  0  5G16G21G25G29G31
  24329168.200   127850642.44806  24329169.760    99623875.79945
  21139898.200   111091066.48808  21139899.140    86564537.29448
  22226487.880   116801099.35908  22226492.480    91013925.42647
  21504102.720   113005262.57808  21504104.480    88056257.68048
  21112743.440   110948219.27109  21112744.520    86453163.88348
 15 01 31 00 33 30.0000000  0  5G16G21G25G29G31
  24311819.060   127759471.75506  24311820.540    99552833.69445
  21133389.200   111056861.76608  21133390.160    86537884.27948
  22239675.060   116870398.24308  22239679.640    91067924.55247
  21515517.480   113065247.32908  21515519.200    88102999.03848
  21118509.020   110978517.48309  21118510.080    86476772.86949
 15 01 31 00 34  0.0000000  0  5G16G21G25G29G31
  24294469.140   127668297.39106  24294470.680    99481788.74245
  21126965.240   111023103.81508  21126966.180    86511579.39248
  22252916.340   116939981.16308  22252920.820    91122145.00147
  21526957.180   113125363.15008  21526958.880    88149842.53048
  21124377.580   111009356.69009  21124378.580    86500803.40949
 15 01 31 00 34 30.0000000  0  5G16G21G25G29G31
  24277118.760   127577120.45806  24277120.320    99410741.82446
  21120626.400   110989793.15408  21120627.360    86485623.04548
  22266211.560   117009847.70308  22266215.920    91176586.43747
  21538421.560   113185608.93908  21538423.300    88196787.29048
  21130348.840   111040735.71009  21130349.820    86525254.58449
 15 01 31 00 35  0.0000000  0  5G16G21G25G29G31
  24259768.360   127485943.69006  24259769.960    99339694.98645
  21114373.200   110956932.46708  21114374.180    86460017.32448
  22279560.960   117079999.46008  22279565.280    91231250.12147
  21549910.800   113245985.38508  21549912.540    88243833.86548
  21136423.060   111072655.65209  21136424.020    86550127.25849
 15 01 31 00 35 30.0000000  0  5G16G21G25G29G31
  24242417.800   127394766.17106  24242419.500    99268647.60745
  21108205.240   110924519.52608  21108206.220    86434760.50048
  22292964.080   117150433.50208  22292968.360    91286133.76747
  21561424.320   113306489.33008  21561426.020    88290979.79048
  21142599.440   111105112.60609  21142600.400    86575418.38249
 15 01 31 00 36  0.0000000  0  5G16G21G25G29G31
  24225067.260   127303588.62305  24225069.000    99197600.19645
  21102122.580   110892554.73808  21102123.520    86409852.88348
  22306420.740   117221149.05908  22306425.120    91341236.77847
  21572961.860   113367119.34408  21572963.520    88338223.95348
  21148877.740   111138105.26609  21148878.740    86601126.93749
 15 01 31 00 36 30.0000000  0  5G16G21G25G29G31
  24207717.020   127212413.03005  24207718.880    99126554.30444
  21096125.360   110861039.12108  21096126.280    86385295.26748
  22319931.020   117292146.38508  22319935.520    91396559.35147
  21584523.240   113427874.74008  21584524.900    88385565.81648
  21155257.840   111171633.02909  21155258.900    86627252.46149
 15 01 31 00 37  0.0000000  0  5G16G21G25G29G31
  24190367.140   127121239.03206  24190369.000    99055509.65644
  21090213.340   110829971.21408  21090214.220    86361086.52248
  22333494.680   117363423.45008  22333499.180    91452099.91847
  21596108.080   113488753.19408  21596109.700    88433003.56348
  21161739.160   111205692.73409  21161740.280    86653792.48449
 15 01 31 00 37 30.0000000  0  5G16G21G25G29G31
  24173017.800   127030067.59506  24173019.520    98984466.98245
  21084386.560   110799351.47308  21084387.460    86337226.99349
  22347111.620   117434980.07308  22347116.040    91507858.32147
  21607716.140   113549753.79508  21607717.760    88480536.49148
  21168321.580   111240283.53509  21168322.720    86680746.34849
 15 01 31 00 38  0.0000000  0  5G16G21G25G29G31
  24155669.540   126938901.54506  24155671.140    98913428.51245
  21078645.520   110769182.15408  21078646.420    86313718.44548
  22360781.880   117506817.01708  22360786.200    91563835.15047
  21619347.380   113610876.63608  21619349.020    88528164.66948
  21175005.120   111275405.65109  21175006.240    86708114.21749
 15 01 31 00 38 30.0000000  0  5G16G21G25G29G31
  24138323.100   126847745.00106  24138324.480    98842397.44145
  21072990.860   110739466.74208  21072991.800    86290563.58548
  22374505.880   117578936.86408  22374510.060    91620032.41947
  21631002.400   113672124.22208  21631004.060    88575890.05748
  21181790.080   111311060.64909  21181791.140    86735897.32048
 15 01 31 00 39  0.0000000  0  5G16G21G25G29G31
  24120978.060   126756595.87006  24120979.320    98771372.14245
  21067421.820   110710201.23908  21067422.760    86267759.30349
  22388282.860   117651335.54208  22388286.920    91676446.96247
  21642680.240   113733491.77708  21642681.960    88623708.92148
  21188675.500   111347243.53609  21188676.480    86764091.76349
 15 01 31 00 39 30.0000000  0  5G16G21G25G29G31
  24103634.840   126665456.48906  24103636.100    98700354.45545
  21061938.740   110681387.54808  21061939.700    86245307.08548
  22402113.020   117724014.05207  22402117.060    91733079.54847
  21654380.960   113794979.45508  21654382.700    88671621.38948
  21195661.400   111383954.60209  21195662.320    86792697.77649
 15 01 31 00 40  0.0000000  0  5G16G21G25G29G31
  24086293.560   126574327.41906  24086294.860    98629344.80245
  21056541.500   110653025.00308  21056542.480    86223206.40848
  22415996.160   117796970.83108  22416000.240    91789928.97047
  21666104.260   113856585.68408  21666106.000    88719626.23848
  21202747.300   111421191.41509  21202748.240    86821713.46849
 15 01 31 00 40 30.0000000  0  5G16G21G25G29G31
  24068954.160   126483208.55406  24068955.620    98558343.09745
  21051230.100   110625113.35708  21051231.040    86201457.08649
  22429932.020   117870204.29308  22429936.180    91846993.98547
  21677849.680   113918308.24308  21677851.400    88767721.73048
  21209932.760   111458951.51009  21209933.760    86851136.91049
 15 01 31 00 41  0.0000000  0  5G16G21G25G29G31
  24051617.180   126392102.30906  24051618.840    98487351.23245
  21046004.580   110597653.18808  21046005.500    86180059.56848
  22443920.720   117943714.95108  22443924.960    91904274.99847
  21689617.180   113980146.90408  21689618.900    88815907.69448
  21217217.700   111497234.40909  21217218.780    86880967.73349
 15 01 31 00 41 30.0000000  0  5G16G21G25G29G31
  24034282.700   126301008.93806  24034284.380    98416369.41044
  21040864.880   110570643.94008  21040865.780    86159013.41148
  22457961.900   118017501.25608  22457966.260    91961770.80047
  21701406.380   114042099.72108  21701408.140    88864182.60448
  21224601.700   111536037.60909  21224602.820    86911203.98048
 15 01 31 00 42  0.0000000  0  5G16G21G25G29G31
  24016951.340   126209931.65106  24016953.000    98345400.10944
  21035811.480   110544088.12808  21035812.320    86138320.58149
  22472055.800   118091564.78508  22472060.320    92019482.62147
  21713217.620   114104168.38508  21713219.400    88912547.79248
  21232084.860   111575361.77509  21232086.000    86941846.17548
 15 01 31 00 42 30.0000000  0  6G16G18G21G25G29G31
  23999623.740   126118874.34106  23999625.400    98274446.39444
  24500046.360   128748617.12005  24500051.500   100323614.22142
  21030844.840   110517988.04308  21030845.600    86117982.86249
  22486202.720   118165907.22608  22486207.340    92077411.77847
  21725051.100   114166353.88108  21725052.920    88961004.01548
  21239667.400   111615207.98709  21239668.480    86972895.15549
 15 01 31 00 43  0.0000000  0  6G16G18G21G25G29G31
  23982301.840   126027847.39906  23982303.480    98203516.32244
  24484988.460   128669490.03605  24484993.460   100261957.35343
  21025966.700   110492353.09208  21025967.420    86098007.58849
  22500404.320   118240537.31108  22500409.000    92135565.07547
  21736908.440   114228664.32908  21736910.220    89009557.60548
  21247350.720   111655583.83809  21247351.760    87004356.84748
 15 01 31 00 43 30.0000000  0  6G16G18G21G25G29G31
  23964980.560   125936823.62706  23964982.120    98132588.73144
  24469916.100   128590272.56205  24469921.740   100200231.42744
  21021171.680   110467155.06008  21021172.400    86078372.77249
  22514655.100   118315425.99108  22514659.720    92193919.88547
  21748784.040   114291070.62908  21748785.760    89058185.88048
  21255129.080   111696459.18809  21255130.100    87036207.75748
 15 01 31 00 44  0.0000000  0  6G16G18G21G25G29G31
  23947662.800   125845818.64606  23947664.380    98061675.78645
  24454831.880   128511005.48605  24454836.800   100138465.45844
  21016462.480   110442407.98408  21016463.200    86059089.34749
  22528957.720   118390587.09507  22528962.280    92252486.95047
  21760680.380   114353586.00708  21760682.040    89106899.15248
  21263004.940   111737847.02509  21263005.960    87068458.01348
 15 01 31 00 44 30.0000000  0  6G16G18G21G25G29G31
  23930350.020   125754839.39406  23930351.540    97990782.89544
  24439737.140   128431684.92705  24439741.800   100076657.75844
  21011840.260   110418118.06208  21011841.000    86040162.14149
  22543313.200   118466025.70407  22543317.680    92311270.25947
  21772598.440   114416215.27008  21772599.980    89155701.16348
  21270979.040   111779751.24309  21270980.060    87101110.63648
 15 01 31 00 45  0.0000000  0  6G16G18G21G25G29G31
  23913041.120   125663880.48706  23913042.440    97919905.84544
  24424631.640   128352306.94105  24424636.840   100014805.27844
  21007303.840   110394279.13208  21007304.600    86021586.36649
  22557720.120   118541734.36107  22557724.500    92370263.98447
  21784536.720   114478950.83008  21784538.160    89204586.00048
  21279049.860   111822163.66509  21279050.880    87134159.26648
 15 01 31 00 45 30.0000000  0  6G16G18G21G25G29G31
  23895737.380   125572948.51206  23895738.500    97849049.79245
  24409516.460   128272878.72205  24409521.860    99952913.58744
  21002854.020   110370895.48608  21002854.820    86003365.35149
  22572179.320   118617717.58107  22572183.640    92429471.66947
  21796495.900   114541796.47408  21796497.300    89253556.62048
  21287218.020   111865087.81109  21287219.100    87167606.64148
 15 01 31 00 46  0.0000000  0  6G16G18G21G25G29G31
  23878438.400   125482041.83806  23878439.320    97778213.44844
  24394391.720   128193399.84806  24394397.000    99890982.45544
  20998490.440   110347964.85708  20998491.240    85985497.33949
  22586690.080   118693971.94307  22586694.460    92488890.63647
  21808475.340   114604748.60108  21808476.740    89302610.21348
  21295482.760   111908519.24509  21295483.820    87201449.30248
 15 01 31 00 46 30.0000000  0  6G16G18G21G25G29G31
  23861144.360   125391161.48306  23861145.260    97707397.63544
  24379258.060   128113872.90005  24379263.360    99829013.84541
  20994213.020   110325486.93208  20994213.800    85967982.08449
  22601252.140   118770496.45207  22601256.700    92548520.10947
  21820474.780   114667806.34408  21820476.280    89351746.10248
  21303843.620   111952455.81909  21303844.660    87235685.57948
 15 01 31 00 47  0.0000000  0  6G16G18G21G25G29G31
  23843856.100   125300311.48406  23843857.140    97636605.46845
  24364115.980   128034302.58705  24364121.100    99767011.45243
  20990022.200   110303464.25008  20990022.980    85950821.56349
  22615865.900   118847293.12007  22615870.720    92608361.66047
  21832494.560   114730971.01908  21832496.140    89400965.31948
  21312300.760   111996898.40209  21312301.800    87270316.15448
 15 01 31 00 47 30.0000000  0  6G16G18G21G25G29G31
  23826573.160   125209489.11006  23826574.280    97565834.83745
  24348965.540   127954687.57305  24348970.420    99704974.10444
  20985917.340   110281893.28008  20985918.100    85934013.02649
  22630530.640   118924357.39807  22630535.560    92668411.74547
  21844533.740   114794237.91508  21844535.420    89450264.18348
  21320853.140   112041841.57609  21320854.200    87305336.79248
 15 01 31 00 48  0.0000000  0  6G16G18G21G25G29G31
  23809296.280   125118698.66906  23809297.480    97495089.05145
  24333807.680   127875033.17206  24333812.120    99642906.20943
  20981898.880   110260776.20208  20981899.600    85917558.16749
  22645246.680   119001691.29107  22645251.680    92728671.90547
  21856592.840   114857609.27608  21856594.540    89499644.46048
  21329500.960   112087286.25009  21329502.040    87340748.21648
 15 01 31 00 48 30.0000000  0  6G16G18G21G25G29G31
  23792025.420   125027939.68706  23792026.620    97424367.77145
  24318642.560   127795339.99706  24318646.400    99580807.97944
  20977966.440   110240110.99508  20977967.120    85901455.41849
  22660013.620   119079292.35807  22660018.580    92789140.23847
  21868671.320   114921082.04108  21868672.960    89549103.75148
  21338243.540   112133228.84909  21338244.680    87376547.63448
 15 01 31 00 49  0.0000000  0  6G16G18G21G25G29G31
  23774761.420   124937216.77306  23774762.620    97353674.61345
  24303470.920   127715613.90706  24303474.660    99518684.09944
  20974120.700   110219901.41608  20974121.360    85885707.70049
  22674832.080   119157163.30707  22674836.780    92849818.87146
  21880769.520   114984658.23208  21880771.100    89598643.63448
  21347081.220   112179671.09009  21347082.360    87412736.38548
 15 01 31 00 49 30.0000000  0  6G16G18G21G25G29G31
  23757504.000   124846528.30107  23757505.220    97283008.30445
  24288292.980   127635854.45506  24288296.480    99456534.19644
  20970361.140   110200144.67408  20970361.760    85870312.84649
  22689701.280   119235300.37707  22689705.640    92910704.86746
  21892886.820   115048334.77108  21892888.320    89648261.70947
  21356013.080   112226608.17609  21356014.220    87449310.72548
 15 01 31 00 50  0.0000000  0  6G16G18G21G25G29G31
  23740253.960   124755878.62907  23740255.260    97212372.21945
  24273109.420   127556066.58905  24273112.960    99394362.19844
  20966688.160   110180843.09708  20966688.800    85855272.66049
  22704621.520   119313705.75607  22704625.580    92971799.94546
  21905023.500   115112113.35608  21905025.020    89697959.29248
  21365039.300   112274041.18209  21365040.460    87486271.50548
 15 01 31 00 50 30.0000000  0  6G16G18G21G25G29G31
  23723011.080   124665266.89107  23723012.500    97141765.69845
  24257920.580   127476250.77206  24257924.140    99332168.35343
  20963101.280   110161994.00208  20963101.940    85840585.06649
  22719592.140   119392376.37507  22719596.140    93033101.69946
  21917179.000   115175990.81008  21917180.500    89747733.92448
  21374159.100   112321965.85008  21374160.240    87523615.38848
 15 01 31 00 51  0.0000000  0  6G16G18G21G25G29G31
  23705775.960   124574695.69507  23705777.400    97071190.76145
  24242727.100   127396410.79005  24242730.540    99269955.68744
  20959600.880   110143599.25808  20959601.520    85826251.50349
  22734613.200   119471312.69407  22734617.360    93094610.50347
  21929353.280   115239967.23608  21929354.820    89797585.67048
  21383372.340   112370381.71308  21383373.480    87561342.03048
 15 01 31 00 51 30.0000000  0  6G16G18G21G25G29G31
  23688548.420   124484164.41606  23688549.860    97000646.93445
  24227529.160   127316547.02306  24227532.800    99207724.47143
  20956186.440   110125656.24408  20956187.080    85812269.93849
  22749684.260   119550511.96907  22749688.760    93156324.20946
  21941545.840   115304039.81008  21941547.460    89847512.33548
  21392678.200   112419284.58708  21392679.360    87599448.15448
 15 01 31 00 52  0.0000000  0  6G16G18G21G25G29G31
  23671329.080   124393676.45006  23671330.560    96930136.84045
  24212327.680   127236664.33006  24212331.400    99145478.52244
  20952858.360   110108167.10008  20952859.000    85798642.04249
  22764805.660   119629975.71707  22764810.440    93218244.00747
  21953757.100   115368210.45708  21953758.780    89897515.43448
  21402076.820   112468675.00308  21402078.000    87637934.18148
 15 01 31 00 52 30.0000000  0  6G16G18G21G25G29G31
  23654118.300   124303233.57706  23654119.740    96859661.89544
  24197123.040   127156764.96305  24197126.800    99083219.50744
  20949616.580   110091131.46508  20949617.240    85785367.52749
  22779977.320   119709703.09507  22779982.220    93280369.21647
  21965986.800   115432478.08808  21965988.520    89947594.10548
  21411567.860   112518550.83808  21411569.040    87676798.45748
 15 01 31 00 53  0.0000000  0  6G16G18G21G25G29G31
  23636916.080   124212835.97806  23636917.520    96789222.19945
  24181915.500   127076850.47006  24181919.540    99020948.80444
  20946460.820   110074547.90008  20946461.520    85772445.27749
  22795198.900   119789692.15507  22795203.700    93342698.33346
  21978234.520   115496840.46108  21978236.280    89997746.60647
  21421150.780   112568909.08108  21421151.900    87716038.63248
 15 01 31 00 53 30.0000000  0  6G16G18G21G25G29G31
  23619722.620   124122484.17506  23619724.020    96718818.20144
  24166705.460   126996922.51305  24166709.660    98958667.49844
  20943391.020   110058415.94208  20943391.740    85759874.93049
  22810470.060   119869941.40207  22810474.580    93405230.18946
  21990499.940   115561295.89408  21990501.760    90047971.61348
  21430825.040   112619747.23008  21430826.080    87755652.76348
 15 01 31 00 54  0.0000000  0  6G16G18G21G25G29G31
  23602538.720   124032182.21006  23602540.100    96648453.04045
  24151493.720   126916985.80905  24151497.720    98896379.37545
  20940407.480   110042737.13908  20940408.160    85747657.68749
  22825790.940   119950452.48707  22825795.240    93467966.06746
  22002783.380   115625845.98308  22002785.240    90098270.37948
  21440590.680   112671065.72308  21440591.680    87795641.18348
 15 01 31 00 54 30.0000000  0  6G16G18G21G25G29G31
  23585364.220   123941929.60106  23585365.560    96578126.35045
  24136280.540   126837040.88005  24136284.880    98834084.89645
  20937509.760   110027509.40508  20937510.400    85735791.92949
  22841160.880   120031222.39007  22841165.060    93530903.62946
  22015084.380   115690488.16908  22015086.220    90148640.89748
  21450446.880   112722860.26908  21450447.880    87836000.55748
 15 01 31 00 55  0.0000000  0  6G16G18G21G25G29G31
  23568200.080   123851731.68106  23568201.440    96507842.24444
  24121066.860   126757094.62505  24121071.240    98771789.32844
  20934698.680   110012737.20808  20934699.320    85724281.13849
  22856580.600   120112254.65307  22856584.900    93594045.63046
  22027403.540   115755225.59708  22027405.340    90199085.64147
  21460394.060   112775133.04808  21460395.080    87876732.58448
 15 01 31 00 55 30.0000000  0  6G16G18G21G25G29G31
  23551045.460   123761583.63606  23551046.840    96437597.03145
  24105852.420   126677143.01505  24105856.800    98709489.57244
  20931972.940   109998413.53708  20931973.580    85713119.84949
  22872048.780   120193542.04307  22872053.320    93657386.44546
  22039739.580   115820051.27308  22039741.260    90249599.14647
  21470430.680   112827875.82908  21470431.740    87917830.84348
 15 01 31 00 56  0.0000000  0  6G16G18G21G25G29G31
  23533901.220   123671489.71606  23533902.520    96367393.98245
  24090638.040   126597191.42906  24090642.240    98647189.86244
  20929332.900   109984540.38608  20929333.560    85702309.61349
  22887565.980   120275086.45707  22887570.760    93720927.52846
  22052092.800   115884967.27308  22052094.380    90300183.02647
  21480556.840   112881089.24008  21480557.940    87959295.82548
 15 01 31 00 56 30.0000000  0  6G16G18G21G25G29G31
  23516767.380   123581450.29606  23516768.660    96297233.40945
  24075424.200   126517241.31206  24075427.920    98584891.26044
  20926778.400   109971116.77808  20926779.100    85691849.66949
  22903131.880   120356885.85807  22903136.760    93784667.30746
  22064462.700   115949971.33908  22064464.240    90350835.53147
  21490771.940   112934770.11108  21490773.100    88001125.06048
 15 01 31 00 57  0.0000000  0  6G16G18G21G25G29G31
  23499645.420   123491473.26806  23499646.620    96227121.43645
  24060212.180   126437301.51506  24060215.800    98522600.71644
  20924310.560   109958148.38608  20924311.280    85681744.43949
  22918747.500   120438945.89907  22918752.400    93848610.18146
  22076850.400   116015068.85608  22076851.840    90401560.85647
  21501076.860   112988922.90708  21501078.060    88043322.03248
 15 01 31 00 57 30.0000000  0  6G16G18G21G25G29G31
  23482534.160   123401553.27406  23482535.400    96157053.93245
  24045001.360   126357367.39606  24045004.640    98460314.56844
  20921928.020   109945627.97808  20921928.720    85671988.28349
  22934411.200   120521258.54607  22934416.060    93912749.89246
  22089254.400   116080252.28908  22089255.820    90452353.13847
  21511469.800   113043538.20408  21511471.000    88085879.39248
 15 01 31 00 58  0.0000000  0  6G16G18G21G25G29G31
  23465434.640   123311695.08406  23465436.020    96087034.60445
  24029792.800   126277445.34306  24029795.900    98398037.84044
  20919631.440   109933559.12108  20919632.100    85662583.99349
  22950123.480   120603826.55407  22950128.260    93977088.58646
  22101675.380   116145524.86908  22101676.780    90503214.88047
  21521951.060   113098617.40808  21521952.220    88128798.24048
 15 01 31 00 58 30.0000000  0  7G16G18G21G25G27G29G31
  23448347.340   123221901.22106  23448348.860    96017065.39545
  24014587.200   126197538.69306  24014589.800    98335773.08843
  20917420.840   109921942.00908  20917421.460    85653531.70849
  22965884.380   120686650.07207  22965889.100    94041626.38046
  24619034.900   129373894.35205  24619039.680   100810848.26244
  22114113.240   116210886.29108  22114114.700    90554145.85647
  21532520.400   113154159.52508  21532521.540    88172077.79748
 15 01 31 00 59  0.0000000  0  7G16G18G21G25G27G29G31
  23431271.480   123132166.94506  23431273.000    95947142.59346
  23999383.720   126117643.68506  23999386.020    98273517.38144
  20915294.920   109910769.90608  20915295.480    85644826.18449
  22981692.480   120769721.79107  22981697.100    94106357.56146
  24604252.000   129296209.09505  24604256.420   100750314.42245
  22126566.640   116276329.43908  22126568.120    90605140.51147
  21543176.200   113210155.97708  21543177.360    88215711.38648
 15 01 31 00 59 30.0000000  0  7G16G18G21G25G27G29G31
  23414208.440   123042500.10407  23414209.900    95877272.36246
  23984183.820   126037768.34706  23984185.940    98211277.04444
  20913254.660   109900048.37208  20913255.280    85636471.75049
  22997548.760   120853046.78707  22997553.260    94171286.11346
  24589485.660   129218610.94405  24589489.880   100689848.43144
  22139036.660   116341859.83408  22139038.140    90656203.15047
  21553919.200   113266610.75508  21553920.380    88259702.10648
 15 01 31 01 00  0.0000000  0  7G16G18G21G25G27G29G31
  23397158.400   122952901.34407  23397159.840    95807455.17745
  23968988.020   125957915.35506  23968990.120    98149054.05844
  20911299.940   109889776.40208  20911300.580    85628467.63149
  23013452.900   120936623.49407  23013457.200    94236410.79546
  24574735.240   129141100.07005  24574739.740   100629445.63444
  22151522.960   116407475.78608  22151524.480    90707332.44747
  21564748.860   113323520.88708  21564750.020    88304047.65548
 15 01 31 01 00 30.0000000  0  7G16G18G21G25G27G29G31
  23380122.080   122863374.96807  23380123.500    95737694.38145
  23953797.380   125878090.02406  23953799.520    98086852.62444
  20909431.220   109879956.37008  20909431.880    85620815.66949
  23029405.360   121020453.93007  23029409.420    94301733.18146
  24560001.920   129063677.46705  24560006.640   100569116.43344
  22164025.960   116473179.41008  22164027.480    90758530.06447
  21575665.280   113380886.98508  21575666.440    88348748.49048
 15 01 31 01 01  0.0000000  0  7G16G18G21G25G27G29G31
  23363098.800   122773917.13507  23363100.160    95667987.00545
  23938611.240   125798288.92306  23938613.560    98024670.09244
  20907647.320   109870582.21708  20907647.980    85613511.14249
  23045404.920   121104531.72507  23045408.780    94367248.34046
  24545284.740   128986338.47905  24545289.360   100508852.37145
  22176544.520   116538964.63208  22176545.980    90809791.26847
  21586666.960   113438701.34808  21586668.160    88393798.63148
 15 01 31 01 01 30.0000000  0  7G16G18G21G25G27G29G31
  23346089.060   122684530.58707  23346090.320    95598335.17745
  23923430.520   125718515.73006  23923433.040    97962509.29944
  20905948.380   109861654.53408  20905949.060    85606554.51449
  23061451.460   121188856.74107  23061455.320    94432956.11846
  24530583.800   128909084.09505  24530588.380   100448654.22545
  22189078.600   116604831.65708  22189080.020    90861116.20547
  21597753.740   113496962.73308  21597754.960    88439197.10748
 15 01 31 01 02  0.0000000  0  7G16G18G21G25G27G29G31
  23329093.400   122595217.85207  23329094.600    95528740.85345
  23908256.020   125638774.34206  23908258.480    97900373.29245
  20904334.580   109853174.05808  20904335.240    85599946.36149
  23077545.120   121273429.33207  23077549.060    94498856.83746
  24515899.120   128831915.48905  24515903.860   100388522.91145
  22201628.360   116670781.00408  22201629.700    90912505.29347
  21608925.400   113555670.10008  21608926.640    88484943.09748
 15 01 31 01 02 30.0000000  0  7G16G18G21G25G27G29G31
  23312112.240   122505981.57907  23312113.460    95459206.11445
  23893088.320   125559068.52905  23893090.780    97838265.00745
  20902806.000   109845141.27608  20902806.620    85593687.05949
  23093685.900   121358249.59107  23093690.000    94564950.53246
  24501230.880   128754833.56205  24501235.720   100328459.12345
  22214193.820   116736812.98408  22214195.160    90963958.77147
  21620181.740   113614822.48208  21620182.980    88531035.85448
 15 01 31 01 03  0.0000000  0  7G16G18G21G25G27G29G31
  23295145.520   122416821.22107  23295146.760    95389730.53945
  23877927.680   125479398.46806  23877929.920    97776184.58044
  20901362.080   109837553.33908  20901362.680    85587774.38949
  23109873.140   121443314.30807  23109877.460    94631234.72246
  24486578.680   128677836.07005  24486583.640   100268461.12544
  22226774.440   116802924.76408  22226775.820    91015474.43647
  21631521.820   113674415.00208  21631523.060    88577471.57348
 15 01 31 01 03 30.0000000  0  7G16G18G21G25G27G29G31
  23278193.980   122327740.42707  23278195.240    95320316.96245
  23862774.640   125399768.77606  23862776.980    97714135.58244
  20900003.100   109830411.75908  20900003.680    85582209.52949
  23126107.140   121528624.57207  23126111.580    94697710.24046
  24471942.980   128600924.96005  24471948.000   100208530.43944
  22239370.440   116869117.60908  22239371.900    91067053.27647
  21642945.660   113734447.70508  21642946.880    88624250.29248
 15 01 31 01 04  0.0000000  0  7G16G18G21G25G27G29G31
  23261257.840   122238740.52107  23261259.180    95250966.42345
  23847629.560   125320181.50806  23847632.020    97652119.62544
  20898728.860   109823715.76608  20898729.480    85576991.88549
  23142387.560   121614179.03507  23142392.120    94764376.03746
  24457323.600   128524099.91805  24457328.560   100148666.81945
  22251981.620   116935390.25108  22251983.180    91118694.29647
  21654452.720   113794917.51108  21654453.860    88671369.60548
 15 01 31 01 04 30.0000000  0  7G16G18G21G25G27G29G31
  23244337.080   122149821.56107  23244338.480    95181678.96045
  23832492.960   125240637.94906  23832495.240    97590137.70943
  20897538.960   109817463.14408  20897539.640    85572119.71849
  23158713.960   121699975.34807  23158718.580    94831230.28246
  24442720.300   128447359.40005  24442725.220   100088869.10344
  22264607.760   117001741.18808  22264609.340    91170396.31947
  21666042.280   113855821.05508  21666043.360    88718826.89648
 15 01 31 01 05  0.0000000  0  7G16G18G21G25G27G29G31
  23227432.440   122060987.39107  23227433.920    95112457.54745
  23817365.480   125161142.65806  23817367.880    97528193.41244
  20896433.720   109811655.29408  20896434.440    85567594.12749
  23175086.580   121786014.51507  23175091.220    94898273.76846
  24428133.440   128370705.41705  24428138.280   100029138.78144
  22277249.000   117068171.37908  22277250.640    91222160.09247
  21677714.260   113917157.79508  21677715.360    88766621.74848
 15 01 31 01 05 30.0000000  0  7G16G18G21G25G27G29G31
  23210544.200   121972239.01407  23210545.680    95043303.00945
  23802247.580   125081697.40506  23802249.960    97466288.06945
  20895412.980   109806291.32208  20895413.700    85563414.41749
  23191505.120   121872294.95807  23191509.680    94965505.24646
  24413562.940   128294137.28305  24413567.660    99969475.34346
  22289905.060   117134679.25508  22289906.720    91273984.40247
  21689468.120   113978924.77708  21689469.240    88814751.84648
 15 01 31 01 06  0.0000000  0  7G16G18G21G25G27G29G31
  23193672.420   121883577.16707  23193673.820    94974215.88545
  23787139.560   125002304.47306  23787142.080    97404423.55444
  20894476.400   109801369.64008  20894477.120    85559579.34849
  23207969.300   121958814.75607  23207973.740    95032923.25545
  24399008.640   128217654.03305  24399013.280    99909878.05945
  22302575.720   117201263.84908  22302577.380    91325868.48747
  21701303.240   114041118.81608  21701304.420    88863214.72948
 15 01 31 01 06 30.0000000  0  7G16G18G21G25G27G29G31
  23176817.520   121795003.96507  23176818.740    94905197.82745
  23772042.200   124922966.60706  23772044.480    97342601.89145
  20893623.900   109796889.80308  20893624.640    85556088.57249
  23224478.880   122045573.35007  23224483.300    95100527.32845
  24384470.580   128141256.10105  24384475.120    99850347.27146
  22315260.920   117267924.89108  22315262.540    91377812.14247
  21713219.360   114103738.43608  21713220.560    88912009.22848
 15 01 31 01 07  0.0000000  0  7G16G18G21G25G27G29G31
  23159979.920   121706521.74607  23159981.040    94836250.68045
  23756955.880   124843686.81106  23756958.020    97280825.55344
  20892855.500   109792851.86308  20892856.240    85552942.13149
  23241033.900   122132570.25707  23241038.280    95168317.10745
  24369948.840   128064943.94805  24369953.160    99790883.29644
  22327960.600   117334661.87908  22327962.160    91429814.96747
  21725216.000   114166781.09708  21725217.240    88961133.36948
 15 01 31 01 07 30.0000000  0  7G16G18G21G25G27G29G31
  23143160.080   121618133.00807  23143161.200    94767376.36845
  23741881.240   124764468.79606  23741883.260    97219097.32245
  20892171.340   109789256.31808  20892172.040    85550140.41649
  23257634.300   122219805.43807  23257638.600    95236292.57146
  24355443.540   127988718.48605  24355447.780    99731486.89645
  22340674.800   117401475.27708  22340676.260    91481877.34347
  21737292.920   114230245.71408  21737294.180    89010586.30748
 15 01 31 01 08  0.0000000  0  7G16G18G21G25G27G29G31
  23126358.220   121529838.80607  23126359.320    94698575.71645
  23726818.560   124685314.27806  23726820.560    97157418.56945
  20891570.980   109786101.34908  20891571.660    85547682.00749
  23274279.740   122307277.10607  23274283.980    95304452.30646
  24340954.580   127912578.85805  24340958.780    99672157.35045
  22353403.300   117468363.65808  22353404.640    91533998.15747
  21749449.540   114294128.97008  21749450.740    89060365.45748
 15 01 31 01 08 30.0000000  0  7G16G18G21G25G27G29G31
  23109574.420   121441639.64407  23109575.520    94629849.12445
  23711768.260   124606224.91406  23711770.320    97095790.58346
  20891054.160   109783385.39708  20891054.820    85545565.68549
  23290969.780   122394983.08607  23290973.980    95372794.60346
  24326481.840   127836523.95105  24326486.060    99612893.84245
  22366145.760   117535325.70008  22366147.100    91586176.36447
  21761685.140   114358427.32208  21761686.280    89110468.05548
 15 01 31 01 09  0.0000000  0  7G16G18G21G25G27G29G31
  23092809.540   121353539.63107  23092810.560    94561199.78046
  23696731.120   124527205.43506  23696733.300    97034217.07145
  20890621.100   109781109.63908  20890621.760    85543792.37149
  23307704.600   122482924.76707  23307708.920    95441320.57046
  24312025.600   127760556.11805  24312030.020    99553698.16345
  22378902.500   117602363.07908  22378903.920    91638413.27847
  21773999.760   114423140.89208  21774000.820    89160894.20148
 15 01 31 01 09 30.0000000  0  7G16G18G21G25G27G29G31
  23076063.640   121265539.37207  23076064.600    94492628.17446
  23681707.640   124448257.91206  23681709.840    96972699.58345
  20890271.640   109779273.37908  20890272.340    85542361.52649
  23324483.740   122571100.05007  23324488.240    95510028.56946
  24297585.740   127684674.26305  24297590.380    99494569.45846
  22391673.240   117669474.03808  22391674.800    91690707.52647
  21786392.680   114488266.18208  21786393.760    89211641.16848
 15 01 31 01 10  0.0000000  0  7G16G18G21G25G27G29G31
  23059337.180   121177641.17407  23059338.040    94424136.09446
  23666698.180   124369384.84606  23666700.660    96911240.15745
  20890005.640   109777875.76108  20890006.360    85541272.48049
  23341307.160   122659508.14206  23341311.800    95578917.96246
  24283162.240   127608878.61305  24283167.080    99435507.96246
  22404457.880   117736658.23208  22404459.600    91743058.84047
  21798863.540   114553800.98008  21798864.680    89262707.23248
 15 01 31 01 10 30.0000000  0  7G16G18G21G25G27G29G31
  23042630.180   121089845.29407  23042631.140    94355723.73646
  23651703.200   124290587.54706  23651705.800    96849839.72344
