     2.11           OBSERVATION DATA    G                   RINEX VERSION / TYPE
SPIDER V4,0,0,3554                      2015 03 16 00:43    PGM / RUN BY / DATE 
ADCK                                                        MARKER NAME         
ADCK                                                        MARKER NUMBER       
                                                            OBSERVER / AGENCY   
496498              LEICA GRX1200+GNSS  8.20/4.007          REC # / TYPE / VERS 
                    LEIAR25         NONE                    ANT # / TYPE        
  5227539.7664   314968.1794  3630496.8998                  APPROX POSITION XYZ 
        0.0480        0.0000        0.0000                  ANTENNA: DELTA H/E/N
     1     1                                                WAVELENGTH FACT L1/2
     4    C1    L1    P2    L2                              # / TYPES OF OBSERV 
    30.000                                                  INTERVAL            
  2015    02    15    00    00    0.0000000     GPS         TIME OF FIRST OBS   
  2015    02    15    23    59   30.0000000     GPS         TIME OF LAST OBS    
    16                                                      LEAP SECONDS        
    30                                                      # OF SATELLITES     
   G 1   829   829   829   829                              PRN / # OF OBS      
   G 2   932   932   932   932                              PRN / # OF OBS      
   G 3   849   849   848   848                              PRN / # OF OBS      
   G 4   847   847   847   847                              PRN / # OF OBS      
   G 5   665   665   665   665                              PRN / # OF OBS      
   G 6   775   775   775   775                              PRN / # OF OBS      
   G 7   657   657   656   656                              PRN / # OF OBS      
   G 9   798   798   797   797                              PRN / # OF OBS      
   G10   776   776   776   776                              PRN / # OF OBS      
   G11   793   792   792   792                              PRN / # OF OBS      
   G12   824   824   824   824                              PRN / # OF OBS      
   G13   816   816   816   816                              PRN / # OF OBS      
   G14   938   938   938   938                              PRN / # OF OBS      
   G15   722   718   717   717                              PRN / # OF OBS      
   G16   686   685   685   685                              PRN / # OF OBS      
   G17   937   936   936   936                              PRN / # OF OBS      
   G18   929   929   929   929                              PRN / # OF OBS      
   G19   774   774   774   774                              PRN / # OF OBS      
   G20   818   817   817   817                              PRN / # OF OBS      
   G21   722   722   722   722                              PRN / # OF OBS      
   G22   728   728   728   728                              PRN / # OF OBS      
   G23   740   740   740   740                              PRN / # OF OBS      
   G24   839   839   839   839                              PRN / # OF OBS      
   G25   863   863   863   863                              PRN / # OF OBS      
   G27   826   826   826   826                              PRN / # OF OBS      
   G28   898   898   898   898                              PRN / # OF OBS      
   G29   764   764   763   763                              PRN / # OF OBS      
   G30   703   703   703   703                              PRN / # OF OBS      
   G31   819   819   819   819                              PRN / # OF OBS      
   G32   755   755   755   755                              PRN / # OF OBS      
BIT 2 OF LLI FLAGS DATA COLLECTED UNDER A/S CONDITION       COMMENT             
SNR is mapped to RINEX snr flag value [2-9]                 COMMENT             
Lx:     = 25dBHz -> 1; 26-27dBHz -> 2; 28-31dBHz -> 3       COMMENT             
       32-35dBHz -> 4; 36-38dBHz -> 5; 39-41dBHz -> 6       COMMENT             
       42-44dBHz -> 7; 45-48dBHz -> 8; >=49dBHz -> 9        COMMENT             
                                                            END OF HEADER       
 15 02 15 00 00  0.0000000  0  7G16G18G21G25G27G29G31
  23242711.260   122141281.29308  23242707.400    95175012.78546
  23998626.440   126113701.06608  23998624.760    98270424.57845
  20937015.120   110024759.65509  20937010.940    85733565.56448
  23239470.140   122124230.96508  23239470.220    95161736.63546
  24178500.160   127058890.23208  24178500.060    99006931.31146
  22566091.940   118585606.81609  22566089.260    92404355.50648
  21354557.400   112218951.50309  21354553.880    87443322.23948
 15 02 15 00 00 30.0000000  0  7G16G18G21G25G27G29G31
  23226402.960   122055580.88908  23226399.140    95108233.25646
  23984277.480   126038297.68108  23984275.760    98211668.88645
  20936521.600   110022166.13509  20936517.380    85731544.64148
  23254971.520   122205691.40308  23254971.580    95225212.28346
  24164404.400   126984816.72408  24164404.220    98949211.74345
  22579561.060   118656387.62209  22579558.400    92459509.35448
  21365113.520   112274424.19809  21365109.980    87486547.70048
 15 02 15 00 01  0.0000000  0  7G16G18G21G25G27G29G31
  23210106.880   121969944.70508  23210103.180    95041503.76946
  23969933.560   125962920.72408  23969931.860    98152933.78345
  20936115.560   110020032.32209  20936111.340    85729881.93448
  23270517.900   122287388.25308  23270517.980    95288872.14147
  24150330.900   126910860.69908  24150330.740    98891583.71946
  22593040.040   118727220.00609  22593037.400    92514703.38948
  21375758.260   112330362.56909  21375754.700    87530136.02848
 15 02 15 00 01 30.0000000  0  7G16G18G21G25G27G29G31
  23193822.740   121884371.36608  23193819.220    94974823.26946
  23955594.600   125887569.65308  23955592.820    98094218.82945
  20935796.200   110018353.95609  20935791.960    85728574.12248
  23286108.560   122369317.63508  23286108.640    95352713.19746
  24136279.160   126837018.96408  24136279.020    98834044.75645
  22606528.040   118798099.60309  22606525.400    92569934.21648
  21386490.620   112386761.48809  21386487.060    87574083.22048
 15 02 15 00 02  0.0000000  0  7G16G18G21G25G27G29G31
  23177550.840   121798862.41208  23177547.460    94908192.94646
  23941260.980   125812246.76308  23941259.200    98035525.86445
  20935563.740   110017132.33909  20935559.480    85727622.22148
  23301743.360   122451478.77908  23301743.440    95416734.85647
  24122249.120   126763291.40308  24122249.140    98776594.76946
  22620025.020   118869026.27109  22620022.440    92625201.73248
  21397310.160   112443618.46809  21397306.580    87618387.35348
 15 02 15 00 02 30.0000000  0  7G16G18G21G25G27G29G31
  23161291.660   121713420.03108  23161288.300    94841614.48346
  23926933.500   125736956.01508  23926931.700    97976857.91945
  20935418.120   110016367.08709  20935413.860    85727025.92548
  23317422.360   122533872.24408  23317422.440    95480937.53546
  24108241.080   126689679.21308  24108241.160    98719234.68946
  22633530.960   118940000.04409  22633528.420    92680505.95148
  21408216.700   112500932.88809  21408213.180    87663047.92448
 15 02 15 00 03  0.0000000  0  7G16G18G21G25G27G29G31
  23145045.660   121628046.58808  23145042.240    94775089.72746
  23912612.700   125661700.29608  23912610.780    97918217.26945
  20935359.160   110016057.46609  20935354.980    85726784.66648
  23333145.520   122616497.72908  23333145.600    95545321.02046
  24094255.080   126616182.80708  24094255.260    98661964.81445
  22647045.880   119011021.01009  22647043.360    92735846.94748
  21419210.000   112558703.15909  21419206.520    87708063.70548
 15 02 15 00 03 30.0000000  0  7G16G18G21G25G27G29G31
  23128812.680   121542741.65808  23128809.200    94708618.36946
  23898298.740   125586480.53108  23898296.760    97859604.61645
  20935386.440   110016201.04709  20935382.280    85726896.55348
  23348912.300   122699352.50208  23348912.280    95609883.17046
  24080290.740   126542800.07508  24080291.040    98604783.53446
  22660569.140   119082086.20509  22660566.680    92791222.39548
  21430289.260   112616925.11809  21430285.820    87753431.45648
 15 02 15 00 04  0.0000000  0  7G16G18G21G25G27G29G31
  23112592.880   121457505.91509  23112589.340    94642200.91546
  23883991.960   125511298.47808  23883989.920    97801021.36845
  20935499.660   110016796.23709  20935495.560    85727360.33848
  23364722.440   122782435.23008  23364722.380    95674622.93846
  24066347.900   126469530.40308  24066348.260    98547690.34446
  22674100.640   119153194.92309  22674098.180    92846631.75647
  21441453.940   112675596.04409  21441450.540    87799149.03848
 15 02 15 00 04 30.0000000  0  7G16G18G21G25G27G29G31
  23096387.400   121372345.40909  23096383.800    94575842.09246
  23869693.640   125436161.00308  23869691.560    97742472.83845
  20935699.620   110017847.40709  20935695.600    85728179.43048
  23380576.580   122865749.40308  23380576.540    95739543.06146
  24052427.380   126396377.90308  24052427.820    98490688.46846
  22687640.960   119224350.12409  22687638.500    92902077.34747
  21452704.460   112734717.95709  21452701.080    87845218.04948
 15 02 15 00 05  0.0000000  0  7G16G18G21G25G27G29G31
  23080195.560   121287256.51009  23080191.940    94509539.06246
  23855403.380   125361065.77608  23855401.260    97683957.21945
  20935985.260   110019348.63709  20935981.280    85729349.22948
  23396473.640   122949289.07208  23396473.620    95804638.88646
  24038528.200   126323337.36108  24038528.660    98433773.82346
  22701189.080   119295545.93309  22701186.560    92957554.58447
  21464039.400   112794283.35409  21464036.000    87891632.62748
 15 02 15 00 05 30.0000000  0  7G16G18G21G25G27G29G31
  23064018.480   121202245.27108  23064014.760    94443296.54246
  23841122.520   125286019.76808  23841120.360    97625479.95345
  20936357.300   110021303.83108  20936353.360    85730872.76148
  23412414.360   123033058.19708  23412414.400    95869913.50146
  24024651.260   126250413.49408  24024651.680    98376950.08847
  22714745.760   119366786.74809  22714743.220    93013066.88447
  21475459.260   112854295.08109  21475455.880    87938394.99548
 15 02 15 00 06  0.0000000  0  7G16G18G21G25G27G29G31
  23047855.340   121117307.73108  23047851.660    94377111.46246
  23826850.560   125211020.46708  23826848.340    97567039.08045
  20936814.440   110023706.14108  20936810.520    85732744.70348
  23428397.580   123117050.50708  23428397.660    95935362.04147
  24010795.480   126177600.60808  24010795.740    98320212.82346
  22728309.840   119438066.48809  22728307.280    93068609.53047
  21486962.560   112914745.23309  21486959.220    87985499.00048
 15 02 15 00 06 30.0000000  0  7G16G18G21G25G27G29G31
  23031707.900   121032452.66008  23031704.260    94310990.64046
  23812589.300   125136077.58408  23812587.100    97508642.16245
  20937357.960   110026562.54708  20937354.040    85734970.47648
  23444424.500   123201272.37408  23444424.720    96000989.44446
  23996962.200   126104905.85508  23996962.380    98263567.59846
  22741882.600   119509391.71609  22741880.000    93124187.60747
  21498550.260   112975638.95009  21498546.920    88032948.63748
 15 02 15 00 07  0.0000000  0  7G16G18G21G25G27G29G31
  23015575.520   120947676.76008  23015572.040    94244931.50546
  23798338.240   125061188.38908  23798336.020    97450287.06745
  20937986.680   110029866.72408  20937982.780    85737545.16248
  23460493.980   123285717.80108  23460494.220    96066791.04746
  23983150.360   126032323.93308  23983150.400    98207010.29746
  22755462.980   119580756.70809  22755460.260    93179796.67647
  21510220.940   113036968.84509  21510217.640    88080738.14348
 15 02 15 00 07 30.0000000  0  7G16G18G21G25G27G29G31
  22999458.620   120862982.04708  22999455.240    94178935.64346
  23784098.080   124986356.49408  23784095.860    97391976.62145
  20938700.780   110033619.48708  20938696.900    85740469.40548
  23476606.040   123370387.02008  23476606.160    96132767.03846
  23969360.140   125959855.77708  23969360.160    98150541.64646
  22769050.880   119652161.23109  22769048.120    93235436.54548
  21521974.360   113098733.50509  21521971.080    88128866.43148
 15 02 15 00 08  0.0000000  0  7G16G18G21G25G27G29G31
  22983357.900   120778372.11309  22983354.540    94113005.83746
  23769869.720   124911586.47808  23769867.560    97333714.39045
  20939500.420   110037821.58209  20939496.560    85743743.77548
  23492760.800   123455280.78308  23492760.880    96198918.00446
  23955591.820   125887502.91708  23955591.840    98094162.83946
  22782646.440   119723606.28409  22782643.740    93291107.99148
  21533810.420   113160932.21809  21533807.120    88177332.94448
 15 02 15 00 08 30.0000000  0  7G16G18G21G25G27G29G31
  22967273.280   120693846.79409  22967269.920    94047141.97447
  23755653.120   124836878.40808  23755650.880    97275500.42645
  20940384.960   110042469.82908  20940381.100    85747365.79148
  23508957.740   123540396.34808  23508957.720    96265241.80146
  23941845.020   125815263.28708  23941845.020    98037872.24946
  22796249.320   119795089.90909  22796246.740    93346809.48648
  21545728.280   113223560.92909  21545725.000    88226134.52348
 15 02 15 00 09  0.0000000  0  7G16G18G21G25G27G29G31
  22951205.440   120609409.62509  22951202.100    93981346.79247
  23741449.320   124762237.61308  23741447.060    97217338.88245
  20941354.740   110047565.96209  20941350.880    85751336.81348
  23525197.160   123625735.17108  23525197.080    96331739.57046
  23928120.180   125743139.11608  23928120.240    97981671.65346
  22809859.840   119866613.55109  22809857.380    93402542.16748
  21557727.920   113286619.55009  21557724.660    88275271.08848
 15 02 15 00 09 30.0000000  0  7G16G18G21G25G27G29G31
  22935154.040   120525059.05909  22935150.740    93915619.08447
  23727258.280   124687663.68608  23727256.040    97159229.43745
  20942408.940   110053105.68909  20942405.040    85755653.48748
  23541478.360   123711293.28808  23541478.280    96398408.21546
  23914416.640   125671127.14208  23914416.700    97925558.46746
  22823477.220   119938173.40509  22823474.820    93458303.05147
  21569808.340   113350102.65309  21569805.100    88324738.42348
 15 02 15 00 10  0.0000000  0  7G16G18G21G25G27G29G31
  22919119.920   120440799.32909  22919116.640    93849962.15646
  23713080.960   124613161.90308  23713078.700    97101176.20046
  20943547.960   110059091.12709  20943544.060    85760317.47148
  23557801.660   123797072.42508  23557801.600    96465249.08546
  23900734.940   125599229.82208  23900735.020    97869534.62146
  22837101.880   120009771.69209  22837099.540    93514093.90447
  21581969.560   113414010.42509  21581966.360    88374536.66448
 15 02 15 00 10 30.0000000  0  7G16G18G21G25G27G29G31
  22903103.100   120356630.52409  22903099.780    93784376.08546
  23698917.460   124538732.78608  23698915.140    97043179.59245
  20944771.280   110065519.62609  20944767.360    85765326.69748
  23574166.500   123883069.88508  23574166.520    96532260.07246
  23887074.740   125527445.33108  23887074.820    97813598.69946
  22850733.300   120081405.74809  22850731.000    93569912.63447
  21594210.860   113478338.83309  21594207.680    88424662.68048
 15 02 15 00 11  0.0000000  0  7G16G18G21G25G27G29G31
  22887104.040   120272554.80109  22887100.640    93718862.54746
  23684768.480   124464379.66508  23684766.100    96985242.17945
  20946078.840   110072390.96309  20946074.940    85770680.99448
  23590572.840   123969285.62608  23590572.880    96599441.15246
  23873436.140   125455774.31208  23873436.180    97757751.18246
  22864371.460   120153075.44008  22864369.300    93625759.12747
  21606531.920   113543086.35809  21606528.740    88475115.27948
 15 02 15 00 11 30.0000000  0  7G16G18G21G25G27G29G31
  22871123.500   120188576.37109  22871120.000    93653424.81946
  23670634.980   124390108.03608  23670632.580    96927368.28346
  20947470.920   110079706.29508  20947467.000    85776381.25948
  23607021.000   124055721.27708  23607021.120    96666793.58546
  23859819.560   125384219.16808  23859819.620    97701993.98346
  22878016.940   120224783.33109  22878014.840    93681635.38247
  21618932.780   113608253.08109  21618929.560    88525894.52748
 15 02 15 00 12  0.0000000  0  7G16G18G21G25G27G29G31
  22855161.240   120104693.75309  22855157.660    93588061.75046
  23656516.820   124315917.02808  23656514.380    96869557.19345
  20948946.820   110087462.15009  20948942.840    85782424.78648
  23623510.200   124142372.59208  23623510.340    96734314.06446
  23846224.420   125312776.39608  23846224.460    97646324.32146
  22891669.100   120296525.61909  22891667.020    93737538.44347
  21631412.360   113673833.49309  21631409.060    88576996.13248
 15 02 15 00 12 30.0000000  0  7G16G18G21G25G27G29G31
  22839217.440   120020908.31809  22839213.800    93522774.41146
  23642414.440   124241808.87008  23642412.020    96811810.66345
  20950506.300   110095657.34609  20950502.320    85788810.66148
  23640040.220   124229238.67308  23640040.440    96802001.89246
  23832650.720   125241445.93208  23832650.740    97590742.18246
  22905327.680   120368301.33009  22905325.500    93793467.55347
  21643970.160   113739824.88309  21643966.780    88628417.98148
 15 02 15 00 13  0.0000000  0  7G16G18G21G25G27G29G31
  22823292.720   119937223.75208  22823289.100    93457565.66646
  23628328.840   124167788.64508  23628326.380    96754132.64946
  20952149.480   110104292.41508  20952145.500    85795539.29348
  23656611.260   124316320.39908  23656611.540    96869857.76046
  23819098.740   125170229.39508  23819098.720    97535248.80747
  22918992.920   120440111.82509  22918990.580    93849423.77447
  21656606.080   113806226.67909  21656602.660    88680159.61948
 15 02 15 00 13 30.0000000  0  7G16G18G21G25G27G29G31
  22807386.820   119853638.31408  22807383.280    93392434.16847
  23614259.740   124093855.31708  23614257.260    96696522.35646
  20953875.620   110113363.39208  20953871.640    85802607.60048
  23673222.500   124403613.49308  23673222.860    96937878.31846
  23805567.820   125099123.34108  23805567.740    97479841.54247
  22932663.980   120511953.01609  22932661.420    93905403.91647
  21669318.960   113873032.98809  21669315.500    88732216.46948
 15 02 15 00 14  0.0000000  0  7G16G18G21G25G27G29G31
  22791501.200   119770159.29609  22791497.700    93327385.59146
  23600208.820   124020017.37608  23600206.300    96638986.37446
  20955685.540   110122874.70609  20955681.560    85810019.01948
  23689874.880   124491122.61108  23689875.300    97006067.21546
  23792058.940   125028133.23808  23792058.780    97424524.61547
  22946341.780   120583829.88009  22946339.060    93961411.85247
  21682109.460   113940247.09909  21682105.960    88784591.08048
 15 02 15 00 14 30.0000000  0  7G16G18G21G25G27G29G31
  22775635.800   119686786.13209  22775632.320    93262419.49647
  23586176.160   123946275.42608  23586173.600    96581525.18846
  20957578.660   110132823.32708  20957574.720    85817771.19248
  23706567.900   124578845.08708  23706568.340    97074422.36246
  23778571.720   124957257.20808  23778571.500    97369296.56947
  22960026.000   120655740.78709  22960023.220    94017446.31247
  21694976.720   114007864.92209  21694973.220    88837280.27548
 15 02 15 00 15  0.0000000  0  7G16G18G21G25G27G29G31
  22759790.420   119603517.74909  22759786.880    93197535.05747
  23572161.620   123872628.90008  23572159.040    96524138.35645
  20959554.300   110143205.69208  20959550.400    85825861.35648
  23723300.840   124666776.97208  23723301.240    97142940.69046
  23765105.540   124886492.07308  23765105.300    97314154.95847
  22973715.940   120727681.69709  22973713.160    94073504.15447
  21707919.760   114075880.98809  21707916.280    88890279.78848
 15 02 15 00 15 30.0000000  0  7G16G18G21G25G27G29G31
  22743965.780   119520358.36009  22743962.160    93132735.54447
  23558166.160   123799082.84408  23558163.620    96466829.81545
  20961612.620   110154022.40309  20961608.740    85834289.96748
  23740073.900   124754919.37008  23740074.280    97211623.05346
  23751660.820   124815839.79008  23751660.600    97259101.25547
  22987411.840   120799654.23709  22987409.180    94129586.63247
  21720938.460   114144294.67109  21720934.980    88943589.13748
 15 02 15 00 16  0.0000000  0  7G16G18G21G25G27G29G31
  22728162.800   119437312.69009  22728159.080    93068024.64947
  23544190.980   123725643.14008  23544188.420    96409604.14146
  20963754.180   110165276.13209  20963750.260    85843059.11148
  23756887.420   124843274.59608  23756887.780    97280471.25046
  23738238.140   124745303.53008  23738237.920    97204137.96847
  23001114.280   120871661.15509  23001111.800    94185695.89347
  21734032.940   114213106.67609  21734029.480    88997208.86248
 15 02 15 00 16 30.0000000  0  7G16G18G21G25G27G29G31
  22712380.680   119354376.66209  22712376.920    93003399.18247
  23530235.360   123652306.33508  23530232.760    96352458.63845
  20965977.520   110176959.64708  20965973.540    85852163.15548
  23773740.140   124931835.79608  23773740.400    97349479.94946
  23724836.360   124674877.19408  23724836.180    97149260.33947
  23014822.040   120943696.13808  23014819.720    94241827.02447
  21747201.680   114282308.94809  21747198.240    89051132.69248
 15 02 15 00 17  0.0000000  0  7G16G18G21G25G27G29G31
  22696620.580   119271556.74009  22696616.820    92938864.19347
  23516300.760   123579079.94408  23516298.120    96295399.17845
  20968283.360   110189077.02608  20968279.400    85861605.27448
  23790632.780   125020606.94508  23790632.900    97418652.25046
  23711456.420   124604565.65808  23711456.280    97094472.17446
  23028535.920   121015763.42408  23028533.740    94297983.34047
  21760445.080   114351903.56309  21760441.660    89105362.24748
 15 02 15 00 17 30.0000000  0  7G16G18G21G25G27G29G31
  22680881.840   119188849.43409  22680878.140    92874416.95247
  23502386.800   123505961.81608  23502384.120    96238424.07346
  20970670.520   110201621.76808  20970666.580    85871380.40048
  23807564.120   125109581.74508  23807564.240    97487983.22446
  23698097.300   124534363.45808  23698097.200    97039769.19646
  23042254.900   121087857.37408  23042252.760    94354160.42347
  21773761.740   114421883.02309  21773758.340    89159891.67448
 15 02 15 00 18  0.0000000  0  7G16G18G21G25G27G29G31
  22665166.160   119106263.17609  22665162.460    92810064.02947
  23488495.140   123432960.64508  23488492.380    96181540.08645
  20973140.020   110214599.29608  20973136.120    85881492.76848
  23824535.240   125198765.68008  23824535.480    97557477.16746
  23684760.120   124464276.91808  23684760.040    96985156.34146
  23055980.120   121159983.91609  23055978.000    94410362.90747
  21787152.340   114492250.95909  21787148.920    89214723.81548
 15 02 15 00 18 30.0000000  0  7G16G18G21G25G27G29G31
  22649472.660   119023793.58909  22649469.000    92745802.01847
  23474625.160   123360073.42908  23474622.400    96124744.91946
  20975690.600   110228002.93108  20975686.760    85891937.15548
  23841544.920   125288152.06508  23841545.160    97627128.86846
  23671443.860   124394300.20908  23671443.780    96930629.06846
  23069710.440   121232137.11109  23069708.300    94466586.15947
  21800615.300   114562999.12309  21800611.840    89269852.22848
 15 02 15 00 19  0.0000000  0  7G16G18G21G25G27G29G31
  22633802.240   118941445.48309  22633798.660    92681634.67947
  23460777.860   123287305.68108  23460775.100    96068042.83146
  20978322.600   110241834.22108  20978318.760    85902714.79648
  23858593.520   125377742.70208  23858593.660    97696939.73546
  23658149.100   124324436.01008  23658149.020    96876189.47546
  23083446.200   121304318.99308  23083444.040    94522831.78047
  21814150.740   114634128.27009  21814147.320    89325277.52348
 15 02 15 00 19 30.0000000  0  7G16G18G21G25G27G29G31
  22618155.300   118859220.76609  22618151.780    92617563.48347
  23446953.780   123214659.90808  23446951.020    96011435.79645
  20981035.820   110256092.18409  20981031.960    85913824.90248
  23875680.780   125467536.77008  23875680.900    97766909.10346
  23644875.800   124254684.38508  23644875.680    96821837.58246
  23097187.360   121376529.31608  23097185.180    94579099.54147
  21827758.100   114705635.43709  21827754.700    89380997.37148
 15 02 15 00 20  0.0000000  0  7G16G18G21G25G27G29G31
  22602532.180   118777121.10809  22602528.700    92553589.73347
  23433153.440   123142138.76608  23433150.720    95954925.86946
  20983830.000   110270775.51708  20983826.100    85925266.46548
  23892806.500   125557533.05508  23892806.720    97837036.06446
  23631623.880   124185044.96008  23631623.660    96767573.12746
  23110933.840   121448767.50308  23110931.580    94635389.01147
  21841436.900   114777518.00809  21841433.540    89437009.74848
 15 02 15 00 20 30.0000000  0  7G16G18G21G25G27G29G31
  22586933.180   118695147.88009  22586929.700    92489714.50447
  23419377.260   123069744.59608  23419374.500    95898514.86645
  20986704.820   110285882.67508  20986700.920    85937038.28248
  23909970.440   125647730.30208  23909970.740    97907319.58446
  23618393.300   124115517.38508  23618393.040    96713395.81546
  23124685.540   121521032.93809  23124683.140    94691699.71347
  21855186.580   114849773.03309  21855183.280    89493312.33948
 15 02 15 00 21  0.0000000  0  7G16G18G21G25G27G29G31
  22571358.400   118613301.50709  22571354.800    92425938.11547
  23405625.380   122997478.31508  23405622.580    95842203.52545
  20989659.740   110301410.77408  20989655.840    85949138.09848
  23927172.160   125738125.86708  23927172.500    97977757.64246
  23605183.640   124046099.94808  23605183.320    96659304.31446
  23138442.040   121593323.38709  23138439.500    94748029.89047
  21869006.420   114922396.70909  21869003.180    89549902.18848
 15 02 15 00 21 30.0000000  0  7G16G18G21G25G27G29G31
  22555808.620   118531586.55709  22555804.980    92362264.13847
  23391899.000   122925346.01708  23391896.180    95785996.58545
  20992695.160   110317361.86609  20992691.220    85961567.52548
  23944411.980   125828721.54908  23944412.300    98048351.64646
  23591995.460   123976795.29808  23591995.080    96605300.70947
  23152203.760   121665641.31409  23152201.140    94804381.48947
  21882896.440   114995389.28009  21882893.220    89606779.49448
 15 02 15 00 22  0.0000000  0  7G16G18G21G25G27G29G31
  22540283.980   118450003.56809  22540280.320    92298692.99247
  23378198.340   122853348.66208  23378195.440    95729894.79946
  20995810.680   110333733.89509  20995806.700    85974324.96248
  23961689.460   125919515.16108  23961689.840    98119099.89146
  23578828.500   123907602.16408  23578828.100    96551384.01847
  23165970.340   121737985.20608  23165967.780    94860753.34747
  21896855.900   115068746.62709  21896852.660    89663941.04348
 15 02 15 00 22 30.0000000  0  7G16G18G21G25G27G29G31
  22524785.200   118368556.65109  22524781.500    92235227.86447
  23364524.220   122781491.01308  23364521.360    95673901.86745
  20999006.360   110350527.20209  20999002.320    85987410.65848
  23979004.780   126010507.50608  23979005.160    98190002.98446
  23565682.980   123838522.27208  23565682.640    96497555.56947
  23179742.220   121810356.89809  23179739.700    94917146.85747
  21910884.640   115142467.88809  21910881.380    89721386.15248
 15 02 15 00 23  0.0000000  0  7G16G18G21G25G27G29G31
  22509311.720   118287243.03309  22509307.980    92171866.61647
  23350876.400   122709771.44508  23350873.520    95618016.54046
  21002281.180   110367736.31108  21002277.100    86000820.36348
  23996356.960   126101693.40408  23996357.280    98261056.90146
  23552558.140   123769551.39708  23552557.880    96443812.06847
  23193518.520   121882751.47508  23193515.980    94973558.20747
  21924981.340   115216546.43409  21924978.100    89779109.67248
 15 02 15 00 23 30.0000000  0  7G16G18G21G25G27G29G31
  22493864.560   118206067.83809  22493860.860    92108613.22347
  23337256.020   122638195.97308  23337253.160    95562243.48446
  21005635.460   110385363.12409  21005631.340    86014555.54648
  24013746.400   126193075.09508  24013746.640    98332263.38046
  23539454.680   123700692.63908  23539454.620    96390155.92347
  23207299.700   121955171.92608  23207297.200    95029989.71347
  21939146.180   115290982.95709  21939142.900    89837112.13148
 15 02 15 00 24  0.0000000  0  7G16G18G21G25G27G29G31
  22478444.020   118125032.46709  22478440.340    92045468.78447
  23323663.400   122566766.27208  23323660.560    95506584.02646
  21009068.980   110403406.25908  21009064.820    86028615.13648
  24031172.760   126284650.90408  24031173.020    98403621.11646
  23526372.400   123631945.30308  23526372.460    96336586.60747
  23221085.520   122027616.80908  23221083.100    95086440.25747
  21953378.480   115365774.24909  21953375.220    89895391.02948
 15 02 15 00 24 30.0000000  0  7G16G18G21G25G27G29G31
  22463050.420   118044138.83109  22463046.720    91982434.79547
  23310099.120   122495485.41808  23310096.200    95451040.54946
  21012581.400   110421864.10908  21012577.220    86042997.87848
  24048635.800   126376419.73508  24048635.980    98475129.26445
  23513311.300   123563309.16408  23513311.380    96283103.94347
  23234876.080   122100086.62808  23234873.740    95142910.24247
  21967677.780   115440917.57509  21967674.520    89953944.24348
 15 02 15 00 25  0.0000000  0  7G16G18G21G25G27G29G31
  22447684.300   117963389.67209  22447680.620    91919513.38047
  23296563.860   122424357.09508  23296560.840    95395615.91646
  21016172.720   110440736.62508  21016168.540    86057703.73548
  24066135.500   126468381.55008  24066135.720    98546787.78646
  23500271.500   123494785.22008  23500271.620    96229708.69647
  23248671.380   122172581.48708  23248669.100    95199399.71847
  21982043.740   115516411.34109  21982040.540    90012770.52448
 15 02 15 00 25 30.0000000  0  7G16G18G21G25G27G29G31
  22432345.400   117882783.54809  22432341.820    91856703.42747
  23283057.380   122353380.21508  23283054.380    95340309.28946
  21019842.060   110460019.18709  21019837.880    86072729.11448
  24083671.080   126560531.90208  24083671.340    98618593.21645
  23487252.380   123426369.92708  23487252.560    96176398.11947
  23262470.740   122245097.54308  23262468.500    95255905.70047
  21996475.260   115592249.51609  21996472.080    90071865.17948
 15 02 15 00 26  0.0000000  0  7G16G18G21G25G27G29G31
  22417034.700   117802325.43409  22417031.180    91794008.80647
  23269580.860   122282560.61408  23269577.860    95285125.22845
  21023589.760   110479713.59409  21023585.600    86088075.41148
  24101242.940   126652872.66008  24101243.200    98690547.02346
  23474254.560   123358066.15008  23474254.720    96123174.44047
  23276274.640   122317637.63208  23276272.420    95312430.42347
  22010972.360   115668432.37009  22010969.260    90131228.41748
 15 02 15 00 26 30.0000000  0  7G16G18G21G25G27G29G31
  22401751.920   117722013.97209  22401748.440    91731428.45847
  23256134.100   122211897.66908  23256131.120    95230063.21845
  21027414.960   110499815.43709  21027410.860    86103739.18948
  24118850.200   126745399.43608  24118850.460    98762645.77145
  23461277.380   123289870.46408  23461277.400    96070034.96547
  23290082.420   122390198.05308  23290080.200    95368970.98047
  22025533.960   115744953.87909  22025530.840    90190855.53848
 15 02 15 00 27  0.0000000  0  7G16G18G21G25G27G29G31
  22386498.460   117641856.35409  22386494.940    91668967.98147
  23242718.620   122141399.16308  23242715.720    95175129.34946
  21031318.300   110520327.95008  21031314.240    86119722.96248
  24136493.640   126838116.20508  24136494.000    98834892.56545
  23448321.700   123221787.77508  23448321.600    96016983.54747
  23303895.000   122462783.79508  23303892.840    95425531.26147
  22040160.460   115821816.30309  22040157.280    90250748.30048
 15 02 15 00 27 30.0000000  0  7G16G18G21G25G27G29G31
  22371273.840   117561850.26809  22371270.260    91606625.58847
  23229334.240   122071064.12108  23229331.340    95120322.85946
  21035298.900   110541246.43308  21035294.900    86136023.08748
  24154172.360   126931018.33508  24154172.740    98907283.80245
  23435386.860   123153814.51108  23435386.640    95964017.39747
  23317711.660   122535390.74908  23317709.480    95482108.07647
  22054850.740   115899013.80909  22054847.500    90310902.18048
 15 02 15 00 28  0.0000000  0  7G16G18G21G25G27G29G31
  22356079.080   117482001.06009  22356075.380    91544405.42647
  23215982.040   122000898.24408  23215979.120    95065648.18745
  21039357.080   110562572.59208  21039353.100    86152640.87448
  24171886.720   127024107.68908  24171887.100    98979820.92245
  23422473.360   123085953.46608  23422473.040    95911138.68346
  23331532.800   122608021.18908  23331530.660    95538703.18947
  22069604.720   115976546.15309  22069601.440    90371316.95748
 15 02 15 00 28 30.0000000  0  7G16G18G21G25G27G29G31
  22340913.660   117402306.23809  22340909.920    91482305.56947
  23202661.700   121930899.61309  23202658.760    95011103.82846
  21043491.760   110584300.72609  21043487.800    86169571.89048
  24189635.680   127117378.75308  24189636.080    99052499.65746
  23409580.360   123018200.13108  23409579.980    95858343.90147
  23345357.600   122680670.81909  23345355.440    95595313.26847
  22084421.080   116054406.40909  22084417.760    90431987.25948
 15 02 15 00 29  0.0000000  0  7G16G18G21G25G27G29G31
  22325778.480   117322770.39309  22325774.740    91420329.59647
  23189374.260   121861073.59209  23189371.220    94956693.97646
  21047703.220   110606432.34509  21047699.300    86186817.31548
  24207419.560   127210833.09308  24207419.920    99125321.17546
  23396708.340   122950557.08908  23396707.920    95805635.05947
  23359186.660   122753342.53108  23359184.420    95651940.56447
  22099299.860   116132594.71009  22099296.540    90492913.18048
 15 02 15 00 29 30.0000000  0  7G16G18G21G25G27G29G31
  22310673.840   117243395.12409  22310670.140    91358478.74147
  23176120.120   121791422.46909  23176116.980    94902420.40246
  21051991.080   110628965.25609  21051987.140    86204375.42448
  24225237.940   127304468.95508  24225238.260    99198284.13746
  23383857.120   122883023.60008  23383856.700    95753011.58447
  23373019.600   122826034.81708  23373017.240    95708583.87247
  22114240.380   116211107.70709  22114237.100    90554092.10548
 15 02 15 00 30  0.0000000  0  7G16G18G21G25G27G29G31
  22295600.240   117164183.06009  22295596.640    91296755.06547
  23162899.920   121721949.77009  23162896.780    94848285.86146
  21056355.280   110651899.21108  21056351.360    86222246.04548
  24243090.860   127398286.31208  24243091.160    99271388.51646
  23371026.980   122815600.64708  23371026.520    95700474.23847
  23386856.600   122898748.39008  23386854.160    95765243.78747
  22129242.340   116289943.59909  22129239.100    90615522.64248
 15 02 15 00 30 30.0000000  0  7G16G18G21G25G27G29G31
  22280558.000   117085135.85509  22280554.480    91235159.84947
  23149714.040   121652657.38809  23149710.860    94794291.82546
  21060795.520   110675232.78508  21060791.580    86240428.05248
  24260978.000   127492283.57508  24260978.300    99344633.09046
  23358217.800   122748287.64408  23358217.360    95648022.57847
  23400697.520   122971482.74208  23400695.080    95821919.87547
  22144305.120   116369099.10809  22144301.940    90677202.22948
 15 02 15 00 31  0.0000000  0  7G16G18G21G25G27G29G31
  22265547.420   117006254.91709  22265543.860    91173694.19347
  23136562.900   121583547.68109  23136559.760    94740440.13246
  21065311.400   110698963.82909  21065307.460    86258919.77948
  24278899.000   127586458.95808  24278899.240    99418016.46246
  23345429.440   122681083.92308  23345428.880    95595656.05647
  23414542.220   123044236.97408  23414539.800    95878611.46047
  22159428.080   116448570.83109  22159424.960    90739128.21248
 15 02 15 00 31 30.0000000  0  7G16G18G21G25G27G29G31
  22250568.840   116927541.95309  22250565.240    91112359.42647
  23123446.920   121514622.81709  23123443.800    94686732.47246
  21069902.600   110723090.64508  21069898.640    86277719.90048
  24296853.580   127680811.07108  24296853.900    99491537.52945
  23332661.740   122613989.02508  23332661.100    95543374.34547
  23428390.580   123117010.42408  23428388.080    95935318.00947
  22174610.640   116528355.80109  22174607.520    90801298.28748
 15 02 15 00 32  0.0000000  0  7G16G18G21G25G27G29G31
  22235623.220   116849002.35509  22235619.620    91051159.75847
  23110367.340   121445889.09709  23110364.160    94633173.76046
  21074569.460   110747614.98208  21074565.400    86296829.77648
  24314842.160   127775341.88008  24314842.560    99565197.85845
  23319915.260   122547006.06508  23319914.660    95491179.85547
  23442243.160   123189806.13108  23442240.620    95992041.90846
  22189852.960   116608454.60709  22189849.840    90863712.90948
 15 02 15 00 32 30.0000000  0  7G16G18G21G25G27G29G31
  22220710.220   116770633.97209  22220706.600    90990093.49747
  23097323.880   121377345.19409  23097320.600    94579762.94946
  21079311.000   110772531.74009  21079306.920    86316245.43648
  24332863.860   127870046.60008  24332864.300    99638993.68445
  23307189.340   122480131.21108  23307188.800    95439069.60447
  23456099.260   123262620.38608  23456096.700    96048780.26646
  22205153.740   116688860.79609  22205150.620    90926367.04948
 15 02 15 00 33  0.0000000  0  7G16G18G21G25G27G29G31
  22205830.400   116692439.91609  22205826.740    90929163.06947
  23084317.200   121308994.56909  23084313.880    94526502.74246
  21084127.160   110797840.56609  21084122.980    86335966.59848
  24350918.600   127964924.86308  24350918.940    99712924.76145
  23294484.120   122413365.26308  23294483.680    95387044.21847
  23469958.900   123335453.35908  23469956.340    96105533.19847
  22220512.680   116769572.50709  22220509.600    90989259.25548
 15 02 15 00 33 30.0000000  0  8G16G18G21G22G25G27G29G31
  22190984.380   116614423.32609  22190980.640    90868370.92647
  23071347.960   121240840.93409  23071344.600    94473396.04346
  21089017.820   110823541.12408  21089013.640    86355993.01048
  24547812.540   128999629.16308  24547814.580   100519193.00944
  24369006.440   128059976.64608  24369006.600    99786991.03445
  23281799.860   122346709.23408  23281799.460    95335104.48247
  23483822.360   123408306.30208  23483819.780    96162301.69246
  22235929.440   116850587.87009  22235926.340    91052388.07248
 15 02 15 00 34  0.0000000  0  8G16G18G21G22G25G27G29G31
  22176171.620   116536581.78609  22176167.880    90807715.18547
  23058415.880   121172882.73409  23058412.540    94420441.61746
  21093981.860   110849627.64809  21093977.720    86376320.17048
  24530499.060   128908646.75508  24530501.040   100448297.96644
  24387126.260   128155196.51008  24387126.480    99861188.27745
  23269135.660   122280158.69808  23269135.340    95283246.94447
  23497688.700   123481174.63108  23497686.200    96219082.19647
  22251402.640   116931899.84109  22251399.520    91115748.01348
 15 02 15 00 34 30.0000000  0  8G16G18G21G22G25G27G29G31
  22161393.620   116458922.96909  22161389.960    90747201.83447
  23045522.540   121105128.10309  23045519.260    94367645.82046
  21099020.160   110876104.40309  21099016.120    86396951.41048
  24513169.220   128817578.87408  24513171.160   100377336.35644
  24405278.900   128250588.76908  24405279.080    99935519.86345
  23256492.540   122213719.13208  23256492.340    95231475.88947
  23511559.000   123554063.36008  23511556.540    96275878.59246
  22266932.820   117013511.20109  22266929.660    91179341.23748
 15 02 15 00 35  0.0000000  0  8G16G18G21G22G25G27G29G31
  22146650.840   116381449.20609  22146647.180    90686832.67447
  23032668.440   121037579.72509  23032665.240    94315010.74446
  21104132.360   110902969.41908  21104128.320    86417885.18648
  24495823.540   128726428.08008  24495825.580   100306310.14445
  24423464.120   128346152.27508  24423464.180   100009984.89045
  23243870.560   122147390.46108  23243870.380    95179791.24647
  23525433.240   123626972.67908  23525430.820    96332691.01546
  22282519.420   117095419.18209  22282516.260    91243165.60548
 15 02 15 00 35 30.0000000  0  8G16G18G21G22G25G27G29G31
  22131942.780   116304158.00209  22131939.100    90626605.76847
  23019853.240   120970235.63109  23019850.060    94262534.85346
  21109317.340   110930216.79908  21109313.340    86439116.91548
  24478461.740   128635192.46608  24478463.800   100235217.86745
  24441680.800   128441881.42808  24441680.960   100084578.96345
  23231268.860   122081168.18008  23231268.640    95128189.49647
  23539310.500   123699897.81508  23539308.000    96389515.77447
  22298161.060   117177616.56809  22298157.920    91307215.48048
 15 02 15 00 36  0.0000000  0  8G16G18G21G22G25G27G29G31
  22117269.980   116227052.21509  22117266.340    90566523.34247
  23007077.700   120903099.75709  23007074.520    94210221.20846
  21114575.240   110957847.16308  21114571.220    86460647.06748
  24461084.460   128543875.59708  24461086.520   100164062.34045
  24459928.940   128537776.15608  24459929.380   100159302.06445
  23218687.640   122015053.28608  23218687.320    95076671.41347
  23553190.960   123772839.94308  23553188.520    96446353.76947
  22313857.480   117260101.60209  22313854.340    91371489.48748
 15 02 15 00 36 30.0000000  0  8G16G18G21G22G25G27G29G31
  22102634.040   116150140.09409  22102630.460    90506591.82547
  22994343.500   120836181.03709  22994340.360    94158076.77646
  21119906.820   110985864.82609  21119902.820    86482479.01048
  24443693.240   128452485.85508  24443695.220   100092850.05045
  24478209.560   128633841.36808  24478210.100   100234158.00245
  23206128.000   121949051.84808  23206127.580    95025241.74247
  23567075.620   123845804.30008  23567073.260    96503209.08846
  22329609.260   117342877.53809  22329606.120    91435990.17648
 15 02 15 00 37  0.0000000  0  8G16G18G21G22G25G27G29G31
  22088033.680   116073414.65309  22088030.100    90446805.77847
  22981649.260   120769472.52908  22981646.180    94106096.14046
  21125310.040   111014258.84709  21125306.020    86504604.22548
  24426286.820   128361016.64008  24426288.760   100021575.85245
  24496520.600   128730066.54308  24496521.240   100309138.57645
  23193588.140   121883154.43408  23193587.660    94973893.13647
  23580962.840   123918782.25208  23580960.540    96560074.99247
  22345414.220   117425932.66409  22345411.020    91500708.41948
 15 02 15 00 37 30.0000000  0  8G16G18G21G22G25G27G29G31
  22073470.400   115996884.03709  22073466.800    90387171.54247
  22968996.720   120702982.98008  22968993.660    94054286.13546
  21130785.760   111043033.96808  21130781.720    86527026.39948
  24408866.840   128269476.55508  24408868.880    99950246.47545
  24514863.080   128826456.70507  24514863.760   100384247.72145
  23181069.280   121817367.22608  23181068.760    94922630.40347
  23594853.740   123991779.26408  23594851.440    96616955.74547
  22361272.900   117509270.09409  22361269.640    91565646.62848
 15 02 15 00 38  0.0000000  0  8G16G18G21G22G25G27G29G31
  22058944.000   115920547.25009  22058940.340    90327688.34147
  22956385.640   120636711.57008  22956382.580    94002646.10246
  21136333.160   111072185.78409  21136329.100    86549742.10248
  24391433.300   128177864.95408  24391435.320    99878861.40245
  24533236.120   128923007.46907  24533236.760   100459482.01545
  23168570.800   121751686.94908  23168570.220    94871450.99547
  23608747.720   124064792.36408  23608745.360    96673849.03347
  22377184.140   117592883.94109  22377180.880    91630800.24348
 15 02 15 00 38 30.0000000  0  8G16G18G21G22G25G27G29G31
  22044455.120   115844407.37709  22044451.380    90268358.56647
  22943816.940   120570662.75309  22943813.860    93951179.50746
  21141952.120   111101713.65709  21141948.080    86572750.83848
  24373986.780   128086185.30008  24373988.760    99807423.30445
  24551639.720   129019718.55408  24551640.420   100534841.20845
  23156092.860   121686114.58508  23156092.160    94820355.65747
  23622644.900   124137822.36208  23622642.540    96730755.48446
  22393147.640   117676772.44209  22393144.380    91696167.85548
 15 02 15 00 39  0.0000000  0  8G16G18G21G22G25G27G29G31
  22030004.300   115768467.72709  22030000.560    90209184.81747
  22931291.280   120504839.96308  22931288.060    93899889.03646
  21147642.540   111131617.06309  21147638.540    86596052.19048
  24356528.020   127994441.25108  24356529.800    99735935.04945
  24570073.820   129116590.03308  24570074.400   100610325.41445
  23143635.600   121620651.20008  23143634.900    94769345.24347
  23636545.440   124210870.15408  23636543.140    96787675.81846
  22409163.000   117760933.64009  22409159.780    91761747.96248
 15 02 15 00 39 30.0000000  0  8G16G18G21G22G25G27G29G31
  22015591.760   115692729.22609  22015588.040    90150167.81147
  22918808.900   120439244.60309  22918805.620    93848775.78346
  21153404.040   111161893.71409  21153400.000    86619644.38748
  24339057.200   127902633.87408  24339058.900    99664397.49745
  24588537.980   129213619.52207  24588538.640   100685932.73145
  23131198.820   121555295.60408  23131198.120    94718418.83147
  23650449.060   124283934.20408  23650446.780    96844608.82046
  22425229.520   117845363.97509  22425226.440    91827537.79048
 15 02 15 00 40  0.0000000  0  8G16G18G21G22G25G27G29G31
  22001217.620   115617192.65509  22001213.980    90091308.15047
  22906370.060   120373877.99909  22906366.780    93797840.78146
  21159236.020   111192540.78109  21159232.000    86643525.22348
  24321574.640   127810764.96608  24321576.260    99592812.00845
  24607031.760   129310804.60107  24607032.400   100761661.29845
  23118782.240   121490046.61308  23118781.640    94667575.48547
  23664355.700   124357013.94108  23664353.380    96901554.05346
  22441346.460   117930059.15009  22441343.420    91893533.98248
 15 02 15 00 40 30.0000000  0  8G16G18G21G22G25G27G29G31
  21986882.840   115541862.82309  21986879.160    90032609.58147
  22893975.740   120308745.22209  22893972.460    93747087.98046
  21165138.640   111223559.05609  21165134.600    86667695.30748
  24304081.280   127718839.29208  24304082.640    99521182.27045
  24625555.300   129408146.30307  24625555.860   100837511.89944
  23106386.320   121424906.39208  23106385.860    94616816.88947
  23678265.600   124430111.02908  23678263.260    96958512.81146
  22457513.700   118015018.63309  22457510.700    91959736.12948
 15 02 15 00 41  0.0000000  0  8G16G18G21G22G25G27G29G31
  21972587.940   115466742.93409  21972584.260    89974074.60947
  22881626.660   120243850.33209  22881623.420    93696520.54746
  21171111.840   111254948.17709  21171107.760    86692154.35848
  24286577.780   127626860.53008  24286578.920    99449511.19145
  24644108.680   129505644.70707  24644109.300   100913484.58345
  23094011.300   121359876.19008  23094011.020    94566144.02547
  23692179.000   124503226.80008  23692176.680    97015486.11246
  22473731.060   118100241.33209  22473728.080    92026143.37448
 15 02 15 00 41 30.0000000  0  8G16G18G21G22G25G27G29G31
  21958332.820   115391832.00409  21958329.140    89915702.46647
  22869322.600   120179192.31509  22869319.400    93646137.69346
  21177154.720   111286703.38109  21177150.600    86716898.67748
  24269064.020   127534827.84308  24269065.100    99377798.08145
  24662690.920   129603295.13207  24662691.560   100989575.75045
  23081656.620   121294952.52608  23081656.420    94515554.18147
  23706095.260   124576357.77108  23706093.000    97072471.27246
  22489997.300   118185720.59809  22489994.280    92092750.55348
 15 02 15 00 42  0.0000000  0  8G16G18G21G22G25G27G29G31
  21944117.440   115317129.92809  21944113.780    89857493.06248
  22857063.760   120114771.87808  22857060.540    93595939.97146
  21183266.700   111318821.58509  21183262.520    86741925.85548
  24251540.080   127442741.95408  24251541.000    99306043.52945
  24681301.580   129701094.54807  24681302.300   101065782.98645
  23069321.920   121230133.55208  23069321.780    94465045.91147
  23720014.100   124649501.95208  23720011.860    97129466.72246
  22506311.460   118271451.75909  22506308.400    92159554.00448
 15 02 15 00 42 30.0000000  0  8G16G18G21G22G25G27G29G31
  21929942.740   115242641.51009  21929939.100    89799450.14848
  22844851.080   120050594.17709  22844847.860    93545931.38946
  21189447.900   111351303.66909  21189443.660    86767236.57648
  24234007.020   127350608.04508  24234007.820    99234251.55645
  24699940.820   129799044.25007  24699941.540   101142107.34145
  23057007.680   121165421.83208  23057007.560    94414621.21847
  23733936.020   124722661.89408  23733933.740    97186474.44446
  22522673.500   118357434.56309  22522670.420    92226553.53848
 15 02 15 00 43  0.0000000  0  8G16G18G21G22G25G27G29G31
  21915809.460   115168370.68609  21915805.840    89741576.78448
  22832685.460   119986663.66208  22832682.180    93496115.42046
  21195698.300   111384149.70609  21195694.060    86792830.89548
  24216465.580   127258430.09308  24216466.360    99162425.26045
  24718608.760   129897144.67107  24718609.520   101218549.13845
  23044714.160   121100818.95108  23044714.060    94364281.33947
  23747861.200   124795838.90708  23747858.940    97243495.46847
  22539083.260   118443668.02109  22539080.180    92293748.39048
 15 02 15 00 43 30.0000000  0  8G16G18G21G22G25G27G29G31
  21901717.700   115094317.78509  21901714.060    89683873.23148
  22820567.000   119922980.90309  22820563.720    93446492.51146
  21202017.280   111417356.32509  21202013.040    86818706.18448
  24198915.820   127166208.43308  24198916.500    99090564.89846
  24737304.780   129995392.75907  24737305.720   101295105.97545
  23032441.020   121036323.05708  23032440.960    94314024.82147
  23761789.320   124869031.07208  23761787.060    97300528.29647
  22555539.800   118530147.44209  22555536.720    92361134.89848
 15 02 15 00 44  0.0000000  0  8G16G18G21G22G25G27G29G31
  21887667.360   115020482.81009  21887663.720    89626339.48348
  22808495.800   119859546.31409  22808492.520    93397062.97446
  21208404.160   111450919.90009  21208399.980    86844859.61748
  24181358.080   127073944.52708  24181358.560    99018671.60246
  24756028.280   130093784.90907  24756029.180   101371775.07245
  23020187.760   120971931.82808  23020187.660    94263849.85848
  23775719.960   124942236.31208  23775717.660    97357571.31047
  22572042.140   118616867.54809  22572039.100    92428708.94748
 15 02 15 00 44 30.0000000  0  8G16G18G21G22G25G27G29G31
  21873659.320   114946870.29409  21873655.740    89568979.08348
  22796472.820   119796365.18809  22796469.560    93347830.94246
  21214859.120   111484841.33809  21214855.000    86871291.90548
  24163793.220   126981643.15508  24163793.560    98946749.09446
  24774779.500   130192322.42007  24774780.400   101448557.45445
  23007954.920   120907647.83508  23007954.780    94213758.45648
  23789653.560   125015457.22008  23789651.200    97414626.54047
  22588590.200   118703828.14309  22588587.240    92496470.38248
 15 02 15 00 45  0.0000000  0  8G16G18G21G22G25G27G29G31
  21859694.400   114873484.26809  21859690.840    89511795.17248
  22784498.920   119733441.79309  22784495.700    93298799.74946
  21221382.200   111519120.77209  21221378.140    86898003.16348
  24146222.040   126889308.48008  24146222.220    98874800.62946
  24793558.480   130291005.75907  24793559.420   101525453.42545
  22995742.860   120843472.71708  22995742.640    94163751.90347
  23803590.420   125088695.63308  23803588.120    97471695.41647
  22605183.800   118791027.94209  22605180.880    92564418.22848
 15 02 15 00 45 30.0000000  0  8G16G18G21G22G25G27G29G31
  21845772.380   114800323.52009  21845768.820    89454786.80348
  22772573.720   119670774.44109  22772570.500    93249968.06546
  21227972.440   111553752.93509  21227968.440    86924989.27248
  24128644.260   126796939.15308  24128644.240    98802825.15546
  24812364.300   130389830.11207  24812365.160   101602459.30645
  22983550.780   120779402.89408  22983550.560    94113827.38747
  23817529.800   125161947.50108  23817527.580    97528774.76747
  22621821.760   118878460.84309  22621818.840    92632547.70548
 15 02 15 00 46  0.0000000  0  7G16G18G21G22G27G29G31
  21831894.780   114727396.19209  21831891.220    89397960.31848
  22760699.080   119608372.94209  22760695.920    93201343.54346
  21234630.700   111588742.60109  21234626.720    86952253.95148
  24111061.720   126704544.71508  24111061.560    98730830.07845
  22971379.900   120715444.64508  22971379.700    94063989.81447
  23831472.940   125235219.19908  23831470.780    97585869.58946
  22638504.700   118966130.06409  22638501.740    92700861.33047
 15 02 15 00 46 30.0000000  0  7G16G18G21G22G27G29G31
  21818060.500   114654696.52909  21818056.940    89341311.23248
  22748873.920   119546231.58809  22748870.760    93152921.72346
  21241355.200   111624080.23909  21241351.260    86979789.78348
  24093473.360   126612119.38708  24093472.980    98658810.91446
  22959228.680   120651589.78408  22959228.480    94014232.79447
  23845418.220   125308502.53908  23845416.260    97642973.48046
  22655230.560   119054024.79109  22655227.620    92769350.66447
 15 02 15 00 47  0.0000000  0  7G16G18G21G22G27G29G31
  21804270.320   114582228.62009  21804266.780    89284842.73748
  22737099.060   119484354.29909  22737095.880    93104705.66446
  21248145.940   111659766.01309  21248142.000    87007596.88248
  24075879.960   126519667.57508  24075879.400    98586771.10146
  22947097.520   120587840.15308  22947097.240    93964557.77147
  23859366.060   125381799.41108  23859364.160    97700087.89746
  22671999.080   119142143.77509  22671996.140    92838014.74247
 15 02 15 00 47 30.0000000  0  7G16G18G21G22G27G29G31
  21790525.220   114509997.58209  21790521.660    89228558.81448
  22725375.580   119422746.99609  22725372.400    93056699.97946
  21255003.200   111695801.47309  21254999.260    87035676.45048
  24058282.520   126427194.61008  24058281.840    98514714.78546
  22934986.960   120524198.71708  22934986.620    93914967.05847
  23873316.980   125455112.24508  23873315.080    97757214.75746
  22688810.360   119230487.34309  22688807.420    92906853.82047
 15 02 15 00 48  0.0000000  0  7G16G18G21G22G27G29G31
  21776825.120   114438003.06309  21776821.540    89172459.19548
  22713703.380   119361409.27909  22713700.240    93008904.38247
  21261926.180   111732182.25208  21261922.280    87064025.11948
  24040681.180   126334701.07508  24040680.320    98442642.43046
  22922896.480   120460662.89808  22922896.100    93865458.64547
  23887270.600   125528439.17108  23887268.720    97814352.58846
  22705663.340   119319050.06709  22705660.440    92975863.66948
 15 02 15 00 48 30.0000000  0  7G16G18G21G22G27G29G31
  21763170.680   114366248.23309  21763167.060    89116546.34148
  22702083.200   119300344.82609  22702080.000    92961321.70046
  21268914.780   111768907.79308  21268910.900    87092642.42848
  24023076.560   126242190.23508  24023075.560    98370556.57146
  22910826.260   120397233.52908  22910825.880    93816033.18447
  23901227.120   125601780.93708  23901225.180    97871501.98946
  22722557.600   119407829.74209  22722554.740    93045042.57648
 15 02 15 00 49  0.0000000  0  7G16G18G21G22G27G29G31
  21749562.240   114294735.13809  21749558.560    89060821.85548
  22690515.480   119239556.14409  22690512.260    92913953.90846
  21275968.640   111805976.47109  21275964.800    87121527.10448
  24005469.080   126149664.57608  24005468.060    98298459.15346
  22898776.280   120333910.52008  22898775.880    93766690.58147
  23915186.340   125675136.77808  23915184.420    97928662.34246
  22739492.600   119496823.58909  22739489.820    93114388.35347
 15 02 15 00 49 30.0000000  0  7G16G18G21G22G27G29G31
  21736000.200   114223465.88509  21735996.440    89005287.37448
  22679000.680   119179045.59009  22678997.500    92866802.84846
  21283087.460   111843386.48808  21283083.700    87150677.77348
  23987859.260   126057126.57608  23987858.120    98226352.09746
  22886746.540   120270693.72808  22886746.080    93717430.76847
  23929148.300   125748507.41808  23929146.380    97985834.25146
  22756467.760   119586028.37309  22756465.020    93183898.50247
 15 02 15 00 50  0.0000000  0  7G16G18G21G22G27G29G31
  21722484.960   114152442.82209  21722481.160    88949944.73848
  22667539.320   119118815.77609  22667536.120    92819870.54046
  21290270.980   111881136.26408  21290267.220    87180093.18948
  23970247.680   125964579.14808  23970246.460    98154237.67046
  22874737.040   120207583.28808  22874736.540    93668253.81647
  23943113.080   125821892.43308  23943111.120    98043017.34046
  22773482.620   119675441.70609  22773479.900    93253571.16447
 15 02 15 00 50 30.0000000  0  7G16G18G21G22G27G29G31
  21709016.720   114081666.99009  21709012.940    88894794.74348
  22656131.540   119058867.54809  22656128.400    92773157.64746
  21297518.560   111919222.42209  21297514.780    87209770.71348
  23952634.560   125872023.61108  23952633.180    98082116.90746
  22862747.500   120144577.79308  22862747.020    93619158.65047
  23957080.380   125895290.84008  23957078.340    98100210.86846
  22790536.380   119765059.28609  22790533.660    93323402.96547
 15 02 15 00 51  0.0000000  0  7G16G18G21G22G27G29G31
  21695596.540   114011143.57909  21695592.740    88839841.43548
  22644778.500   118999206.72609  22644775.340    92726668.71547
  21304830.600   111957647.20508  21304826.780    87239712.10048
  23935021.060   125779465.56508  23935019.540    98009994.16246
  22850778.520   120081680.34408  22850778.060    93570147.66947
  23971050.760   125968705.53008  23971048.640    98157417.10346
  22807628.960   119854881.20109  22807626.240    93393393.98547
 15 02 15 00 51 30.0000000  0  7G16G18G21G22G27G29G31
  21682224.180   113940871.58409  21682220.380    88785084.03948
  22633480.020   118939832.60309  22633476.800    92680403.17647
  21312206.180   111996405.79009  21312202.300    87269913.60348
  23917407.080   125686904.95208  23917405.360    97937869.40046
  22838829.520   120018887.87809  22838829.060    93521218.49347
  23985023.720   126042133.60208  23985021.380    98214633.75646
  22824759.300   119944901.41909  22824756.600    93463539.52847
 15 02 15 00 52  0.0000000  0  7G16G18G21G22G27G29G31
  21668900.040   113870852.74509  21668896.240    88730523.90548
  22622236.460   118880747.28809  22622233.180    92634362.68847
  21319644.760   112035495.46109  21319640.800    87300373.08748
  23899792.980   125594343.56708  23899791.100    97865744.04446
  22826900.360   119956199.71108  22826899.860    93472370.59247
  23998999.060   126115574.25708  23998996.700    98271860.22246
  22841926.660   120035116.40809  22841924.040    93533836.83747
 15 02 15 00 52 30.0000000  0  7G16G18G21G22G27G29G31
  21655625.100   113801092.25909  21655621.260    88676165.08948
  22611048.900   118821956.27909  22611045.620    92588551.52947
  21327146.620   112074917.78609  21327142.660    87331091.78148
  23882179.800   125501787.22908  23882177.780    97793622.60346
  22814991.700   119893619.02609  22814991.120    93423606.44247
  24012977.400   126189030.57008  24012974.980    98329098.88346
  22859131.160   120125526.48409  22859128.580    93604286.16647
 15 02 15 00 53  0.0000000  0  7G16G18G21G22G27G29G31
  21642399.560   113731591.44409  21642395.720    88622008.61348
