     2.11           OBSERVATION DATA    G                   RINEX VERSION / TYPE
SPIDER V4,0,0,3554                      2015 03 16 00:11    PGM / RUN BY / DATE 
AKET                                                        MARKER NAME         
AKET                                                        MARKER NUMBER       
                                                            OBSERVER / AGENCY   
496661              LEICA GRX1200+GNSS  8.20/4.007          REC # / TYPE / VERS 
10271023            LEIAR25         NONE                    ANT # / TYPE        
  5151584.4739   350346.6892  3733756.9574                  APPROX POSITION XYZ 
        0.0480        0.0000        0.0000                  ANTENNA: DELTA H/E/N
     1     1                                                WAVELENGTH FACT L1/2
     4    C1    L1    P2    L2                              # / TYPES OF OBSERV 
    30.000                                                  INTERVAL            
  2015    02    15    00    00    0.0000000     GPS         TIME OF FIRST OBS   
  2015    02    15    15    40   30.0000000     GPS         TIME OF LAST OBS    
    16                                                      LEAP SECONDS        
    27                                                      # OF SATELLITES     
   G 1   140   140   140   140                              PRN / # OF OBS      
   G 2   479   479   477   477                              PRN / # OF OBS      
   G 3   337   337   337   337                              PRN / # OF OBS      
   G 4    23    23    20    20                              PRN / # OF OBS      
   G 5   512   512   512   512                              PRN / # OF OBS      
   G 6   514   514   513   513                              PRN / # OF OBS      
   G 7   572   572   572   572                              PRN / # OF OBS      
   G 9   637   637   637   637                              PRN / # OF OBS      
   G10   686   686   685   685                              PRN / # OF OBS      
   G11    27    26    26    26                              PRN / # OF OBS      
   G13   440   440   439   439                              PRN / # OF OBS      
   G15   200   200   200   200                              PRN / # OF OBS      
   G16   147   147   147   147                              PRN / # OF OBS      
   G17   212   212   212   212                              PRN / # OF OBS      
   G18   102   102   102   102                              PRN / # OF OBS      
   G19     1     1     1     1                              PRN / # OF OBS      
   G20   613   612   612   611                              PRN / # OF OBS      
   G21   147   147   147   147                              PRN / # OF OBS      
   G23   452   452   452   452                              PRN / # OF OBS      
   G24    81    81    81    81                              PRN / # OF OBS      
   G25    49    49    49    49                              PRN / # OF OBS      
   G27   147   147   147   147                              PRN / # OF OBS      
   G28   326   326   326   326                              PRN / # OF OBS      
   G29   147   147   147   147                              PRN / # OF OBS      
   G30   592   592   592   592                              PRN / # OF OBS      
   G31   165   165   165   165                              PRN / # OF OBS      
   G32    92    92    92    92                              PRN / # OF OBS      
BIT 2 OF LLI FLAGS DATA COLLECTED UNDER A/S CONDITION       COMMENT             
SNR is mapped to RINEX snr flag value [2-9]                 COMMENT             
Lx:     = 25dBHz -> 1; 26-27dBHz -> 2; 28-31dBHz -> 3       COMMENT             
       32-35dBHz -> 4; 36-38dBHz -> 5; 39-41dBHz -> 6       COMMENT             
       42-44dBHz -> 7; 45-48dBHz -> 8; >=49dBHz -> 9        COMMENT             
                                                            END OF HEADER       
 15 02 15 00 00  0.0000000  0  6G16G21G25G27G29G31
  23191854.720   121874020.36008  23191850.700    94966757.29246
  20948586.280   110085566.83408  20948582.160    85780946.71148
  23261467.780   122239833.72608  23261467.920    95251815.63445
  24225517.840   127305965.17608  24225518.600    99199458.82845
  22476723.180   118115976.00709  22476720.660    92038410.26148
  21430624.740   112618686.27209  21430621.120    87754804.81748
 15 02 15 00 00 30.0000000  0  6G16G21G25G27G29G31
  23175430.340   121787709.09608  23175426.220    94899501.78246
  20947537.780   110080056.72508  20947533.700    85776653.13148
  23277362.540   122323360.75708  23277362.700    95316901.62645
  24211020.880   127229781.81808  24211020.760    99140095.06246
  22490235.720   118186984.10609  22490233.100    92093741.22948
  21441652.880   112676639.01609  21441649.240    87799962.79248
 15 02 15 00 01  0.0000000  0  6G16G21G25G27G29G31
  23159020.880   121701477.26108  23159016.780    94832308.16547
  20946577.360   110075009.53908  20946573.220    85772720.25948
  23293302.160   122407123.37908  23293302.280    95382171.18945
  24196545.760   127153715.12208  24196545.580    99080822.44746
  22503761.240   118258059.82409  22503758.520    92149124.87948
  21452768.640   112735052.50309  21452764.940    87845479.77849
 15 02 15 00 01 30.0000000  0  6G16G21G25G27G29G31
  23142624.960   121615316.84508  23142620.940    94765170.18746
  20945702.940   110070414.40708  20945698.820    85769139.64548
  23309284.540   122491111.02708  23309284.600    95447616.10345
  24182091.260   127077755.41307  24182091.100    99021633.02045
  22517297.540   118329192.06609  22517294.660    92204552.57747
  21463969.720   112793914.80709  21463966.040    87891346.49448
 15 02 15 00 02  0.0000000  0  6G16G21G25G27G29G31
  23126244.280   121529236.49508  23126240.400    94698094.61246
  20944916.120   110066279.83708  20944911.920    85765917.90948
  23325310.840   122575329.95207  23325310.960    95513241.22945
  24167658.200   127001909.65208  24167658.460    98962532.62346
  22530845.840   118400387.78609  22530842.760    92260029.73448
  21475257.100   112853230.49209  21475253.400    87937566.50648
 15 02 15 00 02 30.0000000  0  6G16G21G25G27G29G31
  23109878.260   121443232.78208  23109874.660    94631078.75846
  20944215.860   110062599.83608  20944211.760    85763050.37748
  23341380.120   122659774.93207  23341380.260    95579042.47045
  24153246.340   126926173.60707  24153245.760    98903517.36246
  22544405.080   118471641.29209  22544401.740    92315551.92747
  21486629.580   112912993.17809  21486625.840    87984134.82148
 15 02 15 00 03  0.0000000  0  6G16G21G25G27G29G31
  23093527.680   121357310.26108  23093524.260    94564126.17746
  20943602.380   110059375.90808  20943598.240    85760538.23648
  23357492.740   122744447.72107  23357492.920    95645021.25645
  24138855.600   126850549.63008  24138855.300    98844589.78246
  22557975.660   118542954.80409  22557972.120    92371120.89347
  21498087.140   112973203.37509  21498083.480    88031051.84348
 15 02 15 00 03 30.0000000  0  6G16G21G25G27G29G31
  23077193.020   121271470.95708  23077189.600    94497238.40946
  20943075.740   110056608.08608  20943071.560    85758381.49848
  23373648.660   122829347.94607  23373648.940    95711177.26746
  24124486.280   126775038.27008  24124485.960    98785749.78046
  22571557.480   118614327.68109  22571553.840    92426736.11847
  21509629.500   113033859.22209  21509625.840    88078316.12348
 15 02 15 00 04  0.0000000  0  6G16G21G25G27G29G31
  23060873.920   121185713.34708  23060870.400    94430414.29846
  20942635.180   110054292.63909  20942630.900    85756577.25948
  23389847.140   122914471.96307  23389847.540    95777507.63245
  24110137.720   126699636.61108  24110137.540    98726995.26147
  22585149.840   118685756.95108  22585146.340    92482395.26247
  21521255.740   113094955.67009  21521251.940    88125923.74348
 15 02 15 00 04 30.0000000  0  6G16G21G25G27G29G31
  23044571.500   121100042.78408  23044567.680    94363658.04046
  20942281.440   110052433.29208  20942277.140    85755128.41548
  23406088.720   122999822.44407  23406089.200    95844014.45545
  24095810.640   126624348.17308  24095811.060    98668329.08947
  22598753.160   118757244.86408  22598750.240    92538100.08647
  21532966.060   113156493.99609  21532962.280    88173875.66548
 15 02 15 00 05  0.0000000  0  6G16G21G25G27G29G31
  23028284.720   121014454.38708  23028280.480    94296965.80546
  20942013.060   110051022.91708  20942008.840    85754029.44248
  23422372.180   123085392.08407  23422372.540    95910692.07444
  24081504.020   126549166.59807  24081504.240    98609746.01346
  22612366.280   118828784.13108  22612363.880    92593844.93147
  21544758.820   113218465.30009  21544755.020    88222164.98448
 15 02 15 00 05 30.0000000  0  6G16G21G25G27G29G31
  23012015.460   120928958.61208  23012011.060    94230345.74146
  20941831.780   110050069.87609  20941827.500    85753286.81148
  23438698.960   123171189.13507  23438699.080    95977546.92344
  24067219.160   126474100.73108  24067219.680    98551253.22846
  22625991.040   118900383.51109  22625988.860    92649636.64247
  21556635.340   113280876.72309  21556631.600    88270797.25248
 15 02 15 00 06  0.0000000  0  6G16G21G25G27G29G31
  22995762.620   120843549.61908  22995758.200    94163793.29346
  20941735.800   110049565.41708  20941731.500    85752893.73848
  23455067.480   123257205.25307  23455067.480    96044572.45945
  24052954.880   126399143.27607  24052955.440    98492844.88646
  22639625.900   118972034.93509  22639623.620    92705468.90347
  21568593.720   113343718.37709  21568590.080    88319764.75348
 15 02 15 00 06 30.0000000  0  6G16G21G25G27G29G31
  22979526.660   120758230.16908  22979522.420    94097310.61546
  20941725.360   110049510.60408  20941721.000    85752851.03348
  23471477.720   123343440.78507  23471477.680    96111768.96145
  24038711.840   126324295.34008  24038712.020    98434521.76146
  22653270.800   119043738.91609  22653268.280    92761342.10547
  21580633.820   113406989.26109  21580630.160    88369066.73348
 15 02 15 00 07  0.0000000  0  6G16G21G25G27G29G31
  22963309.080   120673007.92708  22963305.180    94030903.69646
  20941801.340   110049910.13908  20941796.980    85753162.37148
  23487930.580   123429900.59007  23487930.420    96179140.21345
  24024490.320   126249562.53807  24024490.580    98376288.49246
  22666926.740   119115500.66109  22666924.020    92817260.33147
  21592756.260   113470692.91109  21592752.600    88418705.93348
 15 02 15 00 07 30.0000000  0  6G16G21G25G27G29G31
  22947108.520   120587874.97808  22947104.900    93964566.34346
  20941962.100   110050754.89909  20941957.800    85753820.63848
  23504424.100   123516574.79107  23504423.860    96246678.52145
  24010289.600   126174936.05008  24010289.980    98318138.03546
  22680591.800   119187309.81409  22680588.740    92873215.50547
  21604958.820   113534817.78909  21604955.260    88468673.35748
 15 02 15 00 08  0.0000000  0  6G16G21G25G27G29G31
  22930926.900   120502840.78208  22930923.500    93898305.93546
  20942208.840   110052051.53708  20942204.480    85754831.01848
  23520959.620   123603469.94307  23520959.580    96314388.98345
  23996110.340   126100423.05708  23996110.240    98260075.99846
  22694267.200   119259173.24109  22694263.880    92929212.96747
  21617242.440   113599369.00009  21617238.920    88518972.98448
 15 02 15 00 08 30.0000000  0  6G16G21G25G27G29G31
  22914763.300   120417900.49608  22914759.900    93832118.72346
  20942540.100   110053792.32508  20942535.700    85756187.48048
  23537535.820   123690578.56907  23537535.980    96382265.80744
  23981951.880   126026017.18607  23981951.340    98202097.37245
  22707951.640   119331084.24209  22707948.180    92985247.49147
  21629605.520   113664337.77309  21629602.060    88569597.98648
 15 02 15 00 09  0.0000000  0  6G16G21G25G27G29G31
  22898619.460   120333063.45509  22898615.900    93766011.96146
  20942957.260   110055984.75008  20942952.940    85757895.86948
  23554154.080   123777907.66807  23554154.140    96450314.42344
  23967814.720   125951726.13508  23967813.540    98144208.21346
  22721646.520   119403049.93009  22721643.000    93041324.63748
  21642049.120   113729729.60009  21642045.660    88620552.64648
 15 02 15 00 09 30.0000000  0  6G16G21G25G27G29G31
  22882494.880   120248327.56408  22882491.100    93699983.99646
  20943459.460   110058624.04908  20943455.140    85759952.46848
  23570813.440   123865452.73407  23570813.480    96518531.32844
  23953698.780   125877546.32008  23953698.300    98086405.88847
  22735350.940   119475065.86409  22735347.420    93097440.93947
  21654572.160   113795538.45709  21654568.680    88671832.26448
 15 02 15 00 10  0.0000000  0  6G16G21G25G27G29G31
  22866389.560   120163693.25009  22866385.780    93634035.20446
  20944046.340   110061708.59208  20944042.160    85762356.02448
  23587513.460   123953211.57107  23587513.400    96586914.86044
  23939603.760   125803476.39208  23939602.400    98028688.96645
  22749064.460   119547130.45109  22749061.040    93153595.13847
  21667173.840   113861760.64309  21667170.360    88723433.95148
 15 02 15 00 10 30.0000000  0  6G16G21G25G27G29G31
  22850304.260   120079164.83208  22850300.620    93568168.90746
  20944718.300   110065239.96809  20944714.180    85765107.75048
  23604254.400   124041185.58907  23604254.100    96655466.06144
  23925529.920   125729518.68907  23925529.720    97971059.76946
  22762787.380   119619245.14009  22762784.040    93209788.38247
  21679854.180   113928396.22709  21679850.600    88775357.77348
 15 02 15 00 11  0.0000000  0  6G16G21G25G27G29G31
  22834239.820   119994746.80209  22834236.520    93502388.64246
  20945475.760   110069220.34209  20945471.540    85768209.34648
  23621036.720   124129376.95507  23621036.180    96724186.64144
  23911477.760   125655676.22908  23911477.520    97913520.18346
  22776520.120   119691412.05008  22776516.900    93266022.32647
  21692613.280   113995445.92109  21692609.580    88827604.28348
 15 02 15 00 11 30.0000000  0  6G16G21G25G27G29G31
  22818195.080   119910432.10208  22818191.940    93436688.88246
  20946316.780   110073639.67508  20946312.460    85771652.98848
  23637858.580   124217775.97407  23637857.980    96793068.98444
  23897445.960   125581940.27206  23897446.260    97856063.65546
  22790260.920   119763622.46208  22790257.980    93322290.13647
  21705449.100   114062898.48409  21705445.460    88880164.70048
 15 02 15 00 12  0.0000000  0  6G16G21G25G27G29G31
  22802171.320   119826226.95309  22802168.060    93371074.49546
  20947242.160   110078502.21208  20947237.660    85775441.98448
  23654720.560   124306385.89907  23654719.820    96862115.63344
  23883435.620   125508315.10508  23883435.640    97798693.35846
  22804010.820   119835880.13508  22804008.120    93378594.79247
  21718362.000   114130755.98409  21718358.380    88933040.65448
 15 02 15 00 12 30.0000000  0  6G16G21G25G27G29G31
  22786168.900   119742132.97208  22786165.340    93305546.71746
  20948251.680   110083807.04608  20948247.160    85779575.62848
  23671622.540   124395206.06407  23671621.720    96931326.12944
  23869446.260   125434800.66108  23869446.980    97741409.49847
  22817769.700   119908184.26309  22817767.160    93434935.64247
  21731351.560   114199015.84209  21731347.820    88986230.13748
 15 02 15 00 13  0.0000000  0  6G16G21G25G27G29G31
  22770189.020   119658156.73809  22770185.160    93240110.69546
  20949346.000   110089557.70808  20949341.380    85784056.66948
  23688565.120   124484240.12607  23688564.560    97000703.29545
  23855478.840   125361401.71008  23855479.240    97684215.52547
  22831538.340   119980539.01008  22831535.780    93491315.94047
  21744418.140   114267680.32709  21744414.280    89039734.92648
 15 02 15 00 13 30.0000000  0  6G16G21G25G27G29G31
  22754229.940   119574289.92509  22754225.840    93174759.94546
  20950523.200   110095743.67308  20950518.520    85788876.89948
  23705546.220   124573477.13107  23705545.860    97070238.57545
  23841531.900   125288108.23508  23841532.200    97627103.76146
  22845314.680   120052933.67109  22845311.960    93547727.35247
  21757559.280   114336736.86609  21757555.340    89093545.19848
 15 02 15 00 14  0.0000000  0  6G16G21G25G27G29G31
  22738293.640   119490543.40409  22738289.440    93109502.92246
  20951784.720   110102372.97408  20951779.980    85794042.60048
  23722567.420   124662925.18907  23722567.460    97139938.33446
  23827606.600   125214929.19408  23827606.260    97570081.10746
  22859100.320   120125376.72109  22859097.440    93604176.48247
  21770776.240   114406192.23909  21770772.360    89147666.25548
 15 02 15 00 14 30.0000000  0  6G16G21G25G27G29G31
  22722379.580   119406914.18409  22722375.360    93044337.30446
  20953129.520   110109440.23508  20953124.860    85799549.56148
  23739627.820   124752579.10307  23739628.120    97209798.48946
  23813702.020   125141860.37207  23813701.660    97513144.41446
  22872894.320   120197864.00509  22872891.500    93660660.05747
  21784067.780   114476039.81609  21784063.940    89202092.91848
 15 02 15 00 15  0.0000000  0  6G16G21G25G27G29G31
  22706488.120   119323403.77709  22706483.740    92979264.25446
  20954557.440   110116944.44108  20954552.920    85805397.00548
  23756727.180   124842437.38707  23756727.680    97279817.89545
  23799818.340   125068901.24408  23799818.140    97456293.19446
  22886696.400   120270393.98909  22886693.700    93717176.91347
  21797433.380   114546276.61309  21797429.520    89256822.87948
 15 02 15 00 15 30.0000000  0  6G16G21G25G27G29G31
  22690620.160   119240017.34209  22690615.900    92914287.83346
  20956068.820   110124887.29808  20956064.400    85811586.25448
  23773865.860   124932502.08907  23773866.520    97349998.15445
  23785956.080   124996054.72008  23785955.740    97399529.64745
  22900507.040   120342969.18909  22900504.340    93773728.99547
  21810873.060   114616902.91809  21810869.240    89311856.35248
 15 02 15 00 16  0.0000000  0  6G16G21G25G27G29G31
  22674775.660   119156754.79408  22674771.740    92849407.93047
  20957663.340   110133266.63608  20957658.960    85818115.61748
  23791043.320   125022770.50307  23791044.100    97420337.16346
  23772114.760   124923319.14108  23772114.540    97342852.60546
  22914325.900   120415587.43709  22914323.120    93830314.62247
  21824386.020   114687914.49109  21824382.320    89367190.02048
 15 02 15 00 16 30.0000000  0  6G16G21G25G27G29G31
  22658955.280   119073619.42908  22658951.840    92784627.10847
  20959340.960   110142082.67808  20959336.620    85824985.25648
  23808259.640   125113243.10907  23808260.400    97490835.23645
  23758294.700   124850695.87508  23758294.820    97286263.10446
  22928153.160   120488249.75009  22928150.240    93886934.58847
  21837972.120   114759310.59309  21837968.560    89422823.31648
 15 02 15 00 17  0.0000000  0  6G16G21G25G27G29G31
  22643158.920   118990609.95808  22643155.920    92719944.41846
  20961101.040   110151331.82708  20961096.720    85832192.39548
  23825514.120   125203916.03507  23825515.020    97561489.44845
  23744495.700   124778182.09308  23744495.500    97229758.86046
  22941988.140   120560952.52209  22941984.980    93943586.09747
  21851630.400   114831085.49409  21851626.880    89478751.79048
 15 02 15 00 17 30.0000000  0  6G16G21G25G27G29G31
  22627386.580   118907725.90509  22627383.660    92655359.44346
  20962942.840   110161010.58609  20962938.520    85839734.28948
  23842806.040   125294785.90106  23842806.860    97632297.11345
  23730717.140   124705775.34708  23730717.160    97173338.10046
  22955830.340   120633693.06709  22955826.960    94000267.03347
  21865359.960   114903234.54209  21865356.320    89534971.82248
 15 02 15 00 18  0.0000000  0  6G16G21G25G27G29G31
  22611639.860   118824976.02809  22611636.660    92590879.03646
  20964867.540   110171124.77608  20964863.120    85847615.48348
  23860136.440   125385858.33506  23860137.380    97703262.61146
  23716960.200   124633482.30008  23716960.140    97117005.86347
  22969680.900   120706477.53109  22969677.200    94056982.20447
  21879161.600   114975761.65409  21879157.700    89591486.45448
 15 02 15 00 18 30.0000000  0  6G16G21G25G27G29G31
  22595918.720   118742360.29109  22595915.060    92526503.15346
  20966874.660   110181672.10508  20966870.140    85855834.18548
  23877505.060   125477131.04606  23877506.000    97774384.17644
  23703224.660   124561301.57408  23703224.820    97060761.21146
  22983539.340   120779304.28809  22983535.660    94113730.31147
  21893034.340   115048662.88309  21893030.300    89648292.58648
 15 02 15 00 19  0.0000000  0  6G16G21G25G27G29G31
  22580222.180   118659874.21408  22580218.160    92462228.28847
  20968962.700   110192644.83808  20968958.120    85864384.37048
  23894910.400   125568596.34706  23894911.300    97845655.80844
  23689509.380   124489226.50308  23689509.200    97004598.78746
  22997404.320   120852165.94609  22997400.780    94170505.61747
  21906976.560   115121929.52509  21906972.540    89705383.46448
 15 02 15 00 19 30.0000000  0  6G16G21G25G27G29G31
  22564551.460   118577524.49009  22564547.340    92398059.70347
  20971132.400   110204046.88208  20971127.780    85873269.07848
  23912353.200   125660258.10506  23912353.920    97917080.54444
  23675815.340   124417261.99708  23675814.720    96948522.56446
  23011276.780   120925067.00409  23011273.500    94227311.62447
  21920988.620   115195563.37109  21920984.740    89762760.47448
 15 02 15 00 20  0.0000000  0  6G16G21G25G27G29G31
  22548907.860   118495317.92008  22548904.080    92334002.64447
  20973384.520   110215882.06808  20973379.940    85882491.31148
  23929834.020   125752120.22306  23929834.780    97988661.35844
  23662143.020   124345412.82408  23662142.660    96892536.23847
  23025157.560   120998011.91408  23025154.620    94284151.80447
  21935071.020   115269566.86209  21935067.240    89820425.53248
 15 02 15 00 20 30.0000000  0  6G16G21G25G27G29G31
  22533290.640   118413250.01608  22533287.300    92270053.62947
  20975717.700   110228143.07208  20975713.100    85892045.33448
  23947351.640   125844175.37305  23947352.340    98060392.60544
  23648491.220   124273672.75708  23648490.520    96836634.94645
  23039045.400   121070994.16208  23039042.900    94341021.04947
  21949222.000   115343931.08909  21949218.380    89878371.67348
 15 02 15 00 21  0.0000000  0  6G16G21G25G27G29G31
  22517700.520   118331323.88109  22517697.460    92206215.10647
  20978131.860   110240829.74508  20978127.280    85901931.05948
  23964905.920   125936423.56405  23964906.600    98132274.31643
  23634860.480   124202042.99207  23634860.240    96780819.54947
  23052940.360   121144014.13308  23052938.200    94397919.68947
  21963441.360   115418654.91109  21963437.960    89936598.01148
 15 02 15 00 21 30.0000000  0  6G16G21G25G27G29G31
  22502137.320   118249538.73709  22502134.340    92142486.42647
  20980626.380   110253938.80408  20980621.800    85912145.91048
  23982496.300   126028861.23805  23982496.840    98204303.62144
  23621250.480   124130520.80008  23621249.240    96725087.88346
  23066842.120   121217068.80908  23066840.040    94454845.38547
  21977728.140   115493733.08509  21977724.940    89995100.46848
 15 02 15 00 22  0.0000000  0  6G16G21G25G27G29G31
  22486603.100   118167905.65009  22486600.000    92078876.22647
  20983202.900   110267478.80808  20983198.380    85922696.56848
  24000124.220   126121496.55605  24000124.560    98276486.96044
  23607662.320   124059115.29709  23607661.600    96669447.34846
  23080752.220   121290167.13808  23080750.120    94511805.07947
  21992083.620   115569171.98609  21992080.520    90053884.01548
 15 02 15 00 22 30.0000000  0  7G16G18G21G25G27G29G31
  22471096.760   118086418.69209  22471093.440    92015379.90947
  23430952.400   123130485.02105  23430947.700    95945816.79243
  20985859.660   110281440.09108  20985855.180    85933575.48748
  24017787.860   126214320.21804  24017788.140    98348817.05943
  23594094.700   123987818.37309  23594094.720    96613891.37146
  23094669.200   121363300.86008  23094666.960    94568792.35647
  22006505.740   115644960.64109  22006502.620    90112940.09948
 15 02 15 00 23  0.0000000  0  7G16G18G21G25G27G29G31
  22455618.720   118005079.74509  22455615.080    91951998.92447
  23416937.340   123056837.15906  23416934.040    95888428.88143
  20988596.440   110295821.88308  20988592.080    85944782.09048
  24035487.320   126307331.56604  24035486.340    98421293.37043
  23580547.920   123916630.45508  23580547.460    96558420.24346
  23108593.000   121436469.60309  23108590.540    94625806.94547
  22020994.100   115721096.99009  22020990.840    90172267.11748
 15 02 15 00 23 30.0000000  0  7G16G18G21G25G27G29G31
  22440169.960   117923894.13709  22440165.960    91888737.42347
  23402949.020   122983328.32306  23402946.220    95831149.27043
  20991413.660   110310626.34808  20991409.320    85956318.03348
  24053223.060   126400533.09904  24053225.060    98493918.96543
  23567022.780   123845555.00408  23567022.900    96503036.83347
  23122524.000   121509676.60108  23122521.500    94682851.34547
  22035548.740   115797581.90309  22035545.420    90231865.73248
 15 02 15 00 24  0.0000000  0  6G16G18G21G27G29G31
  22424749.100   117842855.79409  22424744.880    91825590.67347
  23388986.140   122909952.47806  23388983.220    95773973.32844
  20994309.580   110325844.65008  20994305.260    85968176.45448
  23553517.320   123774583.68208  23553517.160    96447734.48147
  23136460.420   121582912.78008  23136457.860    94739918.46047
  22050167.560   115874404.57008  22050164.240    90291727.53248
 15 02 15 00 24 30.0000000  0  6G16G18G21G27G29G31
  22409358.000   117761975.05909  22409353.880    91762566.73847
  23375050.660   122836721.17806  23375047.140    95716910.02143
  20997285.520   110341483.71708  20997281.320    85980362.73648
  23540033.220   123703724.87108  23540033.120    96392519.87246
  23150404.080   121656187.02408  23150401.440    94797015.26347
  22064851.660   115951570.65708  22064848.420    90351856.91748
 15 02 15 00 25  0.0000000  0  6G16G18G21G27G29G31
  22393996.740   117681252.33309  22393992.920    91699665.91147
  23361142.780   122763635.73706  23361139.520    95659960.36743
  21000341.080   110357541.13708  21000336.920    85992875.01148
  23526570.320   123632977.18708  23526570.340    96337391.84046
  23164354.460   121729496.97108  23164351.820    94854139.88547
  22079600.340   116029076.12108  22079597.180    90412250.75948
 15 02 15 00 25 30.0000000  0  7G16G18G21G25G27G29G31
  22378666.420   117600692.90209  22378662.940    91636892.34947
  23347263.760   122690701.82807  23347260.700    95603128.76844
  21003476.700   110374019.10208  21003472.580    86005714.99248
  24124518.200   126775198.83203  24124517.400    98785865.13153
  23513129.260   123562343.90108  23513129.020    96282352.93646
  23178312.080   121802845.49708  23178309.640    94911294.55247
  22094413.740   116106921.65508  22094410.600    90472909.59048
 15 02 15 00 26  0.0000000  0  6G16G18G21G27G29G31
  22363366.020   117520290.11109  22363362.600    91574240.82147
  23333412.480   122617913.61107  23333409.420    95546410.69644
  21006690.580   110390907.87208  21006686.320    86018875.06448
  23499708.480   123491816.33808  23499707.940    96227396.37747
  23192275.420   121876223.67308  23192273.060    94968472.31447
  22109289.680   116185095.78608  22109286.680    90533824.45448
 15 02 15 00 26 30.0000000  0  6G16G18G21G27G29G31
  22348096.900   117440050.94309  22348093.360    91511716.81447
  23319590.480   122545278.74507  23319587.520    95489812.11944
  21009983.400   110408211.36408  21009979.140    86032358.31348
  23486308.780   123421399.37208  23486307.940    96172526.06146
  23206245.480   121949636.14008  23206243.060    95025676.83447
  22124228.700   116263600.76109  22124225.780    90594997.14748
 15 02 15 00 27  0.0000000  0  6G16G18G21G27G29G31
  22332858.920   117359974.19509  22332855.080    91449319.36247
  23305797.600   122472796.61407  23305794.600    95433332.53644
  21013354.180   110425924.47808  21013349.860    86046160.74548
  23472929.440   123351089.58608  23472928.520    96117739.25846
  23220221.440   122023079.33608  23220218.960    95082905.28447
  22139229.560   116342430.41809  22139226.540    90656422.83448
 15 02 15 00 27 30.0000000  0  6G16G18G21G27G29G31
  22317653.400   117280067.44709  22317649.320    91387054.37247
  23292035.480   122400476.11108  23292032.440    95376978.92944
  21016803.860   110444052.49008  21016799.560    86060286.47348
  23459571.680   123280893.38708  23459570.680    96063040.91347
  23234204.320   122096559.04408  23234201.720    95140162.17747
  22154292.960   116421588.74609  22154289.860    90718104.62348
 15 02 15 00 28  0.0000000  0  6G16G18G21G27G29G31
  22302480.260   117200330.59409  22302476.080    91324921.78547
  23278304.120   122328317.48308  23278301.020    95320751.43245
  21020331.800   110462591.72708  21020327.420    86074732.63448
  23446234.860   123210808.09808  23446233.560    96008429.01846
  23248193.500   122170071.99008  23248190.920    95197444.97047
  22169417.900   116501070.02809  22169414.700    90780038.07148
 15 02 15 00 28 30.0000000  0  6G16G18G21G27G29G31
  22287339.440   117120764.48309  22287335.300    91262922.23047
  23264603.800   122256322.07508  23264600.680    95264651.14145
  21023937.480   110481539.82408  21023933.080    86089497.39348
  23432918.840   123140832.59308  23432917.940    95953902.71947
  23262188.700   122243617.10508  23262186.080    95254752.82146
  22184603.620   116580870.53709  22184600.300    90842220.27448
 15 02 15 00 29  0.0000000  0  6G16G18G21G27G29G31
  22272231.020   117041369.94909  22272227.020    91201056.36347
  23250934.860   122184491.51308  23250931.680    95208679.28745
  21027620.540   110500894.57708  21027616.160    86104579.02548
  23419623.560   123070965.81108  23419622.580    95899461.08147
  23276189.740   122317193.52908  23276187.200    95312085.05847
  22199849.360   116660986.61409  22199845.960    90904648.36548
 15 02 15 00 29 30.0000000  0  6G16G18G21G27G29G31
  22257156.340   116962153.49309  22257152.560    91139329.26447
  23237298.700   122112832.96908  23237295.500    95152841.47745
  21031381.500   110520658.76008  21031377.200    86119979.69348
  23406349.620   123001211.87108  23406348.680    95845107.39246
  23290197.320   122390804.53708  23290195.020    95369444.27347
  22215155.440   116741419.78709  22215151.880    90967323.54948
 15 02 15 00 30  0.0000000  0  6G16G18G21G27G29G31
  22242114.940   116883112.22609  22242111.460    91077738.67547
  23223694.920   122041344.43108  23223691.600    95097136.14945
  21035219.320   110540826.71108  21035215.020    86135694.98648
  23393096.340   122931566.33108  23393095.700    95790838.18447
  23304210.620   122464445.26108  23304208.480    95426826.63347
  22230520.360   116822162.66909  22230516.780    91030240.06648
 15 02 15 00 30 30.0000000  0  6G16G18G21G27G29G31
  22227107.300   116804247.95609  22227104.160    91016285.99347
  23210123.880   121970027.94508  23210120.520    95041564.88046
  21039133.660   110561397.13008  21039129.400    86151723.89048
  23379863.460   122862028.77708  23379862.820    95736653.11046
  23318229.500   122538115.25708  23318227.480    95484231.78547
  22245943.560   116903212.07909  22245939.980    91093395.43648
 15 02 15 00 31  0.0000000  0  6G16G18G21G27G29G31
  22212134.560   116725566.34109  22212131.700    90954975.65247
  23196586.760   121898890.04108  23196583.420    94986132.76346
  21043125.060   110582372.20408  21043120.820    86168068.10648
  23366652.080   122792602.90408  23366651.600    95682555.03746
  23332254.640   122611817.79908  23332252.600    95541662.31347
  22261425.260   116984568.83609  22261421.600    91156790.29548
 15 02 15 00 31 30.0000000  0  6G16G18G21G27G29G31
  22197197.500   116647070.85709  22197194.600    90893810.32747
  23183084.340   121827934.70308  23183081.080    94930842.90546
  21047193.560   110603752.07208  21047189.220    86184727.73748
  23353462.060   122723289.98408  23353461.620    95628545.00646
  23346286.200   122685553.96608  23346284.180    95599119.02246
  22276965.180   117066231.64609  22276961.520    91220423.63548
 15 02 15 00 32  0.0000000  0  6G16G18G21G27G29G31
  22182295.180   116568757.14909  22182292.000    90832786.68447
  23169616.020   121757158.47408  23169612.800    94875692.61246
  21051337.660   110625528.79208  21051333.140    86201696.60948
  23340292.420   122654083.51108  23340292.100    95574617.91546
  23360322.880   122759316.94908  23360320.800    95656596.62646
  22292561.600   117148191.36509  22292558.020    91284288.33048
 15 02 15 00 32 30.0000000  0  6G16G18G21G27G29G31
  22167428.060   116490628.45109  22167424.600    90771907.18047
  23156182.540   121686565.36509  23156179.340    94820685.01146
  21055557.280   110647702.71308  21055552.660    86218974.98648
  23327143.360   122584985.06508  23327143.300    95520775.00346
  23374365.020   122833108.36208  23374362.860    95714096.39147
  22308214.260   117230446.81609  22308210.800    91348383.46348
 15 02 15 00 33  0.0000000  0  6G16G18G21G27G29G31
  22152597.000   116412690.05809  22152593.400    90711175.97847
  23142784.960   121616161.00108  23142781.800    94765824.49046
  21059852.840   110670275.65208  21059848.160    86236564.28748
  23314015.400   122515997.64508  23314015.140    95467018.57447
  23388413.020   122906930.49608  23388410.780    95771620.09347
  22323923.160   117312998.29509  22323919.860    91412709.26648
 15 02 15 00 33 30.0000000  0  6G16G18G21G27G29G31
  22137801.840   116334941.01009  22137798.140    90650592.30347
  23129423.260   121545945.00108  23129420.100    94711110.74646
  21064223.420   110693243.25808  21064218.720    86254461.12448
  23300908.040   122447118.24008  23300907.580    95413346.33546
  23402466.300   122980780.41408  23402463.820    95829165.45146
  22339687.220   117395839.78309  22339684.080    91477261.04648
 15 02 15 00 34  0.0000000  0  6G16G18G21G27G29G31
  22123043.120   116257383.52309  22123039.320    90590157.90647
  23116097.980   121475920.40009  23116094.820    94656546.14747
  21068668.800   110716604.43708  21068664.240    86272664.65048
  23287821.380   122378347.07008  23287821.100    95359758.43746
  23416524.920   123054658.10108  23416522.040    95886732.47047
  22355505.980   117478968.81609  22355503.020    91542036.89547
 15 02 15 00 34 30.0000000  0  6G16G18G21G27G29G31
  22108321.360   116180020.03409  22108317.420    90529874.67647
  23102809.740   121406090.12009  23102806.560    94602132.95646
  21073188.860   110740358.27908  21073184.440    86291174.14948
  23274755.440   122309684.46408  23274755.260    95306255.13047
  23430588.720   123128563.24108  23430585.540    95944320.87447
  22371379.080   117562382.92108  22371376.240    91607034.87147
 15 02 15 00 35  0.0000000  0  6G16G18G21G27G29G31
  22093638.240   116102859.36509  22093634.140    90469749.49247
  23089560.200   121336463.34109  23089557.040    94547878.34547
  21077784.580   110764509.40808  21077780.260    86309993.20648
  23261711.440   122241136.89108  23261710.980    95252841.45147
  23444658.900   123202502.55208  23444655.700    96001935.89347
  22387307.240   117646085.76708  22387304.360    91672257.83947
 15 02 15 00 35 30.0000000  0  6G16G18G21G27G29G31
  22078992.160   116025893.18809  22078987.960    90409775.85847
  23076347.920   121267032.22509  23076344.740    94493776.19647
  21082453.720   110789046.09908  21082449.440    86329112.69948
  23248687.320   122172694.03708  23248686.600    95199509.36146
  23458733.520   123276465.26008  23458730.380    96059569.12747
  22403287.860   117730064.26608  22403284.960    91737695.59647
 15 02 15 00 36  0.0000000  0  6G16G18G21G27G29G31
  22064384.860   115949130.98009  22064380.600    90349961.17347
  23063174.900   121197807.30909  23063171.660    94439834.72547
  21087197.680   110813975.65608  21087193.440    86348538.34048
  23235684.380   122104363.59408  23235683.700    95146264.90347
  23472814.140   123350459.10008  23472810.940    96117226.65446
  22419321.800   117814323.20508  22419318.860    91803351.88547
 15 02 15 00 36 30.0000000  0  6G16G18G21G27G29G31
  22049816.280   115872572.85109  22049812.060    90290305.50347
  23050041.280   121128789.38109  23050037.960    94386054.54847
  21092015.680   110839294.26208  21092011.480    86368267.12448
  23222702.480   122036143.50108  23222701.740    95093106.39946
  23486900.040   123424481.10408  23486896.740    96174906.11746
  22435408.300   117898857.67108  22435405.160    91869222.87347
 15 02 15 00 37  0.0000000  0  6G16G18G21G27G29G31
  22035286.260   115796217.79009  22035282.200    90230808.06347
  23036946.840   121059977.52409  23036943.500    94332434.93647
  21096906.720   110864997.09008  21096902.600    86388295.31248
  23209740.960   121968030.41708  23209740.380    95040031.30147
  23500990.660   123498528.57608  23500987.460    96232605.41246
  22451546.180   117983661.93308  22451542.820    91935304.09047
 15 02 15 00 37 30.0000000  0  6G16G18G21G27G29G31
  22020795.900   115720071.42309  22020792.020    90171473.23347
  23023892.760   120991377.82909  23023889.440    94278980.64247
  21101871.320   110891086.32608  21101867.240    86408624.58048
  23196800.720   121900028.04008  23196800.080    94987042.43546
  23515086.700   123572604.34208  23515083.780    96290326.77146
  22467735.400   118068736.45908  22467732.000    92001595.90447
 15 02 15 00 38  0.0000000  0  6G16G18G21G27G29G31
  22006345.300   115644133.59309  22006341.460    90112300.90447
  23010879.080   120922990.40809  23010875.660    94225691.75747
  21106908.820   110917558.49808  21106904.680    86429252.25448
  23183881.040   121832133.95708  23183880.500    94934137.98347
  23529187.800   123646706.27208  23529185.180    96348068.48446
  22483974.960   118154076.25908  22483971.740    92068094.40847
 15 02 15 00 38 30.0000000  0  6G16G18G21G27G29G31
  21991935.060   115568407.62009  21991931.220    90053293.66747
  22997906.720   120854819.93908  22997903.220    94172571.92147
  21112019.100   110944413.29008  21112014.920    86450178.06848
  23170982.180   121764349.47208  23170981.840    94881318.94547
  23543294.140   123720835.29008  23543291.720    96405831.30847
  22500264.700   118239679.72608  22500261.640    92134798.37347
 15 02 15 00 39  0.0000000  0  6G16G18G21G27G29G31
  21977565.160   115492893.59109  21977561.320    89994451.56447
  22984975.640   120786866.61508  22984972.100    94119621.30646
  21117201.440   110971646.95208  21117197.220    86471399.10748
  23158103.880   121696672.49808  23158103.480    94828583.64647
  23557405.220   123794989.00108  23557403.060    96463613.37746
  22516603.740   118325541.61909  22516600.680    92201703.72248
 15 02 15 00 39 30.0000000  0  6G16G18G21G27G29G31
  21963236.600   115417596.96009  21963232.920    89935778.87147
  22972087.020   120719136.37608  22972083.480    94066844.52047
  21122456.340   110999261.84308  21122452.180    86492917.20648
  23145246.600   121629106.44208  23145246.040    94775934.77947
  23571521.580   123869170.41108  23571519.580    96521417.04747
  22532992.160   118411662.94309  22532989.020    92268811.22448
 15 02 15 00 40  0.0000000  0  6G16G18G21G27G29G31
  21948949.440   115342517.13509  21948945.800    89877275.12447
  22959240.900   120651629.17308  22959237.360    94014241.54846
  21127782.980   111027253.76908  21127778.840    86514729.10048
  23132409.780   121561648.74708  23132409.240    94723370.34247
  23585642.900   123943377.42608  23585640.800    96579240.65646
  22549428.840   118498037.95309  22549425.660    92336116.39948
 15 02 15 00 40 30.0000000  0  6G16G18G21G27G29G31
  21934704.780   115267660.16409  21934701.100    89818945.02747
  22946438.340   120584351.27208  22946434.820    93961817.25346
  21133181.820   111055624.82608  21133177.760    86536836.41748
  23119594.160   121494302.89008  23119593.780    94670893.08847
  23599769.620   124017612.87108  23599767.440    96637086.44746
  22565913.900   118584667.32109  22565910.800    92403619.76748
 15 02 15 00 41  0.0000000  0  6G16G18G21G27G29G31
  21920502.360   115193025.47009  21920498.680    89760788.12847
  22933679.440   120517303.04408  22933675.980    93909571.91546
  21138652.080   111084370.89409  21138647.960    86559235.95148
  23106799.460   121427066.40308  23106799.140    94618501.03447
  23613901.220   124091874.30009  23613898.920    96694952.47346
  22582446.460   118671546.12909  22582443.440    92471317.49748
 15 02 15 00 41 30.0000000  0  6G16G18G21G27G29G31
  21906342.240   115118613.78209  21906338.580    89702804.99247
  22920964.340   120450485.10308  22920960.980    93857506.00346
  21144193.140   111113489.00108  21144188.960    86581925.38948
  23094025.000   121359937.54008  23094024.740    94566192.86047
  23628037.340   124166159.78108  23628035.080    96752837.25546
  22599025.560   118758669.44809  22599022.560    92539205.75548
 15 02 15 00 42  0.0000000  0  6G16G18G21G27G29G31
  21892225.660   115044431.24709  21892222.000    89645000.42047
  22908294.380   120383904.44709  22908291.140    93805624.98346
  21149805.600   111142982.41508  21149801.320    86604907.27048
  23081271.840   121292920.83708  23081271.680    94513972.07347
  23642178.800   124240473.61808  23642176.680    96810744.12746
  22615651.520   118846038.80609  22615648.420    92607285.72948
 15 02 15 00 42 30.0000000  0  6G16G18G21G27G29G31
  21878152.340   114970475.65609  21878148.620    89587372.68747
  22895669.200   120317559.21709  22895666.020    93753927.41546
  21155488.300   111172844.96908  21155483.980    86628176.80248
  23068539.340   121226011.88308  23068539.340    94461835.23247
  23656324.680   124314811.27608  23656322.780    96868669.53246
  22632322.880   118933646.91409  22632319.640    92675551.75448
 15 02 15 00 43  0.0000000  0  6G16G18G21G27G29G31
  21864123.040   114896750.76409  21864119.160    89529924.73547
  22883089.700   120251453.71409  22883086.480    93702416.64046
  21161241.280   111203076.71708  21161236.940    86651734.01148
  23055827.680   121159212.14508  23055827.860    94409783.51547
  23670475.240   124389173.78608  23670473.420    96926614.30346
  22649039.440   119021492.58009  22649036.080    92744002.88148
 15 02 15 00 43 30.0000000  0  6G16G18G21G27G29G31
  21850138.440   114823260.13909  21850134.340    89472659.32547
  22870556.560   120185591.69209  22870553.260    93651095.58846
  21167064.500   111233677.51708  21167060.120    86675578.79648
  23043137.100   121092523.00208  23043137.520    94357817.97947
  23684630.780   124463562.41008  23684628.960    96984579.43046
  22665800.920   119109574.34709  22665797.460    92812637.99048
 15 02 15 00 44  0.0000000  0  6G16G18G21G27G29G31
  21836198.060   114750002.08609  21836193.860    89415575.13047
  22858069.500   120119971.89109  22858066.180    93599963.29446
  21172956.860   111264642.09308  21172952.420    86699707.03448
  23030467.000   121025940.61208  23030467.380    94305935.58147
  23698790.640   124537973.29408  23698788.860    97042561.89947
  22682605.940   119197885.21609  22682602.480    92881451.61348
 15 02 15 00 44 30.0000000  0  6G16G18G21G27G29G31
  21822302.080   114676978.19209  21822298.040    89358673.39448
  22845629.000   120054596.67209  22845625.620    93549021.58546
  21178918.000   111295968.48908  21178913.520    86724117.21448
  23017817.040   120959464.52708  23017817.420    94254136.07347
  23712954.820   124612406.03208  23712952.900    97100561.41646
  22699453.900   119286421.99309  22699450.520    92950441.26848
 15 02 15 00 45  0.0000000  0  6G16G18G21G27G29G31
  21808451.700   114604194.57909  21808447.980    89301958.89348
  22833236.280   119989472.41509  22833232.800    93498275.42846
  21184948.400   111327658.97008  21184943.960    86748811.10448
  23005188.180   120893098.64408  23005188.260    94202422.41147
  23727123.880   124686864.50008  23727121.680    97158580.98346
  22716344.980   119375185.49609  22716341.720    93019607.58548
 15 02 15 00 45 30.0000000  0  6G16G18G21G27G29G31
  21794647.360   114531652.71909  21794643.680    89245432.76848
  22820891.480   119924600.05609  22820888.000    93447725.55446
  21191047.580   111359710.97708  21191043.220    86773786.69948
  22992580.100   120826842.09608  22992579.800    94150793.92747
  23741297.560   124761347.24208  23741295.000    97216619.45946
  22733278.560   119464172.25109  22733275.380    93088947.86548
 15 02 15 00 46  0.0000000  0  6G16G18G21G27G29G31
  21780889.500   114459354.45309  21780885.660    89189096.47248
  22808595.360   119859983.24409  22808591.780    93397374.81146
  21197215.300   111392123.12908  21197211.060    86799042.92048
  22979992.720   120760694.93608  22979992.460    94099250.73747
  23755475.800   124835854.33608  23755473.100    97274676.91646
  22750254.040   119553379.21409  22750250.920    93158459.73648
 15 02 15 00 46 30.0000000  0  6G16G18G21G27G29G31
  21767178.660   114387303.33409  21767174.700    89132952.75348
  22796348.500   119795625.47609  22796344.900    93347225.91646
  21203451.580   111424895.18508  21203447.480    86824579.58948
  22967426.440   120694658.31508  22967425.940    94047793.62647
  23769658.760   124910386.77208  23769656.080    97332754.13746
  22767271.120   119642804.81409  22767268.080    93228141.97548
 15 02 15 00 47  0.0000000  0  6G16G18G21G27G29G31
  21753514.620   114315498.64309  21753510.680    89077001.06048
  22784150.780   119731525.95409  22784147.160    93297278.25946
  21209755.560   111458022.55308  21209751.480    86850393.12948
  22954880.680   120628729.41008  22954879.880    93996420.43347
  23783845.960   124984941.60208  23783843.460    97390848.79846
  22784328.680   119732442.96309  22784325.680    93297989.83248
 15 02 15 00 47 30.0000000  0  6G16G18G21G27G29G31
  21739898.360   114243945.70909  21739894.700    89021245.51948
  22772003.340   119667690.73409  22771999.740    93247536.53946
  21216127.560   111491507.07709  21216123.340    86876484.95948
  22942355.860   120562911.34208  22942354.920    93945133.66147
  23798037.940   125059521.40208  23798035.560    97448962.90546
  22801426.860   119822294.22109  22801423.920    93368003.75748
 15 02 15 00 48  0.0000000  0  6G16G18G21G27G29G31
  21726330.260   114172645.57509  21726326.840    88965686.98148
  22759906.380   119604120.90309  22759902.840    93198001.62746
  21222567.020   111525345.87209  21222562.620    86902852.85148
  22929851.880   120497203.09008  22929850.860    93893932.44847
  23812234.620   125134125.65608  23812232.380    97507096.08646
  22818564.820   119912354.52009  22818561.920    93438180.56848
 15 02 15 00 48 30.0000000  0  6G16G18G21G27G29G31
  21712809.960   114101596.21009  21712806.600    88910323.84848
  22747859.600   119540814.92309  22747856.100    93148672.30646
  21229072.780   111559533.21209  21229068.240    86929492.33548
  22917367.980   120431600.35708  22917367.160    93842813.46447
  23826435.160   125208749.80608  23826433.180    97565244.74346
  22835741.180   120002616.50409  22835738.300    93508514.52648
 15 02 15 00 49  0.0000000  0  6G16G18G21G27G29G31
  21699339.160   114030806.45209  21699335.680    88855162.99348
  22735864.800   119477782.11809  22735861.300    93099555.84046
  21235645.820   111594074.30709  21235641.240    86956407.46848
  22904905.460   120366109.88808  22904904.920    93791781.93847
  23840640.640   125283399.91008  23840639.020    97623413.61646
  22852956.680   120093084.09709  22852953.800    93579008.69748
 15 02 15 00 49 30.0000000  0  6G16G18G21G27G29G31
  21685917.380   113960274.30209  21685913.700    88800202.87248
  22723921.620   119415020.75609  22723918.260    93050650.90447
  21242284.980   111628963.32609  21242280.500    86983593.71948
  22892463.640   120300727.49608  22892463.180    93740834.62347
  23854850.420   125358072.43708  23854848.840    97681599.98947
  22870209.920   120183749.96209  22870207.040    93649657.37247
 15 02 15 00 50  0.0000000  0  6G16G18G21G27G29G31
  21672545.220   113890002.66709  21672541.300    88745445.75648
  22712030.720   119352533.97009  22712027.460    93001959.91647
  21248990.120   111664199.28009  21248985.660    87011050.30448
  22880042.560   120235453.94608  22880041.860    93689972.10747
  23869064.540   125432767.45608  23869062.820    97739803.87147
  22887500.540   120274612.27909  22887497.680    93720459.11247
 15 02 15 00 50 30.0000000  0  6G16G18G21G27G29G31
  21659222.900   113819993.01409  21659218.860    88690892.78848
  22700192.400   119290323.17109  22700189.060    92953483.98147
  21255760.800   111699779.29609  21255756.260    87038774.99848
  22867641.980   120170288.32408  22867641.280    93639193.72547
  23883282.800   125507484.43608  23883281.120    97798024.83947
  22904827.800   120365667.18009  22904824.980    93791410.92847
 15 02 15 00 51  0.0000000  0  6G16G18G21G27G29G31
  21645951.600   113750251.62009  21645947.560    88636548.84648
  22688407.860   119228395.19209  22688404.520    92905228.43847
  21262597.540   111735706.77808  21262592.960    87066770.44348
  22855262.700   120105234.87408  22855262.080    93588502.74747
  23897505.940   125582227.27808  23897504.260    97856265.98947
  22922191.920   120456915.80209  22922189.040    93862513.68947
 15 02 15 00 51 30.0000000  0  6G16G18G21G27G29G31
  21632730.620   113680774.84909  21632726.720    88582411.10548
  22676676.520   119166746.71109  22676673.240    92857190.69446
  21269498.900   111771974.30308  21269494.340    87095030.85248
  22842903.600   120040287.99308  22842902.960    93537894.81147
  23911732.880   125656990.36608  23911731.200    97914522.89346
  22939591.260   120548349.46009  22939588.240    93933760.63947
 15 02 15 00 52  0.0000000  0  6G16G18G21G27G29G31
  21619560.940   113611567.92609  21619557.220    88528483.63648
  22664999.480   119105383.38609  22664996.180    92809375.13746
  21276465.160   111808582.72709  21276460.620    87123556.89948
  22830565.320   119975450.53808  22830564.760    93487372.16147
  23925964.260   125731776.35208  23925962.360    97972797.66146
  22957025.820   120639968.15509  22957022.600    94005151.78347
 15 02 15 00 52 30.0000000  0  6G16G18G21G27G29G31
  21606442.920   113542632.65709  21606439.360    88474767.84048
  22653377.040   119044307.30109  22653373.700    92761783.39546
  21283496.000   111845530.25109  21283491.560    87152347.17948
  22818247.880   119910722.37708  22818247.380    93436934.63347
  23940199.920   125806584.81908  23940197.600    98031089.93846
  22974494.920   120731768.75609  22974491.620    94076684.65647
 15 02 15 00 53  0.0000000  0  6G16G18G21G27G29G31
  21593377.240   113473972.01909  21593373.700    88421266.04948
  22641809.800   118983521.16509  22641806.360    92714417.57747
  21290591.260   111882815.96809  21290586.780    87181400.98648
  22805951.380   119846103.90908  22805950.880    93386582.60147
  23954439.980   125881416.14308  23954437.160    98089400.06546
  22991998.100   120823748.66909  22991994.720    94148357.25047
 15 02 15 00 53 30.0000000  0  6G16G18G21G27G29G31
  21580363.900   113405586.07509  21580360.320    88367978.29648
  22630297.920   118923025.57309  22630294.440    92667278.16446
  21297750.220   111920436.36709  21297745.720    87210715.58148
  22793675.460   119781593.25408  22793674.720    93336314.56447
  23968684.020   125956268.25108  23968680.940    98147726.36846
  23009534.440   120915903.05508  23009531.080    94220165.79847
 15 02 15 00 54  0.0000000  0  6G16G18G21G27G29G31
  21567404.060   113337480.69409  21567400.300    88314909.17848
  22618842.420   118862826.57708  22618839.040    92620369.88746
  21304973.120   111958392.94709  21304968.600    87240292.13948
  22781420.800   119717193.99309  22781419.700    93286133.34647
  23982932.600   126031144.74508  23982929.480    98206071.63746
  23027104.120   121008232.75108  23027100.920    94292110.94747
 15 02 15 00 54 30.0000000  0  6G16G18G21G27G29G31
  21554498.000   113269658.40009  21554494.060    88262060.64348
  22607443.840   118802926.99509  22607440.540    92573694.91446
  21312259.820   111996684.57809  21312255.300    87270129.77348
  22769187.420   119652906.59508  22769186.120    93236039.29147
  23997185.580   126106046.00808  23997182.840    98264436.20846
  23044706.680   121100735.12508  23044703.640    94364190.64746
 15 02 15 00 55  0.0000000  0  6G16G18G21G27G29G31
  21541645.360   113202117.88809  21541641.420    88209431.67348
  22596102.040   118743325.74909  22596098.760    92527252.38947
  21319609.260   112035306.25809  21319604.760    87300224.57748
  22756974.540   119588727.51408  22756973.380    93186029.63847
  24011442.440   126180968.01608  24011440.140    98322816.92646
  23062340.900   121193403.76308  23062338.020    94436399.89146
 15 02 15 00 55 30.0000000  0  6G16G18G21G27G29G31
  21528846.140   113134858.64509  21528842.320    88157021.86948
  22584816.960   118684022.56309  22584813.740    92481042.12146
  21327020.620   112074253.47009  21327016.160    87330573.05648
  22744781.800   119524654.28808  22744780.700    93136102.45547
  24025703.040   126255908.72908  24025701.020    98381212.24846
  23080005.760   121286233.11308  23080003.040    94508734.37646
 15 02 15 00 56  0.0000000  0  6G16G18G21G27G29G31
  21516101.900   113067888.25709  21516098.200    88104837.16648
  22573589.980   118625024.99709  22573586.980    92435070.00446
  21334494.760   112113530.34909  21334490.380    87361178.41248
  22732610.100   119460692.20608  22732609.300    93086261.89447
  24039968.440   126330873.58608  24039966.460    98439626.37746
  23097701.700   121379225.51708  23097699.000    94581195.90946
 15 02 15 00 56 30.0000000  0  6G16G18G21G27G29G31
  21503412.820   113001206.96009  21503409.080    88052877.71348
  22562421.280   118566333.54509  22562418.400    92389336.41547
  21342030.920   112153133.11109  21342026.580    87392037.70948
  22720459.220   119396839.62108  22720458.540    93036506.63947
  24054238.100   126405860.29908  24054235.980    98498057.55946
  23115427.760   121472376.28308  23115425.160    94653780.84346
 15 02 15 00 57  0.0000000  0  6G16G18G21G27G29G31
  21490779.560   112934818.80609  21490775.820    88001146.68948
  22551311.580   118507952.31609  22551308.760    92343844.56047
  21349629.060   112193061.60909  21349624.700    87423150.82648
  22708329.440   119333097.74308  22708328.900    92986837.65747
  24068512.000   126480869.81308  24068509.900    98556506.49546
  23133183.660   121565683.76008  23133181.100    94726487.89045
 15 02 15 00 57 30.0000000  0  6G16G18G21G27G29G31
  21478202.180   112868724.36809  21478198.560    87949644.53148
  22540261.160   118449882.30809  22540258.360    92298595.21447
  21357288.540   112233312.50809  21357284.220    87454515.17248
  22696220.420   119269465.27808  22696220.120    92937253.96147
  24082789.940   126555901.11808  24082787.880    98614972.41446
  23150968.480   121659143.35708  23150965.960    94799313.47046
 15 02 15 00 58  0.0000000  0  6G16G18G21G27G29G31
  21465681.320   112802927.09609  21465677.840    87898373.91748
  22529270.700   118392127.10108  22529267.840    92253591.15247
  21365009.380   112273885.79109  21365005.060    87486130.71348
  22684132.620   119205943.79408  22684132.440    92887756.71747
  24097072.240   126630955.64708  24097070.340    98673456.43246
  23168781.980   121752753.79308  23168779.520    94872256.57046
 15 02 15 00 58 30.0000000  0  6G16G18G21G27G29G31
  21453217.180   112737427.66409  21453213.680    87847335.40948
  22518340.160   118334687.13308  22518337.380    92208832.76446
  21372790.920   112314777.73409  21372786.520    87517994.56848
  22672065.640   119142531.51508  22672065.420    92838344.56847
  24111358.540   126706031.22808  24111356.940    98731956.82146
  23186623.280   121846510.26208  23186620.840    94945313.47545
 15 02 15 00 59  0.0000000  0  6G16G18G21G27G29G31
  21440810.720   112672230.85109  21440807.000    87796532.70848
  22507470.680   118277567.63809  22507467.860    92164324.07546
  21380633.360   112355989.84809  21380628.980    87550107.90048
  22660020.080   119079231.32308  22660019.840    92789019.73747
  24125649.400   126781131.07908  24125647.740    98790476.13446
  23204492.340   121940412.57308  23204489.920    95018484.01545
 15 02 15 00 59 30.0000000  0  6G16G18G21G27G29G31
  21428461.560   112607335.05409  21428457.640    87745964.56348
  22496661.980   118220767.08909  22496659.020    92120063.90547
  21388535.620   112397516.37309  21388531.200    87582466.23948
  22647995.120   119016039.46408  22647994.780    92739779.33647
  24139944.200   126856251.23508  24139942.560    98849011.29045
  23222387.900   122034454.23907  23222385.580    95091763.14545
 15 02 15 01 00  0.0000000  0  6G16G18G21G27G29G31
  21416169.720   112542740.71809  21416165.660    87695631.32648
  22485913.980   118164285.91808  22485911.020    92076052.61746
  21396496.900   112439353.48109  21396492.520    87615066.58348
  22635990.460   118952953.93508  22635989.940    92690621.79147
  24154242.540   126931389.46408  24154240.820    98907560.54146
  23240309.000   122128630.16007  23240306.700    95165146.87145
 15 02 15 01 00 30.0000000  0  6G16G18G21G27G29G31
  21403936.740   112478455.84009  21403932.660    87645539.21548
  22475228.380   118108132.42209  22475225.440    92032296.64446
  21404518.060   112481505.44209  21404513.760    87647912.26148
  22624007.140   118889980.80608  22624006.580    92641551.84548
  24168545.480   127006551.74508  24168543.940    98966128.54645
  23258256.220   122222943.45107  23258254.040    95238637.64145
 15 02 15 01 01  0.0000000  0  6G16G18G21G27G29G31
  21391762.200   112414477.73609  21391758.060    87595686.15348
  22464604.640   118052303.83208  22464601.620    91988793.84746
  21412597.980   112523965.89509  21412593.760    87680998.32648
  22612044.320   118827115.36608  22612043.820    92592565.79447
  24182852.140   127081733.11708  24182850.700    99024711.40145
  23276228.200   122317386.40706  23276225.980    95312229.44444
 15 02 15 01 01 30.0000000  0  6G16G18G21G27G29G31
  21379646.980   112350811.71709  21379642.840    87546076.27348
  22454043.640   117996805.49408  22454040.660    91945548.41846
  21420736.840   112566735.90909  21420732.620    87714325.60348
  22600102.540   118764360.57309  22600102.060    92543665.96547
  24197163.100   127156936.65008  24197161.480    99083311.53446
  23294224.760   122411958.91606  23294222.780    95385922.19344
 15 02 15 01 02  0.0000000  0  6G16G18G21G27G29G31
  21367591.520   112287460.01809  21367587.420    87496711.32048
  22443545.980   117941639.62209  22443543.000    91902562.03647
  21428934.340   112609814.00909  21428930.160    87747892.95348
  22588181.860   118701716.50108  22588181.340    92494852.40547
  24211478.280   127232162.46208  24211476.640    99141929.02546
  23312245.440   122506658.02606  23312243.760    95459713.59344
 15 02 15 01 02 30.0000000  0  6G16G18G21G27G29G31
  21355596.620   112224426.47409  21355592.500    87447594.27448
  22433112.380   117886810.29009  22433109.340    91859837.88346
  21437190.420   112653199.94009  21437186.280    87781700.16548
  22576282.460   118639184.94208  22576281.980    92446126.52748
  24225798.020   127307412.07908  24225796.280    99200565.07446
  23330289.900   122601482.23805  23330288.320    95533602.47044
 15 02 15 01 03  0.0000000  0  6G16G18G21G27G29G31
  21343662.420   112161712.13209  21343658.340    87398725.96948
  22422742.980   117832318.60909  22422739.780    91817376.83946
