     2.11           OBSERVATION DATA    G                   RINEX VERSION / TYPE
SPIDER V4,0,0,3554                      2015 04 16 06:45    PGM / RUN BY / DATE 
CABS                                                        MARKER NAME         
CABS                                                        MARKER NUMBER       
                                                            OBSERVER / AGENCY   
462287              LEICA GRX1200PRO    8.10/2.127          REC # / TYPE / VERS 
103298              LEIAT504                                ANT # / TYPE        
  5116912.3402   671231.6412  3737143.4301                  APPROX POSITION XYZ 
        0.0600        0.0000        0.0000                  ANTENNA: DELTA H/E/N
     1     1                                                WAVELENGTH FACT L1/2
     4    C1    L1    P2    L2                              # / TYPES OF OBSERV 
    30.000                                                  INTERVAL            
  2015    02    15    00    00    0.0000000     GPS         TIME OF FIRST OBS   
  2015    02    15    23    59   30.0000000     GPS         TIME OF LAST OBS    
    16                                                      LEAP SECONDS        
    30                                                      # OF SATELLITES     
   G 1   802   802   802   802                              PRN / # OF OBS      
   G 2   941   941   941   941                              PRN / # OF OBS      
   G 3   847   847   847   847                              PRN / # OF OBS      
   G 4   831   831   831   831                              PRN / # OF OBS      
   G 5   645   645   645   645                              PRN / # OF OBS      
   G 6   837   837   837   837                              PRN / # OF OBS      
   G 7   673   673   673   673                              PRN / # OF OBS      
   G 9   807   807   807   807                              PRN / # OF OBS      
   G10   752   752   752   752                              PRN / # OF OBS      
   G11   770   770   770   770                              PRN / # OF OBS      
   G12   830   830   830   830                              PRN / # OF OBS      
   G13   792   792   792   792                              PRN / # OF OBS      
   G14   940   940   940   940                              PRN / # OF OBS      
   G15   693   693   693   693                              PRN / # OF OBS      
   G16   664   664   664   664                              PRN / # OF OBS      
   G17   943   943   943   943                              PRN / # OF OBS      
   G18   903   903   903   903                              PRN / # OF OBS      
   G19   749   749   749   749                              PRN / # OF OBS      
   G20   785   785   785   785                              PRN / # OF OBS      
   G21   741   741   741   741                              PRN / # OF OBS      
   G22   657   657   657   657                              PRN / # OF OBS      
   G23   755   755   755   755                              PRN / # OF OBS      
   G24   817   817   817   817                              PRN / # OF OBS      
   G25   855   855   855   855                              PRN / # OF OBS      
   G27   798   798   798   798                              PRN / # OF OBS      
   G28   876   876   876   876                              PRN / # OF OBS      
   G29   760   760   760   760                              PRN / # OF OBS      
   G30   718   718   718   718                              PRN / # OF OBS      
   G31   870   870   870   870                              PRN / # OF OBS      
   G32   769   769   769   769                              PRN / # OF OBS      
BIT 2 OF LLI FLAGS DATA COLLECTED UNDER A/S CONDITION       COMMENT             
SNR is mapped to RINEX snr flag value [2-9]                 COMMENT             
Lx:     = 25dBHz -> 1; 26-27dBHz -> 2; 28-31dBHz -> 3       COMMENT             
       32-35dBHz -> 4; 36-38dBHz -> 5; 39-41dBHz -> 6       COMMENT             
       42-44dBHz -> 7; 45-48dBHz -> 8; >=49dBHz -> 9        COMMENT             
                                                            END OF HEADER       
 15 02 15 00 00  0.0000000  0  7G16G18G21G25G27G29G31
  23394728.400   122940129.72707  23394730.080    95797513.38845
  23942033.960   125816246.26306  23942035.640    98038644.61844
  20907581.440   109870349.60208  20907582.260    85613385.46549
  23024970.560   120997219.88307  23024974.420    94283643.10946
  24541203.300   128964891.04805  24541207.880   100492143.27844
  22242143.740   116883655.30208  22242145.100    91078357.15647
  21587176.820   113441396.29308  21587177.980    88395909.78748
 15 02 15 00 00 30.0000000  0  7G16G18G21G25G27G29G31
  23377660.320   122850436.35607  23377661.900    95727622.47045
  23926811.460   125736253.50606  23926813.260    97976312.69044
  20906116.300   109862650.31308  20906117.120    85607386.02849
  23040991.120   121081407.69807  23040994.780    94349243.99146
  24526506.960   128887661.30705  24526511.540   100431964.30544
  22254819.800   116950268.77808  22254821.260    91130263.74747
  21598207.580   113499363.37808  21598208.780    88441078.93648
 15 02 15 00 01  0.0000000  0  7G16G18G21G25G27G29G31
  23360606.600   122760818.15007  23360607.980    95657790.11245
  23911595.560   125656294.57805  23911597.380    97914007.12644
  20904736.760   109855400.88408  20904737.600    85601737.12849
  23057059.640   121165847.97607  23057063.300    94415041.59146
  24511827.460   128810520.64705  24511832.340   100371854.71845
  22267511.460   117016964.37708  22267513.040    91182234.31947
  21609324.080   113557780.99008  21609325.320    88486599.14148
 15 02 15 00 01 30.0000000  0  7G16G18G21G25G27G29G31
  23343566.700   122671272.79507  23343567.960    95588014.51545
  23896385.820   125576367.83506  23896387.700    97851726.64344
  20903441.860   109848596.08408  20903442.660    85596434.69449
  23073175.160   121250535.55507  23073178.980    94481031.90946
  24497164.180   128733464.84505  24497169.040   100311811.26544
  22280217.740   117083736.74908  22280219.460    91234264.72447
  21620525.100   113616642.80008  21620526.360    88532465.47248
 15 02 15 00 02  0.0000000  0  7G16G18G21G25G27G29G31
  23326540.960   122581802.21907  23326542.160    95518297.19345
  23881182.820   125496475.90105  23881184.440    97789473.26444
  20902231.860   109842237.52508  20902232.660    85591479.97349
  23089337.580   121335469.73707  23089341.640    94547214.37645
  24482517.060   128656494.11805  24482521.980   100251834.11945
  22292938.680   117150586.03208  22292940.440    91286355.05647
  21631810.200   113675946.39808  21631811.440    88578676.06048
 15 02 15 00 02 30.0000000  0  7G16G18G21G25G27G29G31
  23309529.840   122492408.33507  23309531.040    95448639.64845
  23865987.160   125416622.21106  23865988.620    97727249.72043
  20901106.620   109836324.41408  20901107.420    85586872.35649
  23105546.900   121420650.36507  23105551.140    94613588.87746
  24467886.280   128579609.14405  24467891.180   100191923.78945
  22305674.240   117217511.88308  22305676.060    91338505.04947
  21643179.140   113735690.53708  21643180.380    88625229.92048
 15 02 15 00 03  0.0000000  0  7G16G18G21G25G27G29G31
  23292533.580   122403092.79107  23292534.860    95379043.14045
  23850799.100   125336808.82705  23850800.520    97665057.53045
  20900065.860   109830855.27008  20900066.660    85582610.68849
  23121802.860   121506076.14007  23121807.240    94680154.42046
  24453271.780   128502809.68005  24453276.560   100132080.06644
  22318424.300   117284513.61908  22318426.120    91390714.17047
  21654631.420   113795872.63008  21654632.620    88672125.05148
 15 02 15 00 03 30.0000000  0  7G16G18G21G25G27G29G31
  23275552.780   122313858.18707  23275554.060    95309509.68945
  23835619.540   125257039.69306  23835621.000    97602899.83145
  20899109.660   109825830.55008  20899110.460    85578695.32549
  23138105.420   121591746.93407  23138109.880    94746910.86245
  24438673.680   128426096.36305  24438678.540   100072303.50845
  22331188.780   117351591.14908  22331190.580    91442982.34047
  21666166.780   113856491.16608  21666167.920    88719360.25648
 15 02 15 00 04  0.0000000  0  7G16G18G21G25G27G29G31
  23258587.300   122224703.93207  23258588.700    95240038.86845
  23820448.420   125177314.91406  23820450.000    97540776.71843
  20898237.480   109821247.33108  20898238.300    85575123.99049
  23154454.060   121677659.83507  23154458.480    94813855.97446
  24424091.620   128349467.32205  24424096.500   100012592.59045
  22343967.320   117418742.47808  22343969.040    91495308.02747
  21677784.340   113917541.91708  21677785.460    88766932.25748
 15 02 15 00 04 30.0000000  0  7G16G18G21G25G27G29G31
  23241637.920   122135634.48907  23241639.500    95170634.11345
  23805286.680   125097639.73206  23805288.340    97478692.20044
  20897449.820   109817108.26308  20897450.680    85571898.74849
  23170848.980   121763816.32507  23170853.420    94880990.86946
  24409526.060   128272924.98205  24409530.820    99952949.28445
  22356760.160   117485968.82008  22356761.780    91547692.16447
  21689484.180   113979024.93308  21689485.300    88814841.08248
 15 02 15 00 05  0.0000000  0  7G16G18G21G25G27G29G31
  23224704.680   122046649.81707  23224706.340    95101295.41845
  23790134.600   125018015.24806  23790136.480    97416647.22544
  20896746.240   109813410.97808  20896747.140    85569017.75349
  23187289.740   121850213.73807  23187294.160    94948313.48746
  24394976.720   128196467.51105  24394981.240    99893372.04244
  22369566.760   117553267.78408  22369568.360    91600132.88947
  21701265.480   114040936.00408  21701266.620    88863083.46548
 15 02 15 00 05 30.0000000  0  7G16G18G21G25G27G29G31
  23207788.200   121957753.33607  23207789.880    95032025.44945
  23774992.940   124938445.66606  23774994.940    97354644.98045
  20896126.980   109810156.62908  20896127.860    85566481.90549
  23203776.540   121936852.97507  23203780.900    95015824.57046
  24380443.900   128120096.86105  24380448.160    99833862.50444
  22382387.460   117620641.07708  22382389.080    91652631.53547
  21713128.200   114103275.03408  21713129.400    88911659.32248
 15 02 15 00 06  0.0000000  0  7G16G18G21G25G27G29G31
  23190888.280   121868943.84307  23190889.880    94962823.26145
  23759861.900   124858931.08806  23759863.960    97292685.63145
  20895591.220   109807341.06808  20895592.100    85564287.96949
  23220308.700   122023730.21107  23220313.020    95083521.10045
  24365927.020   128043810.17905  24365931.060    99774418.37645
  22395221.660   117688085.29808  22395223.320    91705185.46147
  21725071.320   114166036.60008  21725072.560    88960564.42948
 15 02 15 00 06 30.0000000  0  7G16G18G21G25G27G29G31
  23174005.720   121780225.23907  23174007.140    94893691.88845
  23744742.120   124779476.16106  23744744.300    97230772.80945
  20895139.320   109804966.29108  20895140.220    85562437.49849
  23236886.440   122110846.56007  23236890.780    95151403.96145
  24351426.480   127967609.45305  24351430.360    99715041.20845
  22408069.640   117755602.01208  22408071.420    91757795.86747
  21737094.820   114229220.61608  21737096.120    89009798.71748
 15 02 15 00 07  0.0000000  0  7G16G18G21G25G27G29G31
  23157140.440   121691597.43207  23157141.640    94824631.27745
  23729633.860   124700081.28006  23729635.900    97168906.72545
  20894770.680   109803029.12508  20894771.580    85560928.02649
  23253509.120   122198198.88707  23253513.480    95219470.70146
  24336941.900   127891492.64505  24336945.800    99655729.43244
  22420930.940   117823188.65308  22420932.800    91810460.77547
  21749197.860   114292822.62908  21749199.180    89059358.71448
 15 02 15 00 07 30.0000000  0  7G16G18G21G25G27G29G31
  23140293.240   121603064.62207  23140294.400    94755644.68245
  23714538.160   124620752.08206  23714540.040    97107091.83545
  20894485.880   109801532.48808  20894486.780    85559761.82249
  23270177.100   122285789.24007  23270181.540    95287722.91446
  24322473.860   127815462.69705  24322477.840    99596485.36245
  22433805.940   117890847.03208  22433807.860    91863181.58047
  21761380.560   114356843.09908  21761381.820    89109244.78148
 15 02 15 00 08  0.0000000  0  7G16G18G21G25G27G29G31
  23123464.360   121514628.27907  23123465.500    94686733.25045
  23699455.220   124541490.82606  23699456.960    97045329.86245
  20894284.620   109800474.85408  20894285.500    85558937.69849
  23286890.100   122373615.88607  23286894.520    95356159.25746
  24308022.200   127739518.89505  24308026.420    99537308.41845
  22446694.360   117958575.90208  22446696.280    91915957.29647
  21773642.280   114421278.85208  21773643.500    89159454.44648
 15 02 15 00 08 30.0000000  0  7G16G18G21G25G27G29G31
  23106654.160   121426290.22907  23106655.320    94617898.41246
  23684385.400   124462299.42206  23684387.260    96983622.33945
  20894166.680   109799855.01508  20894167.520    85558454.70849
  23303647.820   122461677.67107  23303652.220    95424778.81946
  24293586.960   127663661.09705  24293591.420    99478198.46245
  22459596.160   118026375.21908  22459598.140    91968787.91547
  21785982.600   114486127.58408  21785983.800    89209985.90548
 15 02 15 00 09  0.0000000  0  7G16G18G21G25G27G29G31
  23089863.200   121338053.19907  23089864.360    94549142.29545
  23669329.580   124383182.31206  23669331.600    96921972.70045
  20894132.240   109799673.82408  20894133.020    85558313.52449
  23320450.240   122549974.93907  23320454.660    95493581.86146
  24279168.260   127587890.65305  24279173.000    99419156.59945
  22472511.420   118094245.51308  22472513.420    92021673.83547
  21798401.280   114551388.07008  21798402.480    89260838.22348
 15 02 15 00 09 30.0000000  0  7G16G18G21G25G27G29G31
  23073091.280   121249915.99707  23073092.440    94480463.96646
  23654287.820   124304139.24006  23654290.020    96860380.73044
  20894180.500   109799927.26108  20894181.240    85558511.01449
  23337296.640   122638503.68706  23337301.180    95562565.29946
  24264765.560   127512204.57405  24264770.420    99360180.44845
  22485439.500   118162183.26608  22485441.520    92074612.32347
  21810897.320   114617054.95408  21810898.540    89312007.20948
 15 02 15 00 10  0.0000000  0  7G16G18G21G25G27G29G31
  23056338.820   121161881.63507  23056340.100    94411865.77646
  23639261.020   124225174.13406  23639263.260    96798849.51844
  20894311.620   109800616.14908  20894312.340    85559047.81849
  23354187.020   122727264.12106  23354191.680    95631729.24346
  24250379.100   127436603.98605  24250384.020    99301270.92745
  22498380.660   118230189.39408  22498382.680    92127604.09047
  21823470.440   114683126.88508  21823471.680    89363491.81948
 15 02 15 00 10 30.0000000  0  7G16G18G21G25G27G29G31
  23039606.200   121073951.26307  23039607.540    94343348.61746
  23624249.380   124146288.40806  23624251.700    96737380.16645
  20894525.260   109801738.78708  20894525.980    85559922.60549
  23371121.100   122816254.17906  23371125.840    95701072.12546
  24236008.800   127361088.00205  24236013.680    99242427.31344
  22511334.580   118298262.15208  22511336.520    92180647.77847
  21836120.020   114749600.60908  21836121.240    89415289.51848
 15 02 15 00 11  0.0000000  0  7G16G18G21G25G27G29G31
  23022893.700   120986126.54607  23022895.140    94274913.78946
  23609253.480   124067484.81106  23609255.760    96675974.80244
  20894821.280   109803294.44308  20894822.000    85561134.81149
  23388098.860   122905473.01006  23388103.560    95770593.25946
  24221654.660   127285656.70805  24221659.540    99183649.69646
  22524301.120   118366400.82008  22524302.840    92233742.82847
  21848845.640   114816473.82808  21848846.800    89467398.50548
 15 02 15 00 11 30.0000000  0  7G16G18G21G25G27G29G31
  23006201.720   120898409.83007  23006203.260    94206563.11846
  23594273.940   123988766.77306  23594276.160    96614636.10645
  20895199.520   109805282.27608  20895200.280    85562683.77149
  23405120.120   122994919.99306  23405124.600    95840292.18646
  24207316.660   127210310.55605  24207321.500    99124938.42945
  22537280.340   118434606.02008  22537281.880    92286889.71747
  21861646.820   114883744.45108  21861647.980    89519817.15848
 15 02 15 00 12  0.0000000  0  7G16G18G21G25G27G29G31
  22989530.700   120810802.98107  22989532.300    94138298.05746
  23579311.180   123910136.62906  23579313.200    96553365.90345
  20895660.000   109807702.12508  20895660.760    85564569.37649
  23422184.620   123084593.87306  23422188.860    95910167.92545
  24192994.900   127135049.27505  24192999.600    99066293.32145
  22550272.100   118502877.16008  22550273.460    92340087.99147
  21874523.100   114951410.04908  21874524.320    89572543.58348
 15 02 15 00 12 30.0000000  0  7G16G18G21G25G27G29G31
  22972880.960   120723307.87807  22972882.560    94070120.07146
  23564365.720   123831597.02606  23564367.620    96492166.25744
  20896202.520   109810553.20008  20896203.280    85566790.99749
  23439292.220   123174493.86907  23439296.180    95980219.87045
  24178689.420   127059873.25006  24178693.980    99007714.62245
  22563276.200   118571213.65708  22563277.520    92393337.19347
  21887474.020   115019468.08708  21887475.320    89625575.80648
 15 02 15 00 13  0.0000000  0  7G16G18G21G25G27G29G31
  22956252.880   120635926.46307  22956254.440    94002030.67146
  23549438.080   123753151.12506  23549439.800    96431039.62145
  20896826.860   109813834.29508  20896827.640    85569347.70249
  23456442.580   123264618.83907  23456446.420    96050447.10945
  24164400.220   126984782.31106  24164404.600    98949202.23744
  22576292.500   118639615.09308  22576293.940    92446636.98747
  21900499.140   115087916.03008  21900500.520    89678911.85448
 15 02 15 00 13 30.0000000  0  7G16G18G21G25G27G29G31
  22939647.060   120548662.13707  22939648.580    93934032.51646
  23534529.020   123674802.82406  23534530.580    96369989.03545
  20897533.280   109817546.47508  20897534.040    85572240.31949
  23473635.760   123354969.25307  23473639.620    96120850.00646
  24150127.480   126909777.98105  24150131.740    98890757.34345
  22589321.320   118708082.31708  22589322.840    92499988.04847
  21913598.340   115156752.80308  21913599.740    89732550.89248
 15 02 15 00 14  0.0000000  0  7G16G18G21G25G27G29G31
  22923063.660   120461515.75007  22923065.120    93866126.25946
  23519638.900   123596554.12106  23519640.380    96309016.03245
  20898321.300   109821687.66708  20898322.100    85575467.22549
  23490871.340   123445542.97606  23490875.400    96191426.92346
  24135870.960   126834859.31805  24135875.200    98832379.20946
  22602362.340   118776613.89708  22602363.980    92553389.26547
  21926770.880   115225975.00508  21926772.300    89786490.26048
 15 02 15 00 14 30.0000000  0  7G16G18G21G25G27G29G31
  22906502.940   120374488.85807  22906504.380    93798313.11046
  23504768.160   123518407.56106  23504769.600    96248122.63346
  20899190.820   109826256.89908  20899191.600    85579027.67449
  23508149.080   123536339.04306  23508153.460    96262177.10145
  24121630.780   126760026.42505  24121635.080    98774067.89745
  22615415.680   118845210.09008  22615417.400    92606840.83347
  21940016.340   115295580.34608  21940017.760    89840728.17848
 15 02 15 00 15  0.0000000  0  7G16G18G21G25G27G29G31
  22889965.500   120287584.60507  22889966.980    93730595.53346
  23489917.420   123440366.65306  23489919.040    96187311.58745
  20900141.900   109831254.76408  20900142.660    85582922.11649
  23525469.080   123627357.50506  23525473.780    96333100.55846
  24107407.040   126685280.32005  24107411.400    98715824.19145
  22628481.400   118913871.09608  22628483.120    92660342.90247
  21953334.500   115365567.35508  21953335.860    89895263.49548
 15 02 15 00 15 30.0000000  0  7G16G18G21G25G27G29G31
  22873451.560   120200803.55307  22873453.000    93662973.94546
  23475086.960   123362432.65606  23475088.780    96126583.82045
  20901173.920   109836678.11508  20901174.700    85587148.11549
  23542830.800   123718595.37806  23542835.860    96404194.97845
  24093199.400   126610619.15405  24093203.880    98657646.67146
  22641559.000   118982594.66608  22641560.780    92713893.71947
  21966724.420   115435931.40508  21966725.680    89950092.61148
 15 02 15 00 16  0.0000000  0  7G16G18G21G25G27G29G31
  22856961.300   120114146.52607  22856962.600    93595448.99246
  23460277.160   123284607.39906  23460279.080    96065940.78545
  20902286.660   109842525.68208  20902287.460    85591704.65849
  23560234.100   123810050.69406  23560239.400    96475458.85046
  24079007.760   126536042.21305  24079012.480    98599534.79845
  22654648.320   119051379.60908  22654650.100    92767492.36647
  21980185.400   115506669.06708  21980186.580    90005212.84848
 15 02 15 00 16 30.0000000  0  7G16G18G21G25G27G29G31
  22840495.160   120027616.19007  22840496.340    93528022.76747
  23445488.600   123206894.03206  23445490.640    96005384.92145
  20903480.020   109848796.92308  20903480.840    85596591.34449
  23577678.880   123901723.03306  23577684.220    96546891.80646
  24064832.220   126461549.98005  24064836.980    98541488.90046
  22667749.380   119120226.23608  22667751.140    92821139.07647
  21993717.160   115577778.75708  21993718.300    90060622.98448
 15 02 15 00 17  0.0000000  0  7G16G18G21G25G27G29G31
  22824053.500   119941214.47607  22824054.680    93460696.76646
  23430721.780   123129295.29606  23430724.020    95944918.42145
  20904753.920   109855491.31308  20904754.740    85601807.75349
  23595164.920   123993611.45906  23595170.140    96618493.15046
  24050672.880   126387142.79305  24050677.720    98483509.30046
  22680862.100   119189134.09708  22680863.880    92874833.48646
  22007319.160   115649257.72808  22007320.340    90116320.86948
 15 02 15 00 17 30.0000000  0  7G16G18G21G25G27G29G31
  22807636.720   119854943.98507  22807637.960    93393473.02146
  23415977.560   123051815.16906  23415980.020    95884544.32245
  20906108.240   109862608.40408  20906109.080    85607353.54349
  23612692.000   124085715.44106  23612696.980    96690262.47946
  24036529.860   126312821.14405  24036534.640    98425596.36446
  22693986.580   119258103.62108  22693988.420    92928575.94247
  22020991.040   115721104.33708  22020992.340    90172305.22948
 15 02 15 00 18  0.0000000  0  7G16G18G21G25G27G29G31
  22791244.980   119768805.08907  22791246.300    93326351.83046
  23401256.160   122974454.02606  23401258.660    95824262.94745
  20907542.500   109870145.48408  20907543.340    85613226.59649
  23630259.320   124178032.05406  23630264.220    96762197.47645
  24022402.900   126238583.34205  24022407.620    98367748.74546
  22707122.420   119327132.53708  22707124.240    92982364.68347
  22034731.960   115793313.88908  22034733.440    90228572.40348
 15 02 15 00 18 30.0000000  0  7G16G18G21G25G27G29G31
  22774878.900   119682800.62607  22774880.220    93259335.37246
  23386558.320   122897215.96706  23386560.680    95764077.45445
  20909056.760   109878102.99708  20909057.600    85619427.25849
  23647867.100   124270561.43906  23647871.780    96834298.28545
  24008292.140   126164430.56605  24008296.820    98309967.38245
  22720269.700   119396221.99408  22720271.580    93036200.58947
  22048541.700   115865885.04108  22048543.360    90285121.34448
 15 02 15 00 19  0.0000000  0  7G16G18G21G25G27G29G31
  22758538.840   119596932.89207  22758540.140    93192425.45746
  23371884.640   122820103.80207  23371886.640    95703990.08845
  20910650.800   109886479.92308  20910651.660    85625954.74149
  23665515.040   124363302.53906  23665519.540    96906564.05945
  23994197.740   126090362.93806  23994202.300    98252252.35745
  22733428.400   119465371.39007  22733430.320    93090083.20247
  22062419.960   115938815.77908  22062421.680    90341950.48248
 15 02 15 00 19 30.0000000  0  7G16G18G21G25G27G29G31
  22742225.420   119511205.25207  22742226.660    93125624.69947
  23357235.720   122743121.39207  23357237.260    95644003.81144
  20912324.780   109895276.69508  20912325.620    85632809.36649
  23683203.220   124456255.62706  23683207.720    96978995.03045
  23980119.780   126016381.98406  23980124.280    98194604.90945
  22746598.700   119534581.84907  22746600.680    93144013.40847
  22076366.380   116012104.33008  22076368.020    90399058.43248
 15 02 15 00 20  0.0000000  0  7G16G18G21G25G27G29G31
  22725938.680   119425618.11907  22725939.940    93058933.42647
  23342611.560   122666270.03007  23342612.820    95584119.64344
  20914078.100   109904490.73208  20914078.980    85639989.14249
  23700931.240   124549417.93106  23700935.720    97051589.01145
  23966057.900   125942485.99606  23966062.300    98137023.63645
  22759780.300   119603851.43807  22759782.300    93197989.68847
  22090380.160   116085746.62308  22090381.640    90456442.01948
 15 02 15 00 20 30.0000000  0  7G16G18G21G25G27G29G31
  22709678.960   119340173.26007  22709680.320    92992353.03547
  23328012.640   122589552.25607  23328013.800    95524339.57245
  20915910.620   109914120.79008  20915911.500    85647493.08349
  23718698.960   124642788.20806  23718703.340    97124345.05544
  23952012.200   125868674.94706  23952016.460    98079508.56646
  22772973.080   119673179.88407  22772975.140    93252011.83947
  22104460.680   116159739.78508  22104461.960    90514099.00948
 15 02 15 00 21  0.0000000  0  7G16G18G21G25G27G29G31
  22693446.840   119254873.34807  22693448.300    92925885.59047
  23313439.540   122512971.11307  23313440.840    95464665.95645
  20917822.200   109924166.20508  20917823.080    85655320.68349
  23736506.220   124736365.74406  23736510.480    97197262.61745
  23937982.720   125794949.30406  23937986.780    98022060.04545
  22786176.960   119742567.02007  22786179.140    93306079.71147
  22118607.580   116234082.03308  22118608.700    90572028.01848
 15 02 15 00 21 30.0000000  0  7G16G18G21G25G27G29G31
  22677242.460   119169718.67207  22677243.920    92859531.30746
  23298892.780   122436528.34007  23298894.260    95405100.17544
  20919812.380   109934624.68508  20919813.260    85663470.14649
  23754352.400   124830147.72706  23754356.600    97270339.45444
  23923969.140   125721307.41206  23923973.040    97964676.78445
  22799391.720   119812010.97607  22799393.940    93360191.88347
  22132820.040   116308769.08808  22132821.100    90630225.70948
 15 02 15 00 22  0.0000000  0  7G16G18G21G25G27G29G31
  22661066.540   119084713.37407  22661067.920    92793293.42047
  23284373.140   122360228.24906  23284374.820    95345645.57345
  20921881.440   109945497.72908  20921882.320    85671942.65049
  23772237.720   124924135.19006  23772242.020    97343576.42445
  23909971.920   125647751.50605  23909975.660    97907360.52845
  22812617.640   119881513.66507  22812619.880    93414349.79847
  22147097.960   116383800.15408  22147099.060    90688691.45748
 15 02 15 00 22 30.0000000  0  7G16G18G21G25G27G29G31
  22644919.320   118999858.75307  22644920.640    92727172.93847
  23269881.120   122284072.73807  23269882.940    95286303.63645
  20924028.920   109956782.82008  20924029.780    85680736.23449
  23790161.680   125018325.83906  23790166.120    97416971.72045
  23895990.780   125574280.52705  23895994.580    97850110.43546
  22825854.580   119951073.98907  22825856.740    93468552.62747
  22161440.640   116459171.32508  22161441.820    90747422.22648
 15 02 15 00 23  0.0000000  0  7G16G18G21G25G27G29G31
  22628801.140   118915157.24007  22628802.440    92661171.75746
  23255417.360   122208065.15507  23255419.260    95227076.97445
  20926254.800   109968479.60208  20926255.580    85689850.61149
  23808124.180   125112719.24006  23808128.780    97490524.99945
  23882025.920   125500895.25205  23882029.840    97792927.13546
  22839102.580   120020692.09707  22839104.620    93522800.47947
  22175847.780   116534880.91508  22175849.060    90806416.70248
 15 02 15 00 23 30.0000000  0  7G16G18G21G25G27G29G31
  22612712.060   118830609.05007  22612713.480    92595290.06146
  23240982.040   122132206.57407  23240983.900    95167966.42645
  20928558.420   109980585.10208  20928559.160    85699283.47049
  23826124.820   125207312.49006  23826129.500    97564234.00546
  23868076.940   125427593.98105  23868081.140    97735809.29446
  22852361.180   120090366.07407  22852363.140    93577091.85947
  22190318.440   116610924.50308  22190319.820    90865671.43048
 15 02 15 00 24  0.0000000  0  7G16G18G21G25G27G29G31
  22596652.640   118746216.23607  22596654.080    92529529.43147
  23226575.600   122056499.12307  23226577.320    95108973.61245
  20930939.660   109993098.46308  20930940.380    85709034.14549
  23844163.300   125302104.17906  23844168.040    97638097.63245
  23854144.040   125354376.49705  23854148.440    97678756.72447
  22865630.160   120160094.94607  22865632.100    93631426.01147
  22204852.040   116687299.22308  22204853.560    90925184.18348
 15 02 15 00 24 30.0000000  0  7G16G18G21G25G27G29G31
  22580623.540   118661982.72108  22580624.980    92463892.93647
  23212198.820   121980947.75607  23212200.500    95050102.44245
  20933398.580   110006020.06208  20933399.260    85719102.93249
  23862239.640   125397094.83306  23862244.320    97712116.29346
  23840227.440   125281244.64605  23840232.000    97621770.88246
  22878910.000   120229881.14107  22878912.000    93685804.83347
  22219448.480   116764004.12208  22219450.080    90984954.22248
 15 02 15 00 25  0.0000000  0  7G16G18G21G25G27G29G31
  22564625.200   118577910.53508  22564626.560    92398382.14447
  23197852.200   121905555.27307  23197853.840    94991355.07245
  20935935.040   110019349.11208  20935935.680    85729489.21349
  23880353.540   125492283.44207  23880358.120    97786289.20645
  23826327.240   125208198.52106  23826331.820    97564851.84646
  22892200.560   120299723.92107  22892202.720    93740227.76147
  22234107.240   116841036.66508  22234108.880    91044979.57048
 15 02 15 00 25 30.0000000  0  7G16G18G21G25G27G29G31
  22548657.780   118494000.96908  22548659.100    92332998.07347
  23183536.000   121830323.26307  23183537.760    94932732.75945
  20938548.620   110033083.67608  20938549.260    85740191.47449
  23898504.640   125587667.91906  23898509.140    97860614.76044
  23812443.180   125135237.40606  23812447.760    97507999.05846
  22905501.640   120369622.09607  22905504.000    93794693.83747
  22248827.680   116918393.34308  22248829.320    91105257.48748
 15 02 15 00 26  0.0000000  0  7G16G18G21G25G27G29G31
  22532721.560   118410255.59408  22532722.900    92267741.94747
  23169250.680   121755253.97007  23169252.600    94874237.23045
  20941239.020   110047222.10708  20941239.700    85751208.44049
  23916692.500   125683246.39606  23916696.980    97935091.48844
  23798575.320   125062360.67906  23798579.760    97451212.00846
  22918813.200   120439574.94707  22918815.660    93849202.54247
  22263609.220   116996070.75508  22263610.780    91165785.32448
 15 02 15 00 26 30.0000000  0  7G16G18G21G25G27G29G31
  22516817.360   118326678.49108  22516818.700    92202616.94347
  23154997.180   121680352.08907  23154999.200    94815872.14946
  20944006.460   110061765.36808  20944007.200    85762540.85549
  23934917.200   125779019.60206  23934921.860    98009719.91044
  23784723.900   124989570.27206  23784728.180    97394492.24946
  22932135.500   120509584.15407  22932138.000    93903755.15047
  22278451.680   117074068.11208  22278453.140    91226562.46548
 15 02 15 00 27  0.0000000  0  7G16G18G21G25G27G29G31
  22500945.220   118243270.00308  22500946.580    92137623.32247
  23140775.740   121605618.39607  23140777.740    94757638.14344
  20946850.260   110076709.82908  20946851.020    85774185.89049
  23953178.360   125874984.30305  23953183.060    98084497.58644
  23770888.460   124916864.22306  23770892.560    97337838.20646
  22945468.060   120579647.71007  22945470.700    93958350.10447
  22293354.080   117152380.59008  22293355.520    91287585.15648
 15 02 15 00 27 30.0000000  0  7G16G18G21G25G27G29G31
  22485105.580   118160032.05908  22485106.900    92072762.59947
  23126586.920   121531056.04307  23126588.840    94699537.63145
  20949770.340   110092054.99008  20949771.120    85786143.16449
  23971475.980   125971139.79706  23971480.680    98159423.93445
  23757069.080   124844243.21206  23757073.140    97281250.42746
  22958811.060   120649765.64307  22958813.740    94012987.43847
  22308316.120   117231006.33308  22308317.540    91348851.95548
 15 02 15 00 28  0.0000000  0  7G16G18G21G25G27G29G31
  22469298.540   118076965.57708  22469299.820    92008035.48347
  23112430.920   121456666.16007  23112432.700    94641571.52345
  20952766.140   110107798.09608  20952766.940    85798410.52649
  23989809.580   126067483.15806  23989814.160    98234496.68144
  23743265.500   124771705.49806  23743269.580    97224727.54945
  22972164.040   120719935.67207  22972166.660    94067665.36046
  22323336.840   117309940.44508  22323338.220    91410359.04748
 15 02 15 00 28 30.0000000  0  7G16G18G21G25G27G29G31
  22453524.520   117994072.87908  22453525.800    91943443.78447
  23098308.360   121382451.48807  23098309.920    94583741.92945
  20955837.500   110123938.26008  20955838.320    85810987.28149
  24008178.940   126164013.41106  24008183.200    98309715.03945
  23729477.860   124699251.40506  23729481.940    97168269.85545
  22985527.080   120790158.18507  22985529.520    94122384.19646
  22338415.760   117389180.63108  22338417.140    91472104.64048
 15 02 15 00 29  0.0000000  0  7G16G18G21G25G27G29G31
  22437784.400   117911358.34708  22437785.680    91878990.91147
  23084220.140   121308417.05907  23084221.480    94526052.79245
  20958984.680   110140476.65808  20958985.460    85823874.35049
  24026584.180   126260731.48006  24026588.180    98385079.74444
  23715706.600   124626883.26006  23715710.600    97111879.12246
  22998900.460   120860435.74007  22998902.820    94177145.88446
  22353552.840   117468726.52808  22353554.180    91534088.43647
 15 02 15 00 29 30.0000000  0  7G16G18G21G25G27G29G31
  22422078.480   117828823.40608  22422079.720    91814677.97847
  23070166.580   121234564.88207  23070167.920    94468505.65545
  20962207.180   110157410.92608  20962207.960    85837069.88849
  24045024.660   126357635.20906  24045028.580    98460589.12945
  23701951.420   124554600.10005  23701955.400    97055554.59446
  23012284.040   120930766.57807  23012286.260    94231949.09946
  22368747.440   117548574.43008  22368748.700    91596307.56447
 15 02 15 00 30  0.0000000  0  7G16G18G21G25G27G29G31
  22406407.040   117746469.13108  22406408.180    91750505.82447
  23056148.000   121160896.75507  23056149.480    94411101.93645
  20965504.660   110174739.24008  20965505.400    85850572.47249
  24063500.000   126454722.60106  24063504.020    98536241.61444
  23688212.400   124482401.30705  23688216.340    96999295.82746
  23025677.580   121001149.73607  23025679.700    94286793.10646
  22383998.800   117628720.74208  22383999.960    91658759.21447
 15 02 15 00 30 30.0000000  0  7G16G18G21G25G27G29G31
  22390770.640   117664299.12408  22390771.780    91686477.26147
  23042165.160   121087416.40807  23042166.800    94353844.54245
  20968877.220   110192462.09408  20968877.920    85864382.49449
  24082010.080   126551993.74906  24082014.360    98612037.28945
  23674489.780   124410288.23405  23674493.620    96943103.83946
  23039081.320   121071586.56807  23039083.400    94341678.92346
  22399306.620   117709163.94408  22399307.720    91721442.20147
 15 02 15 00 31  0.0000000  0  7G16G18G21G25G27G29G31
  22375169.620   117582315.13108  22375170.800    91622593.64347
  23028218.560   121014126.36807  23028220.320    94296735.40945
  20972324.500   110210577.60708  20972325.160    85878498.48549
  24100554.600   126649446.85305  24100559.300    98687974.76245
  23660783.360   124338260.49306  23660787.300    96886978.35046
  23052495.220   121142076.35207  23052497.240    94396606.01146
  22414670.280   117789900.71708  22414671.460    91784353.95847
 15 02 15 00 31 30.0000000  0  7G16G18G21G25G27G29G31
  22359604.400   117500519.48208  22359605.620    91558856.78347
  23014308.700   120941029.36607  23014310.580    94239776.73546
  20975846.260   110229084.74908  20975846.960    85892919.63449
  24119133.360   126747080.81105  24119138.540    98764053.14046
  23647093.200   124266318.29006  23647097.240    96830919.52045
  23065919.100   121212618.96307  23065921.060    94451574.24647
  22430089.380   117870928.55008  22430090.640    91847492.51347
 15 02 15 00 32  0.0000000  0  7G16G18G21G25G27G29G31
  22344075.440   117418914.26208  22344076.720    91495268.32147
  23000436.100   120868128.20007  23000438.000    94182970.63046
  20979442.260   110247981.89008  20979443.000    85907644.68049
  24137746.080   126844894.01605  24137751.940    98840271.19945
  23633419.280   124194461.36006  23633423.440    96774927.12646
  23079352.900   121283214.01907  23079354.880    94506583.35646
  22445563.300   117952244.49108  22445564.680    91910855.56947
 15 02 15 00 32 30.0000000  0  7G16G18G21G25G27G29G31
  22328582.440   117337498.02708  22328583.720    91431827.10547
  22986600.600   120795422.16007  22986602.540    94126316.58546
  20983111.620   110267264.59908  20983112.380    85922670.17349
  24156392.360   126942881.94805  24156398.440    98916625.42045
  23619761.040   124122686.58806  23619765.260    96718998.75446
  23092796.060   121353858.36707  23092798.040    94561630.88046
  22461090.920   118033842.55908  22461092.400    91974438.46647
 15 02 15 00 33  0.0000000  0  7G16G18G21G25G27G29G31
  22313126.540   117256276.76608  22313127.780    91368537.81747
  22972803.380   120722917.45007  22972805.340    94069819.41646
  20986854.820   110286935.37908  20986855.600    85937998.05249
  24175072.460   127041046.88305  24175078.400    98993117.55245
  23606119.080   124050997.56506  23606123.340    96663137.19446
  23106249.140   121424554.95607  23106251.180    94616719.11346
  22476672.360   118115723.60508  22476673.920    92038241.86147
 15 02 15 00 33 30.0000000  0  7G16G18G21G25G27G29G31
  22297707.820   117175250.84608  22297709.040    91305400.74647
  22959044.620   120650614.87807  22959046.580    94013479.77046
  20990671.280   110306991.10708  20990672.100    85953625.89149
  24193785.840   127139385.74105  24193791.480    99069745.19144
  23592493.100   123979392.59706  23592497.380    96607341.13546
  23119711.840   121495302.17207  23119713.920    94671846.79746
  22492306.720   118197882.75508  22492308.280    92102261.96147
 15 02 15 00 34  0.0000000  0  7G16G18G21G25G27G29G31
  22282326.720   117094422.67708  22282327.960    91242417.77847
  22945324.860   120578517.59407  22945326.820    93957300.07946
  20994560.800   110327430.81408  20994561.680    85969552.94049
  24212532.240   127237897.47905  24212537.440    99146507.54845
  23578883.140   123907872.02606  23578887.440    96551610.82946
  23133184.240   121566100.09607  23133186.360    94727013.98246
  22507993.560   118280317.59508  22507995.060    92166496.88147
 15 02 15 00 34 30.0000000  0  7G16G18G21G25G27G29G31
  22266983.820   117013795.17308  22266985.080    91179591.16147
  22931644.740   120506628.82407  22931646.620    93901282.86046
  20998523.300   110348253.98108  20998524.220    85985778.79149
  24231311.420   127336581.43306  24231316.160    99223404.11944
  23565289.440   123836436.59306  23565293.700    96495946.87346
  23146666.400   121636948.91207  23146668.460    94782220.81346
  22523732.400   118363025.96808  22523733.840    92230944.94347
 15 02 15 00 35  0.0000000  0  7G16G18G21G25G27G29G31
  22251679.440   116933369.87908  22251680.680    91116922.10447
  22918004.660   120434950.33507  22918006.440    93845429.51446
  21002558.280   110369457.81608  21002559.180    86002301.26549
  24250123.020   127435435.29805  24250127.240    99300433.11445
  23551711.680   123765085.33206  23551715.880    96440348.49045
  23160158.020   121707847.86407  23160160.060    94837466.73346
  22539522.580   118446004.07108  22539523.960    92295603.18747
 15 02 15 00 35 30.0000000  0  7G16G18G21G25G27G29G31
  22236414.140   116853150.16008  22236415.340    91054413.23647
  22904405.320   120363485.89407  22904407.060    93789742.94446
  21006665.660   110391042.28808  21006666.540    86019120.33749
  24268966.840   127534458.95306  24268970.660    99377594.36744
  23538150.240   123693819.63106  23538154.380    96384816.79746
  23173659.420   121778797.97207  23173661.420    94892752.50446
  22555363.820   118529250.38308  22555365.140    92360470.41947
 15 02 15 00 36  0.0000000  0  8G16G18G21G22G25G27G29G31
  22221188.480   116773138.90508  22221189.600    90992066.80747
  22890847.520   120292239.34207  22890849.220    93734226.18046
  21010845.600   110413007.99508  21010846.480    86036236.47849
  24556452.880   129045025.17305  24556455.900   100554591.44545
  24287842.840   127633652.17506  24287846.600    99454887.77645
  23524605.340   123622640.56406  23524609.360    96329352.59846
  23187170.680   121849800.26107  23187172.660    94948078.92946
  22571255.740   118612762.95308  22571257.060    92425545.13047
 15 02 15 00 36 30.0000000  0  8G16G18G21G22G25G27G29G31
  22206001.420   116693330.75508  22206002.500    90929878.64947
  22877330.380   120221205.91107  22877331.960    93678875.47445
  21015096.300   110435345.65008  21015097.160    86053642.44749
  24538358.240   128949937.47906  24538361.000   100480498.00645
  24306749.240   127733005.90605  24306753.180    99532306.22245
  23511075.460   123551540.52806  23511079.300    96273950.00746
  23200690.220   121920846.33907  23200692.180    95003439.47846
  22587196.320   118696531.26808  22587197.700    92490819.12847
 15 02 15 00 37  0.0000000  0  8G16G18G21G22G25G27G29G31
  22190855.260   116613737.25808  22190856.300    90867857.75247
  22863856.020   120150397.05607  22863857.520    93623699.74845
  21019419.240   110458062.82708  21019420.060    86071344.14549
  24520250.220   128854779.53305  24520252.840   100406349.74946
  24325687.480   127832527.77805  24325691.660    99609855.70345
  23497562.320   123480528.62406  23497566.080    96218616.09346
  23214220.020   121991945.92007  23214221.900    95058841.72546
  22603186.840   118780561.96608  22603188.260    92556297.57947
 15 02 15 00 37 30.0000000  0  8G16G18G21G22G25G27G29G31
  22175749.960   116534358.30508  22175750.980    90806004.02447
  22850424.520   120079813.07507  22850425.980    93568699.26146
  21023813.720   110481155.95108  21023814.520    86089338.79249
  24502128.480   128759551.50106  24502131.340   100332146.87844
  24344657.080   127932214.30905  24344661.400    99687533.47644
  23484065.560   123409602.78706  23484069.300    96163349.23646
  23227759.520   122063096.08907  23227761.360    95114283.40546
  22619226.240   118864849.67608  22619227.740    92621976.29047
 15 02 15 00 38  0.0000000  0  8G16G18G21G22G25G27G29G31
  22160686.040   116455196.89208  22160687.100    90744319.80847
  22837036.360   120009457.11807  22837037.860    93513876.43846
  21028279.640   110504624.65108  21028280.440    86107626.09249
  24483993.840   128664256.61206  24483996.840   100257891.82145
  24363657.840   128032064.80705  24363662.400    99765338.99645
  23470585.280   123338763.71606  23470589.040    96108149.97246
  23241308.800   122134297.81807  23241310.780    95169765.22646
  22635314.220   118949392.35308  22635315.760    92687853.68247
 15 02 15 00 38 30.0000000  0  8G16G18G21G22G25G27G29G31
  22145663.280   116376251.91308  22145664.380    90682804.24747
  22823691.580   119939329.28207  22823693.120    93459231.36946
  21032816.160   110528464.05908  21032816.920    86126202.25949
  24465846.300   128568894.01606  24465849.600   100183584.02144
  24382689.020   128132074.53505  24382693.960    99843268.62745
  23457120.960   123268008.20306  23457124.660    96053015.84546
  23254867.180   122205547.54407  23254869.340    95225284.48146
  22651449.600   119034183.83208  22651451.080    92753924.94847
 15 02 15 00 39  0.0000000  0  8G16G18G21G22G25G27G29G31
  22130682.500   116297527.66408  22130683.620    90621460.68247
  22810390.940   119869433.92807  22810392.640    93404767.46946
  21037423.280   110552674.64608  21037424.020    86145067.65549
  24447686.540   128473468.27906  24447689.920   100109226.94545
  24401750.660   128232244.12905  24401755.780    99921322.78944
  23443672.920   123197338.28407  23443676.640    95997948.40046
  23268435.060   122276847.07407  23268437.320    95280842.54046
  22667632.120   119119222.97908  22667633.460    92820189.18947
 15 02 15 00 39 30.0000000  0  8G16G18G21G22G25G27G29G31
  22115743.940   116219025.42708  22115745.120    90560290.10847
  22797134.760   119799772.61607  22797136.580    93350485.92146
  21042100.660   110577254.45708  21042101.400    86164220.75949
  24429515.140   128377980.54306  24429518.900   100034821.51945
  24420842.260   128332571.35905  24420847.540    99999499.83343
  23430241.020   123126753.20206  23430244.740    95942947.06646
  23282012.100   122348195.13507  23282014.500    95336438.42946
  22683861.080   119204506.41608  22683862.300    92886643.79547
 15 02 15 00 40  0.0000000  0  8G16G18G21G22G25G27G29G31
  22100848.000   116140747.08108  22100849.240    90499294.01447
  22783923.540   119730347.68307  22783925.340    93296388.58346
  21046847.940   110602201.75008  21046848.720    86183660.21049
  24411332.460   128282433.69805  24411336.340    99960369.97545
  24439963.680   128433054.50005  24439968.980   100077798.36445
  23416825.220   123056252.78406  23416828.940    95888011.67946
  23295598.420   122419592.12007  23295601.020    95392072.43846
  22700135.840   119290030.74708  22700136.980    92953286.11047
 15 02 15 00 40 30.0000000  0  8G16G18G21G22G25G27G29G31
  22085995.300   116062695.55708  22085996.560    90438474.65047
  22770757.820   119661162.16407  22770759.620    93242477.80146
  21051664.960   110627515.41008  21051665.720    86203385.14249
  24393139.220   128186830.42505  24393143.200    99885874.44845
  24459114.420   128533692.53105  24459119.860   100156217.58044
  23403425.560   122985837.35506  23403429.320    95833142.54546
  23309193.900   122491037.57007  23309196.600    95447744.19846
  22716455.820   119375793.38008  22716457.060    93020114.11247
 15 02 15 00 41  0.0000000  0  8G16G18G21G22G25G27G29G31
  22071186.040   115984872.19208  22071187.320    90377833.07947
  22757638.100   119592218.20307  22757639.820    93188755.25946
  21056551.280   110653193.20308  21056552.040    86223393.81249
  24374935.720   128091172.41806  24374939.440    99811336.25745
  24478294.320   128634483.19906  24478299.740   100234755.73743
  23390041.960   122915506.32506  23390045.780    95778339.16146
  23322798.440   122562530.94807  23322801.240    95503453.30346
  22732820.540   119461791.18908  22732821.940    93087125.37347
 15 02 15 00 41 30.0000000  0  8G16G18G21G22G25G27G29G31
  22056420.880   115907280.60308  22056422.180    90317372.10247
  22744565.080   119523519.14307  22744566.600    93135223.55646
  21061506.860   110679234.96508  21061507.600    86243686.09649
  24356722.460   127995463.30606  24356726.260    99736758.21545
  24497503.280   128735426.26406  24497508.500   100313412.64344
  23376674.660   122845260.81806  23376678.540    95723602.41746
  23336412.260   122634073.20006  23336415.180    95559200.49546
  22749229.600   119548021.94408  22749231.200    93154318.15947
 15 02 15 00 42  0.0000000  0  8G16G18G21G22G25G27G29G31
  22041700.000   115829921.87508  22041701.340    90257092.58647
  22731539.120   119455066.83308  22731540.400    93081884.11446
  21066531.300   110705638.82208  21066532.080    86264260.53649
  24338500.000   127899705.03305  24338503.580    99662141.78845
  24516740.880   128836519.51206  24516745.940   100392186.57944
  23363323.500   122775100.16206  23363327.380    95668931.78046
  23350035.220   122705663.45506  23350038.320    95614985.05846
  22765682.400   119634482.02308  22765684.060    93221689.62747
 15 02 15 00 42 30.0000000  0  8G16G18G21G22G25G27G29G31
  22027023.760   115752797.79408  22027025.160    90196995.90647
  22718560.480   119386863.31707  22718561.560    93028738.52846
  21071624.260   110732402.56308  21071625.040    86285115.39749
  24320268.660   127803899.48806  24320271.880    99587488.49845
  24536006.740   128937761.00706  24536011.400   100471076.01544
  23349988.420   122705023.94306  23349992.320    95614326.93246
  23363667.200   122777301.16306  23363670.460    95670806.60546
  22782178.280   119721167.95808  22782179.880    93289237.08647
 15 02 15 00 43  0.0000000  0  8G16G18G21G22G25G27G29G31
  22012392.880   115675911.99608  22012394.260    90137084.90547
  22705629.860   119318912.62107  22705630.860    92975789.94046
  21076785.680   110759526.04808  21076786.460    86306250.58249
  24302028.860   127708050.24006  24302031.840    99512801.15945
  24555300.740   129039150.55805  24555305.200   100550080.78845
  23336669.640   122635033.42406  23336673.580    95559788.88946
  23377308.600   122848987.23006  23377311.840    95726665.86046
  22798716.920   119808078.29408  22798718.380    93356959.40547
 15 02 15 00 43 30.0000000  0  8G16G18G21G22G25G27G29G31
  21997807.500   115599265.04108  21997808.780    90077360.01347
  22692747.400   119251215.44707  22692748.460    92923038.89746
  21082014.940   110787006.09408  21082015.760    86327663.60549
  24283780.760   127612157.81806  24283783.680    99438080.15245
  24574622.300   129140684.96105  24574626.480   100629198.45345
  23323366.880   122565127.01407  23323370.800    95505316.38946
  23390959.040   122920719.72507  23390962.140    95782561.28446
  22815297.420   119895208.46608  22815298.720    93424853.00947
 15 02 15 00 44  0.0000000  0  8G16G18G21G22G25G27G29G31
  21983268.460   115522861.65508  21983269.680    90017824.91147
  22679914.160   119183776.76707  22679915.380    92870489.27446
  21087312.240   110814843.77008  21087313.100    86349355.29849
  24265525.380   127516228.14406  24265528.300    99363330.06845
  24593971.480   129242365.15206  24593975.520   100708429.72445
  23310080.640   122495307.13107  23310084.520    95450911.30846
  23404618.880   122992501.32606  23404621.960    95838494.97646
  22831919.540   119982557.69208  22831920.760    93492917.31047
 15 02 15 00 44 30.0000000  0  8G16G18G21G22G25G27G29G31
  21968775.540   115446700.97508  21968776.760    89958478.93347
  22667130.040   119116596.39907  22667131.560    92818140.94446
  21092676.780   110843034.59908  21092677.620    86371322.17949
  24247262.880   127420260.52606  24247266.080    99288550.46045
  24613347.460   129344186.67806  24613351.440   100787771.11945
  23296810.340   122425570.95307  23296814.120    95396571.46146
  23418287.560   123064329.01607  23418290.560    95894464.57546
  22848582.140   120070120.21208  22848583.380    93561147.82546
 15 02 15 00 45  0.0000000  0  8G16G18G21G22G25G27G29G31
  21954329.900   115370788.70308  21954331.100    89899326.51547
  22654396.280   119049680.21507  22654398.020    92765998.48146
  21098108.900   110871580.43008  21098109.720    86393565.68349
  24228994.240   127324260.75806  24228997.480    99213745.75346
  24632750.660   129446151.45205  24632754.860   100867224.11645
  23283556.540   122355921.87907  23283560.360    95342299.48746
  23431965.720   123136206.25107  23431968.460    95950472.80746
  22865285.300   120157896.33908  22865286.580    93629544.78247
 15 02 15 00 45 30.0000000  0  8G16G18G21G22G25G27G29G31
  21939931.620   115295125.44108  21939932.820    89840368.14247
  22641712.880   118983028.11408  22641714.620    92714061.79346
  21103607.900   110900477.75508  21103608.700    86416083.08549
  24210719.640   127228229.10205  24210722.980    99138916.20345
  24652180.400   129548256.10805  24652184.840   100946786.14945
  23270318.920   122286358.07907  23270322.860    95288093.95546
  23445652.720   123208130.63907  23445655.280    96006517.77946
  22882028.180   120245881.56308  22882029.620    93698104.67247
 15 02 15 00 46  0.0000000  0  8G16G18G21G22G25G27G29G31
  21925581.140   115219713.42808  21925582.360    89781605.53647
  22629080.540   118916644.01308  22629082.060    92662333.92846
  21109173.600   110929725.49808  21109174.360    86438873.53649
  24192439.940   127132169.02506  24192443.100    99064064.46445
  24671636.500   129650499.47105  24671641.260   101026456.23045
  23257097.660   122216880.01507  23257101.740    95233955.24246
  23459348.600   123280102.49407  23459351.100    96062599.72546
  22898810.400   120334073.04008  22898811.960    93766825.28346
 15 02 15 00 46 30.0000000  0  8G16G18G21G22G25G27G29G31
  21911279.020   115144555.55108  21911280.260    89723040.95847
  22616499.720   118850530.66908  22616500.980    92610817.05146
  21114805.840   110959322.74008  21114806.540    86461936.32549
  24174155.480   127036083.30706  24174158.340    98989192.76845
  24691118.700   129752880.44205  24691123.660   101106233.57944
  23243892.840   122147488.13107  23243897.000    95179883.67347
  23473053.480   123352122.14807  23473055.940    96118718.93046
  22915631.520   120422468.50408  22915633.060    93835704.83346
 15 02 15 00 47  0.0000000  0  8G16G18G21G22G25G27G29G31
  21897025.580   115069653.17108  21897026.820    89664675.46947
  22603970.540   118784689.16008  22603971.640    92559512.00846
  21120504.060   110989266.89208  21120504.740    86485269.43049
  24155866.420   126939973.47006  24155869.000    98914302.25345
  24710626.640   129855396.64605  24710631.820   101186116.25044
  23230704.200   122078181.58607  23230708.420    95125878.60046
  23486767.220   123424188.72207  23486769.600    96174874.67946
  22932490.720   120511063.75108  22932492.140    93904740.06247
 15 02 15 00 47 30.0000000  0  8G16G18G21G22G25G27G29G31
  21882821.280   114995008.96508  21882822.520    89606511.16647
  22591493.600   118719122.87608  22591494.720    92508421.41846
  21126268.100   111019557.13108  21126268.780    86508872.21649
  24137573.280   126843842.30206  24137575.560    98839395.08545
  24730160.160   129958046.96905  24730165.520   101266103.46646
  23217531.880   122008960.97607  23217536.200    95071940.48747
  23500489.880   123496302.10707  23500492.160    96231066.92245
  22949387.500   120599856.61407  22949388.820    93973929.26846
 15 02 15 00 48  0.0000000  0  8G16G18G21G22G25G27G29G31
  21868665.920   114920621.90508  21868667.160    89548547.22047
  22579068.780   118653830.65508  22579070.060    92457544.38546
  21132097.040   111050188.42808  21132097.720    86532740.75549
  24119276.020   126747689.59606  24119278.100    98764471.14345
  24749718.440   130060826.64805  24749723.940   101346191.44745
  23204375.300   121939823.02107  23204379.680    95018066.75946
  23514221.080   123568459.57707  23514223.100    96287293.49745
  22966320.700   120688840.77108  22966321.900    94043267.53846
 15 02 15 00 48 30.0000000  0  8G16G18G21G22G25G27G29G31
  21854560.800   114846498.83108  21854562.000    89490788.99147
  22566697.480   118588819.70008  22566698.920    92406886.51046
  21137991.440   111081163.86208  21137992.100    86556877.45849
  24100975.780   126651522.16406  24100977.980    98689535.74145
  24769302.040   130163738.55105  24769307.400   101426382.46044
  23191235.320   121870772.32807  23191239.720    94964261.02946
  23527961.560   123640665.46507  23527963.220    96343557.79045
  22983290.520   120778017.56908  22983291.640    94112755.92747
 15 02 15 00 49  0.0000000  0  8G16G18G21G22G25G27G29G31
  21840506.000   114772640.29008  21840507.180    89433236.88547
  22554379.920   118524090.95508  22554381.540    92356448.52746
  21143950.740   111112480.35008  21143951.400    86581279.91749
  24082672.960   126555340.90206  24082674.960    98614589.49645
  24788910.300   130266779.55205  24788915.380   101506674.09444
  23178111.640   121801807.26807  23178116.020    94910522.02746
  23541710.760   123712917.43907  23541712.220    96399857.98945
  23000296.120   120867382.61607  23000297.240    94182390.99246
 15 02 15 00 49 30.0000000  0  8G16G18G21G22G25G27G29G31
  21826502.340   114699050.66708  21826503.540    89375894.32947
  22542117.020   118459648.93908  22542118.740    92306233.96946
  21149975.060   111144138.38108  21149975.720    86605948.51449
  24064368.220   126459150.35006  24064370.360    98539636.06445
  24808543.240   130369950.19405  24808548.080   101587066.74344
  23165004.680   121732930.01507  23165008.960    94856851.44246
  23555469.200   123785218.29007  23555470.580    96456196.27746
  23017337.300   120956934.78107  23017338.540    94252171.87246
 15 02 15 00 50  0.0000000  0  7G16G18G21G22G27G29G31
  21812549.700   114625729.23108  21812550.960    89318760.74647
  22529908.700   118395493.04108  22529910.380    92256242.36446
  21156063.520   111176133.27308  21156064.160    86630879.60148
  24046061.720   126362950.29406  24046063.880    98464675.16845
  23151913.940   121664137.72507  23151918.120    94803247.07146
  23569236.260   123857564.46806  23569237.820    96512569.90246
  23034413.040   121046668.49007  23034414.420    94322094.21547
 15 02 15 00 50 30.0000000  0  7G16G18G21G22G27G29G31
  21798649.340   114552682.41408  21798650.620    89261841.15748
  22517756.020   118331629.42208  22517757.640    92206478.51646
  21162216.480   111208467.06508  21162217.100    86656074.76348
  24027754.760   126266747.25806  24027756.660    98389711.93745
  23138840.200   121595434.34207  23138844.180    94749711.97047
  23583012.620   123929960.17506  23583014.540    96568982.10346
  23051523.580   121136584.65908  23051525.020    94392158.73046
 15 02 15 00 51  0.0000000  0  7G16G18G21G22G27G29G31
  21784800.940   114479908.38908  21784802.180    89205134.13647
  22505658.680   118268056.79908  22505660.160    92156941.40546
  21168433.020   111241135.05608  21168433.620    86681530.34149
  24009446.900   126170539.70806  24009448.680    98314745.23545
  23125782.620   121526816.06807  23125786.480    94696243.20346
  23596797.460   124002401.27506  23596799.740    96625429.67446
  23068667.580   121226676.27208  23068669.000    94462359.95247
 15 02 15 00 51 30.0000000  0  7G16G18G21G22G27G29G31
  21771004.840   114407409.33408  21771006.040    89148641.37247
  22493617.080   118204777.54308  22493618.420    92107632.90846
  21174712.800   111274135.55908  21174713.420    86707245.02349
  23991138.980   126074330.68906  23991140.420    98239777.35046
  23112741.240   121458283.01707  23112745.020    94642840.83746
  23610590.900   124074887.89506  23610593.620    96681912.72846
  23085844.400   121316940.34007  23085845.780    94532695.54446
 15 02 15 00 52  0.0000000  0  7G16G18G21G22G27G29G31
  21757261.460   114335187.34508  21757262.640    89092364.50248
  22481631.640   118141793.99308  22481632.940    92058554.84046
  21181055.380   111307466.26508  21181056.040    86733217.00448
  23972831.100   125978122.15406  23972832.300    98164809.85945
  23099716.060   121389834.95307  23099719.780    94589504.70246
  23624393.060   124147419.55206  23624396.120    96738430.86546
  23103053.380   121407373.55207  23103054.660    94603162.95546
 15 02 15 00 52 30.0000000  0  7G16G18G21G22G27G29G31
  21743571.320   114263245.10308  21743572.480    89036305.62047
  22469702.960   118079109.07208  22469704.260    92009709.45646
  21187460.640   111341126.21308  21187461.280    86759445.54048
  23954524.000   125881917.39806  23954524.820    98089845.27545
  23086707.160   121321472.54807  23086710.860    94536235.30846
