     2.11           OBSERVATION DATA    G                   RINEX VERSION / TYPE
SPIDER V4,0,0,3554                      2015 03 13 01:04    PGM / RUN BY / DATE 
CKHR                                                        MARKER NAME         
CKHR                                                        MARKER NUMBER       
                                                            OBSERVER / AGENCY   
496547              LEICA GRX1200+GNSS  8.10/4.007          REC # / TYPE / VERS 
10301042            LEIAR25         NONE                    ANT # / TYPE        
  5141838.0877   498328.5776  3730203.3049                  APPROX POSITION XYZ 
        0.0720        0.0000        0.0000                  ANTENNA: DELTA H/E/N
     1     1                                                WAVELENGTH FACT L1/2
     4    C1    L1    P2    L2                              # / TYPES OF OBSERV 
    30.000                                                  INTERVAL            
  2015    02    15    07    04   30.0000000     GPS         TIME OF FIRST OBS   
  2015    02    15    23    59   30.0000000     GPS         TIME OF LAST OBS    
    16                                                      LEAP SECONDS        
    29                                                      # OF SATELLITES     
   G 1   361   361   361   361                              PRN / # OF OBS      
   G 2   939   939   939   939                              PRN / # OF OBS      
   G 3   509   509   509   509                              PRN / # OF OBS      
   G 4   226   226   226   226                              PRN / # OF OBS      
   G 5   649   649   649   649                              PRN / # OF OBS      
   G 6   816   816   815   815                              PRN / # OF OBS      
   G 7   665   665   665   665                              PRN / # OF OBS      
   G 9   773   773   773   773                              PRN / # OF OBS      
   G10   762   762   762   762                              PRN / # OF OBS      
   G11   262   262   262   262                              PRN / # OF OBS      
   G12   825   824   824   824                              PRN / # OF OBS      
   G13   793   793   792   792                              PRN / # OF OBS      
   G14   506   506   506   506                              PRN / # OF OBS      
   G15   684   684   684   684                              PRN / # OF OBS      
   G16    82    82    82    82                              PRN / # OF OBS      
   G17   827   827   827   827                              PRN / # OF OBS      
   G18   376   376   375   375                              PRN / # OF OBS      
   G19    38    38    38    38                              PRN / # OF OBS      
   G20   803   803   803   803                              PRN / # OF OBS      
   G21   311   310   310   310                              PRN / # OF OBS      
   G23   612   612   612   612                              PRN / # OF OBS      
   G24   826   826   825   825                              PRN / # OF OBS      
   G25   763   763   762   762                              PRN / # OF OBS      
   G27    25    25    25    25                              PRN / # OF OBS      
   G28   614   614   614   614                              PRN / # OF OBS      
   G29   596   596   596   596                              PRN / # OF OBS      
   G30   710   710   710   710                              PRN / # OF OBS      
   G31   618   617   617   617                              PRN / # OF OBS      
   G32   253   253   253   253                              PRN / # OF OBS      
BIT 2 OF LLI FLAGS DATA COLLECTED UNDER A/S CONDITION       COMMENT             
SNR is mapped to RINEX snr flag value [2-9]                 COMMENT             
Lx:     = 25dBHz -> 1; 26-27dBHz -> 2; 28-31dBHz -> 3       COMMENT             
       32-35dBHz -> 4; 36-38dBHz -> 5; 39-41dBHz -> 6       COMMENT             
       42-44dBHz -> 7; 45-48dBHz -> 8; >=49dBHz -> 9        COMMENT             
                                                            END OF HEADER       
 15 02 15 07 04 30.0000000  0 11G01G03G04G11G14G17G19G23G28G31G32
  20422173.420   107319245.19209  20422174.180    83625388.63049
  20647845.080   108505158.52909  20647845.440    84549474.80549
  21005835.700   110386410.88609  21005834.000    86015378.35848
  20378834.320   107091497.21809  20378831.480    83447907.87148
  24635131.500   129458491.06407  24635132.680   100876748.39546
  23557803.660   123797092.39208  23557801.960    96465259.77047
  23781422.960   124972221.51308  23781419.960    97380938.73147
  22747733.220   119540143.52609  22747729.640    93148149.22847
  24391151.480   128176363.73508  24391149.020    99877676.52944
  24374891.300   128090921.43808  24374891.620    99811108.45744
  21128545.120   111031254.36009  21128543.880    86517854.17048
 15 02 15 07 05  0.0000000  0 11G01G03G04G11G14G17G19G23G28G31G32
  20420388.960   107309868.04609  20420389.760    83618081.72449
  20644034.220   108485132.56909  20644034.660    84533870.13649
  21014789.140   110433461.48909  21014787.360    86052041.10848
  20385898.380   107128618.91909  20385895.480    83476833.81948
  24652500.700   129549767.40407  24652502.000   100947872.62545
  23541530.680   123711577.15508  23541528.860    96398624.49447
  23801777.420   125079185.05609  23801774.500    97464286.81647
  22729824.160   119446030.56809  22729820.580    93074814.44747
  24399504.320   128220259.20908  24399502.080    99911880.69244
  24366245.500   128045487.03908  24366245.700    99775705.03045
  21140000.640   111091453.38709  21139999.440    86564762.45248
 15 02 15 07 05 30.0000000  0 11G01G03G04G11G14G17G19G23G28G31G32
  20418668.480   107300827.15709  20418669.400    83611036.84149
  20640284.780   108465429.75609  20640285.300    84518517.26249
  21023807.300   110480852.29209  21023805.560    86088968.92648
  20393054.160   107166222.61109  20393051.200    83506135.34648
  24669918.960   129641300.44208  24669920.080   101019196.90645
  23525321.700   123626398.31109  23525319.820    96332251.33647
  23822161.100   125186302.22509  23822158.440    97547754.62747
  22711963.580   119352172.80209  22711960.060    93001678.52147
  24407918.540   128264477.16608  24407917.460    99946336.13545
  24357671.280   128000427.78308  24357671.060    99740594.02345
  21151500.640   111151885.87209  21151499.360    86611852.64148
 15 02 15 07 06  0.0000000  0 11G01G03G04G11G14G17G19G23G28G31G32
  20417007.420   107292098.43809  20417008.440    83604235.19449
  20636591.960   108446024.28709  20636592.540    84503396.08149
  21032885.420   110528558.36809  21032883.800    86126142.42348
  20400296.660   107204282.11609  20400293.700    83535792.04348
  24687381.100   129733062.72308  24687381.780   101090699.83744
  23509172.480   123541533.41709  23509170.420    96266122.81447
  23842568.780   125293545.62308  23842566.480    97631320.80447
  22694147.140   119258547.34009  22694143.700    92928723.59747
  24416389.100   128308989.89708  24416387.720    99981021.30445
  24349164.180   127955720.83108  24349163.780    99705757.56545
  21163039.920   111212524.73209  21163038.580    86659103.63148
 15 02 15 07 06 30.0000000  0 11G01G03G04G11G14G17G19G23G28G31G32
  20415406.440   107283685.08709  20415407.480    83597679.28949
  20632956.040   108426917.61209  20632956.660    84488507.72349
  21042023.800   110576581.79609  21042022.400    86163563.20648
  20407626.220   107242799.37409  20407623.340    83565805.42848
  24704886.900   129825054.07108  24704887.100   101162381.28644
  23493083.880   123456987.07208  23493081.680    96200242.51147
  23863000.460   125400915.19108  23862998.500    97714985.28847
  22676375.780   119165158.74409  22676372.420    92855953.24447
  24424916.020   128353796.95107  24424914.300   100015935.82045
  24340724.780   127911371.10108  24340724.220    99671199.31345
  21174618.500   111273370.38109  21174617.160    86706515.75248
 15 02 15 07 07  0.0000000  0 11G01G03G04G11G14G17G19G23G28G31G32
  20413866.200   107275590.90009  20413867.220    83591372.08849
  20629377.360   108408111.76009  20629378.040    84473853.78749
  21051222.960   110624924.92009  21051221.840    86201233.09948
  20415043.400   107281776.93609  20415040.580    83596177.49748
  24722436.260   129917274.63907  24722435.660   101234241.41043
  23477056.900   123372764.59209  23477054.720    96134614.56347
  23883456.220   125508411.29308  23883454.500    97798748.36647
  22658650.380   119072011.83509  22658647.160    92783371.23147
  24433498.860   128398898.49308  24433497.260   100051079.76045
  24332354.120   127867383.80608  24332353.880    99636923.48845
  21186236.580   111334423.66409  21186235.280    86754089.67148
 15 02 15 07 07 30.0000000  0 11G01G03G04G11G14G17G19G23G28G31G32
  20412386.260   107267813.77909  20412387.320    83585311.94449
  20625855.260   108389602.98109  20625855.980    84459431.31649
  21060482.420   110673584.70409  21060481.560    86239149.73048
  20422547.580   107321211.59209  20422544.800    83626905.73348
  24740027.900   130009718.59307  24740027.140   101306275.53243
  23461091.440   123288865.30008  23461089.260    96069238.45247
  23903935.020   125616028.20508  23903933.300    97882605.57946
  22640970.960   118979105.94509  22640967.720    92710977.01247
  24442136.380   128444289.14808  24442134.520   100086448.96045
  24324052.140   127823758.35608  24324052.660    99602929.74645
  21197893.300   111395679.71109  21197891.940    86801821.56748
 15 02 15 07 08  0.0000000  0 11G01G03G04G11G14G17G19G23G28G31G32
  20410966.780   107260354.57909  20410967.860    83579499.53149
  20622389.560   108371390.33709  20622390.240    84445239.61749
  21069802.180   110722560.99309  21069801.480    86277313.00248
  20430138.500   107361102.23509  20430135.720    83657989.28548
  24757661.620   130102383.36308  24757661.020   101378481.66144
  23445187.980   123205291.84009  23445185.900    96004116.24847
  23924436.440   125723763.64708  23924434.620    97966555.15147
  22623337.760   118886442.76409  22623334.460    92638771.92247
  24450828.360   128489965.70906  24450827.540   100122041.02646
  24315819.720   127780497.19909  24315820.340    99569219.71045
  21209588.160   111457136.42809  21209586.800    86849709.84348
 15 02 15 07 08 30.0000000  0 11G01G03G04G11G14G17G19G23G28G31G32
  20409607.940   107253214.21609  20409609.060    83573935.57549
  20618980.060   108353473.01009  20618980.660    84431278.03249
  21079182.100   110771853.19209  21079181.520    86315722.43848
  20437816.100   107401448.40309  20437813.300    83689427.79448
  24775336.780   130195266.19908  24775336.340   101450857.75945
  23429346.880   123122046.40009  23429344.900    95939249.62647
  23944959.980   125831614.89508  23944958.060    98050594.96047
  22605751.220   118794024.54109  22605747.740    92566757.70847
  24459574.720   128535925.96507  24459572.760   100157854.20945
  24307657.260   127737602.54908  24307657.780    99535795.37945
  21221320.840   111518792.02509  21221319.480    86897753.08548
 15 02 15 07 09  0.0000000  0 11G01G03G04G11G14G17G19G23G28G31G32
  20408310.960   107246398.59709  20408312.140    83568624.65749
  20615627.580   108335855.19309  20615628.120    84417549.82149
  21088623.240   110821466.27309  21088622.620    86354381.90648
  20445581.260   107442254.76009  20445578.480    83721224.89048
  24793054.000   130288369.75508  24793053.520   101523405.80445
  23413569.480   123039135.91409  23413567.580    95874644.02247
  23965506.080   125939584.59408  23965503.820    98134727.06746
  22588212.640   118701858.34009  22588209.040    92494939.86747
  24468375.220   128582172.46108  24468373.600   100193890.20644
  24299565.760   127695081.79708  24299566.160    99502662.45145
  21233091.920   111580649.41809  21233090.600    86945953.56148
 15 02 15 07 09 30.0000000  0 11G01G03G04G11G14G17G19G23G28G31G32
  20407075.020   107239903.22409  20407076.200    83563563.26549
  20612330.880   108318530.64209  20612331.420    84404050.14249
  21098124.460   110871394.62009  21098123.700    86393287.03448
  20453432.800   107483515.09409  20453430.100    83753375.73248
  24810811.500   130381685.56107  24810811.180   101596119.25145
  23397855.280   122956557.58508  23397853.440    95810297.21647
  23986073.180   126047664.61408  23986070.780    98218945.12647
  22570721.380   118609940.86409  22570717.700    92423315.83947
  24477228.420   128628696.29607  24477226.020   100230142.48445
  24291544.860   127652932.00408  24291545.100    99469818.50745
  21244900.040   111642701.33909  21244898.720    86994305.61948
 15 02 15 07 10  0.0000000  0 11G01G03G04G11G14G17G19G23G28G31G32
  20405900.900   107233732.48809  20405902.000    83558754.85049
  20609090.460   108301502.00209  20609091.000    84390781.03049
  21107686.260   110921641.19909  21107685.360    86432440.14248
  20461371.280   107525232.33009  20461368.700    83785882.60148
  24828609.460   130475214.91606  24828609.620   101668998.99644
  23382205.500   122874317.71509  23382203.780    95746214.17247
  24006661.440   126155855.89108  24006658.900    98303249.89246
  22553278.400   118518277.37309  22553274.740    92351889.71947
  24486134.820   128675498.46707  24486132.800   100266611.60944
  24283595.620   127611158.76507  24283595.760    99437267.93245
  21256745.480   111704949.31309  21256744.160    87042810.45848
 15 02 15 07 10 30.0000000  0 11G01G03G04G11G14G17G19G23G28G31G32
  20404788.780   107227887.73509  20404789.780    83554200.44449
  20605906.280   108284768.88609  20605906.760    84377742.20249
  21117308.700   110972206.45609  21117307.620    86471841.56448
  20469396.740   107567406.30709  20469394.200    83818745.37748
  24846447.560   130568955.36606  24846447.860   101742043.25744
  23366620.700   122792418.93008  23366618.980    95682396.88447
  24027270.420   126264156.49408  24027267.780    98387639.83346
  22535884.260   118426870.63709  22535880.620    92280663.66947
  24495093.640   128722576.85308  24495091.760   100303295.98644
  24275718.360   127569764.86708  24275718.980    99405013.01646
  21268627.920   111767392.00409  21268626.620    87091467.01648
 15 02 15 07 11  0.0000000  0 11G01G03G04G11G14G17G19G23G28G31G32
  20403738.960   107222370.55209  20403739.880    83549901.29849
  20602778.360   108268331.16409  20602778.800    84364933.56149
  21126991.860   111023090.85409  21126990.700    86511491.68748
  20477509.160   107610037.10709  20477506.620    83851964.12748
  24864325.580   130662904.94207  24864326.220   101815250.60244
  23351101.360   122710864.17409  23351099.500    95618847.68547
  24047899.740   126372564.59408  24047897.340    98472113.55046
  22518539.400   118335723.10009  22518535.900    92209639.59447
  24504104.440   128769929.58608  24504102.520   100340194.09344
  24267914.160   127528753.23208  24267914.880    99373055.95146
  21280547.200   111830028.11709  21280545.920    87140274.31448
 15 02 15 07 11 30.0000000  0 10G01G03G04G11G17G19G23G28G31G32
  20402749.760   107217172.38909  20402750.720    83545850.72849
  20599704.720   108252178.54909  20599705.080    84352347.06349
  21136733.800   111074284.48409  21136732.620    86551382.76248
  20485706.640   107653114.56409  20485704.060    83885530.91348
  23335646.100   122629645.83509  23335644.020    95555560.61447
  24068547.220   126481068.18808  24068545.140    98556661.68747
  22501242.460   118244827.71309  22501239.100    92138811.99747
  24513165.120   128817544.21708  24513163.260   100377296.34544
  24260181.300   127488116.76008  24260181.800    99341391.18445
  21292501.120   111892846.29809  21292499.880    87189223.47448
 15 02 15 07 12  0.0000000  0 10G01G03G04G11G17G19G23G28G31G32
  20401824.700   107212311.20609  20401825.680    83542062.75449
  20596688.360   108236327.23609  20596688.660    84339995.36849
  21146537.720   111125804.03509  21146536.540    86591527.81748
  20493992.300   107696655.26809  20493989.580    83919458.68748
  23320258.800   122548784.55309  23320256.680    95492551.78147
  24089215.700   126589681.85208  24089214.000    98641295.58847
  22483997.160   118154203.63109  22483993.960    92068195.82147
  24522278.520   128865435.42908  24522275.860   100414614.13644
  24252523.440   127447875.02308  24252523.920    99310033.98646
  21304492.620   111955861.77509  21304491.360    87238326.38248
 15 02 15 07 12 30.0000000  0 10G01G03G04G11G17G19G23G28G31G32
  20400960.860   107207771.65609  20400961.860    83538525.39349
  20593726.000   108220760.15509  20593726.360    84327865.13249
  21156400.380   111177633.08909  21156399.360    86631914.01148
  20502362.860   107740642.25309  20502360.080    83953734.19948
  23304936.600   122468265.64609  23304934.480    95429809.72347
  24109901.600   126698386.81408  24109900.160    98726000.62046
  22466800.740   118063836.29409  22466797.620    91997779.69347
  24531440.960   128913584.13708  24531438.960   100452132.44644
  24244938.040   127408013.79808  24244938.720    99278973.35146
  21316518.220   112019056.54609  21316516.960    87287568.99348
 15 02 15 07 13  0.0000000  0 10G01G03G04G11G17G19G23G28G31G32
  20400160.900   107203567.61209  20400161.860    83535249.46449
  20590820.040   108205489.47709  20590820.440    84315965.86349
  21166324.320   111229784.37909  21166323.460    86672551.30848
  20510820.720   107785087.94309  20510817.880    83988367.15548
  23289682.500   122388104.63908  23289680.380    95367346.55947
  24130606.920   126807193.52408  24130605.580    98810784.94546
  22449656.100   117973740.86509  22449653.000    91927575.44947
  24540654.320   128962000.46807  24540651.960   100489859.41444
  24237427.800   127368548.06908  24237428.620    99248220.79646
  21328580.040   112082441.54109  21328578.760    87336959.83248
 15 02 15 07 13 30.0000000  0 10G01G03G04G11G17G19G23G28G31G32
  20399423.640   107199693.07409  20399424.580    83532230.30549
  20587969.020   108190507.44709  20587969.500    84304291.52349
  21176308.260   111282250.73709  21176307.460    86713434.12148
  20519364.380   107829984.65309  20519361.540    84023351.55548
  23274495.560   122308297.13709  23274493.480    95305158.88047
  24151329.880   126916092.81208  24151328.640    98895641.42846
  22432562.400   117883912.29809  22432559.120    91857579.14047
  24549916.780   129010674.85108  24549915.060   100527787.33244
  24229992.160   127329473.62208  24229993.140    99217773.09746
  21340676.440   112146008.07409  21340675.080    87386492.14048
 15 02 15 07 14  0.0000000  0 10G01G03G04G11G17G19G23G28G31G32
  20398749.140   107196148.53709  20398750.060    83529468.27049
  20585172.640   108175812.81809  20585173.260    84292841.12449
  21186352.060   111335031.63009  21186351.340    86754562.02448
  20527993.600   107875331.36909  20527990.840    84058686.60148
  23259376.240   122228844.99809  23259374.240    95243248.06847
  24172069.840   127025081.52008  24172068.760    98980567.53546
  22415519.860   117794352.32909  22415516.400    91787792.12747
  24559227.940   129059603.78708  24559225.920   100565913.78044
  24222631.200   127290792.14408  24222632.640    99187631.75346
  21352806.940   112209753.94209  21352805.560    87436164.18648
 15 02 15 07 14 30.0000000  0 10G01G03G04G11G17G19G23G28G31G32
  20398138.760   107192941.06309  20398139.680    83526968.89749
  20582432.000   108161410.95409  20582432.640    84281618.85449
  21196456.820   111388132.51009  21196456.120    86795939.27448
  20536709.480   107921133.62709  20536706.820    84094376.62348
  23244326.180   122149756.48309  23244324.300    95181620.62947
  24192827.580   127134163.41608  24192826.320    99065566.29146
  22398529.880   117705069.29209  22398526.460    91718220.91347
  24568588.020   129108791.09708  24568586.000   100604241.47544
  24215346.860   127252512.32208  24215348.280    99157803.25045
  21364972.380   112273683.39109  21364970.940    87485979.28248
 15 02 15 07 15  0.0000000  0 10G01G03G04G11G17G19G23G28G31G32
  20397591.660   107190066.10209  20397592.580    83524728.61649
  20579745.900   108147295.55809  20579746.500    84270619.80748
  21206621.500   111441547.77509  21206620.760    86837561.50148
  20545510.820   107967384.99709  20545508.200    84130416.60548
  23229344.820   122071029.05409  23229343.040    95120274.56147
  24213601.580   127243330.46608  24213600.140    99150631.40946
  22381591.880   117616059.72409  22381588.540    91648862.80447
  24577995.780   129158228.67408  24577993.980   100642764.13944
  24208138.160   127214630.58408  24208139.360    99128284.95445
  21377171.320   112337789.11609  21377169.980    87535931.73448
 15 02 15 07 15 30.0000000  0 10G01G03G04G11G17G19G23G28G31G32
  20397108.040   107187524.79009  20397109.020    83522748.33049
  20577114.260   108133466.07309  20577114.800    84259843.54449
  21216846.140   111495277.51209  21216845.240    86879428.76948
  20554397.460   108014084.90209  20554394.880    84166806.09048
  23214432.720   121992665.02709  23214430.840    95059211.65847
  24234391.380   127352580.57508  24234389.860    99235761.22546
  22364706.320   117527325.85709  22364703.120    91579719.50847
  24587450.740   129207913.84908  24587448.700   100681479.72944
  24201005.760   127177149.27508  24201006.720    99099078.71846
  21389403.520   112402069.71909  21389402.280    87586020.45848
 15 02 15 07 16  0.0000000  0 10G01G03G04G11G17G19G23G28G31G32
  20396688.420   107185319.83309  20396689.460    83521030.13249
  20574537.280   108119923.43709  20574537.700    84249290.80449
  21227130.860   111549323.05909  21227129.800    86921542.11748
  20563369.660   108061234.57809  20563367.080    84203546.04448
  23199590.480   121914668.10909  23199588.520    94998434.79847
  24255196.800   127461912.91808  24255195.060    99320955.13146
  22347873.960   117438871.51309  22347870.900    91510794.02547
  24596952.640   129257845.35708  24596950.600   100720387.29544
  24193950.200   127140072.45308  24193951.380    99070187.65245
  21401668.980   112466525.06509  21401667.800    87636245.33548
 15 02 15 07 16 30.0000000  0 10G01G03G04G11G17G19G23G28G31G32
  20396333.540   107183455.12809  20396334.680    83519577.07549
  20572015.320   108106669.83609  20572015.620    84238963.28749
  21237476.140   111603687.15709  21237474.980    86963903.69148
  20572427.800   108108836.24009  20572425.380    84240638.19948
  23184819.180   121837044.37209  23184817.220    94937948.74947
  24276017.900   127571328.04308  24276015.880    99406213.55146
  22331095.740   117350701.89709  22331092.800    91442090.41847
  24606501.360   129308023.57608  24606499.200   100759487.13444
  24186972.460   127103405.43008  24186973.660    99041615.90545
  21413967.980   112531156.54709  21413966.820    87686607.46948
 15 02 15 07 17  0.0000000  0 10G01G03G04G09G11G17G19G23G31G32
  20396043.160   107181929.20009  20396044.320    83518387.99649
  20569547.700   108093702.09709  20569547.920    84228858.53249
  21247881.440   111658367.09909  21247880.300    87006511.37448
  24717263.060   129890095.37207  24717263.540   101213069.22244
  20581571.440   108156886.91809  20581569.160    84278080.24048
  23170118.840   121759793.85609  23170116.980    94877753.50447
  24296853.820   127680821.19708  24296851.680    99491532.74946
  22314371.620   117262816.30309  22314368.640    91373608.12747
  24180072.820   127067148.24508  24180074.200    99013363.49746
  21426299.720   112595959.89109  21426298.520    87737103.53148
 15 02 15 07 31 30.0000000  0 11G01G03G04G09G11G17G19G20G23G31G32
  20416458.900   107289215.22109  20416460.040    83601990.14149
  20520993.760   107838550.07809  20520994.280    84030041.06949
  21575520.200   113380123.10009  21575519.300    88348144.23248
  24099746.260   126645022.43108  24099748.280    98684440.60646
  20883228.260   109742105.42509  20883226.060    85513319.12448
  22776700.260   119692367.98109  22776698.800    93266772.87448
  24905501.900   130879293.87108  24905501.420   101983859.13445
  24538609.860   128951271.67208  24538608.000   100481504.53844
  21854615.140   114846775.92609  21854610.680    89490976.75548
  24015696.500   126203335.22608  24015696.040    98340258.87745
  21796743.460   114542657.04409  21796742.620    89254017.92148
 15 02 15 07 32  0.0000000  0 11G01G03G04G09G11G17G19G20G23G31G32
  20418187.860   107298301.27909  20418189.060    83609070.13149
  20520094.800   107833826.00309  20520095.300    84026359.93149
  21587704.540   113444152.26209  21587703.660    88398037.00648
  24078727.140   126534566.11808  24078728.820    98598370.73146
  20894866.300   109803263.94809  20894864.220    85560975.05548
  22764340.800   119627418.40109  22764339.280    93216162.76548
  24926575.840   130990038.18908  24926575.400   102070153.17646
  24522726.500   128867806.29306  24522725.560   100416466.45445
  21839693.860   114768364.25209  21839689.480    89429876.72348
  24011322.140   126180349.81608  24011322.200    98322348.16846
  21809917.800   114611888.25609  21809916.940    89307964.21948
 15 02 15 07 32 30.0000000  0 11G01G03G04G09G11G17G19G20G23G31G32
  20419988.580   107307764.30609  20419989.820    83616443.86549
  20519247.780   107829374.79609  20519248.260    84022891.41349
  21599948.880   113508496.71609  21599948.000    88448175.46848
  24057732.560   126424238.24608  24057734.180    98512400.91546
  20906586.500   109864854.55409  20906584.540    85608967.66548
  22752068.000   119562923.89809  22752066.380    93165907.24848
  24947652.680   131100797.32108  24947652.120   102156458.77946
  24506863.020   128784443.17507  24506862.300   100351508.11045
  21824840.160   114690307.93909  21824835.900    89369053.59948
  24007039.560   126157845.87808  24007039.880    98304812.60946
  21823117.600   114681253.27309  21823116.640    89362014.78448
 15 02 15 07 33  0.0000000  0 11G01G03G04G09G11G17G19G20G23G31G32
  20421858.360   107317590.13409  20421859.620    83624100.30149
  20518449.700   107825180.69709  20518450.140    84019623.24349
  21612250.300   113573141.14109  21612249.440    88498547.67148
  24036760.020   126314026.10008  24036761.600    98426521.31946
  20918385.900   109926861.00109  20918383.900    85657284.32348
  22739879.160   119498871.40009  22739877.620    93115996.17948
  24968729.000   131211554.17708  24968728.440   102242762.57946
  24491016.100   128701167.18707  24491015.540   100286617.66145
  21810051.500   114612593.78609  21810047.400    89308497.10048
  24002846.300   126135810.17208  24002846.960    98287641.96046
  21836339.720   114750735.71209  21836338.700    89416156.84848
 15 02 15 07 33 30.0000000  0 11G01G03G04G09G11G17G19G20G23G31G32
  20423798.240   107327784.43009  20423799.540    83632043.85149
  20517701.300   107821247.86809  20517701.760    84016558.65849
  21624609.660   113638090.03209  21624608.840    88549157.11748
  24015810.740   126203936.83508  24015812.440    98340737.48146
  20930265.120   109989286.93609  20930263.060    85705927.84048
  22727775.700   119435267.68509  22727774.200    93066434.79348
  24989805.480   131322311.26008  24989804.660   102329066.59245
  24475186.760   128617983.18908  24475185.880   100221798.92644
  21795329.220   114535228.40209  21795325.300    89248212.36348
  23998743.560   126114249.25008  23998744.200    98270841.22546
  21849584.900   114820339.15409  21849583.860    89470393.20248
 15 02 15 07 34  0.0000000  0 11G01G03G04G09G11G17G19G20G23G31G32
  20425808.160   107338346.84109  20425809.500    83640274.25449
  20517002.240   107817574.39309  20517002.740    84013696.16949
  21637026.560   113703341.53209  21637025.880    88600002.35548
  23994885.040   126093971.55808  23994886.600    98255050.25646
  20942223.880   110052130.26009  20942221.720    85754896.60748
  22715757.960   119372114.16209  22715756.480    93017224.21448
  25010881.400   131433064.95308  25010880.320   102415367.96845
  24459374.920   128534890.99108  24459374.000   100157051.66944
  21780673.460   114458212.32909  21780669.680    89188199.82448
  23994731.120   126093163.69908  23994731.880    98254410.94246
  21862852.540   114890061.01709  21862851.540    89524721.82848
 15 02 15 07 34 30.0000000  0 11G01G03G04G09G11G17G19G20G23G31G32
  20427887.680   107349275.05509  20427889.080    83648789.69049
  20516351.780   107814156.40809  20516352.340    84011032.75549
  21649500.380   113768892.30809  21649499.820    88651080.79048
  23973982.840   125984129.36108  23973984.200    98169458.89546
  20954261.280   110115386.65409  20954259.060    85804187.23848
  22703825.820   119309410.07209  22703824.300    92968363.83848
  25031955.740   131543809.92008  25031954.340   102501662.58245
  24443579.940   128451887.09408  24443579.140   100092373.26444
  21766084.080   114381544.36209  21766080.280    89128458.53748
  23990808.880   126072551.97608  23990809.300    98238349.86945
  21876141.860   114959896.74209  21876140.840    89579139.19448
 15 02 15 07 35  0.0000000  0 11G01G03G04G09G11G17G19G20G23G31G32
  20430038.620   107360578.21309  20430040.020    83657597.29549
  20515751.440   107811001.56009  20515752.020    84008574.38549
  21662032.620   113834750.16009  21662032.140    88702398.50248
  23953106.180   125874420.96908  23953107.240    98083971.78646
  20966378.640   110179063.53209  20966376.460    85853805.52148
  22691981.160   119247165.45109  22691979.560    92919861.49348
  25053029.480   131654552.22808  25053027.820   102587955.07445
  24427803.400   128368980.17307  24427802.240   100027770.35044
  21751562.940   114305234.53409  21751559.060    89068996.31548
  23986978.740   126052424.03108  23986979.120    98222665.78746
  21889454.120   115029853.39509  21889453.160    89633650.78248
 15 02 15 07 35 30.0000000  0 11G01G03G04G09G11G17G19G20G23G31G32
  20432259.920   107372251.17609  20432261.380    83666693.05949
  20515199.940   107808103.17409  20515200.460    84006315.84749
  21674622.120   113900908.61309  21674621.680    88753950.44948
  23932254.120   125764842.54108  23932255.240    97998585.97846
  20978574.620   110243153.52709  20978572.480    85903745.70948
  22680223.280   119185376.86809  22680221.620    92871714.50348
  25074101.020   131765283.62908  25074099.540   102674239.03945
  24412044.120   128286164.63407  24412042.780    99963238.66745
  21737109.180   114229278.93709  21737105.160    89009810.11948
  23983239.720   126032775.59808  23983239.960    98207355.33445
  21902788.080   115099923.64109  21902787.180    89688250.89648
 15 02 15 07 36  0.0000000  0 11G01G03G04G09G11G17G19G20G23G31G32
  20434552.360   107384297.84609  20434553.820    83676080.03849
  20514697.700   107805463.67309  20514698.160    84004259.05149
  21687269.380   113967370.23909  21687268.940    88805738.65448
  23911427.740   125655399.60908  23911429.240    97913305.76346
  20990849.660   110307658.71409  20990847.440    85954009.44048
  22668553.120   119124049.49209  22668551.380    92823926.91048
  25095170.780   131876005.07108  25095169.760   102760515.27945
  24396302.960   128203443.93907  24396301.560    99898780.87844
  21722723.720   114153682.56609  21722719.620    88950903.85848
  23979592.720   126013611.44308  23979593.180    98192422.24246
  21916144.000   115170109.32009  21916143.280    89742940.96948
 15 02 15 07 36 30.0000000  0 11G01G03G04G09G11G17G19G20G23G31G32
  20436916.120   107396719.38909  20436917.580    83685759.12149
  20514244.600   107803082.71109  20514245.080    84002403.70349
  21699974.420   114034135.10809  21699973.960    88857763.14548
  23890627.620   125546094.79008  23890629.440    97828133.16847
  21003203.580   110372578.31109  21003201.220    86004596.07748
  22656971.160   119063185.81609  22656969.360    92776500.63148
  25116238.240   131986714.28808  25116237.320   102846782.00145
  24380579.780   128120818.01806  24380578.680    99834396.99645
  21708406.820   114078447.23009  21708402.820    88892278.92148
  23976038.180   125994933.55708  23976038.980    98177868.04246
  21929521.700   115240409.46309  21929521.000    89797720.24548
 15 02 15 07 37  0.0000000  0 11G01G03G04G09G11G17G19G20G23G31G32
  20439350.560   107409512.32109  20439351.960    83695727.58849
  20513839.760   107800955.33309  20513840.260    84000745.95949
  21712736.280   114101198.45409  21712735.840    88910020.21648
  23869853.380   125436926.11008  23869855.440    97743066.63246
  21015635.320   110437907.10909  21015632.880    86055501.56748
  22645476.980   119002783.33009  22645475.080    92729433.69748
  25137302.260   132097405.10708  25137301.080   102933034.41145
  24364873.940   128038283.58907  24364873.140    99770084.38144
  21694158.080   114003570.32609  21694154.220    88833933.26548
  23972575.860   125976739.17108  23972576.720    98163690.58246
  21942920.100   115310818.45409  21942919.420    89852584.32248
 15 02 15 07 37 30.0000000  0 10G01G03G04G09G11G17G20G23G31G32
  20441857.420   107422685.56709  20441858.680    83705992.41149
  20513484.560   107799088.96809  20513485.120    83999291.59949
  21725556.360   114168567.76209  21725555.840    88962515.70048
  23849107.000   125327903.94108  23849109.120    97658114.27046
  21028146.040   110503651.76209  21028143.740    86106731.11548
  22634072.480   118942852.34309  22634070.560    92682734.21148
  24349187.120   127955848.76007  24349186.420    99705849.41045
  21679979.420   113929062.13209  21679975.800    88775874.93248
  23969207.600   125959038.07808  23969208.120    98149897.52046
  21956340.500   115381343.12909  21956339.860    89907538.55748
 15 02 15 07 38  0.0000000  0 10G01G03G04G09G11G17G20G23G31G32
  20444434.920   107436230.01409  20444436.060    83716546.48649
  20513177.060   107797473.03109  20513177.620    83998032.37949
  21738432.640   114236232.75409  21738432.040    89015241.59148
  23828387.060   125219020.69108  23828389.300    97573270.15546
  21040733.820   110569801.63909  21040731.660    86158276.42148
  22622756.140   118883385.24309  22622754.360    92636396.18248
  24333517.460   127873503.71007  24333516.780    99641684.37245
  21665869.360   113854914.39009  21665865.980    88718097.46148
  23965931.520   125941821.74408  23965931.860    98136482.19746
  21969780.860   115451972.34309  21969780.180    89962574.26148
 15 02 15 07 38 30.0000000  0 10G01G03G04G09G11G17G20G23G31G32
  20447084.880   107450155.27509  20447085.960    83727397.29749
  20512918.820   107796115.66909  20512919.300    83996974.64749
  21751366.700   114304201.72709  21751366.140    89068204.35348
  23807695.740   125110287.50108  23807698.100    97488542.97646
  21053400.180   110636364.06009  21053398.060    86210143.17748
  22611530.120   118824392.98709  22611528.560    92590428.17248
  24317866.640   127791257.81208  24317865.900    99577596.57544
  21651829.820   113781137.57909  21651826.760    88660609.03448
  23962749.520   125925100.63308  23962750.060    98123452.77646
  21983242.500   115522713.61809  21983241.740    90017697.27548
 15 02 15 07 39  0.0000000  0 10G01G03G04G09G11G17G20G23G31G32
  20449805.620   107464452.98109  20449806.820    83738538.33449
  20512707.920   107795007.11909  20512708.360    83996110.80949
  21764356.680   114372465.16409  21764356.240    89121396.57448
  23787031.760   125001697.52508  23787034.100    97403927.40146
  21066143.220   110703328.83509  21066141.060    86262323.46548
  22600393.140   118765868.26409  22600391.740    92544824.48248
  24302233.040   127709102.12207  24302232.440    99513579.08745
  21637859.420   113707724.28409  21637856.720    88603403.88548
  23959660.200   125908867.28208  23959661.120    98110803.41846
  21996723.460   115593556.58809  21996722.680    90072899.55548
 15 02 15 07 39 30.0000000  0 10G01G03G04G09G11G17G20G23G31G32
  20452599.180   107479133.42709  20452600.460    83749977.59449
  20512546.000   107794156.18909  20512546.480    83995447.69449
  21777404.380   114441031.85209  21777404.060    89174825.09948
  23766397.280   124893262.56908  23766399.500    97319432.60646
  21078964.420   110770704.27509  21078962.240    86314823.73948
  22589347.500   118707823.06509  22589346.180    92499594.41248
  24286618.480   127627046.31908  24286617.620    99449639.41344
  21623960.460   113634686.12009  21623957.920    88546491.02048
  23956665.840   125893132.60208  23956667.100    98098542.64147
  22010225.340   115664509.53109  22010224.620    90128187.50248
 15 02 15 07 40  0.0000000  0 10G01G03G04G09G11G17G20G23G31G32
  20455464.180   107494188.95109  20455465.400    83761709.14349
  20512431.320   107793553.77309  20512431.880    83994978.24649
  21790508.180   114509893.28009  21790508.020    89228483.30348
  23745791.280   124784976.52208  23745793.200    97235053.84646
  21091861.900   110838480.86109  21091859.760    86367636.62048
  22578391.860   118650250.69909  22578390.600    92454732.82248
  24271021.360   127545082.12008  24271020.180    99385771.13445
  21610131.700   113562016.22109  21610129.260    88489865.13148
  23953765.140   125877889.60208  23953766.660    98086664.97847
  22023746.280   115735562.79709  22023745.520    90183553.64348
 15 02 15 07 40 30.0000000  0 10G01G03G04G09G11G17G20G23G31G32
  20458401.660   107509625.45809  20458402.860    83773737.54249
  20512364.840   107793204.39709  20512365.420    83994705.96649
  21803669.000   114579053.68809  21803668.880    89282374.46848
  23725215.080   124676846.78408  23725216.660    97150796.86046
  21104836.400   110906662.29309  21104834.280    86420764.95148
  22567527.600   118593158.21509  22567526.240    92410245.12748
  24255442.660   127463215.04406  24255441.280    99321978.52645
  21596374.480   113489721.46309  21596371.940    88433531.54348
  23950959.260   125863144.92608  23950960.960    98075175.63947
  22037286.980   115806720.32309  22037286.360    90239001.00048
 15 02 15 07 41  0.0000000  0 10G01G03G04G09G11G17G20G23G31G32
  20461411.580   107525442.66509  20461412.800    83786062.59249
  20512346.160   107793106.34609  20512346.780    83994629.53649
  21816886.580   114648511.74909  21816886.340    89336497.57748
  23704668.760   124568874.64708  23704670.160    97066662.71147
  21117887.580   110975246.52009  21117885.440    86474207.14548
  22556754.900   118536546.79509  22556753.420    92366132.30348
  24239882.220   127381444.13608  24239880.640    99258260.91644
  21582688.840   113417802.20309  21582686.060    88377490.55448
  23948248.140   125848898.98808  23948249.900    98064074.88146
  22050847.300   115877979.93609  22050846.560    90294527.91848
 15 02 15 07 41 30.0000000  0 10G01G03G04G09G11G17G20G23G31G32
  20464494.460   107541643.32509  20464495.700    83798686.44349
  20512375.560   107793260.99909  20512376.220    83994750.02049
  21830161.100   114718268.80009  21830160.740    89390853.66648
  23684153.040   124461064.37308  23684154.540    96982654.70746
  21131015.640   111044234.21109  21131013.440    86527963.73548
  22546074.540   118480420.57809  22546072.900    92322397.56648
  24224340.480   127299771.92808  24224339.000    99194620.17944
  21569075.400   113346262.48609  21569072.420    88321745.31948
  23945632.540   125835155.16008  23945634.200    98053365.39545
  22064427.240   115949342.33009  22064426.400    90350134.90948
 15 02 15 07 42  0.0000000  0 10G01G03G04G09G11G17G20G23G31G32
  20467649.880   107558225.21809  20467651.160    83811607.35749
  20512452.400   107793664.69909  20512453.100    83995064.57149
  21843491.900   114788321.59409  21843491.320    89445440.20648
  23663668.020   124353415.35008  23663669.540    96898772.32546
  21144219.600   111113621.20509  21144217.380    86582031.46248
  22535486.300   118424778.54709  22535484.500    92279040.10048
  24208817.080   127218195.37408  24208815.720    99131053.95445
  21555533.900   113275101.01109  21555530.780    88266294.82148
  23943112.060   125821911.87707  23943113.900    98043045.94946
  22078026.020   116020803.36809  22078025.100    90405818.78648
 15 02 15 07 42 30.0000000  0 10G01G03G04G09G11G17G20G23G31G32
  20470877.740   107575187.80009  20470879.040    83824824.90849
  20512576.280   107794315.55909  20512576.960    83995571.71049
  21856878.500   114858667.99509  21856877.840    89500255.52248
  23643214.000   124245928.60008  23643215.400    96815016.37646
  21157498.940   111183404.96809  21157496.800    86636408.36248
  22524990.300   118369621.65209  22524988.520    92236060.68248
  24193311.720   127136713.87608  24193310.540    99067561.81845
  21542064.360   113204318.09509  21542061.180    88211139.31348
  23940687.020   125809169.08607  23940688.660    98033116.52445
  22091643.000   116092360.70609  22091642.040    90461577.68247
 15 02 15 07 43  0.0000000  0 10G01G03G04G09G11G17G20G23G31G32
  20474178.420   107592532.83309  20474179.700    83838340.48149
  20512747.240   107795213.95509  20512747.940    83996271.75849
  21870321.060   114929308.64609  21870320.380    89555300.13448
  23622791.500   124138607.41508  23622792.900    96731389.47346
  21170853.760   111253585.36509  21170851.620    86691094.34548
  22514587.040   118314952.32009  22514585.320    92193461.19448
  24177824.700   127055328.44807  24177823.520    99004144.56945
  21528667.380   113133916.38309  21528664.100    88156280.84848
  23938357.820   125796929.45408  23938359.340    98023579.17546
  22105278.200   116164014.21509  22105277.240    90517411.54148
 15 02 15 07 43 30.0000000  0 10G01G03G04G09G11G17G20G23G31G32
  20477552.440   107610263.23909  20477553.700    83852156.35149
  20512965.600   107796361.44109  20512966.340    83997165.89049
  21883819.920   115000245.25109  21883819.260    89610575.35548
  23602401.100   124031456.25108  23602402.800    96647895.06846
  21184284.280   111324163.34709  21184282.120    86746090.12848
  22504277.340   118260774.94609  22504275.740    92151245.04248
  24162356.440   126974041.76507  24162355.200    98940804.24745
  21515343.800   113063899.80309  21515340.340    88101722.47848
  23936125.140   125785196.32608  23936126.480    98014436.49246
  22118931.860   116235764.79609  22118931.080    90573321.03148
 15 02 15 07 44  0.0000000  0 10G01G03G04G09G11G17G20G23G31G32
  20480999.420   107628376.94909  20481000.640    83866270.88949
  20513230.640   107797754.57509  20513231.440    83998251.43849
  21897374.360   115071474.58209  21897373.820    89666078.68048
  23582043.060   123924474.65908  23582044.920    96564532.78446
  21197789.720   111395134.82409  21197787.520    86801392.53348
  22494061.160   118207088.90509  22494059.640    92109411.73648
  24146906.260   126892850.92007  24146905.300    98877538.67045
  21502093.380   112994267.27309  21502089.720    88047463.37848
  23933988.840   125773968.56708  23933989.980    98005687.57346
  22132603.240   116307608.58209  22132602.460    90629303.15548
 15 02 15 07 44 30.0000000  0 10G01G03G04G09G11G17G20G23G31G32
  20484519.600   107646875.54909  20484520.760    83880685.34849
  20513542.500   107799393.66509  20513543.320    83999528.64949
  21910984.440   115142996.79209  21910984.060    89721810.20948
  23561718.080   123817665.87708  23561719.940    96481305.13747
  21211369.980   111466499.22009  21211367.760    86857001.10448
  22483939.000   118153896.74209  22483937.500    92067963.28748
  24131474.560   126811756.95208  24131473.700    98814348.57545
  21488916.480   112925021.36009  21488912.660    87993505.53048
  23931949.160   125763248.14708  23931949.940    97997334.00546
  22146292.380   116379545.47209  22146291.680    90685357.82348
 15 02 15 07 45  0.0000000  0 10G01G03G04G09G11G17G20G23G31G32
  20488113.680   107665762.45709  20488114.780    83895402.38849
  20513901.560   107801280.75409  20513902.380    84000999.10049
  21924650.720   115214814.13009  21924650.500    89777771.72248
  23541426.920   123711034.77508  23541428.880    96398215.97547
  21225025.280   111538257.98509  21225023.100    86912916.97648
  22473911.660   118101202.64909  22473910.140    92026902.95148
  24116062.060   126730763.57108  24116061.120    98751236.73945
  21475813.840   112856166.57809  21475810.040    87939852.46148
  23930006.640   125753039.00908  23930007.300    97989378.85946
  22159999.600   116451576.89209  22159998.860    90741486.14347
 15 02 15 07 45 30.0000000  0 10G01G03G04G09G11G17G20G23G31G32
  20491780.780   107685033.18709  20491781.900    83910418.49849
  20514306.740   107803410.04909  20514307.520    84002658.27349
  21938372.120   115286920.65509  21938371.940    89833958.56148
  23521169.040   123604578.58708  23521171.040    96315263.11647
  21238754.440   111610405.02109  21238752.280    86969135.40048
  22463978.740   118049004.55309  22463977.240    91986229.08948
  24100667.700   126649865.37708  24100666.520    98688199.09545
  21462784.680   112787699.03609  21462781.060    87886501.13448
  23928160.540   125743337.33308  23928161.260    97981819.12646
  22173723.600   116523696.62109  22173722.820    90797683.28547
 15 02 15 07 46  0.0000000  0 10G01G03G04G09G11G17G20G23G31G32
  20495521.560   107704691.10209  20495522.680    83925736.31049
  20514758.440   107805783.65409  20514759.200    84004507.82349
  21952149.100   115359318.70009  21952148.820    89890372.54748
  23500945.400   123498302.21108  23500947.240    96232450.35946
  21252557.680   111682941.60509  21252555.600    87025657.36348
  22454140.900   117997306.45209  22454139.480    91945944.83448
  24085291.980   126569065.39107  24085290.520    98625238.02944
  21449830.040   112719622.98909  21449826.580    87833454.86748
  23926411.640   125734147.01708  23926412.480    97974657.83546
  22187464.680   116595906.27909  22187463.800    90853950.48547
 15 02 15 07 46 30.0000000  0 10G01G03G04G09G11G17G20G23G31G32
  20499336.600   107724739.39409  20499337.760    83941358.32249
  20515257.020   107808403.41009  20515257.740    84006549.17549
  21965981.940   115432010.03509  21965981.560    89947015.10248
  23480756.900   123392210.47808  23480758.420    96149781.48246
  21266435.140   111755868.71209  21266433.220    87082483.62948
  22444398.940   117946112.26909  22444397.600    91906053.23348
  24069935.320   126488366.27908  24069933.880    98562355.59744
  21436950.860   112651942.84109  21436947.440    87780717.10048
  23924760.740   125725471.80708  23924761.460    97967897.92346
  22201223.140   116668207.27409  22201222.300    90910288.86447
 15 02 15 07 47  0.0000000  0 10G01G03G04G09G11G17G20G23G31G32
  20503225.080   107745173.46009  20503226.180    83957280.94049
  20515801.360   107811263.46909  20515802.000    84008777.77949
  21979869.540   115504989.10309  21979869.060    90003881.84148
  23460603.000   123286300.39308  23460604.240    96067254.15046
  21280385.680   111829179.86009  21280383.980    87139609.15548
  22434752.400   117895419.34609  22434751.080    91866552.24048
  24054597.040   126407762.82708  24054595.540    98499547.63445
  21424146.400   112584654.83609  21424143.000    87728284.90148
  23923207.240   125717307.81808  23923207.800    97961536.38346
  22214997.700   116740593.16709  22214997.000    90966693.38947
 15 02 15 07 47 30.0000000  0 10G01G03G04G09G11G17G20G23G31G32
  20507188.060   107765998.60109  20507189.040    83973508.28049
  20516392.220   107814367.85509  20516392.760    84011196.75948
  21993812.620   115578259.66309  21993812.040    90060975.72147
  23440484.900   123180578.85108  23440486.220    95984873.75847
  21294410.040   111902878.39809  21294408.420    87197036.54248
  22425202.460   117845233.91509  22425201.060    91827446.68648
  24039278.040   126327260.24708  24039276.420    98436818.28244
  21411417.780   112517765.11909  21411414.380    87676163.05148
  23921752.060   125709660.42208  23921752.600    97955577.41046
  22228789.060   116813067.69509  22228788.460    91023166.98347
 15 02 15 07 48  0.0000000  0 10G01G03G04G09G11G17G20G23G31G32
  20511225.020   107787212.28309  20511225.880    83990038.38749
  20517028.820   107817712.77409  20517029.280    84013803.17349
  22007810.460   115651818.11009  22007809.760    90118293.94448
  23420402.380   123075044.94508  23420403.960    95902639.58946
  21308507.360   111976959.71309  21308505.640    87254762.19348
  22415748.800   117795554.41809  22415747.280    91788735.36948
  24023977.600   126246855.68008  24023976.180    98374165.28645
  21398764.540   112451272.08609  21398761.240    87624350.31048
  23920394.860   125702528.00208  23920395.320    97950019.72746
  22242596.400   116885626.61509  22242596.100    91079706.32847
 15 02 15 07 48 30.0000000  0 10G01G03G04G09G11G17G20G23G31G32
  20515336.260   107808816.33809  20515337.060    84006872.68349
  20517711.260   107821298.83109  20517711.700    84016597.47749
  22021863.040   115725664.92209  22021862.340    90175836.85148
  23400356.120   122969702.14708  23400357.820    95820554.34547
  21322677.540   112051423.57609  21322675.660    87312785.94648
  22406391.980   117746383.90209  22406390.440    91750420.65748
  24008695.860   126166550.13508  24008694.680    98311589.55445
  21386187.220   112385178.27509  21386184.020    87572848.64848
  23919136.080   125695912.84208  23919136.380    97944865.10746
  22256419.960   116958269.92909  22256419.660    91136311.46548
 15 02 15 07 49  0.0000000  0 10G01G03G04G09G11G17G20G23G31G32
  20519521.520   107830809.76209  20519522.360    84024010.38149
  20518439.080   107825123.76409  20518439.560    84019577.91749
  22035970.040   115799797.99409  22035969.500    90233602.80947
  23380346.400   122864551.11308  23380347.960    95738618.48846
  21336919.920   112126267.06309  21336917.940    87371105.50548
  22397132.080   117697722.65009  22397130.600    91712502.78248
  23993432.780   126086342.84908  23993431.900    98249090.36645
  21373685.940   112319483.73109  21373682.700    87521658.10348
  23917975.580   125689814.33908  23917975.780    97940113.05146
  22270259.140   117030994.97509  22270258.780    91192980.27647
 15 02 15 07 49 30.0000000  0 10G01G03G04G09G11G17G20G23G31G32
  20523781.660   107853197.00209  20523782.540    84041454.95349
  20519212.940   107829190.82009  20519213.480    84022747.03149
  22050132.080   115874220.47609  22050131.760    90291594.29848
  23360374.440   122759597.90708  23360375.840    95656836.77047
  21351234.960   112201492.54309  21351232.880    87429722.71848
  22387970.140   117649576.18009  22387968.760    91674986.03848
  23978189.400   126006237.73408  23978188.540    98186670.70045
  21361261.800   112254194.03309  21361258.420    87470783.01948
  23916914.240   125684237.17008  23916914.380    97935767.26246
  22284114.440   117103804.65309  22284114.020    91249715.03247
 15 02 15 07 50  0.0000000  0 10G01G03G04G09G11G17G20G23G31G32
  20528115.720   107875972.32809  20528116.600    84059201.92749
  20520031.600   107833493.09909  20520032.160    84026099.42449
  22064347.880   115948925.38509  22064347.700    90349805.87348
  23340439.340   122654838.48608  23340440.840    95575206.07047
  21365621.080   112277092.08009  21365618.960    87488631.38648
  22378905.320   117601940.01409  22378903.920    91637866.92348
  23962964.160   125926228.46407  23962963.220    98124325.77045
  21348913.800   112189304.15609  21348910.260    87420219.48548
  23915951.100   125679176.22408  23915951.160    97931823.73545
  22297984.500   117176691.66309  22297984.060    91306510.04447
 15 02 15 07 50 30.0000000  0 10G01G03G04G09G11G17G20G23G31G32
  20532525.000   107899142.78609  20532525.820    84077256.79949
  20520896.120   107838036.40609  20520896.740    84029639.64049
  22078618.600   116023918.48509  22078618.440    90408241.99347
  23320542.740   122550281.48108  23320544.440    95493733.12047
  21380079.440   112353071.46909  21380077.360    87547836.06048
  22369939.080   117554822.07109  22369937.560    91601151.61648
  23947758.420   125846321.79708  23947757.520    98062060.87444
  21336643.340   112124822.10409  21336639.740    87369973.74448
  23915087.740   125674639.39208  23915087.880    97928288.58846
  22311870.280   117249661.26509  22311869.860    91363369.42947
 15 02 15 07 51  0.0000000  0 10G01G03G04G09G11G17G20G23G31G32
  20537008.660   107922704.39409  20537009.480    84095616.46349
  20521805.540   107842815.59009  20521806.240    84033363.65749
  22092943.240   116099194.67409  22092943.100    90466898.69048
  23300684.280   122445924.60408  23300686.120    95412416.10147
  21394608.820   112429424.21209  21394606.920    87607331.65148
  22361070.920   117508219.63309  22361069.360    91564838.00548
  23932571.460   125766513.30308  23932570.420    97999872.36045
  21324449.800   112060744.81809  21324446.260    87320043.40448
  23914323.320   125670622.58208  23914323.460    97925158.63846
  22325770.660   117322708.00009  22325770.280    91420288.90447
 15 02 15 07 51 30.0000000  0 10G01G03G04G09G11G17G20G23G31G32
  20541567.280   107946660.19309  20541568.180    84114283.29149
  20522760.220   107847832.54109  20522760.960    84037272.95349
  22107322.100   116174755.59709  22107321.920    90525777.29048
  23280864.820   122341772.57008  23280866.580    95331258.69347
  21409209.580   112506151.54809  21409207.780    87667119.14448
  22352301.720   117462137.20009  22352300.220    91528929.60148
  23917403.680   125686805.86807  23917402.580    97937762.64445
  21312333.920   111997076.00109  21312330.480    87270431.34348
  23913658.600   125667129.39708  23913658.700    97922436.71646
  22339685.960   117395833.33509  22339685.620    91477269.64147
 15 02 15 07 52  0.0000000  0 10G01G03G04G09G11G17G20G23G31G32
  20546200.260   107971006.77309  20546201.220    84133254.63149
  20523759.280   107853082.67809  20523760.040    84041363.94749
  22121754.300   116250596.65509  22121753.980    90584874.15147
  23261083.940   122237823.67008  23261085.660    95250259.56047
  21423880.660   112583248.00009  21423878.800    87727194.25048
  22343630.840   117416572.09109  22343629.560    91493424.30748
  23902254.440   125607195.82007  23902253.240    97875728.83545
  21300295.300   111933813.25209  21300291.900    87221135.70048
  23913092.980   125664156.86309  23913092.980    97920120.51746
  22353615.220   117469032.27709  22353614.940    91534307.73447
 15 02 15 07 52 30.0000000  0 10G01G03G04G09G11G17G20G23G31G32
  20550908.820   107995750.34909  20550909.760    84152535.30949
  20524803.680   107858571.06609  20524804.480    84045640.59049
  22136240.740   116326722.88809  22136240.380    90644193.22647
  23241343.220   122134085.76208  23241344.920    95169424.83747
  21438622.680   112660717.44709  21438620.760    87787560.00048
  22335059.780   117371531.59909  22335058.660    91458327.79848
  23887124.820   125527689.16208  23887123.860    97813775.69044
  21288335.260   111870963.57909  21288331.960    87172161.93648
  23912627.660   125661711.35609  23912627.520    97918214.99146
  22367559.340   117542309.55009  22367559.260    91591406.85947
 15 02 15 07 53  0.0000000  0 10G01G03G04G09G11G17G20G23G31G32
  20555692.120   108020886.95209  20555693.100    84172122.24249
  20525892.480   107864292.63909  20525893.300    84050098.93649
  22150780.440   116403129.07009  22150780.080    90703730.46847
  23221642.320   122030556.55508  23221643.940    95088752.72447
  21453434.540   112738554.12009  21453432.560    87848211.91048
  22326588.100   117327013.00109  22326587.040    91423637.96948
  23872014.040   125448281.49508  23872013.180    97751899.52245
  21276453.280   111808524.14609  21276450.060    87123507.83848
  23912261.980   125659789.48408  23912261.700    97916717.47746
  22381517.340   117615659.53209  22381517.000    91648562.66147
 15 02 15 07 53 30.0000000  0 10G01G03G04G09G11G17G20G23G31G32
  20560550.940   108046420.87009  20560552.140    84192018.77849
  20527026.240   107870250.58009  20527027.100    84054741.46349
  22165374.000   116479818.39109  22165373.700    90763488.31947
  23201982.220   121927242.05308  23201983.780    95008247.92447
  21468316.700   112816760.55909  21468314.760    87909151.94148
  22318216.900   117283021.81709  22318215.800    91389359.10448
  23856922.820   125368976.68608  23856921.960    97690103.54844
  21264650.360   111746499.90909  21264647.160    87075177.27248
  23911996.740   125658396.12208  23911996.520    97915631.77646
  22395489.780   117689085.21609  22395489.440    91705777.43447
 15 02 15 07 54  0.0000000  0 10G01G03G04G09G11G17G20G23G31G32
  20565484.900   108072349.80109  20565486.340    84212223.10749
  20528204.320   107876441.44209  20528205.160    84059565.49149
  22180020.680   116556787.18509  22180020.400    90823463.93947
  23182362.740   121824141.60808  23182364.460    94927909.93047
  21483268.360   112895332.27009  21483266.480    87970376.59448
  22309945.900   117239557.02509  22309944.680    91355490.41448
  23841850.540   125289772.22907  23841849.720    97628385.80246
  21252926.360   111684889.47109  21252923.020    87027169.13448
  23911831.720   125657529.10209  23911831.460    97914956.22646
  22409475.900   117762582.72009  22409475.540    91763048.18047
 15 02 15 07 54 30.0000000  0 10G01G03G04G09G11G17G20G23G31G32
  20570494.400   108098675.45809  20570496.020    84232736.57449
  20529426.880   107882865.89709  20529427.660    84064571.54549
  22194720.620   116634036.17209  22194720.360    90883657.90047
  23162784.660   121721258.69408  23162786.540    94847741.44947
  21498289.520   112974269.00109  21498287.740    88031885.68848
  22301775.600   117196621.11709  22301774.180    91322033.84448
  23826797.600   125210669.57808  23826797.060    97566747.42245
  21241281.660   111623695.39209  21241278.160    86979485.43648
  23911767.280   125657190.58508  23911767.020    97914692.50945
  22423475.760   117836152.27809  22423475.400    91820375.05747
 15 02 15 07 55  0.0000000  0 10G01G03G04G09G11G17G20G23G31G32
  20575578.780   108125394.47309  20575580.540    84253556.55749
  20530693.060   107889519.45509  20530693.760    84069756.12649
  22209472.980   116711560.61509  22209472.700    90944066.49947
  23143247.800   121618591.67308  23143249.700    94767741.16047
  21513379.140   113053565.53409  21513377.460    88093675.14348
  22293705.500   117154211.69609  22293703.920    91288987.53448
  23811763.540   125131665.29008  23811763.200    97505185.60545
  21229715.680   111562915.23209  21229712.120    86932124.28348
  23911802.780   125657377.50208  23911802.440    97914838.21946
  22437488.560   117909789.07309  22437488.160    91877754.34547
 15 02 15 07 55 30.0000000  0 10G01G03G04G09G11G17G20G23G31G32
  20580738.860   108152511.64309  20580740.840    84274686.78149
  20532003.540   107896405.90009  20532004.240    84075122.17349
  22224278.460   116789364.05309  22224278.280    91004692.49647
  23123753.240   121516147.00608  23123755.220    94687914.13947
  21528537.760   113133224.54109  21528536.120    88155747.05348
  22285736.640   117112334.70509  22285735.020    91256356.10848
  23796749.140   125052763.77608  23796748.820    97443703.87845
  21218229.560   111502554.72809  21218226.000    86885090.13048
  23911939.180   125658094.82208  23911938.960    97915397.23046
  22451514.780   117983496.58909  22451514.360    91935188.71847
 15 02 15 07 56  0.0000000  0 10G01G03G04G09G11G17G20G23G31G32
  20585974.300   108180024.56609  20585976.420    84296125.38449
  20533357.640   107903521.61809  20533358.340    84080666.87749
  22239136.420   116867442.92409  22239136.300    91065533.12947
  23104300.760   121413924.03008  23104302.920    94608259.88847
  21543764.620   113213241.87109  21543762.960    88218098.16848
  22277868.800   117070989.17409  22277867.280    91224138.80348
  23781753.760   124973962.27308  23781753.560    97382300.16546
  21206822.880   111442612.06709  21206819.380    86838381.58048
