     2.11           OBSERVATION DATA    G                   RINEX VERSION / TYPE
SPIDER V4,0,0,3554                      2015 03 18 00:14    PGM / RUN BY / DATE 
CKTS                                                        MARKER NAME         
CKTS                                                        MARKER NUMBER       
                                                            OBSERVER / AGENCY   
496659              LEICA GRX1200+GNSS  8.10/4.007          REC # / TYPE / VERS 
10321004            LEIAR25         NONE                    ANT # / TYPE        
  5190783.6897   517202.7561  3658836.0979                  APPROX POSITION XYZ 
        0.0720        0.0000        0.0000                  ANTENNA: DELTA H/E/N
     1     1                                                WAVELENGTH FACT L1/2
     4    C1    L1    P2    L2                              # / TYPES OF OBSERV 
    30.000                                                  INTERVAL            
  2015    02    15    00    00    0.0000000     GPS         TIME OF FIRST OBS   
  2015    02    15    23    59   30.0000000     GPS         TIME OF LAST OBS    
    16                                                      LEAP SECONDS        
    30                                                      # OF SATELLITES     
   G 1   819   818   818   818                              PRN / # OF OBS      
   G 2   770   769   769   769                              PRN / # OF OBS      
   G 3   851   851   851   851                              PRN / # OF OBS      
   G 4   841   841   841   841                              PRN / # OF OBS      
   G 5   520   520   520   520                              PRN / # OF OBS      
   G 6   665   664   663   663                              PRN / # OF OBS      
   G 7   667   667   667   667                              PRN / # OF OBS      
   G 9   805   805   805   805                              PRN / # OF OBS      
   G10   674   674   674   674                              PRN / # OF OBS      
   G11   781   781   780   780                              PRN / # OF OBS      
   G12   823   823   823   823                              PRN / # OF OBS      
   G13   795   795   795   795                              PRN / # OF OBS      
   G14   771   771   769   769                              PRN / # OF OBS      
   G15   571   570   570   570                              PRN / # OF OBS      
   G16   547   547   547   547                              PRN / # OF OBS      
   G17   773   773   772   772                              PRN / # OF OBS      
   G18   728   727   726   726                              PRN / # OF OBS      
   G19   667   667   667   667                              PRN / # OF OBS      
   G20   807   807   807   807                              PRN / # OF OBS      
   G21   728   728   727   727                              PRN / # OF OBS      
   G22   651   651   650   650                              PRN / # OF OBS      
   G23   750   750   750   750                              PRN / # OF OBS      
   G24   829   829   829   829                              PRN / # OF OBS      
   G25   861   861   860   860                              PRN / # OF OBS      
   G27   815   815   815   815                              PRN / # OF OBS      
   G28   637   637   635   635                              PRN / # OF OBS      
   G29   747   747   746   746                              PRN / # OF OBS      
   G30   713   713   713   713                              PRN / # OF OBS      
   G31   691   690   690   690                              PRN / # OF OBS      
   G32   766   766   766   766                              PRN / # OF OBS      
BIT 2 OF LLI FLAGS DATA COLLECTED UNDER A/S CONDITION       COMMENT             
SNR is mapped to RINEX snr flag value [2-9]                 COMMENT             
Lx:     = 25dBHz -> 1; 26-27dBHz -> 2; 28-31dBHz -> 3       COMMENT             
       32-35dBHz -> 4; 36-38dBHz -> 5; 39-41dBHz -> 6       COMMENT             
       42-44dBHz -> 7; 45-48dBHz -> 8; >=49dBHz -> 9        COMMENT             
                                                            END OF HEADER       
 15 02 15 00 00  0.0000000  0  6G18G21G25G27G29G31
  23922653.420   125714438.67108  23922651.120    97959323.55045
  20909210.840   109878646.14508  20909206.720    85619709.54848
  23094325.540   121361495.56808  23094325.540    94567397.36747
  24379085.600   128112954.74808  24379085.620    99828286.18145
  22407050.960   117749840.98509  22407048.640    91753111.55247
  21458758.540   112766534.74609  21458755.380    87870009.71948
 15 02 15 00 00 30.0000000  0  6G18G21G25G27G29G31
  23907906.220   125636942.15308  23907904.020    97898936.81245
  20908381.840   109874290.04408  20908377.780    85616315.18948
  23109965.000   121443681.98208  23109965.160    94631438.69346
  24364799.760   128037882.05208  24364799.580    99769788.02345
  22420020.460   117817995.22709  22420017.940    91806218.77847
  21469390.020   112822403.60509  21469386.840    87913543.88548
 15 02 15 00 01  0.0000000  0  6G18G21G25G27G29G31
  23893165.760   125559480.46108  23893163.440    97838577.17945
  20907639.340   109870388.71608  20907635.400    85613275.20048
  23125651.880   121526117.46108  23125652.140    94695674.12146
  24350533.380   127962911.85808  24350532.700    99711369.69945
  22433002.060   117886214.38209  22432999.840    91859376.51648
  21480109.280   112878733.65009  21480106.100    87957437.42248
 15 02 15 00 01 30.0000000  0  6G18G21G25G27G29G31
  23878431.680   125482052.06108  23878429.080    97778243.50244
  20906982.440   109866936.99308  20906978.600    85610585.55448
  23141385.280   121608797.13008  23141385.400    94760099.81946
  24336285.660   127888040.00508  24336284.900    99653028.03245
  22445994.900   117954493.13609  22445992.920    91912580.74247
  21490915.180   112935518.76109  21490911.940    88001685.53048
 15 02 15 00 02  0.0000000  0  6G18G21G25G27G29G31
  23863705.040   125404663.09308  23863702.220    97717940.52345
  20906412.160   109863939.93908  20906408.200    85608250.18348
  23157165.780   121691723.87608  23157165.680    94824718.04247
  24322057.300   127813270.04408  24322056.560    99594765.82145
  22458999.820   118022835.23509  22458997.980    91965834.25847
  21501807.920   112992760.09709  21501804.600    88046289.16248
 15 02 15 00 02 30.0000000  0  6G18G21G25G27G29G31
  23848984.780   125327308.25908  23848981.900    97657664.15244
  20905926.580   109861387.95908  20905922.520    85606261.64048
  23172991.680   121774888.95808  23172991.480    94889521.98046
  24307846.700   127738594.03007  24307846.280    99536576.77445
  22472015.340   118091231.55809  22472013.200    92019130.05347
  21512785.560   113050447.81109  21512782.280    88091240.62148
 15 02 15 00 03  0.0000000  0  6G18G21G25G27G29G31
  23834273.220   125249999.56908  23834270.160    97597423.71245
  20905527.220   109859289.41608  20905523.180    85604626.41348
  23188864.520   121858301.06208  23188864.440    94954518.40446
  24293655.600   127664021.48507  24293655.760    99478468.34445
  22485042.800   118159691.27009  22485040.560    92072475.26947
  21523849.540   113108589.31109  21523846.260    88136545.66648
 15 02 15 00 03 30.0000000  0  6G18G21G25G27G29G31
  23819569.520   125172731.99008  23819566.500    97537215.33445
  20905212.560   109857635.92408  20905208.520    85603337.98448
  23204782.620   121941951.44908  23204782.760    95019700.50447
  24279482.800   127589544.39207  24279483.200    99420434.27345
  22498080.700   118228205.57109  22498078.500    92125863.00847
  21534998.000   113167174.42709  21534994.560    88182196.39848
 15 02 15 00 04  0.0000000  0  6G18G21G25G27G29G31
  23804875.160   125095513.27908  23804872.200    97477045.01345
  20904983.460   109856431.79108  20904979.440    85602399.70948
  23220746.900   122025844.61208  23220747.220    95085071.77646
  24265328.880   127515167.98606  24265329.900    99362478.68746
  22511130.000   118296779.66909  22511128.000    92179297.36447
  21546231.500   113226206.28809  21546227.820    88228195.24648
 15 02 15 00 04 30.0000000  0  6G18G21G25G27G29G31
  23790189.920   125018342.35308  23790187.160    97416911.93845
  20904839.160   109855673.53908  20904835.140    85601808.86148
  23236756.680   122109976.06908  23236756.960    95150628.74246
  24251193.520   127440888.53507  24251194.980    99304598.69646
  22524189.740   118365408.75409  22524187.420    92232774.57247
  21557548.820   113285678.97209  21557544.960    88274537.57848
 15 02 15 00 05  0.0000000  0  6G18G21G25G27G29G31
  23775513.320   124941217.11908  23775510.720    97356814.45545
  20904778.600   109855355.43608  20904774.580    85601560.99348
  23252810.740   122194339.92508  23252810.720    95216366.78146
  24237076.260   127366700.95008  24237077.720    99246790.30146
  22537258.920   118434087.16209  22537256.120    92286290.19247
  21568948.560   113345585.05409  21568944.720    88321217.62748
 15 02 15 00 05 30.0000000  0  6G18G21G25G27G29G31
  23760847.380   124864148.02508  23760844.940    97296760.73245
  20904803.160   109855484.82808  20904799.140    85601661.83848
  23268910.360   122278943.54708  23268910.220    95282291.67746
  24222978.420   127292613.50008  24222979.480    99189059.86746
  22550339.000   118502822.82308  22550335.920    92339850.42548
  21580431.920   113405930.83109  21580428.240    88368240.30248
 15 02 15 00 06  0.0000000  0  6G18G21G25G27G29G31
  23746192.100   124787135.14108  23746189.700    97236750.80445
  20904912.120   109856057.50908  20904908.060    85602108.08148
  23285054.840   122363783.12808  23285054.740    95348400.42146
  24208899.060   127218623.11308  24208899.460    99131405.01846
  22563429.220   118571612.33309  22563426.180    92393452.61247
  21591997.920   113466710.90009  21591994.380    88415601.38648
 15 02 15 00 06 30.0000000  0  6G18G21G25G27G29G31
  23731549.000   124710186.20908  23731546.520    97176790.67645
  20905106.380   109857078.39108  20905102.320    85602903.59048
  23301245.040   122448862.98308  23301245.040    95414696.38746
  24194838.920   127144734.86808  24194838.700    99073829.75446
  22576530.320   118640460.24008  22576527.020    92447100.34647
  21603647.240   113527928.35809  21603643.720    88463303.28548
 15 02 15 00 07  0.0000000  0  6G18G21G25G27G29G31
  23716917.640   124633298.90208  23716915.020    97116878.56944
  20905384.820   109858541.64308  20905380.820    85604043.79448
  23317479.800   122534177.43008  23317479.820    95481175.16146
  24180797.160   127070943.91708  24180796.540    99016330.32846
  22589641.600   118709361.34808  22589638.260    92500789.48147
  21615378.400   113589576.13309  21615374.920    88511340.49248
 15 02 15 00 07 30.0000000  0  6G18G21G25G27G29G31
  23702298.700   124556476.01408  23702296.020    97057016.63845
  20905747.460   109860447.21608  20905743.480    85605528.65248
  23333758.980   122619725.71808  23333759.220    95547836.13846
  24166773.700   126997250.27708  24166773.180    98958906.79446
  22602762.880   118778314.63409  22602759.320    92554519.27547
  21627191.000   113651651.92309  21627187.520    88559711.21948
 15 02 15 00 08  0.0000000  0  6G18G21G25G27G29G31
  23687692.660   124479720.50308  23687690.000    96997207.22145
  20906194.120   109862794.20208  20906190.020    85607357.48248
  23350082.480   122705506.98908  23350082.820    95614678.66646
  24152768.620   126923653.90708  24152768.320    98901559.09546
  22615894.040   118847319.46609  22615890.840    92608289.23547
  21639084.660   113714153.33609  21639081.060    88608413.60448
 15 02 15 00 08 30.0000000  0  6G18G21G25G27G29G31
  23673100.180   124403036.02008  23673097.540    96937453.16045
  20906724.860   109865583.06508  20906720.700    85609530.62948
  23366450.460   122791521.86708  23366450.980    95681703.22346
  24138782.500   126850156.43709  24138782.060    98844288.32446
  22629035.480   118916377.49808  22629032.580    92662100.70948
  21651059.260   113777079.81609  21651055.480    88657447.20548
 15 02 15 00 09  0.0000000  0  6G18G21G25G27G29G31
  23658521.400   124326423.44108  23658518.800    96877755.12845
  20907339.160   109868811.04108  20907334.960    85612045.94548
  23382862.460   122877767.29108  23382862.920    95748907.43146
  24124814.860   126776755.54208  24124814.260    98787092.82546
  22642186.300   118985485.89908  22642183.880    92715951.35647
  21663113.900   113840426.76209  21663109.920    88706808.45148
 15 02 15 00 09 30.0000000  0  6G18G21G25G27G29G31
  23643957.060   124249886.93708  23643954.420    96818116.35945
  20908037.040   109872478.47008  20908032.860    85614903.68448
  23399318.580   122964243.82908  23399318.560    95816291.73846
  24110865.800   126703452.55008  24110864.960    98729973.63845
  22655346.980   119054645.36109  22655344.840    92769841.81947
  21675248.280   113904193.27009  21675244.320    88756496.63348
 15 02 15 00 10  0.0000000  0  6G18G21G25G27G29G31
  23629407.900   124173430.57208  23629405.280    96758540.02645
  20908818.740   109876586.21308  20908814.620    85618104.53348
  23415818.820   123050951.86908  23415818.320    95883856.41546
  24096935.280   126630248.75508  24096934.820    98672931.76546
  22668517.440   119123857.02409  22668515.040    92823772.96447
  21687462.200   113968378.24709  21687458.480    88806510.87848
 15 02 15 00 10 30.0000000  0  6G18G21G25G27G29G31
  23614873.960   124097054.44908  23614871.240    96699026.23045
  20909683.600   109881131.17008  20909679.520    85621646.05648
  23432362.340   123137888.15708  23432361.740    95951598.93846
  24083023.340   126557141.82608  24083023.100    98615965.33946
  22681697.380   119193117.74509  22681695.020    92877742.31647
  21699755.000   114032977.10509  21699751.400    88856847.63048
 15 02 15 00 11  0.0000000  0  6G18G21G25G27G29G31
  23600355.840   124020761.86508  23600352.940    96639577.53544
  20910631.620   109886113.12208  20910627.520    85625528.11348
  23448949.140   123225052.49708  23448948.600    96019519.18746
  24069130.000   126484132.42608  24069130.040    98559074.94447
  22694886.800   119262427.42209  22694884.500    92931749.87147
  21712126.220   114097988.27409  21712122.760    88907505.68348
 15 02 15 00 11 30.0000000  0  6G18G21G25G27G29G31
  23585853.780   123944553.91808  23585850.980    96580194.77545
  20911662.160   109891528.85408  20911658.040    85629748.15348
  23465578.920   123312442.04808  23465578.520    96087614.92046
  24055254.960   126411218.55108  24055255.140    98502258.99947
  22708085.040   119331784.36008  22708083.200    92985794.19847
  21724575.020   114163407.37209  21724571.600    88958481.59048
 15 02 15 00 12  0.0000000  0  6G18G21G25G27G29G31
  23571369.280   123868438.13808  23571366.560    96520883.84645
  20912776.180   109897383.25809  20912772.060    85634310.03248
  23482252.360   123400060.90908  23482252.000    96155889.33146
  24041399.060   126338405.16308  24041399.220    98445521.36846
  22721292.640   119401193.12408  22721291.240    93039878.95347
  21737101.940   114229237.23309  21737098.520    89009777.57548
 15 02 15 00 12 30.0000000  0  6G18G21G25G27G29G31
  23556901.880   123792411.89708  23556899.280    96461642.67945
  20913972.560   109903670.25108  20913968.400    85639208.99648
  23498968.140   123487903.11308  23498967.860    96224337.79146
  24027561.220   126265687.17308  24027561.240    98388858.03446
  22734509.500   119470647.91609  22734507.620    93093999.54947
  21749705.720   114295470.16509  21749702.220    89061387.63648
 15 02 15 00 13  0.0000000  0  6G18G21G25G27G29G31
  23542452.540   123716480.58908  23542450.040    96402475.47945
  20915251.460   109910390.75009  20915247.240    85644445.74948
  23515726.580   123575969.82708  23515726.420    96292961.17246
  24013741.760   126193066.63408  24013741.340    98332270.59945
  22747735.680   119540150.41309  22747733.480    93148157.33347
  21762386.180   114362105.89909  21762382.660    89113311.57448
 15 02 15 00 13 30.0000000  0  6G18G21G25G27G29G31
  23528020.960   123640642.38508  23528018.460    96343380.83245
  20916612.000   109917540.03409  20916607.720    85650016.63848
  23532526.780   123664255.84208  23532526.680    96361755.44246
  23999940.080   126120539.34108  23999939.720    98275755.85446
  22760969.840   119609695.86009  22760967.380    93202348.55647
  21775141.900   114429137.61309  21775138.360    89165544.07448
 15 02 15 00 14  0.0000000  0  6G18G21G25G27G29G31
  23513608.900   123564906.33008  23513606.240    96284365.78445
  20918055.080   109925123.02408  20918050.640    85655925.45948
  23549369.760   123752766.29408  23549369.700    96430724.60746
  23986157.540   126048111.32608  23986157.320    98219318.50546
  22774213.360   119679289.76408  22774210.400    93256577.57047
  21787973.680   114496569.20909  21787970.160    89218088.15048
 15 02 15 00 14 30.0000000  0  6G18G21G25G27G29G31
  23499216.440   123489272.80608  23499213.420    96225430.59745
  20919580.040   109933136.48009  20919575.480    85662169.71148
  23566254.880   123841498.18508  23566254.880    96499866.29646
  23972393.480   125975780.42408  23972393.400    98162956.80447
  22787465.700   119748930.30509  22787462.680    93310842.91747
  21800880.680   114564396.19809  21800877.280    89270940.33448
 15 02 15 00 15  0.0000000  0  6G18G21G25G27G29G31
  23484843.900   123413744.26808  23484840.800    96166577.25445
  20921186.780   109941579.90809  20921182.240    85668748.99848
  23583181.920   123930450.53308  23583181.760    96569179.78546
  23958647.920   125903546.57408  23958647.820    98106670.71046
  22800726.580   119818616.63709  22800723.300    93365143.95247
  21813862.500   114632616.13109  21813859.160    89324098.70048
 15 02 15 00 15 30.0000000  0  6G18G21G25G27G29G31
  23470491.820   123338323.50208  23470488.680    96107807.87945
  20922874.940   109950451.57508  20922870.540    85675661.99948
  23600150.640   124019622.00308  23600150.600    96638664.02546
  23944920.700   125831409.39708  23944920.400    98050459.94346
  22813996.040   119888348.01009  22813992.960    93419480.01547
  21826918.560   114701226.00509  21826915.060    89377560.93448
 15 02 15 00 16  0.0000000  0  6G18G21G25G27G29G31
  23456160.820   123263014.03008  23456157.680    96049125.21145
  20924644.700   109959751.87609  20924640.420    85682908.99748
  23617161.020   124109012.42908  23617161.180    96708318.90646
  23931211.920   125759369.78408  23931211.580    97994325.19645
  22827274.200   119958124.89609  22827271.140    93473851.61947
  21840048.600   114770224.15809  21840044.780    89431325.71648
 15 02 15 00 16 30.0000000  0  6G18G21G25G27G29G31
  23441851.740   123187819.67508  23441848.580    95990532.26245
  20926496.120   109969480.86709  20926491.760    85690490.03348
  23634213.220   124198622.25308  23634213.560    96778144.72046
  23917521.960   125687428.92608  23917521.460    97938267.40346
  22840560.740   120027948.37108  22840558.240    93528259.49547
  21853252.440   114839609.74209  21853248.420    89485392.40048
 15 02 15 00 17  0.0000000  0  6G18G21G25G27G29G31
  23427564.140   123112738.21908  23427560.920    95932027.25645
  20928427.980   109979632.88408  20928423.620    85698400.70248
  23651306.080   124288445.53608  23651306.520    96848136.84846
  23903850.040   125615581.91108  23903849.620    97882282.76947
  22853855.220   120097812.87708  22853853.440    93582699.38248
  21866528.460   114909375.02009  21866524.440    89539754.94048
 15 02 15 00 17 30.0000000  0  6G18G21G25G27G29G31
  23413298.600   123037772.74208  23413295.320    95873612.64045
  20930440.020   109990206.64908  20930435.780    85706640.00748
  23668439.320   124378481.12308  23668439.840    96918294.43246
  23890196.040   125543828.64708  23890195.720    97826371.15447
  22867157.760   120167718.13408  22867155.520    93637171.02147
  21879876.180   114979517.69409  21879872.300    89594411.54548
 15 02 15 00 18  0.0000000  0  6G18G21G25G27G29G31
  23399056.820   122962932.03208  23399053.440    95815295.24545
  20932533.360   110001207.69209  20932529.200    85715212.24148
  23685613.960   124468734.47908  23685614.400    96988621.68946
  23876560.880   125472175.40108  23876560.680    97770537.52047
  22880469.320   120237670.12309  22880466.960    93691679.02247
  21893296.280   115050041.40209  21893292.660    89649365.06748
 15 02 15 00 18 30.0000000  0  6G18G21G25G27G29G31
  23384837.760   122888210.64408  23384834.420    95757070.82945
  20934706.380   110012626.93208  20934702.160    85724110.37248
  23702828.320   124559196.37008  23702828.680    97059111.46446
  23862943.180   125400614.01708  23862943.120    97714775.44046
  22893788.340   120307660.54309  22893785.600    93746217.00747
  21906786.840   115120935.42509  21906783.400    89704607.15148
 15 02 15 00 19  0.0000000  0  6G18G21G25G27G29G31
  23370643.700   122813620.68908  23370640.520    95698948.81745
  20936960.520   110024472.50108  20936956.220    85733340.68248
  23720084.060   124649875.14708  23720084.260    97129770.23546
  23849344.560   125329153.74608  23849344.640    97659092.15347
  22907116.120   120377698.07909  22907113.520    93800791.65347
  21920349.220   115192207.03809  21920345.800    89760143.47148
 15 02 15 00 19 30.0000000  0  6G18G21G25G27G29G31
  23356473.960   122739158.58908  23356471.020    95640926.44645
  20939294.440   110036737.34408  20939290.180    85742897.70048
  23737379.700   124740763.72308  23737379.920    97200592.46146
  23835764.260   125257788.62708  23835764.020    97603482.99046
  22920451.300   120447776.39408  22920448.460    93855398.11246
  21933981.700   115263847.12109  21933978.320    89815966.89848
 15 02 15 00 20  0.0000000  0  6G18G21G25G27G29G31
  23342328.900   122664825.96208  23342326.020    95583004.95045
  20941707.760   110049419.10908  20941703.480    85752779.60948
  23754714.780   124831859.78408  23754714.760    97271576.38746
  23822201.800   125186517.23508  23822201.180    97547946.86146
  22933794.100   120517893.95208  22933791.240    93910035.12747
  21947683.660   115335852.00609  21947680.340    89872074.57348
 15 02 15 00 20 30.0000000  0  6G18G21G25G27G29G31
  23328209.880   122590629.52008  23328206.900    95525189.56545
  20944200.960   110062520.68208  20944196.620    85762988.61948
  23772089.680   124923166.35608  23772089.620    97342724.33645
  23808657.900   125115343.60508  23808657.240    97492486.89146
  22947145.280   120588054.54009  22947142.320    93964705.74847
  21961455.340   115408223.02709  21961452.140    89928467.56948
 15 02 15 00 21  0.0000000  0  6G18G21G25G27G29G31
  23314117.040   122516570.38408  23314113.820    95467481.19045
  20946773.500   110076039.39508  20946769.080    85773522.69348
  23789504.080   125014680.92508  23789504.160    97414034.36445
  23795132.200   125044266.21808  23795131.880    97437101.98246
  22960504.260   120658256.20708  22960501.420    94019408.31047
  21975296.100   115480956.55709  21975292.960    89985143.03548
 15 02 15 00 21 30.0000000  0  6G18G21G25G27G29G31
  23300051.140   122442653.01008  23300047.660    95409883.25345
  20949425.480   110089975.62308  20949421.000    85784382.10648
  23806958.260   125106403.46008  23806958.400    97485506.45246
  23781624.920   124973286.13608  23781624.740    97381792.85446
  22973871.160   120728499.75609  22973868.720    94074143.51147
  21989205.620   115554051.08109  21989202.460    90042099.78048
 15 02 15 00 22  0.0000000  0  6G18G21G25G27G29G31
  23286011.380   122368873.85208  23286007.860    95352393.03045
  20952155.640   110104322.90208  20952151.200    85795561.79448
  23824450.920   125198327.24408  23824451.080    97557135.36945
  23768135.160   124902397.64408  23768135.060    97326555.08246
  22987244.880   120798779.27108  22987242.700    94128906.75147
  22003182.220   115627497.99509  22003178.940    90099331.13848
 15 02 15 00 22 30.0000000  0  6G18G21G25G27G29G31
  23271999.060   122295239.62208  23271995.580    95295015.75646
  20954964.440   110119083.47208  20954960.140    85807063.52848
  23841982.280   125290454.94508  23841982.600    97628923.17146
  23754663.720   124831604.43908  23754663.520    97271391.57446
  23000626.480   120869098.48509  23000624.240    94183700.91547
  22017226.040   115701298.35509  22017222.580    90156837.88748
 15 02 15 00 23  0.0000000  0  6G18G21G25G27G29G31
  23258015.400   122221755.44008  23258011.960    95237755.38245
  20957852.140   110134258.63208  20957847.920    85818888.33648
  23859552.620   125382787.97508  23859553.060    97700870.93045
  23741210.860   124760908.94108  23741210.020    97216304.20245
  23014016.040   120939459.23208  23014013.300    94238527.46347
  22031337.040   115775452.15809  22031333.540    90214620.05248
 15 02 15 00 23 30.0000000  0  6G18G21G25G27G29G31
  23244060.700   122148422.79908  23244057.280    95180613.08846
  20960818.240   110149845.75808  20960814.040    85831034.14948
  23877161.580   125475324.00508  23877161.860    97772976.89846
  23727776.180   124690309.86208  23727774.820    97161291.92745
  23027412.840   121009860.10409  23027410.380    94293385.24847
  22045514.580   115849955.53109  22045511.100    90272674.60248
 15 02 15 00 24  0.0000000  0  6G18G21G25G27G29G31
  23230134.720   122075240.66309  23230131.200    95123588.06145
  20963862.000   110165840.79308  20963857.780    85843497.81748
  23894808.460   125568058.48108  23894808.640    97845237.51545
  23714359.280   124619803.77408  23714358.120    97106352.18346
  23040816.480   121080296.88408  23040813.900    94348271.05347
  22059757.520   115924802.51509  22059754.060    90330996.91548
 15 02 15 00 24 30.0000000  0  7G16G18G21G25G27G29G31
  22558603.080   118546265.07705  22558597.540    92373696.11543
  23216238.700   122002216.37508  23216235.120    95066686.03846
  20966983.840   110182246.48608  20966979.720    85856281.47248
  23912493.800   125660994.53208  23912493.900    97917655.18845
  23700960.820   124549394.81408  23700960.160    97051488.10246
  23054227.700   121150774.64209  23054224.840    94403188.77246
  22074066.200   115999994.63409  22074062.640    90389588.16748
 15 02 15 00 25  0.0000000  0  7G16G18G21G25G27G29G31
  22542833.800   118463395.14306  22542828.580    92309122.15343
  23202372.440   121929349.28008  23202368.940    95009906.51546
  20970183.020   110199058.39809  20970178.880    85869381.66348
  23930216.440   125754127.65708  23930216.860    97990226.41646
  23687580.080   124479079.59708  23687579.960    96996697.07046
  23067645.900   121221288.92009  23067643.700    94458134.93047
  22088439.460   116075525.83709  22088435.740    90448443.63148
 15 02 15 00 25 30.0000000  0  7G16G18G21G25G27G29G31
  22527092.540   118380673.58806  22527087.760    92244663.81544
  23188536.620   121856642.11508  23188533.260    94953251.60646
  20973459.320   110216275.72808  20973455.180    85882797.78948
  23947976.260   125847457.10308  23947977.160    98062950.63946
  23674217.400   124408858.40208  23674217.100    96941979.26946
  23081071.520   121291839.77409  23081069.440    94513109.61147
  22102876.780   116151393.95309  22102872.940    90507561.61148
 15 02 15 00 26  0.0000000  0  7G16G18G21G25G27G29G31
  22511380.400   118298105.77507  22511375.760    92180325.27544
  23174732.460   121784101.04609  23174729.160    94896726.13445
  20976813.200   110233900.69208  20976809.120    85896531.51648
  23965773.900   125940985.03408  23965774.800    98135829.52146
  23660873.320   124338734.50208  23660872.800    96887337.27946
  23094504.580   121362430.50008  23094502.080    94568115.32846
  22117378.280   116227599.43009  22117374.320    90566942.48948
 15 02 15 00 26 30.0000000  0  7G16G18G21G25G27G29G31
  22495697.500   118215691.70308  22495693.120    92116106.49944
  23160960.020   121711726.73208  23160956.760    94840330.57545
  20980244.060   110251930.08008  20980240.000    85910580.38448
  23983608.820   126034708.15608  23983609.640    98208860.48645
  23647547.300   124268705.73108  23647547.060    96832769.44447
  23107944.620   121433058.64109  23107941.860    94623150.21146
  22131943.100   116304137.52909  22131938.980    90626582.55048
 15 02 15 00 27  0.0000000  0  7G16G18G21G25G27G29G31
  22480043.740   118133430.59708  22480039.560    92052006.95045
  23147219.220   121639518.85308  23147215.880    94784064.72846
  20983750.940   110270359.16908  20983746.940    85924940.72348
  24001480.100   126128622.37408  24001480.620    98282040.38645
  23634238.960   124198769.05008  23634238.700    96778273.34947
  23121391.360   121503721.19808  23121388.020    94678211.92847
  22146570.080   116381002.43309  22146565.860    90686477.26748
 15 02 15 00 27 30.0000000  0  7G16G18G21G25G27G29G31
  22464420.560   118051330.32109  22464416.540    91988032.71646
  23133511.820   121567486.58408  23133508.480    94727935.69846
  20987334.940   110289193.38708  20987330.960    85939616.72548
  24019388.840   126222733.08608  24019389.380    98355373.37645
  23620949.400   124128930.95008  23620949.060    96723854.07547
  23134845.120   121574424.19508  23134843.000    94733305.12347
  22161260.000   116458198.33709  22161255.760    90746629.90048
 15 02 15 00 28  0.0000000  0  7G16G18G21G25G27G29G31
  22448827.620   117969389.10209  22448823.720    91924182.42547
  23119837.600   121495628.46508  23119834.420    94671942.40545
  20990995.040   110308427.26308  20990991.060    85954604.17148
  24037333.940   126317034.79208  24037334.600    98428855.18846
  23607677.720   124059187.08908  23607677.360    96669508.23647
  23148305.940   121645162.73509  23148304.720    94788426.04946
  22176011.440   116535717.80309  22176007.280    90807034.66948
 15 02 15 00 28 30.0000000  0  7G16G18G21G25G27G29G31
  22433264.980   117887607.09009  22433261.140    91860456.19447
  23106196.720   121423945.12008  23106193.560    94616085.26546
  20994730.560   110328057.73708  20994726.640    85969900.64048
  24055314.780   126411524.55208  24055315.380    98502483.51945
  23594423.400   123989535.60808  23594423.000    96615234.38246
  23161773.800   121715935.15609  23161771.940    94843573.41447
  22190823.560   116613556.45309  22190819.600    90867688.13848
 15 02 15 00 29  0.0000000  0  7G16G18G21G25G27G29G31
  22417733.620   117805989.73609  22417729.920    91796858.26048
  23092590.300   121352442.71108  23092587.160    94560369.12546
  20998542.000   110348087.06008  20998538.160    85985507.91648
  24073331.940   126506204.49708  24073332.500    98576260.10045
  23581187.160   123919979.82808  23581186.720    96561035.13045
  23175248.900   121786745.16708  23175247.060    94898749.97947
  22205696.600   116691715.07109  22205692.800    90928590.91848
 15 02 15 00 29 30.0000000  0  7G16G18G21G25G27G29G31
  22402233.640   117724536.99109  22402229.980    91733388.60847
  23079018.360   121281121.79208  23079015.180    94504794.40045
  21002428.620   110368511.34708  21002424.800    86001422.95448
  24091384.560   126601071.14808  24091385.060    98650182.13345
  23567968.660   123850517.34508  23567968.200    96506908.52646
  23188730.320   121857589.55908  23188728.360    94953953.33547
  22220629.600   116770188.63909  22220626.020    90989739.13748
 15 02 15 00 30  0.0000000  0  7G16G18G21G25G27G29G31
  22386764.660   117643247.34408  22386761.080    91670046.07947
  23065480.820   121209981.75508  23065477.560    94449360.63345
  21006389.560   110389326.30908  21006385.680    86017642.40148
  24109471.920   126696120.23108  24109472.300    98724246.32845
  23554767.640   123781145.10608  23554767.080    96452852.24047
  23202217.900   121928464.95309  23202214.880    95009180.94146
  22235621.460   116848971.16109  22235617.940    91051128.08048
 15 02 15 00 30 30.0000000  0  7G16G18G21G25G27G29G31
  22371328.860   117562131.98809  22371325.300    91606839.33646
  23051979.860   121139033.98108  23051976.500    94394076.66145
  21010426.380   110410539.92808  21010422.480    86034172.50448
  24127595.480   126791359.46708  24127595.780    98798458.66945
  23541585.460   123711871.90508  23541585.040    96398873.14947
  23215712.960   121999380.35608  23215709.140    95064439.65247
  22250673.320   116928068.69109  22250669.780    91112762.50948
 15 02 15 00 31  0.0000000  0  7G16G18G21G25G27G29G31
  22355925.980   117481189.55709  22355922.340    91543767.27547
  23038515.400   121068277.78208  23038511.980    94338941.97546
  21014538.100   110432147.12508  21014534.140    86051009.27148
  24145754.400   126886784.07708  24145754.580    98872815.47346
  23528421.420   123642694.18208  23528421.040    96344968.48347
  23229214.640   122070331.88408  23229211.340    95119726.56647
  22265783.880   117007474.90209  22265780.260    91174637.46648
 15 02 15 00 31 30.0000000  0  7G16G18G21G25G27G29G31
  22340556.180   117400420.91009  22340552.400    91480830.66947
  23025087.660   120997714.53509  23025084.280    94283957.65346
  21018724.340   110454145.37409  21018720.260    86068150.76348
  24163948.100   126982391.63508  24163948.100    98947314.84545
  23515275.120   123573610.66308  23515274.940    96291137.22747
  23242722.480   122141318.13808  23242720.180    95175040.47147
  22280952.380   117087185.91309  22280948.660    91236749.91348
 15 02 15 00 32  0.0000000  0  7G16G18G21G25G27G29G31
  22325219.760   117319827.11609  22325215.880    91418030.34747
  23011697.040   120927346.14409  23011693.720    94229125.15946
  21022984.460   110476532.14608  21022980.400    86085595.02048
  24182176.020   127078179.68108  24182175.860    99021954.85445
  23502146.600   123504620.13508  23502146.240    96237378.38847
  23256236.880   122212337.72808  23256234.980    95230380.36547
  22296178.060   117167197.92209  22296174.380    91299096.90448
 15 02 15 00 32 30.0000000  0  7G16G18G21G25G27G29G31
  22309916.980   117239409.86009  22309913.120    91355367.53647
  22998343.980   120857175.03309  22998340.560    94174446.39846
  21027318.120   110499306.08708  21027314.160    86103340.93648
  24200437.900   127174147.16008  24200437.820    99096734.66445
  23489035.920   123435722.59708  23489035.440    96183692.00147
  23269757.440   122283390.73708  23269755.100    95285746.35447
  22311460.400   117247508.16709  22311456.940    91361676.29448
 15 02 15 00 33  0.0000000  0  7G16G18G21G25G27G29G31
  22294648.700   117159174.94909  22294645.100    91292846.82847
  22985029.660   120787207.32509  22985025.900    94119926.13345
  21031725.820   110522469.43208  21031721.980    86121390.28548
  24218734.280   127270296.13908  24218734.460    99171655.89645
  23475943.420   123366921.40208  23475942.640    96130080.71346
  23283284.960   122354480.10008  23283283.340    95341140.58146
  22326799.640   117328117.38409  22326796.440    91424488.64448
 15 02 15 00 33 30.0000000  0  8G16G18G21G22G25G27G29G31
  22279414.460   117079118.97609  22279410.940    91230465.60047
  22971753.500   120717440.09809  22971749.520    94065562.06646
  21036206.400   110546015.35208  21036202.620    86139737.74148
  24551494.520   129018971.23808  24551495.980   100534266.99245
  24237064.020   127366619.93608  24237064.300    99246713.37345
  23462868.140   123298211.10408  23462867.380    96076540.23147
  23296818.900   122425600.31008  23296817.460    95396558.94747
  22342194.240   117409017.04409  22342191.180    91487527.32648
 15 02 15 00 34  0.0000000  0  8G16G18G21G22G25G27G29G31
  22264215.000   116999245.00409  22264211.360    91168226.13347
  22958516.120   120647877.12509  22958512.180    94011357.15846
  21040759.780   110569943.39608  21040756.000    86158382.99948
  24533815.620   128926070.09108  24533816.900   100461877.22244
  24255427.120   127463118.29908  24255427.380    99321906.86645
  23449810.420   123229592.56408  23449810.060    96023071.29047
  23310358.720   122496752.33408  23310357.120    95452002.05446
  22357643.900   117490205.44009  22357640.780    91550790.98648
 15 02 15 00 34 30.0000000  0  8G16G18G21G22G25G27G29G31
  22249051.300   116919558.63709  22249047.580    91106132.88247
  22945318.680   120578524.50208  22945314.900    93957316.16746
  21045386.340   110594255.81308  21045382.520    86177327.73948
  24516121.000   128833087.38308  24516122.420   100389423.99345
  24273823.720   127559793.45808  24273823.980    99397238.15045
  23436771.040   123161069.31908  23436770.660    95969676.57247
  23323905.280   122567939.04708  23323903.660    95507472.20647
  22373148.620   117571683.23809  22373145.500    91614280.17648
 15 02 15 00 35  0.0000000  0  8G16G18G21G22G25G27G29G31
  22233924.080   116840063.63209  22233920.060    91044188.72347
  22932161.960   120509386.18608  22932158.420    93903442.19846
  21050085.960   110618952.00208  21050082.000    86196571.53948
  24498411.560   128740027.09508  24498413.000   100316910.30044
  24292253.860   127656645.48008  24292254.600    99472707.20345
  23423749.880   123092642.54808  23423749.200    95916357.02746
  23337458.820   122639162.04808  23337457.360    95562970.58146
  22388708.080   117653448.97309  22388705.120    91677993.70548
 15 02 15 00 35 30.0000000  0  8G16G18G21G22G25G27G29G31
  22218832.800   116760758.92509  22218828.800    90982392.86147
  22919046.020   120440461.65809  22919042.540    93849734.79946
  21054857.720   110644027.50408  21054853.580    86216110.88148
  24480687.260   128646888.60107  24480688.620   100244335.64745
  24310716.800   127753670.09808  24310717.740    99548310.74745
  23410746.360   123024309.27308  23410745.420    95863110.33346
  23351018.600   122710418.01409  23351016.460    95618494.72046
  22404321.200   117735496.76709  22404318.400    91741927.01648
 15 02 15 00 36  0.0000000  0  8G16G18G21G22G25G27G29G31
  22203778.220   116681646.35709  22203774.300    90920746.71547
  22905971.320   120371753.63309  22905967.840    93796196.09646
  21059701.540   110669481.74808  21059697.320    86235945.36548
  24462948.520   128553674.25708  24462949.840   100171701.95544
  24329212.360   127850865.93108  24329213.540    99624047.68845
  23397760.660   122956069.35008  23397759.740    95809936.39447
  23364584.240   122781706.91107  23364581.760    95674044.46947
  22419987.520   117817823.67409  22419984.720    91806077.81348
 15 02 15 00 36 30.0000000  0  8G16G18G21G22G25G27G29G31
  22188760.440   116602727.18309  22188756.400    90859251.26547
  22892938.160   120303264.07508  22892934.640    93742827.61846
  21064616.920   110695312.13408  21064612.760    86256072.93948
  24445195.620   128460385.50608  24445196.800   100099010.27245
  24347740.380   127948230.75508  24347741.360    99699916.33745
  23384792.720   122887921.94008  23384791.960    95756834.53246
  23378155.920   122853027.05709  23378154.160    95729618.52147
  22435706.300   117900425.92909  22435703.380    91870443.17248
 15 02 15 00 37  0.0000000  0  8G16G18G21G22G25G27G29G31
  22173779.380   116524001.19209  22173775.340    90797906.32747
  22879946.500   120234992.71709  22879943.000    93689629.16146
  21069603.020   110721514.39008  21069598.940    86276490.28548
  24427428.620   128367022.45208  24427429.700   100026260.66745
  24366299.960   128045760.69008  24366300.520    99775913.65645
  23371842.000   122819864.20709  23371840.840    95703802.51246
  23391733.800   122924376.41509  23391731.360    95785215.45846
  22451476.480   117983298.42409  22451473.500    91935019.11248
 15 02 15 00 37 30.0000000  0  8G16G18G21G22G25G27G29G31
  22158836.460   116445476.39309  22158832.280    90736718.17347
  22866998.020   120166948.06609  22866994.600    93636607.37346
  21074660.780   110748093.07208  21074656.680    86297200.95648
  24409649.000   128273593.37808  24409649.920    99953459.64745
  24384891.860   128143460.44108  24384892.100    99852043.29545
  23358909.220   122751902.24408  23358907.980    95650845.17346
  23405317.800   122995760.45208  23405314.960    95840839.35246
  22467298.620   118066444.05009  22467295.700    91999807.89948
 15 02 15 00 38  0.0000000  0  8G16G18G21G22G25G27G29G31
  22143932.420   116367156.05309  22143928.580    90675689.36648
  22854093.440   120099133.58309  22854090.040    93583764.93646
  21079790.140   110775048.13008  21079786.020    86318204.89248
  24391857.560   128180101.95908  24391858.400    99880609.99445
  24403515.960   128241329.76508  24403516.040    99928305.05645
  23345994.600   122684037.01908  23345993.360    95597963.23145
  23418908.420   123067180.43509  23418905.740    95896491.22847
  22483172.420   118149861.18209  22483169.480    92064808.22548
 15 02 15 00 38 30.0000000  0  8G16G18G21G22G25G27G29G31
  22129066.100   116289033.41409  22129062.480    90614814.58047
  22841231.540   120031543.70409  22841228.160    93531097.52346
  21084989.040   110802368.87509  21084984.920    86339493.77448
  24374053.000   128086541.67608  24374053.660    99807706.65045
  24422170.280   128339358.42108  24422170.260   100004690.94945
  23333096.900   122616259.60508  23333095.440    95545149.65346
  23432504.440   123138627.05408  23432502.000    95952163.93546
  22499095.580   118233537.97409  22499092.720    92130010.88348
 15 02 15 00 39  0.0000000  0  8G16G18G21G22G25G27G29G31
  22114239.420   116211119.62009  22114235.980    90554102.58847
  22828414.440   119964189.73308  22828411.080    93478613.91446
  21090259.020   110830062.71809  21090254.800    86361073.39148
  24356237.540   127992923.95708  24356238.140    99734758.57145
  24440856.360   128437554.02208  24440856.420   100081206.94245
  23320217.640   122548578.96808  23320216.480    95492411.49946
  23446106.960   123210109.19408  23446104.600    96007864.30146
  22515069.220   118317480.30009  22515066.400    92195420.46547
 15 02 15 00 39 30.0000000  0  8G16G18G21G22G25G27G29G31
  22099452.220   116133411.67909  22099448.460    90493550.86247
  22815641.720   119897068.95109  22815638.320    93426312.02346
  21095598.760   110858123.29109  21095594.540    86382938.77948
  24338410.640   127899245.77408  24338411.080    99661763.31145
  24459572.980   128535910.12707  24459573.220   100157848.01345
  23307355.880   122480989.85008  23307354.880    95439744.64947
  23459715.060   123281621.34408  23459712.520    96063588.01347
  22531091.980   118401680.49809  22531089.220    92261030.97447
 15 02 15 00 40  0.0000000  0  8G16G18G21G22G25G27G29G31
  22084705.040   116055915.30809  22084701.360    90433164.13547
  22802914.640   119830187.71309  22802911.140    93374196.77446
  21101008.640   110886552.81708  21101004.520    86405091.67148
  24320573.520   127805514.04208  24320573.860    99588726.32545
  24478320.560   128634429.23507  24478320.980   100234616.09745
  23294512.160   122413496.05308  23294511.640    95387152.12347
  23473329.680   123353167.79508  23473328.020    96119338.48247
  22547163.940   118486139.23609  22547161.180    92326842.95647
 15 02 15 00 40 30.0000000  0  8G16G18G21G22G25G27G29G31
  22069997.440   115978626.51709  22069993.780    90372939.10047
  22790232.340   119763542.05508  22790228.840    93322265.09546
  21106487.120   110915343.13308  21106483.120    86427525.67648
  24302725.440   127711724.40008  24302725.520    99515644.15645
  24497097.600   128733103.16507  24497097.740   100311504.86545
  23281685.240   122346090.87408  23281684.880    95334628.66147
  23486949.840   123424741.35209  23486948.700    96175110.05247
  22563283.340   118570846.95809  22563280.420    92392848.93448
 15 02 15 00 41  0.0000000  0  8G16G18G21G22G25G27G29G31
  22055331.040   115901554.66909  22055327.660    90312883.12748
  22777596.760   119697142.25709  22777593.460    93270525.02946
  21112035.520   110944500.03308  21112031.460    86450245.33848
  24284868.160   127617886.75808  24284868.000    99442524.61045
  24515905.200   128831938.25907  24515905.580   100388519.14245
  23268876.820   122278781.76308  23268876.460    95282180.00347
  23500576.580   123496349.43408  23500574.680    96230908.60346
  22579451.080   118655808.68209  22579448.080    92459052.85447
 15 02 15 00 41 30.0000000  0  8G16G18G21G22G25G27G29G31
  22040705.500   115824697.54709  22040702.240    90252994.46947
  22765007.540   119630985.84809  22765004.380    93218974.60746
  21117652.540   110974017.46408  21117648.460    86473245.94648
  24267001.380   127523998.98308  24267000.700    99369365.94045
  24534742.340   128930928.28407  24534743.000   100465654.14745
  23256085.960   122211563.93208  23256085.300    95229802.50047
  23514208.700   123567987.31808  23514206.520    96286730.26146
  22595665.640   118741016.43109  22595662.740    92525448.46047
 15 02 15 00 42  0.0000000  0  8G16G18G21G22G25G27G29G31
  22026122.100   115748061.10809  22026118.820    90193277.78047
  22752465.940   119565079.61808  22752462.780    93167619.11046
  21123338.760   111003898.44209  21123334.620    86496529.80848
  24249126.420   127430067.89408  24249125.280    99296173.47745
  24553609.640   129030076.09708  24553610.360   100542912.09145
  23243312.820   122144441.62408  23243312.500    95177499.41647
  23527847.420   123639659.00408  23527845.300    96342578.29246
  22611927.260   118826471.47209  22611924.400    92592036.76848
 15 02 15 00 42 30.0000000  0  8G16G18G21G22G25G27G29G31
  22011579.540   115671639.22409  22011576.100    90133728.24747
  22739970.820   119499417.70108  22739967.540    93116453.99946
  21129092.120   111034132.80308  21129088.060    86520089.07548
  24231242.140   127336087.52008  24231240.720    99222942.62345
  24572505.060   129129372.01608  24572505.800   100620285.45845
  23230556.360   122077406.39208  23230556.400    95125264.22947
  23541491.140   123711356.10208  23541488.840    96398446.15246
  22628233.860   118912162.56309  22628230.960    92658809.02048
 15 02 15 00 43  0.0000000  0  8G16G18G21G22G25G27G29G31
  21997080.160   115595443.96809  21997076.700    90074355.30247
  22727524.560   119434012.57009  22727521.260    93065488.98946
  21134914.340   111064728.76708  21134910.220    86543930.09048
  24213350.820   127242069.97808  24213349.240    99149682.72845
  24591430.220   129228824.32408  24591431.340   100697780.67544
  23217818.580   122010467.96308  23217818.500    95073104.40047
  23555141.240   123783088.07208  23555138.920    96454341.15046
  22644586.720   118998096.73909  22644583.740    92725770.66548
 15 02 15 00 43 30.0000000  0  8G16G18G21G22G25G27G29G31
  21982623.640   115519474.62709  21982620.140    90015158.42547
  22715127.140   119368863.78009  22715123.900    93014723.71946
  21140804.580   111095681.93509  21140800.400    86568049.43848
  24195452.180   127148014.53308  24195450.600    99076393.32245
  24610384.300   129328428.87608  24610385.480   100775394.59944
  23205098.660   121943623.45708  23205098.020    95021017.74647
  23568797.660   123854851.85009  23568795.660    96510260.94146
  22660984.660   119084268.22709  22660981.560    92792917.23047
 15 02 15 00 44  0.0000000  0  8G16G18G21G22G25G27G29G31
  21968210.240   115443731.07309  21968206.740    89956137.46047
  22702778.680   119303971.43109  22702775.300    92964158.26646
  21146762.060   111126988.41008  21146757.900    86592444.11248
  24177546.580   127053922.36608  24177544.820    99003075.21945
  24629366.620   129428181.71907  24629367.960   100853123.97745
  23192395.980   121876870.32108  23192394.900    94969002.33547
  23582459.340   123926645.16508  23582457.300    96566203.79145
  22677426.600   119170671.44709  22677423.520    92860244.37347
 15 02 15 00 44 30.0000000  0  8G16G18G21G22G25G27G29G31
  21953840.780   115368218.52309  21953837.120    89897296.49847
  22690480.160   119239341.49709  22690476.600    92913797.29146
  21152787.060   111158649.81708  21152782.940    86617115.33648
  24159634.900   126959798.88708  24159633.280    98929732.77546
  24648377.700   129528084.65207  24648378.420   100930970.41044
  23179711.240   121810211.80408  23179710.200    94917060.69147
  23596126.900   123998471.35508  23596125.020    96622172.21646
  22693912.620   119257306.82609  22693909.620    92927752.42447
 15 02 15 00 45  0.0000000  0  8G16G18G21G22G25G27G29G31
  21939514.500   115292933.40809  21939510.900    89838632.80347
  22678230.900   119174970.63909  22678227.140    92863638.18146
  21158878.160   111190658.72909  21158874.000    86642057.32348
  24141716.800   126865640.79608  24141715.360    98856363.27846
  24667415.960   129628130.55908  24667416.720   101008928.12444
  23167043.520   121743642.08109  23167042.520    94865188.17647
  23609800.100   124070324.48508  23609798.380    96678161.66246
  22710441.240   119344165.45209  22710438.380    92995434.44047
 15 02 15 00 45 30.0000000  0  8G16G18G21G22G25G27G29G31
  21925232.680   115217881.93309  21925229.020    89780151.13347
  22666031.800   119110864.38509  22666028.180    92813685.28046
  21165035.720   111223017.19109  21165031.540    86667271.71348
  24123793.320   126771453.88908  24123791.820    98782971.36445
  24686481.920   129728321.68508  24686481.920   101086999.08145
  23154393.400   121677164.82408  23154392.520    94813387.72447
  23623479.020   124142207.99108  23623477.360    96734174.74546
  22727012.660   119431248.47909  22727009.720    93063291.30147
 15 02 15 00 46  0.0000000  0  8G16G18G21G22G25G27G29G31
  21910995.940   115143066.93609  21910991.900    89721853.70647
  22653883.820   119047027.20709  22653880.460    92763942.05146
  21171259.700   111255724.63208  21171255.480    86692758.04348
  24105865.220   126677242.32808  24105863.460    98709560.16546
  24705575.580   129828657.55708  24705575.660   101165182.77245
  23141760.740   121610780.97408  23141759.980    94761660.08847
  23637164.020   124214122.75808  23637161.800    96790212.22645
  22743626.500   119518553.72309  22743623.320    93131321.31847
 15 02 15 00 46 30.0000000  0  8G16G18G21G22G25G27G29G31
  21896803.880   115068487.76709  21896799.960    89663740.09747
  22641787.020   118983458.46709  22641783.780    92714407.99746
  21177549.320   111288776.62909  21177545.060    86718512.82448
  24087932.300   126583005.51608  24087930.320    98636129.28746
  24724695.780   129929133.80408  24724695.760   101243475.85144
  23129145.540   121544487.54609  23129144.840    94710002.87147
  23650854.580   124286065.73808  23650851.960    96846271.68946
  22760281.580   119606075.43209  22760278.180    93199520.00947
 15 02 15 00 47  0.0000000  0  8G16G18G21G22G25G27G29G31
  21882658.000   114994150.81009  21882654.200    89605815.21247
  22629742.560   118920164.29809  22629739.280    92665087.87146
  21183904.920   111322175.58008  21183900.620    86744538.01348
  24069995.700   126488749.98108  24069993.620    98562683.82945
  24743843.060   130029753.09207  24743843.340   101321880.37945
  23116548.380   121478288.61308  23116547.600    94658419.32247
  23664551.120   124358041.15808  23664548.940    96902356.32346
  22776977.940   119693814.56109  22776974.520    93267888.09647
 15 02 15 00 47 30.0000000  0  8G16G18G21G22G25G27G29G31
  21868558.320   114920056.64409  21868554.900    89548079.53547
  22617750.560   118857145.90709  22617747.240    92615982.66046
  21190325.960   111355918.50209  21190321.720    86770831.18248
  24052055.740   126394476.53608  24052053.420    98489224.36245
  24763016.860   130130512.32308  24763017.260   101400393.95344
  23103968.820   121412182.56108  23103967.840    94606908.15347
  23678253.720   124430046.65008  23678251.180    96958464.54446
  22793714.780   119781766.77809  22793711.360    93336422.24447
 15 02 15 00 48  0.0000000  0  8G16G18G21G22G25G27G29G31
  21854505.400   114846207.39909  21854501.820    89490534.63847
  22605811.480   118794405.39809  22605808.040    92567093.96446
  21196812.100   111390003.48709  21196807.860    86797390.91548
  24034112.980   126300188.04408  24034110.520    98415753.17045
  24782216.940   130231410.06207  24782217.700   101479015.43345
  23091406.800   121346169.26508  23091405.480    94555469.22747
  23691962.000   124502082.92609  23691959.120    97014596.70246
  22810491.540   119869929.02109  22810488.140    93405120.04247
 15 02 15 00 48 30.0000000  0  8G16G18G21G22G25G27G29G31
  21840499.260   114772603.83309  21840495.680    89433181.22048
  22593925.580   118731943.97509  22593922.060    92518422.73446
  21203362.760   111424427.53209  21203358.560    86824214.86048
  24016167.620   126205885.47908  24016164.920    98342271.00845
  24801442.980   130332443.21408  24801443.480   101557742.53744
  23078862.280   121280247.25508  23078860.820    94504101.40947
  23705675.420   124574148.32208  23705672.980    97070751.51646
  22827307.380   119958296.68609  22827304.040    93473977.91247
 15 02 15 00 49  0.0000000  0  7G16G18G21G22G27G29G31
  21826541.760   114699256.15509  21826537.940    89376027.18848
  22582094.700   118669772.23609  22582091.220    92469977.23347
  21209979.220   111459197.14008  21209975.120    86851308.07248
  23998221.540   126111579.26908  23998218.720    98268785.95146
  23066336.660   121214424.48608  23066335.580    94452810.98047
  23719395.700   124646250.18908  23719393.240    97126934.73546
  22844163.300   120046875.02009  22844159.940    93542999.92747
 15 02 15 00 49 30.0000000  0  7G16G18G21G22G27G29G31
  21812631.100   114626154.62309  21812627.140    89319064.93047
  22570316.960   118607880.59609  22570313.680    92421750.00246
  21216658.840   111494298.68309  21216654.720    86878659.90348
  23980273.060   126017260.10008  23980270.140    98195290.77346
  23053827.380   121148688.94508  23053826.500    94401588.53247
  23733121.020   124718377.22208  23733118.520    97183137.64346
  22861056.440   120135648.85709  22861053.020    93612174.28847
 15 02 15 00 50  0.0000000  0  7G16G18G21G22G27G29G31
  21798768.040   114553303.48609  21798763.900    89262297.82948
  22558593.380   118546273.52209  22558590.200    92373744.52046
  21223401.680   111529732.43108  21223397.580    86906270.65948
  23962322.960   125922932.67608  23962319.900    98121789.20245
  23041335.160   121083042.81309  23041334.040    94350435.71047
  23746851.600   124790530.97908  23746849.400    97239361.31746
  22877986.640   120224617.69309  22877983.180    93681500.59247
 15 02 15 00 50 30.0000000  0  7G16G18G21G22G27G29G31
  21784954.940   114480715.26009  21784950.780    89205735.61248
  22546926.380   118484963.21709  22546923.200    92325970.28146
  21230209.280   111565506.44508  21230205.180    86934146.49748
  23944373.580   125828609.68508  23944370.460    98048291.06345
  23028862.020   121017495.96209  23028860.620    94299360.26747
  23760588.660   124862721.90308  23760587.100    97295613.92546
  22894955.340   120313788.49209  22894951.800    93750984.28947
 15 02 15 00 51  0.0000000  0  7G16G18G21G22G27G29G31
  21771189.820   114408379.49509  21771185.900    89149370.07848
  22535314.060   118423939.80909  22535310.700    92278419.57546
  21237079.040   111601607.33808  21237074.900    86962277.05148
  23926423.060   125734280.98908  23926420.060    97974788.46246
  23016405.560   120952035.94009  23016404.260    94248352.45347
  23774330.560   124934937.08108  23774328.580    97351885.45645
  22911959.500   120403145.67309  22911955.920    93820613.20347
 15 02 15 00 51 30.0000000  0  7G16G18G21G22G27G29G31
  21757473.420   114336299.95709  21757469.660    89093204.23748
  22523757.040   118363207.27709  22523753.640    92231095.55346
  21244011.020   111638034.97309  21244006.820    86990662.24048
  23908472.540   125639951.41008  23908469.360    97901285.15045
  23003966.020   120886664.48109  23003964.900    94197413.68147
  23788077.840   125007178.44508  23788074.760    97408177.45145
  22928998.860   120492687.98209  22928995.280    93890386.34847
 15 02 15 00 52  0.0000000  0  7G16G18G21G22G27G29G31
  21743807.540   114264486.21109  21743803.980    89037245.50348
  22512257.260   118302775.54909  22512253.960    92184005.91446
  21251006.160   111674794.56609  21251001.860    87019306.06448
  23890523.720   125545630.38108  23890520.300    97827788.48046
  22991544.620   120821388.70109  22991543.340    94146549.44047
  23801831.500   125079453.06608  23801828.440    97464495.30046
  22946074.220   120582419.57609  22946070.760    93960307.00947
 15 02 15 00 52 30.0000000  0  7G16G18G21G22G27G29G31
  21730192.900   114192940.74209  21730189.520    88981495.78948
  22500815.260   118242647.21809  22500812.000    92137152.69546
  21258064.100   111711884.83008  21258059.880    87048207.56848
  23872577.120   125451320.90008  23872573.580    97754300.82045
  22979141.160   120756208.94308  22979139.660    94095759.99247
  23815591.100   125151761.08208  23815588.600    97520839.15546
  22963185.120   120672337.89709  22963181.800    94030373.16947
 15 02 15 00 53  0.0000000  0  7G16G18G21G22G27G29G31
  21716629.100   114121662.18709  21716625.420    88925954.04648
  22489430.700   118182820.61009  22489427.320    92090534.56146
  21265184.000   111749300.46708  21265179.880    87077362.63348
  23854632.360   125357021.56408  23854628.780    97680821.04846
  22966754.960   120691121.27508  22966753.760    94045042.35747
  23829356.420   125224098.55009  23829354.460    97577205.94046
  22980330.240   120762436.01609  22980327.100    94100579.41247
 15 02 15 00 53 30.0000000  0  7G16G18G21G22G27G29G31
  21703115.900   114050650.25509  21703112.300    88870620.08748
  22478103.540   118123295.90309  22478100.020    92044151.67146
  21272365.100   111787037.54909  21272361.040    87106768.13748
  23836689.480   125262732.60908  23836686.000    97607349.38545
  22954386.160   120626123.46709  22954385.380    93994394.72947
  23843127.100   125296463.13208  23843124.940    97633593.91146
  22997508.600   120852708.62009  22997505.520    94170921.62547
 15 02 15 00 54  0.0000000  0  7G16G18G21G22G27G29G31
  21689653.900   113979907.23309  21689650.340    88815495.66048
  22466834.200   118064075.42109  22466830.760    91998005.86346
  21279606.980   111825093.90909  21279602.940    87136422.45248
  23818749.200   125168456.77408  23818745.500    97533887.89345
  22942034.640   120561215.35508  22942033.980    93943817.01247
  23856902.980   125368854.79008  23856900.300    97690002.98345
  23014719.660   120943152.89109  23014716.600    94241397.61147
 15 02 15 00 54 30.0000000  0  7G16G18G21G22G27G29G31
  21676245.140   113909443.51309  21676241.400    88760588.84148
  22455624.700   118005169.72709  22455621.320    91952105.33846
  21286910.980   111863476.19709  21286906.880    87166330.71648
  23800813.500   125074204.83008  23800809.620    97460445.05446
  22929701.640   120496405.17408  22929701.280    93893315.59547
  23870685.440   125441281.74608  23870682.820    97746439.55246
  23031964.340   121033773.98909  23031961.280    94312011.38847
 15 02 15 00 55  0.0000000  0  7G16G18G21G22G27G29G31
  21662888.740   113839255.24409  21662885.180    88705896.71248
  22444474.460   117946575.17509  22444471.040    91906447.25246
  21294275.580   111902176.76608  21294271.340    87196487.03848
  23782881.660   124979973.07708  23782877.580    97387017.87146
  22917386.020   120431686.85508  22917385.520    93842885.74847
  23884473.340   125513737.57308  23884471.280    97802898.53446
  23049240.940   121124562.90309  23049237.960    94382755.90647
 15 02 15 00 55 30.0000000  0  7G16G18G21G22G27G29G31
  21649585.120   113769344.91109  21649581.740    88651421.20448
  22433384.020   117888294.38809  22433380.560    91861033.66847
  21301700.420   111941194.22208  21301696.100    87226890.22048
  23764954.320   124885764.98908  23764950.320    97313609.16446
  22905087.860   120367060.86808  22905087.760    93792527.87348
  23898267.080   125586223.14708  23898265.460    97859380.79546
  23066548.940   121215517.07309  23066546.060    94453629.20547
