     2.11           OBSERVATION DATA    G                   RINEX VERSION / TYPE
SPIDER V4,0,0,3554                      2015 03 19 00:13    PGM / RUN BY / DATE 
CNGR                                                        MARKER NAME         
CNGR                                                        MARKER NUMBER       
                                                            OBSERVER / AGENCY   
496521              LEICA GRX1200+GNSS  8.10/4.007          REC # / TYPE / VERS 
10321004            LEIAR25         NONE                    ANT # / TYPE        
  5218738.7445   688113.1521  3590185.5476                  APPROX POSITION XYZ 
        0.0720        0.0000        0.0000                  ANTENNA: DELTA H/E/N
     1     1                                                WAVELENGTH FACT L1/2
     4    C1    L1    P2    L2                              # / TYPES OF OBSERV 
    30.000                                                  INTERVAL            
  2015    02    15    00    00    0.0000000     GPS         TIME OF FIRST OBS   
  2015    02    15    23    59   30.0000000     GPS         TIME OF LAST OBS    
    16                                                      LEAP SECONDS        
    30                                                      # OF SATELLITES     
   G 1   816   816   816   816                              PRN / # OF OBS      
   G 2   943   943   943   943                              PRN / # OF OBS      
   G 3   860   860   860   860                              PRN / # OF OBS      
   G 4   844   844   843   843                              PRN / # OF OBS      
   G 5   633   633   633   633                              PRN / # OF OBS      
   G 6   829   829   829   829                              PRN / # OF OBS      
   G 7   676   676   676   676                              PRN / # OF OBS      
   G 9   817   817   817   817                              PRN / # OF OBS      
   G10   748   748   747   747                              PRN / # OF OBS      
   G11   778   778   778   778                              PRN / # OF OBS      
   G12   841   841   841   841                              PRN / # OF OBS      
   G13   777   777   777   777                              PRN / # OF OBS      
   G14   942   942   941   941                              PRN / # OF OBS      
   G15   667   667   667   667                              PRN / # OF OBS      
   G16   668   668   667   667                              PRN / # OF OBS      
   G17   943   943   942   942                              PRN / # OF OBS      
   G18   904   904   902   902                              PRN / # OF OBS      
   G19   755   755   755   755                              PRN / # OF OBS      
   G20   801   801   801   801                              PRN / # OF OBS      
   G21   731   731   731   731                              PRN / # OF OBS      
   G22   661   660   659   659                              PRN / # OF OBS      
   G23   761   761   761   761                              PRN / # OF OBS      
   G24   827   827   827   827                              PRN / # OF OBS      
   G25   867   867   867   867                              PRN / # OF OBS      
   G27   810   810   810   810                              PRN / # OF OBS      
   G28   866   866   866   866                              PRN / # OF OBS      
   G29   750   750   749   749                              PRN / # OF OBS      
   G30   723   723   722   722                              PRN / # OF OBS      
   G31   863   863   863   863                              PRN / # OF OBS      
   G32   778   778   778   778                              PRN / # OF OBS      
BIT 2 OF LLI FLAGS DATA COLLECTED UNDER A/S CONDITION       COMMENT             
SNR is mapped to RINEX snr flag value [2-9]                 COMMENT             
Lx:     = 25dBHz -> 1; 26-27dBHz -> 2; 28-31dBHz -> 3       COMMENT             
       32-35dBHz -> 4; 36-38dBHz -> 5; 39-41dBHz -> 6       COMMENT             
       42-44dBHz -> 7; 45-48dBHz -> 8; >=49dBHz -> 9        COMMENT             
                                                            END OF HEADER       
 15 02 15 00 00  0.0000000  0  7G16G18G21G25G27G29G31
  23524243.880   123620743.42008  23524241.040    96327835.48146
  23773691.740   124931668.28908  23773689.600    97349366.55244
  20877474.860   109712175.90908  20877470.620    85490141.44148
  22930929.500   120503100.96909  22930929.600    93898584.01147
  24539708.560   128957041.54606  24539708.840   100486001.06444
  22332569.040   117358867.23209  22332566.820    91448636.45948
  21499934.960   112982936.18909  21499931.460    88038641.35748
 15 02 15 00 00 30.0000000  0  7G16G18G21G25G27G29G31
  23507209.540   123531227.17508  23507206.600    96258082.59646
  23758843.140   124853639.97508  23758840.920    97288565.37745
  20876817.420   109708721.44608  20876813.300    85487449.66048
  22946331.860   120584041.50808  22946332.040    93961654.54447
  24525608.080   128882942.74206  24525608.220   100428261.83543
  22344979.080   117424082.50109  22344976.720    91499453.53948
  21510201.440   113036887.23209  21510198.040    88080681.11648
 15 02 15 00 01  0.0000000  0  7G16G18G21G25G27G29G31
  23490185.700   123441766.00908  23490182.560    96188372.59845
  23744003.520   124775658.75108  23744001.380    97227800.93044
  20876245.080   109705714.19708  20876241.080    85485106.35348
  22961784.340   120665245.49609  22961784.580    94024930.36047
  24511524.560   128808932.93806  24511524.820   100370591.93143
  22357401.500   117489362.23309  22357399.040    91550320.83248
  21520555.760   113091299.82609  21520552.460    88123080.52248
 15 02 15 00 01 30.0000000  0  7G16G18G21G25G27G29G31
  23473171.720   123352356.90308  23473168.480    96118703.18946
  23729172.680   124697722.49408  23729170.460    97167071.47645
  20875756.680   109703148.11608  20875752.780    85483106.82148
  22977285.840   120746707.35809  22977286.160    94088407.11047
  24497456.920   128735007.18006  24497457.120   100312987.52844
  22369835.080   117554700.49509  22369832.380    91601233.73848
  21530996.640   113146167.03409  21530993.420    88165834.18548
 15 02 15 00 02  0.0000000  0  7G16G18G21G25G27G29G31
  23456168.660   123263005.24408  23456165.240    96049078.50746
  23714351.580   124619837.10908  23714349.540    97106381.68445
  20875353.180   109701028.14808  20875349.380    85481454.90048
  22992836.920   120828429.83608  22992837.360    94152086.95247
  24483405.880   128661168.94206  24483406.040   100255451.30643
  22382280.620   117620100.92809  22382277.500    91652195.10948
  21541524.260   113201490.06409  21541521.100    88208943.02148
 15 02 15 00 02 30.0000000  0  7G16G18G21G25G27G29G31
  23439176.340   123173710.24908  23439172.960    95979497.99846
  23699540.360   124542003.55908  23699538.360    97045732.29645
  20875033.960   109699350.74308  20875030.180    85480147.83248
  23008437.240   120910410.28108  23008437.800    94215967.79047
  24469371.100   128587416.36406  24469371.680   100197981.82244
  22394737.320   117685560.72409  22394734.200    91703202.70248
  21552137.900   113257265.10509  21552134.840    88252404.06748
 15 02 15 00 03  0.0000000  0  7G16G18G21G25G27G29G31
  23422194.780   123084472.00608  23422191.340    95909961.71745
  23684739.120   124464222.43208  23684736.960    96985123.70945
  20874798.380   109698112.75408  20874794.660    85479183.17148
  23024086.120   120992645.96909  23024086.760    94280047.52247
  24455352.260   128513747.42206  24455353.020   100140577.49144
  22407204.780   117751077.70509  22407201.940    91754254.86047
  21562836.780   113313488.15409  21562833.780    88296214.22348
 15 02 15 00 03 30.0000000  0  7G16G18G21G25G27G29G31
  23405225.120   122995295.94908  23405221.760    95840473.89946
  23669949.060   124386500.33608  23669946.800    96924561.14645
  20874647.060   109697317.37309  20874643.360    85478563.39748
  23039784.200   121075139.70208  23039785.020    94344328.33747
  24441350.080   128440165.64306  24441351.040   100083241.12644
  22419683.560   117816654.74609  22419680.880    91805353.84548
  21573621.180   113370160.68209  21573618.240    88340374.62448
 15 02 15 00 04  0.0000000  0  7G16G18G21G25G27G29G31
  23388267.200   122906181.84308  23388263.900    95771034.34646
  23655170.360   124308838.02208  23655168.260    96864045.17245
  20874579.500   109696961.92008  20874575.800    85478286.42748
  23055530.860   121157889.07708  23055531.680    94408808.34547
  24427364.080   128366669.33706  24427364.780   100025971.35544
  22432173.380   117882290.31509  22432170.900    91856498.41448
  21584490.420   113427278.87409  21584487.500    88384882.28848
 15 02 15 00 04 30.0000000  0  7G16G18G21G25G27G29G31
  23371321.240   122817130.15108  23371318.080    95701643.43246
  23640403.300   124231236.76308  23640401.100    96803576.77745
  20874595.400   109697045.01208  20874591.660    85478351.18748
  23071325.700   121240891.77408  23071326.740    94473485.74847
  24413394.060   128293256.95106  24413394.460    99968766.96443
  22444673.940   117947981.81109  22444671.600    91907686.59448
  21595443.800   113484839.01709  21595440.840    88429734.34948
 15 02 15 00 05  0.0000000  0  7G16G18G21G25G27G29G31
  23354387.580   122728143.20108  23354384.480    95632302.98446
  23625648.500   124153700.04508  23625646.260    96743158.63245
  20874694.680   109697566.48508  20874690.900    85478757.53548
  23087168.720   121324147.49808  23087169.600    94538360.32447
  24399440.240   128219928.95906  24399440.580    99911628.31344
  22457185.120   118013729.28609  22457182.940    91958918.38347
  21606480.980   113542839.34309  21606477.940    88474929.39248
 15 02 15 00 05 30.0000000  0  7G16G18G21G25G27G29G31
  23337466.780   122639223.75008  23337463.680    95563015.11246
  23610906.620   124076231.42308  23610904.420    96682793.58145
  20874877.460   109698526.76409  20874873.560    85479505.81348
  23103059.880   121407656.76208  23103060.680    94603432.44147
  24385502.700   128146686.65506  24385503.080    99854556.44644
  22469707.380   118079533.89709  22469705.100    92010194.69048
  21617601.780   113601279.22109  21617598.640    88520466.95348
 15 02 15 00 06  0.0000000  0  7G16G18G21G25G27G29G31
  23320559.020   122550372.71108  23320555.940    95493780.55546
  23596178.160   123998833.28208  23596175.960    96622483.41545
  20875143.320   109699923.71308  20875139.260    85480594.34848
  23118999.120   121491417.83308  23118999.860    94668700.80047
  24371581.260   128073529.13606  24371581.800    99797550.61543
  22482240.320   118145394.51509  22482237.860    92061514.61648
  21628805.620   113660155.48209  21628802.360    88566344.54548
 15 02 15 00 06 30.0000000  0  7G16G18G21G25G27G29G31
  23303664.400   122461590.97008  23303661.340    95424599.98846
  23581463.420   123921507.24608  23581461.260    96562229.45745
  20875492.040   109701756.20909  20875487.900    85482022.27248
  23134985.900   121575429.04008  23134986.420    94734164.05147
  24357675.720   128000455.34806  24357676.220    99740610.06144
  22494783.740   118211309.80209  22494780.800    92112877.15048
  21640091.960   113719465.16009  21640088.580    88612559.86048
 15 02 15 00 07  0.0000000  0  7G16G18G21G25G27G29G31
  23286783.560   122372881.13408  23286780.400    95355475.44746
  23566763.000   123844256.45108  23566760.820    96502034.11445
  20875923.500   109704023.66808  20875919.380    85483789.13348
  23151020.280   121659690.05208  23151020.740    94799821.96247
  24343786.220   127927465.89006  24343786.400    99683735.20144
  22507337.500   118277279.96409  22507334.700    92164282.41647
  21651460.480   113779206.60509  21651456.940    88659111.62948
 15 02 15 00 07 30.0000000  0  7G16G18G21G25G27G29G31
  23269916.640   122284244.61408  23269913.380    95286408.04946
  23552077.500   123767083.78208  23552075.280    96441899.64645
  20876437.700   109706726.13508  20876433.680    85485894.96648
  23167102.120   121744200.17908  23167102.380    94865673.99547
  24329912.720   127854560.88106  24329912.940    99626926.14644
  22519901.480   118343304.18309  22519898.740    92215729.84948
  21662910.740   113839377.59209  21662907.020    88705998.10048
 15 02 15 00 08  0.0000000  0  7G16G18G21G25G27G29G31
  23253064.080   122195684.05508  23253060.840    95217399.83346
  23537407.560   123689992.77208  23537405.440    96381828.81045
  20877034.560   109709863.17108  20877030.680    85488339.42048
  23183231.300   121828959.06408  23183231.460    94931719.85747
  24316055.380   127781740.69807  24316056.020    99570183.20044
  22532475.800   118409382.54409  22532473.020    92267219.48148
  21674442.380   113899976.29109  21674438.520    88753217.85948
 15 02 15 00 08 30.0000000  0  7G16G18G21G25G27G29G31
  23236226.160   122107200.80608  23236222.980    95148451.86346
  23522753.400   123612984.96508  23522751.300    96321822.78646
  20877713.760   109713433.02208  20877710.040    85491121.12648
  23199407.560   121913965.24609  23199407.540    94997958.41946
  24302214.120   127709004.71406  24302214.820    99513505.86545
  22545060.280   118475514.64508  22545057.540    92318750.96248
  21686054.880   113961000.03309  21686050.940    88800768.81548
 15 02 15 00 09  0.0000000  0  7G16G18G21G25G27G29G31
  23219403.100   122018795.90708  23219399.940    95079564.93746
  23508115.460   123536063.03808  23508113.380    96261883.72245
  20878475.140   109717434.67908  20878471.520    85494239.30848
  23215630.620   121999217.38108  23215630.660    95064388.62846
  24288388.760   127636352.43307  24288389.480    99456893.72245
  22557654.820   118541699.42809  22557652.260    92370323.49648
  21697747.680   114022445.99809  21697743.700    88848648.77848
 15 02 15 00 09 30.0000000  0  7G16G18G21G25G27G29G31
  23202595.240   121930470.96308  23202592.300    95010740.33846
  23493494.380   123459229.65808  23493492.040    96202013.61245
  20879318.480   109721866.90408  20879314.940    85497692.99748
  23231900.260   122084714.50108  23231900.140    95131009.74246
  24274579.380   127563783.68507  24274580.040    99400346.69445
  22570259.300   118607936.29209  22570256.700    92421936.64048
  21709520.340   114084311.78409  21709516.380    88896855.86748
 15 02 15 00 10  0.0000000  0  7G16G18G21G25G27G29G31
  23185803.100   121842227.95508  23185800.080    94941979.55346
  23478890.780   123382487.72408  23478888.340    96142214.76645
  20880243.760   109726729.30708  20880240.200    85501481.87648
  23248216.340   122170455.77008  23248215.840    95197821.09646
  24260785.920   127491298.46407  24260786.320    99343864.75044
  22582873.820   118674225.18309  22582871.040    92473590.30348
  21721372.380   114146595.05509  21721368.520    88945388.26648
 15 02 15 00 10 30.0000000  0  7G16G18G21G25G27G29G31
  23169026.960   121754068.55508  23169023.860    94873283.93346
  23464305.180   123305839.30108  23464302.740    96082488.78745
  20881250.700   109732020.63908  20881247.120    85505605.00048
  23264578.640   122256439.82208  23264578.160    95264821.65246
  24247008.240   127418896.33207  24247008.580    99287447.55044
  22595498.040   118740565.07109  22595495.260    92525283.70047
  21733303.380   114209293.22809  21733299.640    88994243.97048
 15 02 15 00 11  0.0000000  0  7G16G18G21G25G27G29G31
  23152267.040   121665994.16608  23152263.840    94804654.54746
  23449737.860   123229286.83908  23449735.320    96022837.59245
  20882339.100   109737739.81208  20882335.460    85510061.49648
  23280986.960   122342665.68208  23280986.500    95332010.60147
  24233246.340   127346577.07807  24233246.760    99231094.90745
  22608131.880   118806955.09509  22608128.960    92577016.16647
  21745312.860   114272403.86009  21745309.240    89043421.06648
 15 02 15 00 11 30.0000000  0  7G16G18G21G25G27G29G31
  23135523.860   121578007.47308  23135520.520    94736093.50446
  23435189.520   123152834.18508  23435187.000    95963264.16045
  20883508.780   109743886.23608  20883505.140    85514850.92448
  23297441.160   122429133.12808  23297440.940    95399387.81346
  24219500.360   127274341.35807  24219500.780    99174807.38045
  22620775.400   118873396.30009  22620772.320    92628788.53147
  21757400.540   114335925.27609  21757397.000    89092918.26548
 15 02 15 00 12  0.0000000  0  7G16G18G21G25G27G29G31
  23118798.200   121490112.85009  23118794.660    94667604.20246
  23420660.940   123076486.24708  23420658.500    95903772.32645
  20884760.180   109750462.14008  20884756.500    85519975.01348
  23313941.540   122515843.59108  23313941.600    95466954.38446
  24205770.720   127202191.45007  24205771.040    99118586.73345
  22633428.920   118939890.77909  22633426.000    92680602.37447
  21769566.420   114399857.69809  21769562.980    89142735.72848
 15 02 15 00 12 30.0000000  0  7G16G18G21G25G27G29G31
  23102089.860   121402309.45008  23102086.160    94599185.96446
  23406152.120   123000242.88708  23406149.900    95844361.97946
  20886092.580   109757463.92108  20886088.860    85525430.94448
  23330487.560   122602793.64708  23330487.680    95534707.66247
  24192056.860   127130124.89507  24192057.080    99062430.99645
  22646091.840   119006435.29309  22646088.900    92732455.21947
  21781809.520   114464195.96509  21781806.120    89192869.42448
 15 02 15 00 13  0.0000000  0  7G16G18G21G25G27G29G31
  23085399.240   121314599.27208  23085395.540    94530840.39346
  23391663.860   122924107.49408  23391661.740    95785035.76546
  20887505.700   109764890.33208  20887502.040    85531217.76648
  23347079.000   122689982.32408  23347079.180    95602646.86646
  24178358.780   127058141.50307  24178359.000    99006340.08745
  22658764.060   119073029.57508  22658761.620    92784346.85148
  21794129.440   114528937.70709  21794126.020    89243317.53548
 15 02 15 00 13 30.0000000  0  7G16G18G21G25G27G29G31
  23068726.100   121226981.36908  23068722.340    94462566.70246
  23377196.080   122848079.69008  23377193.880    95725793.37646
  20888999.020   109772737.98608  20888995.340    85537332.82948
  23363715.180   122777405.84008  23363715.300    95670769.06847
  24164676.060   126986238.39707  24164676.400    98950311.74245
  22671445.120   119139670.36408  22671442.700    92836274.74548
  21806525.140   114594077.59209  21806521.740    89294075.86148
 15 02 15 00 14  0.0000000  0  7G16G18G21G25G27G29G31
  23052071.740   121139462.50808  23052068.140    94394370.21046
  23362750.300   122772167.31608  23362747.940    95666640.92746
  20890573.260   109781010.61308  20890569.520    85543779.03648
  23380396.780   122865068.08808  23380396.860    95739077.29046
  24151009.620   126914420.48707  24151009.940    98894349.78345
  22684135.840   119206362.15009  22684133.500    92888242.34648
  21818997.100   114659618.23409  21818993.700    89345146.48148
 15 02 15 00 14 30.0000000  0  7G16G18G21G25G27G29G31
  23035435.900   121052041.18308  23035432.400    94326249.70946
  23348326.500   122696369.90608  23348323.880    95607578.07046
  20892227.600   109789704.09108  20892223.780    85550553.18748
  23397123.060   122952965.17708  23397123.060    95807568.49446
  24137358.760   126842684.71207  24137359.000    98838451.81245
  22696836.100   119273102.27009  22696833.880    92940247.64047
  21831544.360   114725554.38909  21831540.960    89396525.29848
 15 02 15 00 15  0.0000000  0  7G16G18G21G25G27G29G31
  23018818.980   120964719.32008  23018815.740    94258206.71846
  23333925.140   122620689.82308  23333922.180    95548606.62445
  20893961.880   109798817.67308  20893958.000    85557654.68448
  23413893.880   123041095.99208  23413893.660    95876241.84446
  24123723.460   126771030.80108  24123723.560    98782617.63845
  22709545.440   119339889.84309  22709543.340    92992289.87047
  21844166.360   114791883.43909  21844162.980    89448210.25448
 15 02 15 00 15 30.0000000  0  7G16G18G21G25G27G29G31
  23002220.820   120877495.80308  23002217.480    94190240.35546
  23319546.080   122545126.71208  23319542.800    95489726.32446
  20895775.120   109808346.48208  20895771.280    85565079.74048
  23430708.340   123129455.97208  23430707.900    95945093.77046
  24110103.080   126699455.21508  24110103.020    98726844.48945
  22722263.200   119406721.05309  22722260.900    93044366.13248
  21856861.920   114858599.23309  21856858.580    89500196.57748
 15 02 15 00 16  0.0000000  0  7G16G18G21G25G27G29G31
  22985643.020   120790379.11208  22985639.800    94122357.24246
  23305191.000   122469690.05508  23305187.660    95430944.56746
  20897668.600   109818296.77108  20897664.740    85572833.21648
  23447567.420   123218050.97508  23447566.900    96014128.81246
  24096498.880   126627964.77808  24096498.540    98671137.68145
  22734990.440   119473602.51709  22734987.980    93096481.54448
  21869631.880   114925706.06709  21869628.600    89552487.60448
 15 02 15 00 16 30.0000000  0  7G16G18G21G25G27G29G31
  22969085.940   120703371.11708  22969082.680    94054558.81647
  23290860.300   122394382.19408  23290857.020    95372263.16245
  20899642.000   109828667.09208  20899638.160    85580913.97948
  23464470.840   123306879.87608  23464470.360    96083346.11046
  24082910.800   126556559.15108  24082910.420    98615496.97045
  22747727.100   119540533.81508  22747725.020    93148635.78448
  21882475.800   114993201.64809  21882472.620    89605081.54348
 15 02 15 00 17  0.0000000  0  7G16G18G21G25G27G29G31
  22952549.380   120616470.74708  22952545.940    93986844.24646
  23276554.060   122319203.06808  23276550.820    95313682.05545
  20901694.660   109839453.81209  20901690.800    85589319.21148
  23481417.960   123395938.74908  23481417.680    96152742.61846
  24069338.280   126485235.51808  24069338.080    98559920.13645
  22760472.500   119607511.63609  22760470.480    93200826.29848
  21895392.640   115061080.32109  21895389.520    89657973.99148
 15 02 15 00 17 30.0000000  0  7G16G18G21G25G27G29G31
  22936033.760   120529680.23209  22936030.140    93919215.27946
  23262272.840   122244156.15308  23262269.980    95255203.99745
  20903826.400   109850656.02108  20903822.520    85598048.21448
  23498408.700   123485226.88908  23498408.960    96222317.75646
  24055781.440   126413994.04308  24055781.400    98504407.34345
  22773226.720   119674536.13509  22773224.720    93253053.15947
  21908382.080   115129340.14009  21908379.020    89711163.45348
 15 02 15 00 18  0.0000000  0  7G16G18G21G25G27G29G31
  22919539.540   120443002.27909  22919535.720    93851674.03446
  23248017.440   122169244.25408  23248014.720    95196831.13445
  20906037.100   109862273.27009  20906033.220    85607100.62048
  23515443.100   123574743.72708  23515443.560    96292071.11146
  24042240.320   126342835.17408  24042240.380    98448958.91345
  22785989.880   119741607.58209  22785988.060    93305316.59847
  21921443.680   115197978.86109  21921440.660    89764648.15948
 15 02 15 00 18 30.0000000  0  7G16G18G21G25G27G29G31
  22903066.260   120356434.29508  22903062.340    93784218.46246
  23233787.540   122094466.07108  23233784.800    95138562.45146
  20908325.800   109874300.41209  20908321.920    85616472.42548
  23532520.140   123664484.09908  23532520.560    96361998.65546
  24028714.160   126271754.66808  24028714.120    98393571.55345
  22798761.220   119808721.70209  22798759.360    93357613.30547
  21934576.120   115266989.80809  21934573.100    89818422.90348
 15 02 15 00 19  0.0000000  0  7G16G18G21G25G27G29G31
  22886614.900   120269981.53408  22886610.960    93716852.67247
  23219584.320   122019827.42009  23219581.720    95080402.48846
  20910692.880   109886739.34908  20910689.020    85626165.09948
  23549640.160   123754450.03608  23549640.440    96432101.95346
  24015203.500   126200755.56808  24015203.260    98338247.60545
  22811541.220   119875881.03509  22811539.440    93409945.20947
  21947779.560   115336373.99609  21947776.640    89872488.48348
 15 02 15 00 19 30.0000000  0  7G16G18G21G25G27G29G31
  22870186.120   120183647.67309  22870182.220    93649579.55846
  23205408.540   121945332.52909  23205405.820    95022354.56146
  20913138.440   109899590.69308  20913134.600    85636179.14648
  23566803.160   123844642.17608  23566803.380    96502381.54746
  24001708.580   126129839.52708  24001708.380    98282988.38745
  22824330.060   119943087.10508  22824328.380    93462313.53747
  21961053.720   115406130.04909  21961050.920    89926843.84948
 15 02 15 00 20  0.0000000  0  7G16G18G21G25G27G29G31
  22853779.660   120097431.17009  22853775.940    93582397.88046
  23191259.960   121870980.67409  23191257.300    94964418.09646
  20915661.600   109912849.80209  20915657.780    85646510.92148
  23584008.340   123935055.92808  23584008.640    96572833.79146
  23988228.800   126059002.90208  23988228.660    98227791.04645
  22837127.200   120010336.17208  22837125.080    93514715.41247
  21974397.460   115476252.02909  21974394.780    89981484.33248
 15 02 15 00 20 30.0000000  0  7G16G18G21G25G27G29G31
  22837396.220   120011335.94809  22837392.620    93515310.69646
  23177139.400   121796776.62808  23177136.740    94906596.78646
  20918262.480   109926517.47909  20918258.680    85657161.05948
  23601255.880   124025692.22808  23601256.340    96643459.44446
  23974764.520   125988247.63608  23974764.400    98172657.09745
  22849933.020   120077630.11509  22849930.440    93567152.25847
  21987810.680   115546739.27509  21987808.120    90036409.44348
 15 02 15 00 21  0.0000000  0  7G16G18G21G25G27G29G31
  22821036.740   119925366.46608  22821033.240    93448321.50546
  23163047.780   121722725.27708  23163045.360    94848894.48046
  20920941.320   109940594.77609  20920937.540    85668130.39148
  23618545.980   124116552.28808  23618546.280    96714259.49746
  23961316.160   125917576.01608  23961316.000    98117588.33346
  22862747.580   120144970.85609  22862745.260    93619625.49647
  22001293.440   115617591.91209  22001290.940    90091619.27348
 15 02 15 00 21 30.0000000  0  7G16G18G21G25G27G29G31
  22804700.700   119839520.56109  22804697.420    93381428.61147
  23148985.180   121648825.87309  23148982.820    94791310.56146
  20923697.140   109955076.80708  20923693.380    85679415.08748
  23635877.720   124207630.91008  23635878.000    96785229.80746
  23947882.920   125846983.82908  23947882.520    98062581.45946
  22875570.220   120212354.07909  22875567.700    93672131.88547
  22014844.480   115688803.24709  22014842.000    90147108.60748
 15 02 15 00 22  0.0000000  0  7G16G18G21G25G27G29G31
  22788388.980   119753802.25108  22788385.800    93314635.13947
  23134952.300   121575082.64409  23134949.740    94733848.34445
  20926530.280   109969964.88309  20926526.440    85691016.18948
  23653251.240   124298929.06408  23653251.620    96856371.21946
  23934465.180   125776473.09608  23934464.760    98007638.07746
  22888401.260   120279781.66509  22888399.000    93724672.85347
  22028463.640   115760372.45509  22028461.100    90202876.81548
 15 02 15 00 22 30.0000000  0  7G16G18G21G25G27G29G31
  22772102.000   119668213.77509  22772098.940    93247942.83646
  23120949.720   121501498.46308  23120946.940    94676510.03546
  20929440.400   109985257.32209  20929436.420    85702932.37748
  23670666.240   124390445.53608  23670666.740    96927682.73346
  23921062.840   125706043.60208  23921062.620    97952757.97046
  22901240.680   120347253.64909  22901238.640    93777248.39747
  22042150.380   115832296.67009  22042147.780    90258921.63948
 15 02 15 00 23  0.0000000  0  7G16G18G21G25G27G29G31
  22755840.000   119582756.41709  22755836.920    93181352.69047
  23106977.740   121428075.62009  23106974.720    94619297.46346
  20932427.160   110000952.48909  20932423.040    85715162.36548
  23688122.440   124482178.82708  23688123.100    96999163.17346
  23907675.960   125635694.94208  23907675.820    97897940.86746
  22914088.200   120414769.17208  22914086.500    93829857.86647
  22055904.160   115904573.08509  22055901.480    90315240.89948
 15 02 15 00 23 30.0000000  0  7G16G18G21G25G27G29G31
  22739602.660   119497428.37009  22739599.540    93114863.32546
  23093036.400   121354813.08409  23093033.260    94562209.79146
  20935489.560   110017045.28109  20935485.360    85727702.20848
  23705619.120   124574124.05208  23705619.680    97070808.78046
  23894303.720   125565423.28608  23894303.600    97843183.76346
  22926943.480   120482324.28508  22926942.240    93882498.21947
  22069723.760   115977195.33709  22069720.980    90371829.65048
 15 02 15 00 24  0.0000000  0  7G16G18G21G25G27G29G31
  22723391.640   119412238.54609  22723388.440    93048481.65447
  23079127.240   121281719.88609  23079124.080    94505254.08846
  20938628.700   110033541.65709  20938624.480    85740556.52948
  23723157.180   124666286.76408  23723157.600    97142623.88546
  23880947.400   125495235.21908  23880947.240    97788491.79246
  22939807.540   120549925.09009  22939806.160    93935174.15547
  22083609.940   116050167.52909  22083607.040    90428691.08948
 15 02 15 00 24 30.0000000  0  7G16G18G21G25G27G29G31
  22707206.180   119327183.14109  22707202.800    92982204.72347
  23065249.780   121208793.30009  23065246.820    94448428.20946
  20941843.220   110050434.14209  20941839.020    85753719.50648
  23740735.320   124758659.85108  23740735.860    97214602.86846
  23867605.780   125425124.73008  23867605.540    97733860.27146
  22952679.260   120617566.36209  22952678.120    93987881.59447
  22097561.040   116123481.04109  22097558.020    90485818.47448
 15 02 15 00 25  0.0000000  0  7G16G18G21G25G27G29G31
  22691047.680   119242269.32409  22691044.200    92916038.11947
  23051405.520   121136041.30108  23051402.620    94391738.36446
  20945133.940   110067726.95109  20945129.700    85767194.43048
  23758354.260   124851247.51508  23758354.780    97286749.07746
  23854279.920   125355097.04408  23854279.640    97679293.26746
  22965559.580   120685252.66109  22965558.160    94040624.16547
  22111577.600   116197138.50409  22111574.500    90543213.87948
 15 02 15 00 25 30.0000000  0  7G16G18G21G25G27G29G31
  22674915.340   119157493.44409  22674911.880    92849978.99847
  23037593.820   121063460.45409  23037590.940    94335181.89546
  20948499.480   110085413.11408  20948495.260    85780975.86248
  23776012.780   124944042.78308  23776013.100    97359057.05646
  23840968.720   125285146.35808  23840968.480    97624786.28046
  22978447.300   120752977.88708  22978446.100    94093397.02247
  22125657.960   116271131.54709  22125654.840    90600870.77948
 15 02 15 00 26  0.0000000  0  7G16G18G21G25G27G29G31
  22658810.400   119072861.72909  22658806.960    92784032.22347
  23023815.960   120991057.78408  23023813.140    94278764.26146
  20951940.400   110103495.56008  20951936.240    85795066.08748
  23793711.400   125037048.55008  23793711.860    97431529.07446
  23827672.880   125215276.62808  23827672.740    97570342.36646
  22991343.260   120820746.13108  22991341.660    94146203.45647
  22139802.420   116345461.50909  22139799.360    90658790.21048
 15 02 15 00 26 30.0000000  0  7G16G18G21G25G27G29G31
  22642733.260   118988375.99809  22642729.840    92718199.20047
  23010072.460   120918835.68808  23010069.840    94222487.33946
  20955456.440   110121972.90308  20955452.360    85809464.01748
  23811449.620   125130263.33108  23811450.120    97504163.92346
  23814392.300   125145487.49208  23814392.300    97515961.25346
  23004247.360   120888556.93808  23004245.540    94199043.03547
  22154010.440   116420125.37609  22154007.440    90716969.83048
 15 02 15 00 27  0.0000000  0  7G16G18G21G25G27G29G31
  22626684.040   118904036.69909  22626680.700    92652480.28447
  22996363.480   120846795.09709  22996360.880    94166351.83946
  20959046.920   110140841.48408  20959042.940    85824166.80548
  23829227.120   125223684.09408  23829227.380    97576959.31246
  23801126.660   125075777.01608  23801126.740    97461641.43546
  23017159.200   120956408.52609  23017157.100    94251914.38447
  22168281.120   116495118.51109  22168278.220    90775406.00648
 15 02 15 00 27 30.0000000  0  7G16G18G21G25G27G29G31
  22610663.260   118819846.94809  22610659.860    92586877.89147
  22982689.900   120774940.27809  22982687.120    94110361.11146
  20962711.980   110160101.88208  20962708.080    85839174.91248
  23847043.820   125317311.39708  23847044.360    97649915.61246
  23787876.400   125006146.89508  23787876.540    97407384.23047
  23030079.100   121024302.16809  23030076.560    94304818.48847
  22182614.380   116570440.28209  22182611.540    90834098.29248
 15 02 15 00 28  0.0000000  0  7G16G18G21G25G27G29G31
  22594670.780   118735806.17409  22594667.340    92521391.59047
  22969051.700   120703270.96908  22969048.960    94054514.90346
  20966450.780   110179749.78708  20966446.900    85854484.97248
  23864898.980   125411140.89608  23864899.580    97723029.49346
  23774640.940   124936593.90208  23774641.020    97353187.11547
  23043006.340   121092234.25109  23043003.680    94357752.54447
  22197009.040   116646084.41609  22197006.200    90893041.75048
 15 02 15 00 28 30.0000000  0  7G16G18G21G25G27G29G31
  22578708.040   118651921.80609  22578704.520    92456027.15147
  22955450.320   120631795.01709  22955447.380    93998819.38646
  20970264.140   110199789.26308  20970260.220    85870100.15448
  23882793.200   125505176.77608  23882794.020    97796304.16646
  23761421.200   124867123.34208  23761421.120    97299054.24047
  23055941.760   121160210.38708  23055939.000    94410720.93747
  22211465.620   116722053.70209  22211462.740    90952238.58448
 15 02 15 00 29  0.0000000  0  7G16G18G21G25G27G29G31
  22562774.360   118568190.34609  22562770.720    92390781.86046
  22941885.240   120560509.54409  22941882.280    93943272.29746
  20974150.740   110220213.58708  20974146.820    85886015.21248
  23900725.340   125599412.15308  23900726.300    97869734.29946
  23748216.120   124797729.59008  23748215.860    97244981.20547
  23068884.620   121228225.33908  23068881.760    94463719.62747
  22225982.560   116798340.02709  22225979.620    91011682.45148
 15 02 15 00 29 30.0000000  0  7G16G18G21G25G27G29G31
  22546870.860   118484617.34709  22546867.080    92325660.04446
  22928357.560   120489420.73009  22928354.300    93887878.41646
  20978110.920   110241024.37009  20978106.920    85902231.39948
  23918696.020   125693849.06408  23918697.100    97943321.44945
  23735026.140   124728415.70608  23735025.800    97190970.41347
  23081835.380   121296281.58709  23081832.800    94516750.42547
  22240559.900   116874943.82209  22240556.880    91071373.69548
 15 02 15 00 30  0.0000000  0  7G16G18G21G25G27G29G31
  22530997.920   118401205.12208  22530994.260    92260663.51647
  22914867.900   120418531.60409  22914864.460    93832640.16146
  20982144.560   110262220.92608  20982140.500    85918748.20048
  23936704.940   125788486.79308  23936706.020    98017065.09345
  23721851.400   124659182.28208  23721851.140    97137022.30547
  23094793.960   121364379.57609  23094791.480    94569813.75747
  22255197.180   116951862.79809  22255194.100    91131310.54448
 15 02 15 00 30 30.0000000  0  7G16G18G21G25G27G29G31
  22515155.460   118317952.94009  22515151.960    92195791.69647
  22901416.040   120347841.55009  22901412.640    93777557.02346
  20986250.820   110283799.30808  20986246.780    85935562.52748
  23954751.400   125883321.19108  23954752.380    98090962.02446
  23708691.360   124590026.19908  23708691.220    97083134.47747
  23107759.660   121432516.40808  23107757.260    94622907.35347
  22269893.260   117029091.11509  22269890.160    91191488.44048
 15 02 15 00 31  0.0000000  0  8G16G18G21G22G25G27G29G31
  22499343.840   118234862.45609  22499340.400    92131045.87247
  22888002.560   120277353.02509  22887998.980    93722630.91346
  20990429.340   110305757.46309  20990425.300    85952672.77848
  24539801.980   128957520.87608                                
  23972834.980   125978350.46208  23972835.920    98165010.76646
  23695546.000   124520946.89808  23695545.860    97029306.48647
  23120732.940   121500691.22608  23120730.820    94676030.57547
  22284647.540   117106625.47209  22284644.440    91251904.80048
 15 02 15 00 31 30.0000000  0  8G16G18G21G22G25G27G29G31
  22483563.960   118151938.40909  22483560.640    92066429.74047
  22874628.340   120207071.15308  22874624.800    93667865.83146
  20994680.400   110328096.62209  20994676.300    85970079.91648
  24521999.180                                                  
  23990955.900   126073575.90908  23990956.800    98239212.36046
  23682415.660   124451946.91008  23682415.540    96975540.28947
  23133713.800   121568906.63708  23133711.600    94729185.44547
  22299460.020   117184465.75009  22299456.940    91312559.54448
 15 02 15 00 32  0.0000000  0  8G16G18G21G22G25G27G29G31
  22467816.520   118069184.38509  22467813.180    92001946.09847
  22861294.100   120137000.20508  22861290.900    93613265.12746
  20999003.940   110350816.56809  20998999.780    85987783.77748
  24504180.860   128770335.20208  24504183.080   100340529.71243
  24009114.220   126168997.44208  24009114.780    98313566.76445
  23669300.600   124383027.32008  23669300.540    96921836.74747
  23146702.760   121637163.73008  23146700.580    94782372.77047
  22314330.460   117262610.54209  22314327.380    91373451.57148
 15 02 15 00 32 30.0000000  0  8G16G18G21G22G25G27G29G31
  22452101.060   117986598.49209  22452097.660    91937593.46647
  22847999.800   120067139.08608  22847997.000    93558827.90946
  21003399.000   110373912.37809  21003394.780    86005780.51048
  24486347.720   128676622.70309  24486349.400   100267506.51557
  24027308.960   126264610.33708  24027309.360    98388070.30545
  23656200.200   124314184.61108  23656200.200    96868193.09847
  23159698.900   121705459.09309  23159697.140    94835589.90147
  22329257.620   117341053.52609  22329254.660    91434575.95848
 15 02 15 00 33  0.0000000  0  8G16G18G21G22G25G27G29G31
  22436418.860   117904187.38609  22436415.360    91873377.02047
  22834746.580   119997494.61309  22834743.840    93504559.51646
  21007866.100   110397387.05209  21007861.860    86024072.46848
  24468499.480   128582830.12608  24468501.140   100194420.81445
  24045540.520   126360417.41108  24045540.920    98462725.12046
  23643115.240   124245422.88408  23643115.300    96814612.54847
  23172703.020   121773796.42309  23172700.900    94888839.73047
  22344241.820   117419796.20709  22344238.940    91495933.85648
 15 02 15 00 33 30.0000000  0  8G16G18G21G22G25G27G29G31
  22420768.900   117821945.76309  22420765.320    91809292.64447
  22821533.800   119928061.96508  22821531.220    93450456.16646
  21012403.540   110421231.72308  21012399.360    86042652.73548
  24450635.980   128488955.93809  24450637.960   100121273.65447
  24063807.340   126456410.00908  24063807.780    98537524.50645
  23630044.280   124176734.62008  23630044.420    96761089.25447
  23185714.040   121842168.47108  23185712.040    94942116.62347
  22359281.080   117498828.12509  22359278.240    91557517.14748
 15 02 15 00 34  0.0000000  0  8G16G18G21G22G25G27G29G31
  22405152.600   117739881.23709  22405148.980    91745346.25947
  22808362.920   119858849.42009  22808360.540    93396524.33746
  21017012.140   110445450.51008  21017008.060    86061524.51948
  24432758.680   128395008.88908  24432761.480   100048065.88745
  24082110.160   126552592.39208  24082110.560    98612471.78945
  23616988.320   124108125.34008  23616988.500    96707627.50447
  23198732.700   121910580.71608  23198730.500    94995424.84847
  22374375.940   117578152.06609  22374373.160    91619327.98148
 15 02 15 00 34 30.0000000  0  8G16G18G21G22G25G27G29G31
  22389570.720   117657997.95309  22389567.060    91681541.09547
  22795234.860   119789861.47709  22795232.380    93342767.50946
  21021692.020   110470044.02708  21021688.020    86080688.30248
  24414868.380   128300994.00008  24414870.960    99974807.95246
  24100449.180   126648965.15008  24100449.840    98687567.37546
  23603947.680   124039596.85808  23603947.880    96654228.71347
  23211759.280   121979034.63709  23211756.560    95048765.55147
  22389526.220   117657767.12509  22389523.420    91681365.65448
 15 02 15 00 35  0.0000000  0  8G16G18G21G22G25G27G29G31
  22374022.740   117576292.77709  22374019.060    91617874.73347
  22782149.120   119721095.22609  22782146.460    93289183.43846
  21026441.800   110495004.70408  21026437.860    86100138.18748
  24396964.360   128206907.74508  24396966.680    99901494.75345
  24118823.100   126745521.34808  24118823.800    98762805.91745
  23590921.320   123971143.52308  23590921.560    96600888.48147
  23224792.660   122047524.95209  23224789.820    95102134.58447
  22404730.320   117737664.90509  22404727.480    91743623.64048
 15 02 15 00 35 30.0000000  0  8G16G18G21G22G25G27G29G31
  22358509.640   117494770.93109  22358506.040    91554351.21247
  22769106.620   119652556.25009  22769103.860    93235776.46446
  21031261.800   110520334.28508  21031257.860    86119875.51948
  24379047.460   128112755.64008  24379049.580    99828130.50145
  24137232.300   126842262.86408  24137232.840    98838188.88345
  23577909.960   123902768.47808  23577910.180    96547609.24447
  23237833.380   122116054.62609  23237830.260    95155534.32347
  22419988.280   117817845.76309  22419985.440    91806102.20048
 15 02 15 00 36  0.0000000  0  8G16G18G21G22G25G27G29G31
  22343032.120   117413436.03509  22343028.520    91490973.38647
  22756108.380   119584249.10709  22756105.360    93182550.10746
  21036152.200   110546033.97308  21036148.340    86139901.26048
  24361118.420   128018541.38008  24361120.460    99754717.89845
  24155677.020   126939190.09108  24155677.340    98913716.53945
  23564913.880   123834473.36708  23564914.120    96494392.30547
  23250881.760   122184625.51109  23250879.240    95208966.11647
  22435299.840   117898308.47809  22435297.000    91868800.39748
 15 02 15 00 36 30.0000000  0  8G16G18G21G22G25G27G29G31
  22327589.460   117332284.20409  22327585.940    91427738.20347
  22743153.500   119516170.47209  22743150.480    93129501.85246
  21041111.620   110572095.84309  21041107.760    86160209.21548
  24343176.760   127924261.05408  24343178.580    99681253.79845
  24174155.720   127036295.53708  24174155.820    98989383.08946
  23551931.880   123766252.01808  23551932.080    96441232.83547
  23263936.860   122253230.72708  23263933.980    95262424.75046
  22450663.340   117979044.07909  22450660.500    91931711.23248
 15 02 15 00 37  0.0000000  0  8G16G18G21G22G25G27G29G31
  22312183.280   117251323.73809  22312179.720    91364652.13647
  22730243.640   119448328.59309  22730240.660    93076638.07046
  21046140.860   110598524.12909  21046136.980    86180802.69448
  24325224.140   127829923.28008  24325225.580    99607744.83745
  24192669.260   127133583.73808  24192669.300    99065192.03045
  23538964.980   123698110.16208  23538965.180    96388135.30947
  23276999.900   122321876.92909  23276996.860    95315915.28747
  22466079.380   118060055.93709  22466076.580    91994837.33948
 15 02 15 00 37 30.0000000  0  8G16G18G21G22G25G27G29G31
  22296813.520   117170554.62009  22296809.980    91301715.16547
  22717378.860   119380723.83309  22717375.680    93023959.04746
  21051239.180   110625315.27909  21051235.260    86201678.91148
  24307260.500   127735528.28408  24307261.900    99534191.29645
  24211216.940   127231051.24308  24211216.800    99141140.69646
  23526012.820   123630045.73708  23526012.960    96335098.10747
  23290070.120   122390561.38608  23290066.980    95369435.57746
  22481547.020   118141338.85209  22481544.180    92058174.62848
 15 02 15 00 38  0.0000000  0  8G16G18G21G22G25G27G29G31
  22281480.400   117089977.89809  22281476.800    91238928.11347
  22704559.440   119313357.38709  22704556.320    92971465.72146
  21056406.060   110652466.81009  21056402.100    86222835.96148
  24289286.340   127641077.42708  24289287.580    99460594.18045
  24229798.120   127328695.42708  24229798.060    99217227.00245
  23513075.100   123562057.40708  23513075.120    96282120.21447
  23303147.540   122459283.18509  23303143.940    95422985.04747
  22497065.480   118222888.84209  22497062.600    92121720.05448
 15 02 15 00 38 30.0000000  0  8G16G18G21G22G25G27G29G31
  22266184.860   117009598.99309  22266181.280    91176295.20847
  22691786.560   119246235.77209  22691783.500    92919163.18646
  21061641.800   110679980.31809  21061637.700    86244275.05848
  24271302.720   127546576.45208  24271303.640    99386957.95245
  24248413.140   127426518.20708  24248413.320    99293452.49345
  23500152.440   123494148.38908  23500152.280    96229204.11347
  23316232.660   122528045.42609  23316229.220    95476565.95146
  22512634.900   118304706.27309  22512631.920    92185473.86848
 15 02 15 00 39  0.0000000  0  8G16G18G21G22G25G27G29G31
  22250926.580   116929416.04609  22250922.980    91113814.98747
  22679060.020   119179357.24309  22679056.740    92867050.05346
  21066945.280   110707850.00509  21066941.000    86265991.69548
  24253309.260   127452023.72108  24253309.920    99313281.35745
  24267061.140   127524514.06108  24267061.520    99369812.85645
  23487244.100   123426314.48308  23487243.700    96176346.53647
  23329324.680   122596843.81208  23329321.040    95530175.10847
  22528253.860   118386783.92009  22528250.760    92249430.43648
 15 02 15 00 39 30.0000000  0  8G16G18G21G22G25G27G29G31
  22235706.200   116849432.67709  22235702.640    91051490.29547
  22666380.440   119112725.68709  22666377.320    92815129.37647
  21072316.560   110736076.15309  21072312.180    86287986.10048
  24235306.640   127357422.81708  24235307.280    99239567.20446
  24285742.080   127622683.14508  24285742.640    99446308.19546
  23474350.360   123358557.12308  23474349.800    96123548.60947
  23342423.840   122665679.52408  23342420.440    95583813.34147
  22543922.140   118469120.71709  22543918.940    92313588.94648
 15 02 15 00 40  0.0000000  0  8G16G18G21G22G25G27G29G31
  22220524.780   116769654.49609  22220521.320    90989325.49747
  22653749.020   119046347.15109  22653745.820    92763405.86446
  21077755.960   110764660.66909  21077751.620    86310259.75148
  24217296.220   127262780.44308  24217296.700    99165820.66746
  24304456.380   127721027.57108  24304457.120    99522940.13745
  23461471.860   123290879.82808  23461471.260    96070813.07347
  23355530.720   122734556.78309  23355527.860    95637483.88747
  22559639.840   118551717.06609  22559636.540    92377949.70247
 15 02 15 00 40 30.0000000  0  8G16G18G21G22G25G27G29G31
  22205382.120   116690080.11409  22205378.700    90927319.49947
  22641165.480   118980220.29309  22641162.360    92711878.45947
  21083262.460   110793597.98208  21083258.220    86332808.31048
  24199277.580   127168094.92708  24199277.680    99092040.48345
  24323203.060   127819541.85508  24323203.900    99599704.47445
  23448607.700   123223278.48708  23448607.260    96018136.72247
  23368644.360   122803470.96608  23368642.040    95691183.24747
  22575405.600   118634566.01809  22575402.180    92442507.29548
 15 02 15 00 41  0.0000000  0  8G16G18G21G22G25G27G29G31
  22190278.720   116610712.12309  22190275.260    90865474.32247
  22628630.480   118914348.46309  22628627.500    92660549.77347
  21088835.840   110822887.01408  21088831.840    86355630.93948
  24181251.420   127073369.27108  24181251.180    99018228.99245
  24341981.900   127918225.25408  24341982.860    99676600.55145
  23435758.060   123155753.61208  23435757.800    95965519.94847
  23381765.340   122872422.78308  23381763.080    95744911.94146
  22591219.080   118717665.74209  22591215.560    92507260.29347
 15 02 15 00 41 30.0000000  0  8G16G18G21G22G25G27G29G31
  22175215.020   116531552.52809  22175211.500    90803791.52747
  22616144.300   118848733.44709  22616141.320    92609421.20746
  21094475.820   110852525.91108  21094471.960    86378726.17748
  24163218.020   126978605.59508  24163217.360    98944387.80145
  24360792.720   128017075.75108  24360793.560    99753626.84645
  23422922.880   123088304.64308  23422922.760    95912962.32947
  23394893.400   122941411.80609  23394891.600    95798669.58447
  22607079.500   118801012.42809  22607075.900    92572205.73047
 15 02 15 00 42  0.0000000  0  8G16G18G21G22G25G27G29G31
  22160191.580   116452604.32009  22160188.080    90742273.45947
  22603707.720   118783378.93309  22603704.820    92558495.62047
  21100182.420   110882514.57509  21100178.540    86402093.97348
  24145178.200   126883807.66108  24145177.000    98870519.89346
  24379635.340   128116093.19908  24379635.900    99830783.24345
  23410102.400   123020932.71808  23410102.320    95860464.75047
  23408028.660   123010439.09808  23408027.160    95852457.04446
  22622986.540   118884604.32109  22622982.920    92637342.23447
 15 02 15 00 42 30.0000000  0  8G16G18G21G22G25G27G29G31
  22145208.380   116373867.20909  22145204.860    90680919.87047
  22591320.640   118718284.80309  22591317.840    92507772.94446
  21105954.820   110912848.64909  21105950.880    86425730.92148
  24127131.740   126788975.35708  24127130.340    98796625.18145
  24398509.060   128215273.51208  24398509.320    99908066.55646
  23397296.100   122953635.22008  23397295.940    95808025.16447
  23421170.960   123079502.05408  23421169.400    95906272.33847
  22638939.140   118968435.93209  22638935.540    92702665.52147
 15 02 15 00 43  0.0000000  0  8G16G18G21G22G25G27G29G31
  22130266.820   116295348.81609  22130263.260    90619736.71047
  22578984.740   118653459.07409  22578982.060    92457259.40146
  21111793.700   110943531.82909  21111789.620    86449639.89248
  24109080.180   126694116.31208  24109078.440    98722709.58545
  24417414.520   128314620.49408  24417414.440    99985479.72945
  23384504.940   122886417.33408  23384504.640    95755647.61247
  23434320.900   123148605.75408  23434318.820    95960119.35947
  22654937.820   119052509.79409  22654934.260    92768177.59147
 15 02 15 00 43 30.0000000  0  8G16G18G21G22G25G27G29G31
  22115366.420   116217046.86409  22115362.820    90558722.20447
  22566699.540   118588899.59709  22566696.740    92406953.31347
  21117697.800   110974558.02908  21117693.700    86473816.15448
  24091023.060   126599228.21008  24091021.000    98648771.30945
  24436350.520   128414128.31908  24436350.200   100063018.20245
  23371728.040   122819274.53708  23371727.640    95703328.57647
  23447477.800   123217745.60708  23447476.120    96013994.52047
  22670981.140   119136818.49809  22670977.780    92833872.65947
 15 02 15 00 44  0.0000000  0  8G16G18G21G22G25G27G29G31
  22100507.820   116138964.67809  22100504.220    90497878.95347
  22554465.700   118524609.91409  22554462.780    92356857.47647
  21123667.040   111005926.81009  21123663.020    86498259.36148
  24072961.340   126504315.64808  24072959.020    98574813.95245
  24455316.900   128513796.35908  24455316.480   100140681.57345
  23358965.620   122752207.73808  23358965.220    95651068.74547
  23460641.900   123286922.74208  23460640.080    96067898.79746
  22687068.720   119221359.88009  22687065.540    92899749.01747
 15 02 15 00 44 30.0000000  0  8G16G18G21G22G25G27G29G31
  22085691.720   116061105.82009  22085688.180    90437209.72747
  22542283.940   118460594.17509  22542280.840    92306975.10947
  21129701.460   111037638.02709  21129697.540    86522969.40348
  24054895.800   126409382.35508  24054893.260    98500840.42245
  24474313.560   128613624.73608  24474313.420   100218469.79045
  23346217.960   122685218.42708  23346217.660    95598869.30047
  23473813.380   123356138.83708  23473811.480    96121833.39847
  22703200.340   119306132.64009  22703197.340    92965805.66647
 15 02 15 00 45  0.0000000  0  8G16G18G21G22G25G27G29G31
  22070918.840   115983474.10109  22070915.400    90376717.49947
  22530155.000   118396856.36809  22530151.740    92257309.30247
  21135801.060   111069691.51009  21135797.100    86547946.14948
  24036826.940   126314432.25908  24036824.420    98426853.76045
  24493340.620   128713613.32908  24493340.540   100296382.94245
  23333485.300   122618307.94408  23333485.060    95546731.29547
  23486992.340   123425395.52008  23486990.880    96175799.58547
  22719375.740   119391135.12509  22719372.900    93032041.34447
 15 02 15 00 45 30.0000000  0  8G16G18G21G22G25G27G29G31
  22056188.720   115906066.58509  22056185.220    90316399.97447
  22518078.260   118333392.83609  22518074.920    92207857.22447
  21141964.420   111102080.13009  21141960.440    86573184.03948
  24018754.280   126219462.08908  24018751.880    98352851.45046
  24512396.580   128813755.44507  24512397.080   100374415.67845
  23320766.520   122551470.89808  23320766.400    95494650.50446
  23500178.140   123494686.87708  23500176.440    96229792.85146
  22735593.440   119476359.37209  22735590.660    93098449.79347
 15 02 15 00 46  0.0000000  0  8G16G18G21G22G25G27G29G31
  22041502.660   115828890.20109  22041499.060    90256262.52647
  22506055.360   118270212.07309  22506051.980    92158625.47046
  21148192.180   111134807.35909  21148188.220    86598685.77348
  24000679.380   126124480.10308  24000676.960    98278839.91845
  24531482.440   128914054.50208  24531483.340   100452570.71445
  23308062.680   122484712.28808  23308062.640    95442630.82947
  23513371.520   123564018.07908  23513369.680    96283817.18147
  22751853.700   119561807.18209  22751850.940    93165032.44947
 15 02 15 00 46 30.0000000  0  8G16G18G21G22G25G27G29G31
  22026860.920   115751946.47909  22026857.220    90196306.39247
  22494086.480   118207315.44909  22494083.220    92109615.14146
  21154483.900   111167870.84609  21154480.000    86624449.53648
  23982602.480   126029487.73508  23982600.080    98204820.24845
  24550597.640   129014508.06308  24550599.000   100530846.11744
  23295373.640   122418031.09608  23295373.560    95390671.49947
  23526571.940   123633388.27108  23526570.440    96337871.79746
  22768155.880   119647474.91209  22768153.080    93231786.47947
 15 02 15 00 47  0.0000000  0  8G16G18G21G22G25G27G29G31
  22012263.280   115675234.38009  22012259.440    90136530.73248
  22482171.380   118144701.64409  22482168.420    92060825.17747
  21160838.660   111201265.51408  21160834.840    86650471.35948
  23964523.520   125934484.11408  23964521.140    98130791.80845
  24569741.480   129115111.37907  24569743.160   100609238.22746
  23282698.720   122351423.98608  23282698.560    95338769.87447
  23539779.080   123702794.11708  23539778.020    96391954.26947
  22784498.660   119733356.00709  22784495.800    93298706.76248
 15 02 15 00 47 30.0000000  0  8G16G18G21G22G25G27G29G31
  21997710.440   115598757.87009  21997706.500    90076938.64948
  22470310.940   118082375.23409  22470308.240    92012259.17246
  21167256.580   111234991.69109  21167252.820    86676751.50148
  23946443.300   125839473.38808  23946440.920    98056757.82046
  24588913.960   129215864.70507  24588915.920   100687747.19645
  23270038.240   122284892.72608  23270038.000    95286927.35547
  23552993.580   123772236.83308  23552992.660    96446065.47546
  22800881.860   119819449.51309  22800878.900    93365792.55147
 15 02 15 00 48  0.0000000  0  8G16G18G21G22G25G27G29G31
  21983202.480   115522517.63709  21983198.520    90017530.68148
  22458505.300   118020336.75509  22458502.720    91963917.52246
  21173737.000   111269045.99409  21173733.160    86703287.32248
  23928362.020   125744457.00808  23928359.420    97982719.39346
  24608114.560   129316764.88608  24608116.560   100766370.59945
  23257391.900   122218435.65308  23257391.620    95235142.63547
  23566214.900   123841715.71208  23566214.000    96500204.82447
  22817304.540   119905750.87709  22817301.520    93433040.31647
 15 02 15 00 48 30.0000000  0  8G16G18G21G22G25G27G29G31
  21968740.380   115446518.93509  21968736.460    89958310.92248
  22446755.600   117958591.79309  22446753.140    91915804.58447
  21180280.080   111303429.79609  21180276.160    86730079.89748
  23910280.820   125649440.34608  23910278.140    97908680.75446
  24627343.600   129417813.28708  24627345.360   100845109.55845
  23244760.200   122152055.62908  23244759.960    95183417.96646
  23579443.700   123911233.39708  23579442.900    96554374.41946
  22833766.680   119992259.84909  22833763.680    93500449.84947
 15 02 15 00 49  0.0000000  0  8G16G18G21G22G25G27G29G31
  21954324.180   115370762.27309  21954320.440    89899279.77348
  22435061.960   117897141.16909  22435059.500    91867921.00347
  21186885.180   111338139.88109  21186881.220    86757126.71448
  23892199.700   125554424.14708  23892196.880    97834642.45045
  24646600.420   129519006.79108  24646601.840   100923961.51645
  23232142.720   122085750.92008  23232142.540    95131751.98247
  23592679.720   123980787.67408  23592678.400    96608572.57647
  22850267.440   120078971.95109  22850264.460    93568017.65847
 15 02 15 00 49 30.0000000  0  8G16G18G21G22G25G27G29G31
  21939954.720   115295251.26509  21939951.200    89840440.03948
  22423425.060   117835988.57909  22423422.620    91820269.66347
  21193552.200   111373175.84109  21193548.280    86784427.47348
  23874119.440   125459412.33608  23874116.560    97760607.55146
  24665884.880   129620345.06908  24665885.800   101002926.27945
  23219539.900   122019522.86508  23219539.660    95080145.74246
  23605922.880   124050380.75808  23605921.620    96662800.87347
  22866806.460   120165885.31909  22866803.580    93635742.31147
 15 02 15 00 50  0.0000000  0  8G16G18G21G22G25G27G29G31
  21925631.780   115219984.37009  21925628.360    89781790.51048
  22411844.580   117775132.50709  22411842.080    91772849.36347
  21200280.200   111408532.08509  21200276.240    86811977.79048
  23856039.780   125364403.73808  23856036.840    97686575.14846
  24685195.960   129721822.83008  24685196.360   101081999.76345
  23206951.080   121953367.58008  23206950.700    95028596.18647
  23619172.620   124120008.15208  23619171.420    96717055.97547
  22883382.580   120252993.47609  22883379.760    93703618.72747
 15 02 15 00 50 30.0000000  0  8G16G18G21G22G25G27G29G31
  21911356.600   115144968.22309  21911353.240    89723336.38448
  22400321.740   117714579.36109  22400319.340    91725665.11447
  21207069.620   111444210.78009  21207065.560    86839779.37548
  23837962.060   125269405.26208  23837959.140    97612550.61546
  24704534.060   129823442.65907  24704533.900   101161183.95745
  23194376.920   121887289.19608  23194376.440    94977106.56447
  23632430.000   124189674.59609  23632428.580    96771341.46747
  22899996.040   120340297.65509  22899993.200    93771647.89947
 15 02 15 00 51  0.0000000  0  8G16G18G21G22G25G27G29G31
  21897129.720   115070205.58009  21897126.320    89665079.78348
  22388857.220   117654332.30009  22388854.700    91678719.35447
  21213920.400   111480211.67809  21213916.280    86867832.01948
  23819886.920   125174419.88608  23819883.760    97538536.28846
  24723898.960   129925203.66508  24723898.480   101240478.10845
  23181817.400   121821288.30208  23181816.920    94925677.31547
  23645694.660   124259380.47108  23645693.220    96825657.72147
  22916646.340   120427795.29109  22916643.480    93839827.79947
 15 02 15 00 51 30.0000000  0  8G16G18G21G22G25G27G29G31
  21882951.300   114995697.44309  21882947.880    89607021.49648
  22377451.140   117594392.46209  22377448.600    91632013.00747
  21220831.940   111516531.82409  21220827.800    86896133.43548
  23801814.660   125079449.53209  23801811.160    97464533.64646
  24743290.200   130027103.02508  24743289.220   101319880.10745
  23169272.260   121755363.75308  23169271.920    94874307.56947
  23658966.680   124329124.79709  23658965.380    96880003.89847
