     2.11           OBSERVATION DATA    G                   RINEX VERSION / TYPE
SPIDER V4,0,0,3554                      2015 03 18 00:05    PGM / RUN BY / DATE 
EARB                                                        MARKER NAME         
EARB                                                        MARKER NUMBER       
                                                            OBSERVER / AGENCY   
462396              LEICA GRX1200PRO    8.20/2.127          REC # / TYPE / VERS 
10321020            LEIAR25         NONE                    ANT # / TYPE        
  5143416.3563   180186.7661  3755438.5606                  APPROX POSITION XYZ 
        0.1250        0.0000        0.0000                  ANTENNA: DELTA H/E/N
     1     1                                                WAVELENGTH FACT L1/2
     4    C1    L1    P2    L2                              # / TYPES OF OBSERV 
    30.000                                                  INTERVAL            
  2015    02    15    00    00    0.0000000     GPS         TIME OF FIRST OBS   
  2015    02    15    04    26    0.0000000     GPS         TIME OF LAST OBS    
    16                                                      LEAP SECONDS        
    16                                                      # OF SATELLITES     
   G 1   128   128   128   128                              PRN / # OF OBS      
   G 3     1     1     1     1                              PRN / # OF OBS      
   G 4   281   281   281   281                              PRN / # OF OBS      
   G 7    14    14    13    13                              PRN / # OF OBS      
   G11   193   193   193   193                              PRN / # OF OBS      
   G14   100   100   100   100                              PRN / # OF OBS      
   G16   533   533   533   533                              PRN / # OF OBS      
   G18   531   531   531   531                              PRN / # OF OBS      
   G19   398   398   398   398                              PRN / # OF OBS      
   G21   405   405   405   405                              PRN / # OF OBS      
   G22   457   457   457   457                              PRN / # OF OBS      
   G25    81    81    81    81                              PRN / # OF OBS      
   G27   533   533   533   533                              PRN / # OF OBS      
   G29   138   138   138   138                              PRN / # OF OBS      
   G31   200   200   200   200                              PRN / # OF OBS      
   G32   168   168   168   168                              PRN / # OF OBS      
BIT 2 OF LLI FLAGS DATA COLLECTED UNDER A/S CONDITION       COMMENT             
SNR is mapped to RINEX snr flag value [2-9]                 COMMENT             
Lx:     = 25dBHz -> 1; 26-27dBHz -> 2; 28-31dBHz -> 3       COMMENT             
       32-35dBHz -> 4; 36-38dBHz -> 5; 39-41dBHz -> 6       COMMENT             
       42-44dBHz -> 7; 45-48dBHz -> 8; >=49dBHz -> 9        COMMENT             
                                                            END OF HEADER       
 15 02 15 00 00  0.0000000  0  7G16G18G21G25G27G29G31
  23061742.080   121190271.15007  23061739.820    94433971.42645
  24193161.700   127135951.95607  24193161.300    99066986.40244
  20986791.720   110286340.08408  20986788.980    85937398.99048
  23409482.280   123017652.57708  23409483.260    95857912.13146
  24064450.200   126459549.35907  24064451.380    98539916.74246
  22583696.200   118678119.49208  22583694.280    92476446.19947
  21377380.200   112338887.44509  21377377.780    87536782.42348
 15 02 15 00 00 30.0000000  0  7G16G18G21G25G27G29G31
  23045675.100   121105838.65007  23045672.920    94368179.86445
  24178726.820   127060096.73107  24178726.360    99007878.63645
  20985781.600   110281032.08008  20985778.940    85933262.89148
  23425426.660   123101440.97308  23425427.580    95923201.77246
  24049941.920   126383308.20608  24049943.140    98480508.11345
  22597675.280   118751579.71209  22597673.320    92533687.93347
  21388561.100   112397643.65809  21388558.720    87582566.47948
 15 02 15 00 01  0.0000000  0  7G16G18G21G25G27G29G31
  23029623.960   121021489.01707  23029621.760    94302452.89744
  24164294.200   126984253.20007  24164293.720    98948779.97844
  20984860.160   110276189.99608  20984857.560    85929489.84548
  23441413.100   123185450.34308  23441414.100    95988663.60246
  24035457.960   126307194.94308  24035459.220    98421199.14845
  22611665.860   118825100.56709  22611663.980    92590976.88847
  21399829.420   112456859.26309  21399827.120    87628708.48848
 15 02 15 00 01 30.0000000  0  7G16G18G21G25G27G29G31
  23013588.060   120937219.50207  23013585.840    94236788.33445
  24149863.400   126908419.41507  24149862.960    98889688.87444
  20984026.320   110271808.35208  20984023.780    85926075.58448
  23457440.660   123269675.41008  23457441.740    96054293.50846
  24020997.600   126231205.16208  24020998.820    98361986.39146
  22625666.800   118898676.15808  22625665.100    92648308.50347
  21411183.880   112516527.65209  21411181.640    87675203.32748
 15 02 15 00 02  0.0000000  0  7G16G18G21G25G27G29G31
  22997567.900   120853032.48007  22997565.520    94171188.05645
  24135435.080   126832598.46008  24135434.640    98830607.77044
  20983280.560   110267889.44108  20983278.060    85923021.89148
  23473509.380   123354116.29508  23473510.440    96120091.57746
  24006560.920   126155339.66808  24006562.080    98302870.47746
  22639678.280   118972307.14008  22639676.800    92705683.27247
  21422624.240   112576647.18909  21422622.000    87722049.70748
 15 02 15 00 02 30.0000000  0  7G16G18G21G25G27G29G31
  22981563.840   120768930.45107  22981561.460    94105654.03445
  24121010.020   126756794.69708  24121009.480    98771540.07344
  20982622.920   110264433.33108  20982620.400    85920328.82648
  23489619.360   123438773.80708  23489620.320    96186058.44646
  23992148.160   126079600.10308  23992149.200    98243852.70645
  22653700.400   119045993.78108  22653698.940    92763101.41147
  21434150.400   112637217.55609  21434148.200    87769247.38748
 15 02 15 00 03  0.0000000  0  7G16G18G21G25G27G29G31
  22965575.940   120684913.63007  22965573.600    94040186.38945
  24106588.280   126681008.81908  24106587.740    98712486.29444
  20982052.860   110261437.23008  20982050.240    85917994.20448
  23505769.920   123523645.46508  23505770.820    96252192.18346
  23977759.040   126003984.79008  23977759.900    98184931.74545
  22667732.760   119119733.93609  22667731.160    92820561.24047
  21445761.620   112698234.97309  21445759.460    87816793.40848
 15 02 15 00 03 30.0000000  0  7G16G18G21G25G27G29G31
  22949604.820   120600984.93007  22949602.460    93974787.41245
  24092170.740   126605245.03608  24092170.280    98653449.72944
  20981570.520   110258902.20608  20981567.820    85916018.86048
  23521961.180   123608731.88108  23521962.080    96318493.25946
  23963393.780   125928495.05208  23963394.500    98126108.62046
  22681775.340   119193527.83508  22681773.580    92878062.94647
  21457457.780   112759698.54909  21457455.580    87864687.09548
 15 02 15 00 04  0.0000000  0  7G16G18G21G25G27G29G31
  22933650.420   120517144.06307  22933648.000    93909456.85945
  24077757.600   126529504.10008  24077757.220    98594430.94944
  20981175.480   110256825.83108  20981172.640    85914400.91248
  23538192.800   123694030.75208  23538193.900    96384959.91646
  23949052.160   125853129.43308  23949052.900    98067382.19446
  22695827.760   119267373.72208  22695825.880    92935605.16947
  21469238.140   112821604.59609  21469235.900    87912925.56148
 15 02 15 00 04 30.0000000  0  7G16G18G21G25G27G29G31
  22917713.140   120433393.15007  22917710.700    93844196.42345
  24063349.440   126453789.04408  24063348.980    98535432.34444
  20980867.800   110255208.74408  20980864.880    85913140.85248
  23554464.800   123779541.63808  23554466.060    96451591.76746
  23934734.200   125777888.25007  23934734.960    98008752.73546
  22709889.700   119341270.64008  22709887.880    92993187.15447
  21481102.300   112883951.21409  21481100.100    87961507.32548
 15 02 15 00 05  0.0000000  0  7G16G18G21G25G27G29G31
  22901793.220   120349733.84108  22901790.880    93779007.37645
  24048946.720   126378102.73608  24048946.180    98476456.12744
  20980647.380   110254050.34208  20980644.400    85912238.20848
  23570777.140   123865263.84708  23570778.540    96518388.27346
  23920439.940   125702771.62508  23920440.780    97950220.34546
  22723961.240   119415217.76208  22723959.520    93050808.26447
  21493049.940   112946736.09209  21493047.720    88010430.59448
 15 02 15 00 05 30.0000000  0  7G16G18G21G25G27G29G31
  22885890.880   120266166.82807  22885888.580    93713890.22245
  24034549.840   126302446.80508  24034549.160    98417503.57444
  20980514.000   110253349.33108  20980510.960    85911691.97548
  23587129.680   123951195.99208  23587131.040    96585348.35946
  23906169.240   125627778.94308  23906170.120    97891784.53246
  22738042.360   119489214.12209  22738040.600    93108467.74447
  21505080.560   113009956.71509  21505078.240    88059693.40348
 15 02 15 00 06  0.0000000  0  7G16G18G21G25G27G29G31
  22870006.440   120182693.77908  22870004.120    93648846.29045
  24020159.320   126226824.25408  24020158.480    98358577.00945
  20980467.440   110253104.65408  20980464.380    85911501.32048
  23603522.120   124037337.36308  23603523.260    96652471.48446
  23891922.160   125552910.37108  23891923.060    97833445.42246
  22752132.900   119563259.15109  22752131.040    93166165.15147
  21517193.680   113073610.81709  21517191.240    88109293.98448
 15 02 15 00 06 30.0000000  0  7G16G18G21G25G27G29G31
  22854140.620   120099318.41108  22854138.280    93583878.49445
  24005776.000   126151239.91808  24005775.020    98299680.23444
  20980508.140   110253318.39508  20980505.060    85911667.86948
  23619954.580   124123689.37808  23619955.520    96719758.75546
  23877699.080   125478168.07008  23877700.120    97775204.70246
  22766232.840   119637354.34108  22766231.040    93223901.64347
  21529389.240   113137698.45809  21529386.680    88159232.39748
 15 02 15 00 07  0.0000000  0  7G16G18G21G25G27G29G31
  22838293.400   120016040.85008  22838291.040    93518986.89645
  23991400.080   126075694.35808  23991398.880    98240813.66744
  20980635.500   110253987.71808  20980632.460    85912189.42848
  23636426.500   124210249.37408  23636427.300    96787208.06246
  23863499.700   125403550.26608  23863500.780    97717060.99246
  22780341.740   119711497.20608  22780340.080    93281675.29147
  21541666.460   113202215.64509  21541663.900    88209505.51348
 15 02 15 00 07 30.0000000  0  7G16G18G21G25G27G29G31
  22822464.920   119932861.49708  22822462.540    93454171.82045
  23977031.980   126000189.63308  23977030.620    98181978.91044
  20980849.380   110255112.00908  20980846.440    85913065.50548
  23652937.560   124297015.92408  23652938.320    96854818.35446
  23849324.000   125329056.39408  23849324.900    97659013.85146
  22794459.360   119785685.86008  22794457.700    93339484.59847
  21554024.820   113267159.28909  21554022.240    88260110.93848
 15 02 15 00 08  0.0000000  0  7G16G18G21G25G27G29G31
  22806655.860   119849783.62508  22806653.340    93389435.81745
  23962672.400   125924729.95608  23962670.920    98123179.26044
  20981149.920   110256691.80408  20981147.080    85914296.51448
  23669487.840   124383989.54608  23669488.820    96922589.99645
  23835172.240   125254687.75708  23835172.820    97601064.29146
  22808585.940   119859920.89308  22808584.020    93397330.06347
  21566464.140   113332528.40109  21566461.500    88311047.89648
 15 02 15 00 08 30.0000000  0  7G16G18G21G25G27G29G31
  22790866.420   119766808.92708  22790863.780    93324780.22145
  23948321.720   125849317.27808  23948320.160    98064416.21444
  20981536.940   110258725.92108  20981534.200    85915881.54448
  23686077.380   124471169.32808  23686078.760    96990522.28546
  23821044.220   125180444.21908  23821044.520    97543212.20846
  22822721.240   119934202.09108  22822719.160    93455211.49047
  21578983.980   113398320.74909  21578981.380    88362314.64448
 15 02 15 00 09  0.0000000  0  7G16G18G21G25G27G29G31
  22775096.940   119683939.32208  22775094.240    93260206.51145
  23933980.660   125773955.30008  23933979.080    98005692.68144
  20982010.520   110261214.62908  20982007.780    85917820.80648
  23702706.240   124558555.10308  23702707.900    97058615.06846
  23806940.080   125106326.56008  23806940.360    97485458.24446
  22836865.180   120008529.18908  22836863.140    93513128.68447
  21591584.060   113464534.61909  21591581.480    88413909.86048
 15 02 15 00 09 30.0000000  0  7G16G18G21G25G27G29G31
  22759347.420   119601174.83608  22759344.760    93195714.72445
  23919649.460   125698645.16408  23919647.940    97947009.53844
  20982570.140   110264155.33408  20982567.360    85920112.27048
  23719373.940   124646144.49708  23719375.700    97126866.53845
  23792859.580   125032333.16508  23792859.960    97427801.08546
  22851017.420   120082899.92208  22851015.540    93571079.87647
  21604263.620   113531166.12809  21604261.100    88465830.50748
 15 02 15 00 10  0.0000000  0  7G16G18G21G25G27G29G31
  22743618.260   119518517.69208  22743615.640    93131306.59345
  23905328.760   125623390.11808  23905327.240    97888369.33144
  20983215.820   110267548.27608  20983213.000    85922756.13248
  23736080.400   124733937.24508  23736082.220    97195276.45346
  23778802.800   124958464.59008  23778803.300    97370241.17746
  22865178.140   120157314.39108  22865176.300    93629065.15847
  21617022.300   113598213.46209  21617019.820    88518075.16348
 15 02 15 00 10 30.0000000  0  7G16G18G21G25G27G29G31
  22727909.720   119435969.20108  22727907.160    93066983.09545
  23891018.940   125548191.92708  23891017.320    97829773.42544
  20983947.320   110271392.14608  20983944.440    85925751.36348
  23752825.420   124821931.83108  23752827.160    97263843.63346
  23764769.680   124884720.29608  23764770.240    97312778.11946
  22879346.840   120231771.02308  22879344.980    93687083.28047
  21629859.580   113665673.74009  21629857.140    88570641.60148
 15 02 15 00 11  0.0000000  0  7G16G18G21G25G27G29G31
  22712222.400   119353532.11408  22712219.840    93002746.42145
  23876720.800   125473054.58708  23876719.040    97771224.90445
  20984764.720   110275687.45708  20984761.780    85929098.36548
  23769608.960   124910128.80808  23769610.460    97332568.53746
  23750760.420   124811101.67608  23750761.000    97255412.98246
  22893523.560   120306270.24708  22893521.700    93745134.59947
  21642775.320   113733546.07809  21642772.820    88623529.12348
 15 02 15 00 11 30.0000000  0  7G16G18G21G25G27G29G31
  22696556.600   119271207.79508  22696554.020    92938597.60945
  23862434.700   125397980.69808  23862432.860    97712725.83745
  20985667.720   110280432.68008  20985664.700    85932795.95248
  23786430.540   124998527.00408  23786431.860    97401450.23645
  23736775.060   124737608.37608  23736775.600    97198145.49246
  22907708.260   120380811.72208  22907706.520    93803218.84947
  21655768.940   113801827.70409  21655766.400    88676735.57348
 15 02 15 00 12  0.0000000  0  7G16G18G21G25G27G29G31
  22680912.460   119188997.10608  22680909.820    92874537.34245
  23848160.980   125322971.69808  23848159.020    97654277.33445
  20986656.120   110285626.76208  20986653.080    85936843.29548
  23803290.000   125087124.49508  23803291.220    97470487.21645
  23722813.420   124664239.31808  23722813.880    97140974.82446
  22921900.780   120455393.80208  22921899.040    93861334.72147
  21668839.820   113870515.41109  21668837.260    88730258.45148
 15 02 15 00 12 30.0000000  0  7G16G18G21G25G27G29G31
  22665290.320   119106902.47708  22665287.720    92810567.50745
  23833900.160   125248030.86508  23833898.240    97595881.95745
  20987729.900   110291269.70608  20987726.880    85941240.40248
  23820187.560   125175921.45508  23820188.660    97539679.63146
  23708875.600   124590995.58308  23708876.080    97083901.81446
  22936101.060   120530016.58508  22936099.320    93919482.32647
  21681987.560   113939607.54009  21681985.100    88784096.45748
 15 02 15 00 13  0.0000000  0  7G16G18G21G25G27G29G31
  22649690.620   119024925.90208  22649688.140    92746689.65945
  23819653.020   125173161.69108  23819651.080    97537542.41145
  20988888.940   110297360.59508  20988885.980    85945986.55948
  23837122.900   125264917.10108  23837123.880    97609026.85546
  23694961.600   124517877.28708  23694962.160    97026926.54546
  22950308.900   120604679.64308  22950307.220    93977661.32047
  21695211.860   114009101.88709  21695209.420    88838247.88048
 15 02 15 00 13 30.0000000  0  7G16G18G21G25G27G29G31
  22634113.660   118943068.92708  22634111.280    92682905.01745
  23805419.920   125098366.41708  23805417.960    97479260.44445
  20990133.120   110303898.85208  20990130.220    85951081.30948
  23854095.780   125354110.45308  23854096.780    97678528.15646
  23681071.400   124444884.30008  23681072.060    96970048.93246
  22964524.180   120679382.04608  22964522.560    94035870.96547
  21708512.180   114078995.81309  21708509.720    88892710.65348
 15 02 15 00 14  0.0000000  0  7G16G18G21G25G27G29G31
  22618559.520   118861331.58208  22618557.120    92619213.59645
  23791201.100   125023646.18408  23791199.100    97421036.95045
  20991461.900   110310881.68808  20991459.020    85956522.48648
  23871105.820   125443498.87208  23871106.880    97748181.45546
  23667204.780   124372014.98308  23667205.480    96913267.68946
  22978746.640   120754121.42208  22978744.900    94094109.42847
  21721887.800   114149285.27309  21721885.300    88947481.65348
 15 02 15 00 14 30.0000000  0  7G16G18G21G25G27G29G31
  22603028.780   118779716.78808  22603026.260    92555617.63245
  23776997.340   124949005.10808  23776995.380    97362875.12945
  20992875.440   110318309.75708  20992872.540    85962310.60448
  23888153.220   125533083.19008  23888154.380    97817987.39746
  23653362.020   124299270.98608  23653362.760    96856584.09346
  22992976.560   120828899.57108  22992974.700    94152378.09747
  21735338.580   114219969.69409  21735336.160    89002560.41048
 15 02 15 00 15  0.0000000  0  7G16G18G21G25G27G29G31
  22587521.680   118698226.28008  22587519.060    92492118.54145
  23762809.140   124874445.55108  23762807.140    97304776.82845
  20994373.580   110326182.41508  20994370.620    85968445.14448
  23905237.740   125622862.31808  23905238.960    97887945.14746
  23639543.080   124226652.14707  23639543.800    96799998.01446
  23007213.520   120903715.23008  23007211.720    94210675.99047
  21748864.080   114291046.43709  21748861.660    89057944.87548
 15 02 15 00 15 30.0000000  0  7G16G18G21G25G27G29G31
  22572038.660   118616862.39308  22572036.020    92428718.11745
  23748637.020   124799970.59708  23748634.880    97246744.47945
  20995956.100   110334498.59008  20995953.080    85974925.29148
  23922359.200   125712835.52008  23922360.360    97958054.10646
  23625747.960   124154158.58108  23625748.680    96743509.54346
  23021457.460   120978567.99908  23021455.740    94269002.80446
  21762463.700   114362512.99109  21762461.340    89113633.08248
 15 02 15 00 16  0.0000000  0  7G16G18G21G25G27G29G31
  22556579.780   118535625.69808  22556577.240    92365416.80145
  23734481.320   124725582.01508  23734479.000    97188779.39945
  20997622.720   110343256.82408  20997619.640    85981749.89948
  23939517.180   125803000.93208  23939518.280    98028312.84146
  23611976.560   124081789.45108  23611977.220    96687118.03046
  23035708.260   121053456.41709  23035706.500    94327357.40247
  21776136.800   114434365.91609  21776134.520    89169622.35848
 15 02 15 00 16 30.0000000  0  7G16G18G21G25G27G29G31
  22541145.500   118454518.21908  22541143.020    92302216.16846
  23720342.500   124651282.45008  23720340.220    97130883.68445
  20999373.200   110352456.20708  20999370.220    85988918.26248
  23956711.560   125893357.84108  23956712.560    98098720.81146
  23598228.880   124009544.82908  23598229.520    96630823.54646
  23049965.960   121128380.17208  23049964.060    94385739.54147
  21789883.060   114506603.24409  21789880.900    89225911.17148
 15 02 15 00 17  0.0000000  0  7G16G18G21G25G27G29G31
  22525736.340   118373542.66008  22525733.840    92239118.35145
  23706221.280   124577075.67708  23706219.040    97073060.26344
  21001207.760   110362097.15608  21001204.820    85996430.69648
  23973942.400   125983906.50308  23973943.360    98169278.18045
  23584505.160   123937425.91708  23584505.820    96574627.02846
  23064230.460   121203339.70009  23064228.440    94444149.55747
  21803702.180   114579223.32309  21803700.060    89282498.22348
 15 02 15 00 17 30.0000000  0  7G16G18G21G25G27G29G31
  22510352.600   118292700.45608  22510350.060    92176124.43946
  23692118.220   124502964.47908  23692116.080    97015311.32445
  21003126.160   110372178.20608  21003123.180    86004286.07248
  23991209.520   126074645.48708  23991210.480    98239983.86546
  23570805.320   123865432.36808  23570805.980    96518528.18746
  23078501.440   121278334.19108  23078499.600    94502586.83047
  21817593.720   114652223.53309  21817591.540    89339381.48448
 15 02 15 00 18  0.0000000  0  7G16G18G21G25G27G29G31
  22494994.560   118211993.36408  22494992.000    92113235.79446
  23678033.780   124428950.90208  23678031.760    96957638.44645
  21005128.140   110382698.25808  21005125.100    86012483.52048
  24008512.600   126165573.64208  24008513.580    98310836.94246
  23557129.220   123793563.85608  23557129.820    96462526.76447
  23092778.840   121353362.83108  23092777.260    94561050.70647
  21831557.000   114725600.84909  21831554.740    89396558.59748
 15 02 15 00 18 30.0000000  0  7G16G18G21G25G27G29G31
  22479662.460   118131422.51108  22479659.900    92050453.31846
  23663968.480   124355037.45108  23663966.420    96900043.60245
  21007213.400   110393656.26608  21007210.360    86021022.23348
  24025851.360   126256689.85608  24025852.400    98381836.57945
  23543476.820   123721820.22008  23543477.420    96406622.65247
  23107062.700   121428425.08208  23107061.100    94619540.74146
  21845591.500   114799352.56509  21845589.220    89454027.45548
 15 02 15 00 19  0.0000000  0  7G16G18G21G25G27G29G31
  22464356.620   118050989.45308  22464354.000    91987778.21846
  23649922.660   124281226.35208  23649920.640    96842528.50245
  21009381.660   110405050.66508  21009378.660    86029900.99348
  24043225.620   126347992.68908  24043226.700    98452981.61345
  23529848.140   123650200.91808  23529848.740    96350815.43747
  23121352.780   121503519.65708  23121350.940    94678055.97246
  21859696.780   114873476.16209  21859694.520    89511786.07748
 15 02 15 00 19 30.0000000  0  7G16G18G21G25G27G29G31
  22449077.560   117970697.33308  22449074.920    91925212.93746
  23635897.000   124207521.43508  23635895.220    96785096.14345
  21011633.020   110416881.74408  21011630.060    86039120.01648
  24060635.400   126439482.46207  24060636.660    98524272.30945
  23516243.420   123578707.33008  23516244.000    96295106.18047
  23135649.100   121578647.33908  23135647.100    94736597.02146
  21873872.480   114947969.84009  21873870.240    89569833.08348
 15 02 15 00 20  0.0000000  0  7G16G18G21G25G27G29G31
  22433825.520   117890547.36308  22433822.900    91862758.42646
  23621892.040   124133924.91508  23621890.500    96727748.23945
  21013967.180   110429147.98708  21013964.240    86048678.13048
  24078080.500   126531157.68108  24078081.840    98595707.52545
  23502662.420   123507338.89808  23502663.020    96239494.43447
  23149951.500   121653807.22108  23149949.540    94795163.14647
  21888118.100   115022830.67109  21888115.800    89628166.18148
 15 02 15 00 20 30.0000000  0  7G16G18G21G25G27G29G31
  22418600.580   117810539.58008  22418597.940    91800414.69946
  23607907.920   124060437.76908  23607906.460    96670485.56645
  21016383.580   110441846.62808  21016380.720    86058573.17748
  24095560.520   126623015.68808  24095561.800    98667285.16445
  23489104.900   123436093.89908  23489105.480    96183978.86047
  23164259.600   121728997.20708  23164257.920    94853752.72547
  21902432.740   115098054.30709  21902430.400    89686781.98348
 15 02 15 00 21  0.0000000  0  7G16G18G21G25G27G29G31
  22403403.360   117730677.37908  22403400.680    91738184.41646
  23593945.440   123987063.95208  23593943.820    96613311.20745
  21018882.300   110454977.86908  21018879.500    86068805.31848
  24113075.460   126715056.91708  24113076.660    98739005.57245
  23475571.200   123364973.77308  23475571.720    96128560.59046
  23178573.620   121804217.95508  23178572.160    94912366.26647
  21916816.320   115173639.97009  21916813.900    89745679.87848
 15 02 15 00 21 30.0000000  0  7G16G18G21G25G27G29G31
  22388234.280   117650963.11008  22388231.540    91676069.41046
  23580005.200   123913807.38408  23580003.580    96556228.20545
  21021463.360   110468541.70908  21021460.600    86079374.55148
  24130625.160   126807280.92108  24130626.420    98810868.42045
  23462061.380   123293979.01708  23462061.840    96073240.03246
  23192893.520   121879469.61608  23192892.180    94971003.91847
  21931268.420   115249585.67509  21931265.920    89804858.33348
 15 02 15 00 22  0.0000000  0  7G16G18G21G25G27G29G31
  22373093.560   117571398.31008  22373090.840    91614070.87346
  23566087.640   123840669.99208  23566086.000    96499238.05245
  21024126.600   110482537.16108  21024123.800    86090280.10448
  24148209.480   126899686.59408  24148210.660    98882872.80845
  23448575.360   123223109.49308  23448575.760    96018017.06546
  23207219.140   121954751.61008  23207217.760    95029665.19547
  21945788.380   115325888.31409  21945785.860    89864314.92148
 15 02 15 00 22 30.0000000  0  7G16G18G21G25G27G29G31
  22357981.600   117491984.81609  22357978.940    91552190.23046
  23552193.240   123767654.29008  23552191.500    96442342.74745
  21026871.700   110496962.46208  21026868.800    86101520.60748
  24165828.160   126992272.46807  24165829.240    98955017.61645
  23435113.060   123152364.78108  23435113.400    95962891.33246
  23221550.500   122030063.36508  23221549.040    95088349.66147
  21960375.640   115402544.75709  21960373.120    89924047.19548
 15 02 15 00 23  0.0000000  0  7G16G18G21G25G27G29G31
  22342898.780   117412724.17809  22342896.140    91490428.69146
  23538322.540   123694763.02008  23538320.620    96385544.38445
  21029698.420   110511816.56108  21029695.420    86113095.23148
  24183480.780   127085037.62808  24183481.880    99027302.13045
  23421674.520   123081745.00008  23421674.840    95907862.94146
  23235887.420   122105404.27808  23235885.960    95147056.82146
  21975029.760   115479552.72709  21975027.260    89984053.37948
 15 02 15 00 23 30.0000000  0  7G16G18G21G25G27G29G31
  22327845.400   117333618.18709  22327842.740    91428787.66846
  23524476.020   123621998.87708  23524473.980    96328845.08645
  21032606.480   110527098.17508  21032603.440    86125002.98448
  24201167.260   127177981.15208  24201168.500    99099725.64545
  23408259.740   123011250.13108  23408260.100    95852931.90546
  23250229.760   122180773.95908  23250228.420    95205786.40247
  21989750.280   115556909.60509  21989747.760    90044331.44448
 15 02 15 00 24  0.0000000  0  7G16G18G21G25G27G29G31
  22312821.740   117254668.28909  22312819.040    91367268.27547
  23510653.960   123549363.64308  23510651.900    96272246.25045
  21035595.660   110542806.09908  21035592.560    86137242.93148
  24218887.500   127271101.39508  24218888.820    99172286.84245
  23394868.620   122940879.55508  23394869.000    95798097.73146
  23264577.280   122256170.88308  23264576.040    95264537.22947
  22004536.520   115634612.23609  22004534.060    90104878.92848
 15 02 15 00 24 30.0000000  0  7G16G18G21G25G27G29G31
  22297828.220   117175876.78609  22297825.520    91305872.30747
  23496857.020   123476860.75108  23496854.980    96215750.52345
  21038665.740   110558939.21008  21038662.620    86149814.18748
  24236641.280   127364397.65208  24236642.540    99244985.20245
  23381501.200   122870633.54608  23381501.620    95743360.61846
  23278930.120   122331595.84208  23278928.880    95323309.89447
  22019388.120   115712658.26009  22019385.720    90165694.00148
 15 02 15 00 25  0.0000000  0  7G16G18G21G25G27G29G31
  22282865.220   117097245.81109  22282862.540    91244601.42447
  23483085.820   123404493.34008  23483083.900    96159360.36145
  21041816.600   110575496.99908  21041813.460    86162716.36248
  24254428.340   127457869.28308  24254429.640    99317820.21945
  23368157.580   122800512.60208  23368157.960    95688720.94046
  23293288.360   122407048.32408  23293286.920    95382103.98746
  22034304.720   115791045.50309  22034302.340    90226774.94748
 15 02 15 00 25 30.0000000  0  7G16G18G21G25G27G29G31
  22267932.940   117018776.08509  22267930.220    91183456.18447
  23469340.640   123332262.53108  23469338.820    96103076.64445
  21045047.760   110592477.15908  21045044.620    86175947.66048
  24272248.420   127551514.11008  24272249.720    99390790.19345
  23354837.500   122730515.51908  23354837.900    95634177.77046
  23307651.600   122482526.58008  23307649.980    95440918.19847
  22049285.540   115869770.17809  22049283.180    90288118.81948
 15 02 15 00 26  0.0000000  0  7G16G18G21G25G27G29G31
  22253031.740   116940469.73709  22253028.960    91122438.25147
  23455622.060   123260171.34208  23455620.240    96046901.72145
  21048359.100   110609878.77808  21048355.980    86189507.36948
  24290101.400   127645331.17308  24290102.460    99463894.37145
  23341540.960   122660642.37608  23341541.540    95579731.19646
  23322019.660   122558030.51208  23322017.980    95499752.42447
  22064330.040   115948829.68509  22064327.720    90349723.60548
 15 02 15 00 26 30.0000000  0  7G16G18G21G25G27G29G31
  22238162.380   116862330.64109  22238159.580    91061550.65247
  23441931.040   123188224.41508  23441929.140    95990839.20545
  21051750.740   110627702.75808  21051747.740    86203396.18448
  24307987.260   127739321.35808  24307988.060    99537133.45645
  23328268.360   122590895.05408  23328269.080    95525382.67746
  23336392.740   122633561.61508  23336391.100    95558607.82146
  22079438.100   116028223.27409  22079435.860    90411588.71448
 15 02 15 00 27  0.0000000  0  7G16G18G21G25G27G29G31
  22223325.280   116784361.18609  22223322.480    91000795.24347
  23428268.040   123116424.71308  23428266.020    95934891.41045
  21055222.540   110645947.66008  21055219.600    86217612.99148
  24325905.700   127833483.87407  24325906.580    99610506.82345
  23315019.720   122521273.86708  23315020.560    95471132.41947
  23350770.980   122709119.92008  23350769.260    95617484.40246
  22094609.300   116107948.39709  22094607.020    90473712.16448
 15 02 15 00 27 30.0000000  0  7G16G18G21G25G27G29G31
  22208520.280   116706560.51509  22208517.500    90940171.35147
  23414633.120   123044772.80108  23414631.120    95879058.78445
  21058773.900   110664610.40608  21058771.040    86232155.39748
  24343856.180   127927815.63407  24343857.480    99684012.04946
  23301794.740   122451776.72108  23301795.700    95416978.80847
  23365154.020   122784702.79908  23365152.000    95676380.11946
  22109842.800   116188000.71409  22109840.520    90536090.57348
 15 02 15 00 28  0.0000000  0  7G16G18G21G25G27G29G31
  22193747.740   116628930.56609  22193745.020    90879680.48647
  23401026.780   122973271.07808  23401024.780    95823343.18045
  21062404.540   110683689.44008  21062401.660    86247022.17548
  24361838.640   128022315.08907  24361840.240    99757647.94545
  23288593.380   122382403.16408  23288594.380    95362921.51346
  23379541.520   122860308.98008  23379539.260    95735293.99846
  22125137.820   116268376.63409  22125135.620    90598721.13348
 15 02 15 00 28 30.0000000  0  7G16G18G21G25G27G29G31
  22179008.220   116551474.06309  22179005.560    90819324.78447
  23387449.700   122901922.74208  23387447.580    95767747.10045
  21066114.360   110703184.38408  21066111.440    86262213.04248
  24379853.020   128116981.99407  24379854.840    99831414.32445
  23275415.740   122313153.96708  23275416.660    95308961.13946
  23393933.520   122935939.35108  23393931.280    95794226.74246
  22140494.140   116349074.45109  22140491.960    90661602.53348
 15 02 15 00 29  0.0000000  0  7G16G18G21G25G27G29G31
  22164302.060   116474192.59209  22164299.440    90759105.46647
  23373902.300   122830730.23308  23373900.020    95712272.45345
  21069903.080   110723093.80908  21069900.100    86277726.88648
  24397899.040   128211814.95807  24397901.000    99905310.09545
  23262261.720   122244028.80308  23262262.460    95255097.39946
  23408330.020   123011593.66108  23408328.000    95853178.14846
  22155911.140   116430091.27809  22155908.980    90724732.49948
 15 02 15 00 29 30.0000000  0  7G16G18G21G25G27G29G31
  22149629.880   116397089.89909  22149627.280    90699025.46047
  23360385.320   122759698.06008  23360383.020    95656922.73045
  21073770.680   110743417.84308  21073767.660    86293563.79348
  24415976.700   128306814.40907  24415978.840    99979335.58045
  23249131.620   122175029.23308  23249132.160    95201331.52546
  23422731.260   123087272.55408  23422729.300    95912148.69646
  22171388.680   116511426.00009  22171386.440    90788110.18248
 15 02 15 00 30  0.0000000  0  7G16G18G21G25G27G29G31
  22134991.660   116320165.70509  22134989.060    90639084.53747
  23346898.900   122688826.83408  23346896.700    95601698.43745
  21077716.600   110764153.45108  21077713.500    86309721.41348
  24434085.500   128401977.42107  24434087.740   100053488.52345
  23236025.080   122106153.39908  23236025.420    95147662.07246
  23437136.740   123162973.76808  23437134.800    95971136.63846
  22186925.880   116593073.90909  22186923.520    90851731.90348
 15 02 15 00 30 30.0000000  0  7G16G18G21G25G27G29G31
  22120387.880   116243422.41209  22120385.260    90579284.57147
  23333443.620   122618119.29608  23333441.540    95546601.67145
  21081740.700   110785300.08108  21081737.560    86326199.30548
  24452225.500   128497303.27007  24452227.620   100127768.37546
  23222942.080   122037401.57808  23222942.380    95094089.27246
  23451546.360   123238697.51008  23451544.520    96030142.12546
  22202522.160   116675032.49309  22202519.700    90915595.71848
 15 02 15 00 31  0.0000000  0  7G16G18G21G25G27G29G31
  22105818.660   116166860.56009  22105816.020    90519626.00247
  23320019.800   122547576.93208  23320017.780    95491633.60945
  21085842.440   110806854.84408  21085839.280    86342995.23548
  24470396.260   128592789.32208  24470398.140   100202173.03745
  23209882.420   121968772.40208  23209882.680    95040612.02246
  23465959.940   123314441.87508  23465958.200    96089163.69046
  22218176.720   116757297.57509  22218174.260    90979698.35548
 15 02 15 00 31 30.0000000  0  7G16G18G21G25G27G29G31
  22091284.760   116090484.42909  22091282.140    90460112.14047
  23306628.360   122477204.56408  23306626.240    95436798.01645
  21090022.020   110828818.75308  21090018.840    86360109.97448
  24488597.680   128688436.76907  24488599.480   100276703.48145
  23196846.540   121900268.06108  23196846.720    94987232.03647
  23480377.920   123390208.71608  23480376.220    96148202.77746
  22233889.460   116839868.70209  22233887.060    91044039.46847
 15 02 15 00 32  0.0000000  0  7G16G18G21G25G27G29G31
  22076786.600   116014296.29509  22076784.020    90400744.77847
  23293269.860   122407005.38808  23293267.720    95382097.39045
  21094279.220   110851190.54608  21094276.040    86377542.53348
  24506829.480   128784244.55507  24506831.280   100351358.88245
  23183834.360   121831888.64408  23183834.520    94933949.38547
  23494800.220   123465997.92308  23494798.560    96207259.25646
  22249659.960   116922743.45909  22249657.660    91108617.17948
 15 02 15 00 32 30.0000000  0  7G16G18G21G25G27G29G31
  22062324.520   115938297.63809  22062321.900    90341525.06047
  23279944.760   122336981.78508  23279942.700    95327533.56845
  21098613.780   110873968.88808  21098610.600    86395291.89948
  24525091.660   128880211.59308  24525093.280   100426138.35545
  23170845.880   121763634.13608  23170846.160    94880764.07946
  23509226.660   123541809.29808  23509225.100    96266333.03346
  22265487.640   117005919.02009  22265485.460    91173429.28447
 15 02 15 00 33  0.0000000  0  7G16G18G21G25G27G29G31
  22047898.720   115862489.42109  22047896.020    90282453.73747
  23266653.360   122267135.09408  23266651.360    95273107.59345
  21103025.220   110897151.36708  21103022.080    86413356.17248
  24543383.720   128976335.41708  24543384.940   100501039.99344
  23157880.960   121695503.20008  23157881.300    94827675.06447
  23523656.760   123617640.83208  23523655.400    96325422.48446
  22281371.840   117089391.43009  22281369.740    91238472.68747
 15 02 15 00 33 30.0000000  0  7G16G18G21G25G27G29G31
  22033510.040   115786876.27409  22033507.300    90223534.41747
  23253396.660   122197470.56808  23253394.680    95218823.56845
  21107513.820   110920739.32908  21107510.700    86431736.40248
  24561705.500   129072617.55107  24561706.840   100576065.02244
  23144940.060   121627498.49608  23144940.420    94774684.39647
  23538091.320   123693495.19508  23538089.980    96384529.73346
  22297312.600   117173160.34009  22297310.460    91303747.13447
 15 02 15 00 34  0.0000000  0  7G16G18G21G25G27G29G31
  22019158.480   115711458.24609  22019155.720    90164767.13747
  23240174.820   122127989.21108  23240172.800    95164682.28245
  21112079.020   110944729.54108  21112075.940    86450430.07448
  24580056.720   129169055.03508  24580058.360   100651211.09344
  23132022.800   121559618.17508  23132023.120    94721790.65047
  23552529.900   123769370.26708  23552528.560    96443653.11446
  22313308.980   117257221.23309  22313306.740    91369249.09947
 15 02 15 00 34 30.0000000  0  7G16G18G21G25G27G29G31
  22004843.820   115636234.07109  22004841.020    90106150.89947
  23226987.640   122058690.16808  23226985.600    95110683.03345
  21116719.940   110969117.45408  21116716.820    86469433.64848
  24598437.020   129265643.32807  24598438.300   100726474.64545
  23119128.640   121491858.88608  23119128.900    94668991.23647
  23566971.640   123845262.02308  23566970.420    96502789.49646
  22329359.720   117341567.94409  22329357.360    91434973.78347
 15 02 15 00 35  0.0000000  0  7G16G18G21G25G27G29G31
  21990567.160   115561209.63509  21990564.320    90047690.30247
  23213836.380   121989579.82208  23213834.280    95056830.81245
  21121436.820   110993904.82808  21121433.740    86488748.48448
  24616846.580   129362384.93407  24616847.420   100801857.65744
  23106258.160   121424224.17508  23106258.360    94616288.88347
  23581417.280   123921174.15008  23581416.200    96561941.77547
  22345464.960   117426201.36009  22345462.480    91500921.87647
 15 02 15 00 35 30.0000000  0  7G16G18G21G25G27G29G31
  21976329.440   115486390.09809  21976326.660    89989389.37647
  23200722.100   121920663.87908  23200720.080    95003130.12245
  21126230.040   111019093.50308  21126227.000    86508376.02748
  24635285.080   129459281.91306  24635286.360   100877361.78645
  23093412.000   121356717.35908  23093412.240    94563686.18347
  23595867.280   123997109.47008  23595866.280    96621112.12647
  22361624.820   117511121.91009  22361622.300    91567093.71247
 15 02 15 00 36  0.0000000  0  7G16G18G21G25G27G29G31
  21962129.940   115411771.52209  21962127.220    89931245.04147
  23187644.300   121851939.57108  23187642.260    94949578.72345
  21131098.440   111044677.43608  21131095.460    86528311.55948
  24653751.720   129556327.42507  24653753.680   100952981.63744
  23080589.140   121289332.73808  23080589.440    94511178.70547
  23610320.620   124073062.28508  23610319.660    96680296.08147
  22377837.620   117596321.09409  22377835.260    91633482.65547
 15 02 15 00 36 30.0000000  0  7G16G18G21G25G27G29G31
  21947968.580   115337353.42509  21947965.940    89873256.92647
  23174602.980   121783407.12108  23174600.860    94896176.82746
  21136041.200   111070652.28808  21136038.280    86548551.70948
  24672246.640   129653517.79008  24672248.220   101028714.31644
  23067789.020   121222067.72708  23067789.420    94458764.44747
  23624776.780   124149029.04308  23624775.660    96739490.92847
  22394102.460   117681793.51009  22394100.280    91700084.50147
 15 02 15 00 37  0.0000000  0  7G16G18G21G25G27G29G31
  21933846.920   115263143.87409  21933844.340    89815431.30847
  23161599.580   121715074.69208  23161597.540    94842930.80445
  21141059.200   111097022.37408  21141056.320    86569099.83048
  24690770.200   129750857.61607  24690771.400   101104563.46145
  23055012.760   121154928.12008  23055013.120    94406447.89147
  23639236.860   124225016.16008  23639235.560    96798701.62347
  22410420.020   117767542.51209  22410417.800    91766901.87447
 15 02 15 00 37 30.0000000  0  7G16G18G21G25G27G29G31
  21919765.900   115189147.50909  21919763.260    89757771.81347
  23148635.340   121646947.62108  23148633.300    94789844.80045
  21146152.740   111123788.98108  21146149.820    86589956.92748
  24709321.840   129848348.37206  24709323.560   101180530.24544
  23042260.920   121087916.63808  23042261.180    94354231.18047
  23653701.040   124301025.46608  23653699.720    96857929.63347
  22426790.140   117853567.74209  22426787.840    91833934.48647
 15 02 15 00 38  0.0000000  0  8G16G18G21G22G25G27G29G31
  21905726.500   115115370.04509  21905723.860    89700282.88747
  23135711.360   121579031.78708  23135709.180    94736923.39145
  21151322.260   111150954.54008  21151319.220    86611124.89748
  24565368.860   129091882.63707  24565371.680   100591081.39144
  24727902.540   129945992.45907  24727904.880   101256616.50444
  23029534.160   121021036.87908  23029534.380    94302117.09847
  23668170.180   124377060.65308  23668168.780    96917177.81046
  22443212.920   117939870.09109  22443210.600    91901183.04347
 15 02 15 00 38 30.0000000  0  8G16G18G21G22G25G27G29G31
  21891723.780   115041785.38109  21891721.180    89642944.20047
  23122822.960   121511302.60608  23122820.560    94684147.41646
  21156561.980   111178489.39208  21156558.900    86632580.62748
  24547997.400   129000597.21906  24548000.380   100519950.28944
  24746507.380   130043760.67307  24746509.660   101332799.42545
  23016827.100   120954260.71208  23016827.320    94250083.76747
  23682638.820   124453093.36208  23682637.300    96976424.04846
  22459682.500   118026418.64909  22459680.280    91968623.44647
 15 02 15 00 39  0.0000000  0  8G16G18G21G22G25G27G29G31
  21877763.780   114968425.20209  21877761.220    89585780.42747
  23109976.160   121443791.98308  23109973.720    94631541.74846
  21161877.260   111206421.51608  21161874.220    86654345.91748
  24530612.600   128909241.59608  24530616.000   100448764.94345
  24765141.440   130141681.33007  24765143.480   101409101.17045
  23004145.280   120887617.72108  23004145.560    94198154.18847
  23697112.500   124529152.68608  23697110.920    97035691.00746
  22476204.020   118113239.92009  22476201.940    92036276.35347
 15 02 15 00 39 30.0000000  0  8G16G18G21G22G25G27G29G31
  21863845.540   114895284.24109  21863842.960    89528787.48247
  23097170.020   121376495.07108  23097167.580    94579102.62545
  21167266.540   111234742.53608  21167263.500    86676414.25348
  24513213.240   128817809.18207  24513216.600   100377519.35445
  24783802.520   130239745.99607  24783804.700   101485515.15345
  22991487.400   120821100.70708  22991487.700    94146322.76347
  23711589.620   124605230.99508  23711588.020    97094972.78246
  22492775.660   118200324.18209  22492773.680    92104134.18347
 15 02 15 00 40  0.0000000  0  8G16G18G21G22G25G27G29G31
  21849968.800   114822361.45409  21849966.200    89471964.53547
  23084404.520   121309411.52208  23084401.980    94526829.73346
  21172728.980   111263447.86508  21172725.960    86698782.03748
  24495799.440   128726300.76108  24495802.720   100306214.65045
  24802490.200   130337950.44708  24802492.380   101562038.00745
  22978852.840   120754706.59708  22978853.300    94094587.11947
  23726069.860   124681325.70608  23726068.340    97154267.33746
  22509396.220   118287665.33609  22509394.260    92172192.19647
 15 02 15 00 40 30.0000000  0  7G16G18G21G22G27G29G31
  21836133.420   114749656.16009  21836130.800    89415311.06347
  23071679.460   121242540.95608  23071677.000    94474722.80346
  21178263.720   111292532.98908  21178260.700    86721445.77448
  24478371.080   128634715.94207  24478374.300   100234850.64144
  22966241.160   120688432.28308  22966241.780    94042944.83047
  23740552.620   124757432.97408  23740551.120    97213571.67746
  22526064.480   118375257.43609  22526062.460    92240445.74647
 15 02 15 00 41  0.0000000  0  7G16G18G21G22G27G29G31
  21822341.760   114677180.54509  21822339.140    89358836.55747
  23058997.380   121175896.46508  23058995.020    94422792.04345
  21183872.340   111322006.58308  21183869.340    86744412.21148
  24460930.600   128543067.57707  24460933.620   100163437.37446
  22953654.300   120622288.10108  22953654.980    93991403.92047
  23755039.820   124833563.07708  23755038.140    97272893.81746
  22542781.980   118463108.40209  22542779.820    92308901.01147
 15 02 15 00 41 30.0000000  0  7G16G18G21G22G27G29G31
  21808592.620   114604928.31809  21808589.980    89302536.12547
  23046357.120   121109471.79208  23046354.800    94371032.55645
  21189553.020   111351858.70008  21189550.020    86767673.60148
  24443476.440   128451348.77908  24443479.440   100091969.27044
  22941090.600   120556265.33508  22941091.200    93939957.61847
  23769529.640   124909707.16208  23769527.920    97332226.85445
  22559546.500   118551206.35009  22559544.240    92377548.71647
 15 02 15 00 42  0.0000000  0  7G16G18G21G22G27G29G31
  21794886.920   114532904.26609  21794884.260    89246413.48547
  23033759.780   121043272.62608  23033757.540    94319448.79646
  21195306.160   111382091.35508  21195303.060    86791231.51448
  24426009.780   128359565.33008  24426012.760   100020450.76444
  22928550.660   120490367.16408  22928551.180    93888608.41247
  23784022.500   124985868.08108  23784020.920    97391573.00045
  22576358.100   118639551.52809  22576355.800    92446389.07447
 15 02 15 00 42 30.0000000  0  7G16G18G21G22G27G29G31
  21781224.900   114461109.80609  21781222.240    89190469.75447
  23021205.740   120977300.81308  23021203.580    94268042.20946
  21201131.240   111412702.05308  21201128.060    86815084.01648
  24408531.140   128267718.91608  24408534.000    99948883.02944
  22916034.260   120424592.90708  22916034.800    93837355.77147
  23798518.360   125062044.99608  23798516.900    97450931.61945
  22593216.060   118728140.38009  22593213.760    92515419.31147
 15 02 15 00 43  0.0000000  0  7G16G18G21G22G27G29G31
  21767606.980   114389547.13209  21767604.340    89134706.64047
  23008695.600   120911559.16608  23008693.340    94216814.95846
  21207028.000   111443689.34908  21207024.720    86839229.96148
  24391040.940   128175811.82507  24391043.900    99877268.04345
  22903541.420   120358942.54008  22903541.880    93786199.64347
  23813017.220   125138237.44008  23813015.800    97510302.31745
  22610119.880   118816970.22809  22610117.640    92584637.33547
 15 02 15 00 43 30.0000000  0  7G16G18G21G22G27G29G31
  21754033.120   114318216.05309  21754030.480    89079123.98747
  22996229.280   120846047.74208  22996226.940    94165767.11546
  21212995.660   111475049.39408  21212992.360    86863666.36248
  24373539.200   128083843.88808  24373542.080    99805605.58345
  22891071.740   120293413.70608  22891072.100    93735138.22447
  23827518.720   125214442.80608  23827517.220    97569683.12245
  22627068.580   118906035.94309  22627066.320    92654039.14847
 15 02 15 00 44  0.0000000  0  7G16G18G21G22G27G29G31
  21740504.500   114247122.48109  21740501.820    89023726.40247
  22983807.900   120780772.96808  22983805.620    94114903.67546
  21219034.680   111506784.57408  21219031.400    86888395.07148
  24356027.300   127991822.52807  24356030.200    99733901.42446
  22878625.860   120228010.16708  22878626.220    93684174.44647
  23842023.360   125290664.93108  23842021.900    97629076.94246
  22644062.240   118995338.13708  22644059.940    92723625.23647
 15 02 15 00 44 30.0000000  0  7G16G18G21G22G27G29G31
  21727021.060   114176266.24409  21727018.320    88968513.76247
  22971431.660   120715735.55108  22971429.360    94064225.18946
  21225144.360   111538891.26908  21225141.140    86913413.28248
  24338505.320   127899747.78808  24338508.180    99662155.69445
  22866203.340   120162729.87308  22866203.800    93633306.71147
  23856530.800   125366901.67508  23856529.340    97688482.14446
  22661099.920   119084872.05208  22661097.680    92793391.87447
 15 02 15 00 45  0.0000000  0  7G16G18G21G22G27G29G31
  21713583.140   114105649.21209  21713580.320    88913487.50547
  22959101.020   120650937.67608  22959098.720    94013733.34946
  21231324.360   111571367.55408  21231321.160    86938719.48048
  24320973.700   127807621.73707  24320976.360    99590369.88646
  22853804.220   120097572.49608  22853804.780    93582534.73747
  23871040.920   125443152.64908  23871039.380    97747898.44746
  22678181.060   119174634.28508  22678178.840    92863336.42047
 15 02 15 00 45 30.0000000  0  7G16G18G21G22G27G29G31
  21700191.060   114035273.21209  21700188.160    88858649.06447
  22946816.220   120586380.71908  22946813.920    93963429.23945
  21237574.220   111604211.27908  21237571.100    86964311.99048
  24303432.740   127715446.18408  24303435.140    99518545.55045
  22841428.400   120032537.52508  22841429.020    93531858.16147
  23885553.620   125519416.79008  23885551.880    97807324.99546
  22695305.180   119264621.81208  22695302.880    92933456.52247
 15 02 15 00 46  0.0000000  0  7G16G18G21G22G27G29G31
  21686845.520   113965142.05209  21686842.620    88804001.41147
  22934578.240   120522070.29908  22934576.080    93913317.25046
  21243894.120   111637423.04808  21243891.080    86990191.29948
  24285883.360   127623226.20008  24285885.480    99446686.53145
  22829076.380   119967627.08008  22829076.940    93481278.60847
  23900069.100   125595696.14408  23900067.380    97866763.41246
  22712472.020   119354833.60808  22712469.660    93003751.37347
 15 02 15 00 46 30.0000000  0  7G16G18G21G22G27G29G31
  21673546.980   113895258.02009  21673544.140    88749546.32447
  22922387.640   120458008.74708  22922385.540    93863399.16846
  21250283.800   111671001.43208  21250280.840    87016356.27448
  24268325.920   127530964.08608  24268327.760    99374794.62745
  22816748.040   119902841.02408  22816748.560    93430795.97547
  23914587.340   125671990.46508  23914585.800    97926213.49746
  22729680.940   119445266.91708  22729678.640    93074218.83747
 15 02 15 00 47  0.0000000  0  7G16G18G21G22G27G29G31
  21660295.500   113825621.36409  21660292.740    88695283.99847
  22910244.600   120394196.31008  22910242.380    93813675.20346
  21256742.620   111704942.89908  21256739.680    87042804.17048
  24250760.700   127438660.48908  24250762.240    99302870.38145
  22804442.980   119838177.56608  22804443.480    93380408.87347
  23929108.120   125748297.74008  23929106.780    97985673.68646
  22746930.960   119535916.71208  22746928.860    93144854.99447
 15 02 15 00 47 30.0000000  0  7G16G18G21G22G27G29G31
  21647091.620   113756234.70409  21647088.920    88641216.47547
  22898149.660   120330636.43808  22898147.360    93764148.04446
  21263270.360   111739246.60108  21263267.480    87069534.34648
  24233188.240   127346318.24408  24233189.380    99230915.99345
  22792161.360   119773637.28608  22792161.840    93330117.76247
  23943631.420   125824617.91008  23943630.220    98045143.91646
  22764221.820   119626780.93908  22764219.880    93215658.23947
 15 02 15 00 48  0.0000000  0  7G16G18G21G22G27G29G31
  21633935.840   113687100.61609  21633933.180    88587345.76748
  22886103.220   120267331.81408  22886100.920    93714819.77846
  21269866.820   111773911.28808  21269863.940    87096545.78848
  24215609.140   127253940.94808  24215609.880    99158934.26045
  22779903.300   119709220.63508  22779903.760    93279922.97747
  23958157.440   125900952.00108  23958156.200    98104624.99746
  22781553.180   119717857.16509  22781551.220    93286626.67347
 15 02 15 00 48 30.0000000  0  7G16G18G21G22G27G29G31
  21620828.520   113618221.18409  21620825.900    88533673.49148
  22874105.820   120204285.04308  22874103.540    93665692.45346
  21276531.700   111808935.35608  21276528.780    87123837.26848
  24198023.760   127161530.82108  24198023.320    99086926.91745
  22767668.760   119644927.47508  22767669.160    93229824.41947
  23972686.040   125977299.62308  23972684.580    98164116.65546
  22798924.300   119809142.13708  22798922.220    93357757.76047
 15 02 15 00 49  0.0000000  0  7G16G18G21G22G27G29G31
  21607770.340   113549599.93809  21607767.720    88480202.40247
  22862158.300   120141500.28608  22862155.980    93616769.28646
  21283265.040   111844318.79208  21283262.020    87151408.77448
  24180432.820   127069091.73808  24180432.440    99014896.96545
  22755457.980   119580759.28008  22755458.340    93179823.23947
  23987217.260   126053661.44208  23987215.660    98223619.37546
  22816334.880   119900634.63508  22816332.700    93429050.55747
 15 02 15 00 49 30.0000000  0  7G16G18G21G22G27G29G31
  21594761.480   113481237.87009  21594758.860    88426933.26947
  22850260.820   120078978.86708  22850258.580    93568051.31846
  21290066.180   111880058.81908  21290063.120    87179258.14648
  24162836.600   126976625.19608  24162836.180    98942845.61145
  22743270.760   119516714.94408  22743271.100    93129918.58447
  24001751.040   126130037.01408  24001749.460    98283132.77746
  22833784.000   119992330.39808  22833781.880    93500501.74347
 15 02 15 00 50  0.0000000  0  7G16G18G21G22G27G29G31
  21581802.200   113413136.15209  21581799.520    88373866.99947
  22838413.740   120016722.22008  22838411.540    93519539.66146
  21296934.660   111916152.75408  21296931.540    87207383.29048
  24145235.460   126884132.88007  24145234.980    98870774.12345
  22731106.940   119452793.52008  22731107.240    93080109.69247
  24016287.080   126206424.70308  24016285.760    98342655.59946
  22851271.100   120084225.89408  22851269.060    93572108.55847
 15 02 15 00 50 30.0000000  0  7G16G18G21G22G27G29G31
  21568892.840   113345296.83409  21568890.100    88321005.19748
  22826617.440   119954732.39508  22826615.240    93471235.92046
  21303870.040   111952598.35308  21303866.900    87235782.46148
  24127629.900   126791617.17408  24127629.360    98798684.44845
  22718966.440   119388994.70408  22718966.680    93030396.34547
  24030825.560   126282824.48708  24030824.360    98402187.86746
  22868795.720   120176317.91008  22868793.660    93643868.50547
 15 02 15 00 51  0.0000000  0  7G16G18G21G22G27G29G31
  21556034.160   113277724.10709  21556031.380    88268351.11948
  22814872.760   119893014.24208  22814870.600    93423143.87146
  21310872.580   111989396.97308  21310869.460    87264456.71248
  24110020.740   126699082.72008  24110020.140    98726580.10745
  22706849.660   119325320.73008  22706849.980    92980780.28047
  24045366.720   126359238.21308  24045365.420    98461730.98346
  22886357.640   120268605.59808  22886355.540    93715780.92347
 15 02 15 00 51 30.0000000  0  7G16G18G21G22G27G29G31
  21543226.200   113210418.13009  21543223.420    88215904.90448
  22803179.960   119831568.35808  22803177.780    93375263.97746
  21317941.560   112026545.08208  21317938.500    87293403.28848
  24092408.280   126606530.66808  24092407.600    98654462.02945
  22694756.280   119261769.81208  22694756.680    92931260.10347
  24059910.100   126435664.15108  24059908.760    98521283.65846
  22903955.860   120361084.17708  22903953.720    93787842.09047
 15 02 15 00 52  0.0000000  0  7G16G18G21G22G27G29G31
  21530469.760   113143382.84809  21530466.980    88163669.61348
  22791539.860   119770399.13308  22791537.640    93327599.66746
  21325076.960   112064042.25608  21325074.000    87322621.87148
  24074793.220   126513965.00708  24074792.460    98582333.33445
  22682686.640   119198343.59408  22682687.060    92881837.08447
  24074455.960   126512103.73708  24074454.660    98580846.92745
  22921590.040   120453752.39508  22921587.920    93860051.01947
 15 02 15 00 52 30.0000000  0  7G16G18G21G22G27G29G31
  21517764.580   113076616.66909  21517761.800    88111644.01948
  22779952.140   119709505.39808  22779949.940    93280150.01146
  21332277.800   112101883.42708  21332274.940    87352108.50348
  24057175.460   126421384.84808  24057174.580    98510193.32145
  22670640.040   119135038.56508  22670640.440    92832508.51247
  24089003.780   126588553.06808  24089002.540    98640417.82046
  22939259.040   120546603.86808  22939256.940    93932402.74247
 15 02 15 00 53  0.0000000  0  7G16G18G21G22G27G29G31
  21505112.100   113010127.38809  21505109.360    88059834.19348
  22768418.280   119648894.72208  22768416.120    93232920.93246
  21339544.900   112140072.54808  21339542.080    87381866.26148
  24039556.400   126328797.96308  24039555.460    98438048.07145
  22658617.500   119071860.03008  22658617.900    92783278.50147
  24103554.400   126665017.45208  24103553.400    98700000.42445
  22956963.420   120639640.82408  22956961.280    94004898.99747
 15 02 15 00 53 30.0000000  0  7G16G18G21G22G27G29G31
  21492511.880   112943912.93709  21492509.200    88008238.52048
  22756937.960   119588565.61208  22756935.900    93185911.25646
  21346877.180   112178603.96308  21346874.380    87411890.74848
  24021935.840   126236202.95808  24021934.900    98365896.48045
  22646618.240   119008803.95508  22646618.740    92734143.91447
  24118107.060   126741492.62708  24118106.240    98759591.43145
  22974701.820   120732856.41908  22974699.680    94077534.44647
 15 02 15 00 54  0.0000000  0  7G16G18G21G22G27G29G31
  21479964.720   112877977.06609  21479962.020    87956859.92148
  22745512.020   119528522.14208  22745510.000    93139124.15946
  21354274.500   112217477.14708  21354271.660    87442181.53348
  24004314.580   126143604.06708  24004313.620    98293741.84245
  22634642.600   118945871.82608  22634643.140    92685105.90447
  24132662.080   126817980.05708  24132661.260    98819191.99146
  22992473.960   120826249.41208  22992471.860    94150308.13047
 15 02 15 00 54 30.0000000  0  7G16G18G21G22G27G29G31
  21467470.680   112812320.38809  21467467.960    87905698.88148
  22734140.620   119468765.27008  22734138.660    93092560.38846
  21361736.340   112256689.09708  21361733.500    87472736.29748
  23986692.840   126051002.43908  23986691.800    98221585.06045
  22622690.300   118883062.30708  22622690.820    92636163.43047
  24147219.260   126894478.30008  24147218.220    98878800.96846
  23010279.000   120919815.36808  23010277.000    94223216.59047
 15 02 15 00 55  0.0000000  0  7G16G18G21G22G27G29G31
  21455030.520   112746946.89309  21455027.780    87854758.49548
  22722824.560   119409299.28108  22722822.660    93046223.25946
  21369262.780   112296240.12908  21369259.860    87503555.28548
  23969071.420   125958402.22908  23969070.240    98149429.36045
  22610761.720   118820377.15208  22610762.200    92587317.87047
  24161778.800   126970988.60508  24161777.580    98938419.33645
  23028116.760   121013553.16208  23028114.800    94296258.94147
 15 02 15 00 55 30.0000000  0  7G16G18G21G22G27G29G31
