     2.11           OBSERVATION DATA    G                   RINEX VERSION / TYPE
SPIDER V4,0,0,3554                      2015 03 18 00:14    PGM / RUN BY / DATE 
EASA                                                        MARKER NAME         
EASA                                                        MARKER NUMBER       
                                                            OBSERVER / AGENCY   
496549              LEICA GRX1200+GNSS  8.20/4.007          REC # / TYPE / VERS 
10321008            LEIAR25         NONE                    ANT # / TYPE        
  5282957.1227   142380.7781  3561159.3736                  APPROX POSITION XYZ 
        0.0000        0.0000        0.0000                  ANTENNA: DELTA H/E/N
     1     1                                                WAVELENGTH FACT L1/2
     4    C1    L1    P2    L2                              # / TYPES OF OBSERV 
    30.000                                                  INTERVAL            
  2015    02    15    00    00    0.0000000     GPS         TIME OF FIRST OBS   
  2015    02    15    23    59   30.0000000     GPS         TIME OF LAST OBS    
    16                                                      LEAP SECONDS        
    30                                                      # OF SATELLITES     
   G 1   839   839   839   839                              PRN / # OF OBS      
   G 2   926   926   925   925                              PRN / # OF OBS      
   G 3   849   849   849   849                              PRN / # OF OBS      
   G 4   854   854   854   854                              PRN / # OF OBS      
   G 5   676   676   676   676                              PRN / # OF OBS      
   G 6   714   714   714   714                              PRN / # OF OBS      
   G 7   649   649   649   649                              PRN / # OF OBS      
   G 9   791   791   791   791                              PRN / # OF OBS      
   G10   788   788   788   788                              PRN / # OF OBS      
   G11   804   804   804   804                              PRN / # OF OBS      
   G12   822   821   821   821                              PRN / # OF OBS      
   G13   829   828   828   828                              PRN / # OF OBS      
   G14   927   924   925   923                              PRN / # OF OBS      
   G15   733   733   733   733                              PRN / # OF OBS      
   G16   695   694   694   694                              PRN / # OF OBS      
   G17   932   932   931   931                              PRN / # OF OBS      
   G18   938   938   936   936                              PRN / # OF OBS      
   G19   786   786   786   786                              PRN / # OF OBS      
   G20   829   829   829   829                              PRN / # OF OBS      
   G21   718   718   718   718                              PRN / # OF OBS      
   G22   769   766   766   764                              PRN / # OF OBS      
   G23   732   732   732   732                              PRN / # OF OBS      
   G24   850   850   850   850                              PRN / # OF OBS      
   G25   873   873   873   873                              PRN / # OF OBS      
   G27   838   838   838   838                              PRN / # OF OBS      
   G28   907   906   906   906                              PRN / # OF OBS      
   G29   760   760   759   759                              PRN / # OF OBS      
   G30   696   696   696   696                              PRN / # OF OBS      
   G31   785   785   784   784                              PRN / # OF OBS      
   G32   749   748   748   748                              PRN / # OF OBS      
BIT 2 OF LLI FLAGS DATA COLLECTED UNDER A/S CONDITION       COMMENT             
SNR is mapped to RINEX snr flag value [2-9]                 COMMENT             
Lx:     = 25dBHz -> 1; 26-27dBHz -> 2; 28-31dBHz -> 3       COMMENT             
       32-35dBHz -> 4; 36-38dBHz -> 5; 39-41dBHz -> 6       COMMENT             
       42-44dBHz -> 7; 45-48dBHz -> 8; >=49dBHz -> 9        COMMENT             
                                                            END OF HEADER       
 15 02 15 00 00  0.0000000  0  7G16G18G21G25G27G29G31
  23177961.040   121801014.51208  23177957.340    94909870.89646
  24026407.660   126259714.42808  24026407.460    98384237.55745
  20961881.440   110155725.24408  20961877.660    85835721.72148
  23346976.900   122689594.02708  23346977.320    95602456.47246
  24004535.880   126144707.86108  24004536.560    98294584.95646
  22731510.080   119455310.11509  22731507.580    93082242.00948
  21247753.560   111657715.97709  21247750.340    87006012.39849
 15 02 15 00 00 30.0000000  0  7G16G18G21G25G27G29G31
  23162054.620   121717426.13108  23162050.980    94844737.11946
  24012517.700   126186722.94508  24012517.280    98327361.41245
  20961884.260   110155740.38109  20961880.560    85835733.52948
  23362188.020   122769528.60008  23362188.420    95664743.14046
  23990776.340   126072401.29008  23990776.980    98238242.24946
  22745327.980   119527923.62209  22745325.540    93138823.95048
  21258034.400   111711741.85909  21258031.120    87048110.48048
 15 02 15 00 01  0.0000000  0  7G16G18G21G25G27G29G31
  23146159.520   121633896.67508  23146155.940    94779649.23145
  23998632.220   126113755.20308  23998631.440    98270503.69245
  20961975.380   110156219.33609  20961971.720    85836106.74048
  23377442.760   122849692.39008  23377443.140    95727208.40746
  23977042.020   126000226.85708  23977042.560    98182002.48245
  22759152.920   119600574.28209  22759150.580    93195434.82847
  21268405.240   111766240.98609  21268401.940    87090577.30748
 15 02 15 00 01 30.0000000  0  7G16G18G21G25G27G29G31
  23130275.580   121550425.75708  23130271.900    94714606.94946
  23984751.340   126040811.75108  23984750.740    98213664.95146
  20962154.160   110157158.97808  20962150.540    85836838.94148
  23392740.580   122930082.74008  23392740.980    95789850.20946
  23963332.500   125928182.45908  23963332.880    98125864.05046
  22772984.340   119673258.73009  22772982.020    93252072.04548
  21278865.340   111821209.42409  21278862.080    87133409.84448
 15 02 15 00 02  0.0000000  0  7G16G18G21G25G27G29G31
  23114402.380   121467011.52308  23114398.780    94649608.87346
  23970874.920   125967891.57308  23970874.160    98156844.29845
  20962420.260   110158557.27709  20962416.620    85837928.52748
  23408080.780   123010695.70408  23408081.180    95852665.48146
  23949647.040   125856264.63508  23949647.340    98069824.24146
  22786821.540   119745973.55409  22786819.220    93308732.90747
  21289413.660   111876641.48209  21289410.500    87176603.63048
 15 02 15 00 02 30.0000000  0  7G16G18G21G25G27G29G31
  23098541.260   121383660.44608  23098537.760    94584659.98047
  23957004.320   125895002.88808  23957003.580    98100048.21145
  20962774.360   110160418.07508  20962770.680    85839378.50148
  23423464.320   123091536.18208  23423464.600    95915658.04147
  23935986.560   125784478.83708  23935986.940    98013887.32446
  22800665.420   119818723.06509  22800662.980    93365420.81448
  21300050.940   111932540.92609  21300047.880    87220161.61948
 15 02 15 00 03  0.0000000  0  7G16G18G21G25G27G29G31
  23082691.700   121300370.68008  23082688.320    94519758.87646
  23943139.660   125822144.56408  23943138.840    98043275.75145
  20963215.620   110162736.60209  20963211.920    85841185.14548
  23438890.380   123172599.98108  23438890.620    95978824.61146
  23922350.520   125712821.44708  23922350.880    97958050.44646
  22814515.160   119891503.27809  22814512.600    93422132.64248
  21310776.160   111988902.21909  21310773.120    87264079.48648
 15 02 15 00 03 30.0000000  0  7G16G18G21G25G27G29G31
  23066854.240   121217144.76009  23066850.920    94454907.52646
  23929281.360   125749320.47708  23929280.500    97986529.98645
  20963744.060   110165513.35509  20963740.320    85843348.85748
  23454358.920   123253887.46608  23454359.180    96042165.47546
  23908739.100   125641293.25408  23908739.440    97902314.26546
  22828370.700   119964314.16109  22828368.060    93478868.36948
  21321589.080   112045724.25609  21321585.980    87308356.37948
 15 02 15 00 04  0.0000000  0  7G16G18G21G25G27G29G31
  23051029.480   121133984.78508  23051026.200    94390107.54647
  23915430.160   125676533.88708  23915429.440    97929813.41845
  20964359.640   110168748.17908  20964355.840    85845869.50948
  23469870.020   123335398.85408  23469870.260    96105680.82146
  23895152.460   125569895.16108  23895152.800    97846679.44246
  22842232.180   120037156.50409  22842229.460    93535628.62448
  21332489.480   112103005.88709  21332486.300    87352991.40248
 15 02 15 00 04 30.0000000  0  7G16G18G21G25G27G29G31
  23035217.460   121050892.27508  23035214.220    94325360.16646
  23901586.600   125603787.28608  23901586.020    97873128.01544
  20965062.360   110172441.06808  20965058.560    85848747.08648
  23485423.560   123417133.41108  23485423.860    96169370.05546
  23881590.540   125498626.85008  23881590.820    97791145.75846
  22856099.300   120110028.87009  22856096.620    93592412.25848
  21343476.900   112160744.85109  21343473.640    87397982.78648
 15 02 15 00 05  0.0000000  0  7G16G18G21G25G27G29G31
  23019417.840   120967864.82408  23019414.500    94260663.44346
  23887750.540   125531079.57108  23887749.780    97816472.87645
  20965851.340   110176587.27808  20965847.600    85851977.90048
  23501018.680   123499086.48008  23501019.100    96233229.56746
  23868052.520   125427484.33508  23868052.840    97735710.10546
  22869971.200   120182926.55109  22869968.600    93649215.61847
  21354550.100   112218934.97509  21354546.880    87443325.71348
 15 02 15 00 05 30.0000000  0  7G16G18G21G25G27G29G31
  23003631.740   120884908.22208  23003628.300    94196021.94146
  23873923.000   125458417.50008  23873922.540    97759853.31144
  20966727.240   110181190.49508  20966723.640    85855564.83348
  23516656.160   123581261.98908  23516656.640    96297262.40046
  23854539.260   125356472.02708  23854539.580    97680375.91546
  22883848.760   120255853.76809  22883846.180    93706042.01048
  21365709.680   112277578.99309  21365706.560    87489022.33448
 15 02 15 00 06  0.0000000  0  7G16G18G21G25G27G29G31
  22987858.780   120802021.32308  22987855.500    94131434.78646
  23860104.480   125385801.54408  23860103.940    97703269.64844
  20967689.340   110186246.78508  20967685.820    85859504.80348
  23532335.380   123663656.65508  23532335.860    96361465.99946
  23841050.260   125285587.27608  23841050.540    97625141.11846
  22897731.280   120328807.36509  22897728.800    93762888.93248
  21376954.700   112336672.07409  21376951.640    87535068.87148
 15 02 15 00 06 30.0000000  0  7G16G18G21G25G27G29G31
  22972099.500   120719205.63508  22972096.160    94066903.06846
  23846295.260   125313234.11008  23846294.100    97646723.73144
  20968737.620   110191755.81208  20968734.140    85863797.55448
  23548056.180   123746269.71908  23548056.660    96425839.78346
  23827585.540   125214829.87108  23827585.720    97570005.53946
  22911618.760   120401786.63409  22911616.320    93819755.86848
  21388284.800   112396212.12609  21388281.780    87581463.68548
 15 02 15 00 07  0.0000000  0  7G16G18G21G25G27G29G31
  22956354.580   120636465.52708  22956351.140    94002430.25746
  23832496.180   125240720.30108  23832495.280    97590219.69144
  20969872.380   110197719.05508  20969868.860    85868444.24348
  23563818.860   123829103.14608  23563819.280    96490385.29446
  23814145.520   125144202.32808  23814145.700    97514971.15246
  22925511.520   120474793.62509  22925509.080    93876644.41448
  21399700.100   112456199.70909  21399697.000    87628207.23648
 15 02 15 00 07 30.0000000  0  7G16G18G21G25G27G29G31
  22940623.720   120553799.50708  22940620.340    93938015.19546
  23818707.540   125168260.26408  23818706.060    97533757.45644
  20971093.160   110204133.84808  20971089.580    85873442.78548
  23579622.860   123912153.76108  23579623.280    96555100.02646
  23800729.660   125073702.09208  23800729.920    97460035.97246
  22939408.820   120547824.65309  22939406.480    93933551.67648
  21411199.700   112516630.00509  21411196.520    87675295.75548
 15 02 15 00 08  0.0000000  0  7G16G18G21G25G27G29G31
  22924908.040   120471213.04108  22924904.600    93873662.10346
  23804930.280   125095860.45108  23804928.780    97477342.20545
  20972400.340   110211002.77808  20972396.720    85878795.20248
  23595468.680   123995424.37208  23595469.180    96619986.18846
  23787338.640   125003332.55008  23787339.020    97405202.62647
  22953311.320   120620882.61809  22953309.000    93990479.93847
  21422783.740   112577504.32009  21422780.500    87722730.26048
 15 02 15 00 08 30.0000000  0  7G16G18G21G25G27G29G31
  22909207.040   120388704.18608  22909203.540    93809369.49946
  23791164.260   125023519.33508  23791162.680    97420972.67545
  20973792.980   110218320.99608  20973789.320    85884497.71848
  23611355.540   124078910.69308  23611356.080    96685040.42846
  23773971.880   124933089.96508  23773972.220    97350468.19346
  22967218.240   120693963.83609  22967215.940    94047426.31148
  21434451.240   112638817.02809  21434447.900    87770506.37648
 15 02 15 00 09  0.0000000  0  7G16G18G21G25G27G29G31
  22893520.860   120306272.63009  22893517.360    93745137.11846
  23777409.580   124951238.40608  23777407.960    97364650.03945
  20975270.680   110226086.39608  20975266.980    85890548.69148
  23627283.020   124162610.45608  23627283.720    96750260.98546
  23760629.040   124862972.76308  23760629.260    97295831.46146
  22981129.180   120767065.95909  22981126.860    94104388.98248
  21446201.380   112700564.31809  21446198.080    87818621.13148
 15 02 15 00 09 30.0000000  0  7G16G18G21G25G27G29G31
  22877850.740   120223925.43408  22877847.240    93680970.47946
  23763668.000   124879025.93708  23763666.280    97308380.71545
  20976834.360   110234303.34809  20976830.540    85896951.50948
  23643252.060   124246528.51208  23643252.760    96815651.64146
  23747311.040   124792986.34208  23747311.220    97241296.64846
  22995045.040   120840193.89509  22995042.660    94161371.76947
  21458034.860   112762749.55709  21458031.620    87867077.13748
 15 02 15 00 10  0.0000000  0  7G16G18G21G25G27G29G31
  22862195.940   120141658.61509  22862192.340    93616866.45746
  23749938.800   124806879.06408  23749937.060    97252162.53245
  20978482.840   110242965.80609  20978478.880    85903701.48748
  23659261.500   124330658.56408  23659262.200    96881207.49645
  23734016.880   124723124.96208  23734016.980    97186859.27046
  23008964.640   120913341.65609  23008962.300    94218369.99547
  21469950.120   112825364.85209  21469946.960    87915868.24948
 15 02 15 00 10 30.0000000  0  7G16G18G21G25G27G29G31
  22846557.700   120059478.65208  22846554.080    93552830.13047
  23736223.460   124734804.76508  23736221.440    97196000.88945
  20980216.760   110252077.48908  20980212.760    85910801.50748
  23675312.080   124415004.44508  23675312.680    96946931.53546
  23720747.360   124653393.17208  23720747.400    97132522.86846
  23022888.720   120986513.00609  23022886.420    94275386.60547
  21481947.740   112888412.68909  21481944.660    87964996.41348
 15 02 15 00 11  0.0000000  0  7G16G18G21G25G27G29G31
  22830935.660   119977384.44908  22830932.160    93488860.64146
  23722521.880   124662803.18008  23722520.000    97139895.93045
  20982035.440   110261635.01608  20982031.520    85918248.93548
  23691403.140   124499563.06508  23691403.660    97012821.34146
  23707502.040   124583788.48508  23707502.160    97078285.50146
  23036816.620   121059704.68009  23036814.360    94332419.05247
  21494026.800   112951888.51209  21494023.780    88014458.06148
 15 02 15 00 11 30.0000000  0  7G16G18G21G25G27G29G31
  22815330.220   119895377.46309  22815326.720    93424959.09046
  23708834.600   124590877.15808  23708832.740    97083849.81145
  20983938.680   110271636.80208  20983934.760    85926042.54448
  23707534.520   124584333.47708  23707534.980    97078876.18046
  23694280.820   124514310.53908  23694280.940    97024146.89546
  23050748.440   121132916.54409  23050746.080    94389467.24548
  21506186.860   113015789.75409  21506183.840    88064251.21648
 15 02 15 00 12  0.0000000  0  7G16G18G21G25G27G29G31
  22799742.100   119813461.94908  22799738.800    93361128.84047
  23695162.640   124519031.63408  23695160.820    97027866.41045
  20985926.920   110282085.15808  20985922.980    85934184.12748
  23723706.500   124669317.36708  23723706.920    97145097.36246
  23681084.180   124444961.69708  23681084.280    96970108.88046
  23064684.440   121206150.57109  23064682.020    94446532.69648
  21518427.980   113080116.85109  21518424.900    88114376.20648
 15 02 15 00 12 30.0000000  0  7G16G18G21G25G27G29G31
  22784171.180   119731636.49608  22784167.900    93297368.75746
  23681505.980   124447266.09008  23681504.260    96971945.34546
  20987999.400   110292976.12708  20987995.420    85942670.60448
  23739918.380   124754511.19808  23739918.820    97211482.11946
  23667911.540   124375739.05308  23667911.580    96916169.21046
  23078623.980   121279403.06009  23078621.520    94503612.53547
  21530749.080   113144864.40609  21530745.960    88164828.81748
 15 02 15 00 13  0.0000000  0  7G16G18G21G25G27G29G31
  22768618.040   119649904.27008  22768614.680    93233681.31047
  23667865.380   124375585.21808  23667863.700    96916090.26146
  20990156.100   110304309.80108  20990152.080    85951502.04548
  23756170.320   124839915.54608  23756170.720    97278030.92646
  23654763.040   124306643.79208  23654763.100    96862328.78846
  23092567.200   121352674.90709  23092564.720    94560707.46047
  21543150.000   113210031.52209  21543146.860    88215608.36448
 15 02 15 00 13 30.0000000  0  7G16G18G21G25G27G29G31
  22753083.040   119568267.53309  22753079.780    93170068.28247
  23654241.600   124303992.02008  23654240.020    96860303.48346
  20992397.100   110316086.23808  20992393.020    85960678.49548
  23772462.280   124925530.31308  23772462.600    97344743.72046
  23641638.860   124237676.48908  23641638.980    96808588.08346
  23106514.080   121425966.07509  23106511.560    94617817.44347
  21555630.400   113275616.42209  21555627.260    88266713.45448
 15 02 15 00 14  0.0000000  0  7G16G18G21G25G27G29G31
  22737565.680   119486722.93808  22737562.360    93106527.06047
  23640634.060   124232484.39608  23640632.440    96804583.40045
  20994721.160   110328299.26909  20994717.100    85970195.14748
  23788793.180   125011349.70108  23788793.580    97411615.94346
  23628538.080   124168832.04008  23628538.200    96754943.10947
  23120463.580   121499271.00609  23120461.060    94674938.14647
  21568188.860   113341611.96409  21568185.800    88318138.51348
 15 02 15 00 14 30.0000000  0  7G16G18G21G25G27G29G31
  22722067.280   119405278.41408  22722063.900    93043063.79547
  23627044.480   124161071.52708  23627042.740    96748937.12746
  20997129.320   110340954.40608  20997125.300    85980056.29948
  23805164.140   125097379.67108  23805164.460    97478652.24946
  23615462.020   124100117.07508  23615462.160    96701399.02247
  23134416.980   121572596.56209  23134414.540    94732074.92747
  21580826.340   113408022.64809  21580823.360    88369887.07148
 15 02 15 00 15  0.0000000  0  7G16G18G21G25G27G29G31
  22706587.480   119323931.18009  22706584.100    92979676.34447
  23613472.540   124089751.23408  23613471.020    96693363.01745
  20999620.580   110354046.34708  20999616.600    85990257.82348
  23821574.140   125183614.81108  23821574.500    97545848.43346
  23602409.720   124031526.77908  23602409.840    96647952.08647
  23148373.200   121645937.13509  23148370.840    94789223.41147
  21593541.500   113474841.45909  21593538.560    88421953.65548
 15 02 15 00 15 30.0000000  0  7G16G18G21G25G27G29G31
  22691126.960   119242685.57509  22691123.580    92916368.09746
  23599919.280   124018528.78508  23599917.500    96637865.08645
  21002195.100   110367575.90608  21002191.180    86000800.34548
  23838023.420   125270056.50508  23838023.880    97613205.54246
  23589381.580   123963063.23908  23589381.540    96594603.90447
  23162332.600   121719294.44309  23162330.240    94846384.93547
  21606334.280   113542068.03209  21606331.360    88474337.96948
 15 02 15 00 16  0.0000000  0  7G16G18G21G25G27G29G31
  22675686.580   119161545.29809  22675682.920    92853141.89847
  23586385.620   123947409.05308  23586383.800    96582447.22546
  21004853.220   110381544.75508  21004849.380    86011685.17148
  23854512.280   125356706.21708  23854512.900    97680724.75146
  23576377.940   123894728.63608  23576377.840    96541356.20047
  23176295.540   121792670.32209  23176293.240    94903560.92647
  21619204.700   113609702.22809  21619201.740    88527039.90748
 15 02 15 00 16 30.0000000  0  7G16G18G21G25G27G29G31
  22660265.300   119080505.65909  22660261.600    92789994.12547
  23572870.700   123876388.02108  23572868.700    96527106.25245
  21007593.500   110395945.07808  21007589.680    86022906.20248
  23871039.380   125443556.62708  23871040.040    97748400.35046
  23563397.560   123826516.29708  23563397.480    96488203.76747
  23190260.740   121866057.90409  23190258.400    94960746.03847
  21632151.060   113677735.50209  21632148.060    88580052.81948
 15 02 15 00 17  0.0000000  0  7G16G18G21G25G27G29G31
  22644864.780   118999575.26209  22644861.040    92726931.48247
  23559376.440   123805475.41408  23559374.300    96471849.77745
  21010417.080   110410783.12008  21010413.280    86034468.31948
  23887605.940   125530614.03808  23887606.680    97816237.24146
  23550441.720   123758433.23508  23550441.720    96435152.06147
  23204229.340   121939463.60009  23204227.020    95017945.26047
  21645174.200   113746172.20409  21645171.140    88633380.08948
 15 02 15 00 17 30.0000000  0  7G16G18G21G25G27G29G31
  22629484.660   118918752.34909  22629480.860    92663952.59546
  23545902.780   123734670.98108  23545900.660    96416677.60945
  21013323.060   110426054.17208  21013319.260    86046367.85648
  23904211.060   125617874.11308  23904211.860    97884232.06146
  23537509.800   123690475.84408  23537509.880    96382198.29347
  23218200.700   122012883.63409  23218198.380    95075155.66647
  21658273.040   113815006.75009  21658269.900    88687017.37648
 15 02 15 00 18  0.0000000  0  7G16G18G21G25G27G29G31
  22614125.140   118838037.97809  22614121.500    92601058.29147
  23532449.900   123663976.00608  23532447.660    96361590.70945
  21016311.120   110441756.31208  21016307.260    86058603.29048
  23920854.380   125705335.11808  23920855.160    97952383.43746
  23524601.540   123622643.01308  23524601.720    96329341.59547
  23232174.520   122086316.57809  23232172.240    95132376.12947
  21671446.860   113884235.52309  21671443.760    88740961.84448
 15 02 15 00 18 30.0000000  0  7G16G18G21G25G27G29G31
  22598786.580   118757433.40409  22598783.000    92538249.53847
  23519018.400   123593393.22308  23519016.080    96306591.21845
  21019381.020   110457888.45908  21019377.100    86071173.80748
  23937535.760   125792996.14108  23937536.580    98020690.67046
  23511717.020   123554934.62908  23511717.160    96276581.84647
  23246150.740   122159762.15709  23246148.520    95189606.42647
  21684695.220   113953856.03009  21684692.160    88795211.56648
 15 02 15 00 19  0.0000000  0  7G16G18G21G25G27G29G31
  22583469.800   118676943.30509  22583466.220    92475529.98247
  23505609.300   123522928.04808  23505606.820    96251683.37545
  21022533.020   110474452.09708  21022529.080    86084080.53748
  23954255.540   125880859.04108  23954256.320    98089155.21446
  23498856.740   123487353.23408  23498856.760    96223921.04747
  23260129.740   122233222.32709  23260127.560    95246848.09847
  21698018.220   114023869.04609  21698015.260    88849767.12448
 15 02 15 00 19 30.0000000  0  7G16G18G21G25G27G29G31
  22568174.320   118596564.77909  22568170.800    92412897.36447
  23492222.140   123452578.31008  23492219.480    96196865.46545
  21025766.040   110491441.48808  21025762.060    86097319.02348
  23971012.780   125968918.34608  23971013.420    98157772.82146
  23486019.780   123419894.12508  23486019.600    96171355.52747
  23274110.620   122306692.15009  23274108.400    95304097.29047
  21711414.460   114094266.92609  21711411.560    88904622.58748
 15 02 15 00 20  0.0000000  0  7G16G18G21G25G27G29G31
  22552901.580   118516305.95909  22552898.100    92350358.03347
  23478858.700   123382353.17408  23478855.860    96142144.62745
  21029081.060   110508861.80208  21029077.060    86110893.29648
  23987808.460   126057179.52808  23987808.840    98226547.72545
  23473207.200   123352563.43208  23473206.880    96118890.07447
  23288094.520   122380177.54609  23288092.280    95361358.62847
  21724884.760   114165053.66709  21724881.860    88959781.05948
 15 02 15 00 20 30.0000000  0  7G16G18G21G25G27G29G31
  22537650.980   118436163.40809  22537647.440    92287909.29747
  23465518.500   123312250.18608  23465515.640    96087518.99845
  21032476.860   110526706.70408  21032472.820    86124798.41948
  24004641.440   126145636.65708  24004641.720    98295475.31646
  23460417.980   123285355.96308  23460417.700    96066520.66147
  23302080.300   122453673.18009  23302078.040    95418627.93247
  21738427.620   114236221.66909  21738424.680    89015236.61848
 15 02 15 00 21  0.0000000  0  7G16G18G21G25G27G29G31
  22522423.300   118356141.44609  22522419.840    92225554.52847
  23452202.340   123242274.25808  23452199.920    96032992.41546
  21035953.600   110544977.25908  21035949.560    86139035.21548
  24021511.960   126234291.15208  24021512.040    98364556.72246
  23447652.680   123218274.00108  23447652.500    96014249.03447
  23316068.400   122527180.72909  23316066.040    95475906.51747
  21752043.100   114307771.14209  21752040.180    89070989.41548
 15 02 15 00 21 30.0000000  0  7G16G18G21G25G27G29G31
  22507218.900   118276241.77409  22507215.440    92163295.04847
  23438910.940   123172428.72708  23438908.640    95978567.42545
  21039511.160   110563672.64408  21039507.180    86153603.04948
  24038419.760   126323142.17308  24038420.020    98433791.23645
  23434911.260   123151317.35308  23434911.060    95962075.05647
  23330058.680   122600699.88109  23330056.300    95533194.13647
  21765730.720   114379699.59209  21765727.660    89127037.53248
 15 02 15 00 22  0.0000000  0  7G16G18G21G25G27G29G31
  22492037.820   118196464.83409  22492034.400    92101131.21047
  23425644.640   123102714.51208  23425642.520    95924244.75046
  21043149.160   110582790.78608  21043145.260    86168500.30748
  24055364.520   126412187.58008  24055364.800    98503177.24745
  23422193.420   123084484.64708  23422193.200    95909997.65147
  23344050.880   122674229.04909  23344048.460    95590489.56147
  21779489.660   114452002.96309  21779486.580    89183377.79048
 15 02 15 00 22 30.0000000  0  7G16G18G21G25G27G29G31
  22476880.640   118116813.32109  22476877.280    92039065.10047
  23412404.060   123033134.98708  23412401.980    95870027.02046
  21046867.380   110602330.61308  21046863.600    86183726.14948
  24072346.120   126501426.96608  24072346.500    98572714.39645
  23409499.220   123017776.23408  23409498.880    95858017.09446
  23358045.060   122747768.72009  23358042.680    95647793.15347
  21793319.520   114524679.09709  21793316.420    89240008.50948
 15 02 15 00 23  0.0000000  0  7G16G18G21G25G27G29G31
  22461747.560   118037288.79009  22461744.220    91977097.94447
  23399189.720   122963692.98808  23399187.540    95815916.42946
  21050665.700   110622291.00108  21050661.960    86199279.70048
  24089364.460   126590859.66108  24089364.920    98642402.17345
  23396828.660   122951192.21708  23396828.220    95806133.46346
  23372041.120   122821318.39609  23372038.780    95705104.55847
  21807219.860   114597725.82509  21807216.800    89296928.00248
 15 02 15 00 23 30.0000000  0  7G16G18G21G25G27G29G31
  22446638.960   117957893.08409  22446635.720    91915231.17247
  23386002.000   122894391.25908  23385999.860    95761915.16146
  21054543.840   110642670.61509  21054540.100    86215159.92848
  24106419.460   126680484.77408  24106420.200    98712239.88745
  23384181.820   122884732.49608  23384181.360    95754346.70247
  23386039.020   122894877.90409  23386036.680    95762423.65047
  21821190.280   114671140.71709  21821187.260    89354134.37948
 15 02 15 00 24  0.0000000  0  7G16G18G21G25G27G29G31
  22431555.180   117878627.55609  22431551.900    91853465.84247
  23372841.320   122825231.50808  23372839.060    95708024.51845
  21058501.500   110663468.00109  21058497.700    86231365.69248
  24123510.760   126770300.71108  24123511.540    98782226.28945
  23371558.420   122818396.26508  23371558.060    95702656.17047
  23400038.460   122968445.72309  23400036.140    95819749.20047
  21835230.160   114744920.61109  21835227.120    89411625.17948
 15 02 15 00 24 30.0000000  0  7G16G18G21G25G27G29G31
  22416496.920   117799495.71809  22416493.560    91791804.67647
  23359708.600   122756218.44608  23359706.240    95654248.18846
  21062538.640   110684683.21808  21062534.780    86247897.03848
  24140638.560   126860308.16207  24140639.520    98852361.91045
  23358958.620   122752184.98608  23358958.460    95651063.01247
  23414039.960   123042024.05308  23414037.660    95877082.95347
  21849339.300   114819064.50009  21849336.240    89469399.60148
 15 02 15 00 25  0.0000000  0  7G16G18G21G25G27G29G31
  22401463.900   117720496.26809  22401460.420    91730246.66347
  23346603.760   122687351.82109  23346601.280    95600585.94646
  21066654.480   110706312.17109  21066650.560    86264750.76648
  24157802.080   126950503.23407  24157803.060    98922643.71646
  23346382.080   122686095.56608  23346382.000    95599564.79347
  23428042.680   123115609.02109  23428040.460    95934421.86547
  21863516.680   114893566.87209  21863513.540    89527453.35848
 15 02 15 00 25 30.0000000  0  7G16G18G21G25G27G29G31
  22386456.540   117641631.72309  22386453.000    91668793.77647
  23333527.400   122618634.59209  23333524.780    95547040.11146
  21070848.900   110728354.23308  21070844.980    86281926.40348
  24175001.280   127040885.62707  24175002.400    98993071.50046
  23333829.000   122620128.54108  23333828.900    95548161.93747
  23442046.680   123189200.82208  23442044.500    95991766.10947
  21877761.900   114968425.82509  21877758.720    89585784.97348
 15 02 15 00 26  0.0000000  0  7G16G18G21G25G27G29G31
  22371475.640   117562906.26509  22371472.060    91607449.26847
  23320480.440   122550071.83909  23320477.660    95493614.64046
  21075122.140   110750810.46908  21075118.260    86299424.76848
  24192236.400   127131456.54408  24192237.620    99063646.17746
  23321299.640   122554285.92108  23321299.500    95496856.02647
  23456052.420   123262801.49308  23456050.200    96049117.25947
  21892074.920   115043640.92409  21892071.720    89644394.10048
 15 02 15 00 26 30.0000000  0  7G16G18G21G25G27G29G31
  22356521.520   117484321.50809  22356517.880    91546214.39947
  23307463.200   122481665.96008  23307460.280    95440311.42346
  21079473.960   110773679.41408  21079470.040    86317244.73348
  24209507.220   127222214.79808  24209508.420    99134366.82546
  23308793.700   122488567.28808  23308793.680    95445646.75147
  23470059.720   123336410.44608  23470057.500    96106474.86447
  21906455.100   115119209.27509  21906451.940    89703278.49048
 15 02 15 00 27  0.0000000  0  7G16G18G21G25G27G29G31
  22341593.920   117405876.49609  22341590.240    91485088.42347
  23294475.660   122413416.66008  23294472.740    95387130.21246
  21083903.420   110796956.22808  21083899.420    86335382.51748
  24226812.960   127313156.33708  24226814.080    99205230.31146
  23296310.780   122422969.46308  23296310.800    95394531.60047
  23484068.020   123410024.56708  23484065.800    96163836.49847
  21920901.400   115195125.12209  21920898.280    89762433.65348
 15 02 15 00 27 30.0000000  0  7G16G18G21G25G27G29G31
  22326694.040   117327577.11109  22326690.320    91424075.93047
  23281519.300   122345331.22708  23281516.360    95334076.67145
  21088411.160   110820644.40108  21088407.140    86353840.83848
  24244154.280   127404284.91908  24244155.300    99276239.53646
  23283851.820   122357497.03708  23283851.760    95343514.15547
  23498078.100   123483647.99208  23498075.860    96221205.37547
  21935414.280   115271390.90009  21935411.160    89821861.49548
 15 02 15 00 28  0.0000000  0  7G16G18G21G25G27G29G31
  22311821.020   117249418.99009  22311817.220    91363173.50247
  23268593.420   122277405.76408  23268590.580    95281147.77546
  21092995.660   110844735.93308  21092991.620    86372613.46448
  24261529.800   127495592.82908  24261530.660    99347388.50946
  23271415.360   122292143.12208  23271415.260    95292589.05747
  23512088.560   123557273.32508  23512086.280    96278575.73747
  21949991.920   115347996.82109  21949988.800    89881554.38048
 15 02 15 00 28 30.0000000  0  7G16G18G21G25G27G29G31
  22296976.480   117171410.52409  22296972.680    91302387.69847
  23255699.700   122209649.22508  23255696.820    95228350.51245
  21097657.860   110869236.08508  21097653.820    86391704.50048
  24278940.480   127587085.65008  24278941.120    99418681.58046
  23259002.620   122226914.09808  23259002.620    95241761.29247
  23526100.680   123630907.21108  23526098.360    96335952.76447
  21964635.000   115424946.96209  21964631.980    89941515.49048
 15 02 15 00 29  0.0000000  0  7G16G18G21G25G27G29G31
  22282160.120   117093550.53909  22282156.440    91241717.59547
  23242838.040   122142061.31608  23242835.360    95175684.67846
  21102397.000   110894140.57108  21102392.980    86411110.59848
  24296385.540   127678759.35008  24296386.140    99490115.57446
  23246613.080   122161806.83908  23246613.080    95191028.38547
  23540113.900   123704546.88209  23540111.560    96393334.30046
  21979342.580   115502235.78009  21979339.580    90001740.50048
 15 02 15 00 29 30.0000000  0  7G16G18G21G25G27G29G31
  22267372.740   117015842.69209  22267369.080    91181166.02647
  23230009.260   122074646.43908  23230006.660    95123153.65246
  21107213.020   110919449.27908  21107209.060    86430831.67848
  24313865.020   127770614.35608  24313865.680    99561690.83046
  23234246.980   122096822.62608  23234246.920    95140391.35747
  23554128.360   123778192.98808  23554125.920    96450720.86746
  21994114.400   115579862.13709  21994111.440    90062228.52948
 15 02 15 00 30  0.0000000  0  7G16G18G21G25G27G29G31
  22252614.340   116938287.14209  22252610.780    91120733.14047
  23217213.640   122007405.72508  23217211.280    95070758.34646
  21112105.460   110945159.52908  21112101.540    86450865.63748
  24331378.480   127862648.35108  24331379.240    99633405.56645
  23221904.000   122031959.97508  23221903.940    95089849.05847
  23568143.720   123851843.78708  23568141.220    96508111.07246
  22008949.640   115657821.86509  22008946.720    90122976.32248
 15 02 15 00 30 30.0000000  0  7G16G18G21G25G27G29G31
  22237885.100   116860884.31109  22237881.440    91060419.25447
  23204451.380   121940339.90908  23204449.000    95018499.31746
  21117073.820   110971268.69208  21117069.880    86471210.44848
  24348925.480   127954858.75308  24348926.440    99705257.74946
  23209583.820   121967217.15808  23209583.840    95039400.14447
  23582159.660   123925497.58608  23582157.160    96565503.61647
  22023847.480   115736110.57909  22023844.600    90183980.47048
 15 02 15 00 31  0.0000000  0  7G16G18G21G25G27G29G31
  22223185.720   116783638.33509  22223182.100    91000227.59647
  23191723.420   121873454.05108  23191720.940    94966380.50445
  21122118.220   110997777.31408  21122114.280    86491866.52148
  24366506.360   128047246.54908  24366507.120    99777248.20345
  23197286.900   121902596.18108  23197286.880    94989046.15547
  23596176.500   123999156.27808  23596174.000    96622899.98146
  22038807.880   115814727.71209  22038805.000    90245240.53548
 15 02 15 00 31 30.0000000  0  7G16G18G21G25G27G29G31
  22208516.820   116706552.51409  22208513.140    90940160.73147
  23179030.480   121806752.11208  23179027.940    94914405.01846
  21127238.620   111024685.38908  21127234.740    86512833.85048
  24384121.020   128139812.21708  24384121.920    99849377.19045
  23185013.400   121838098.20408  23185013.280    94938788.00747
  23610194.440   124072820.88708  23610192.020    96680300.93647
  22053830.500   115893672.02909  22053827.700    90306755.53548
 15 02 15 00 32  0.0000000  0  8G16G18G21G22G25G27G29G31
  22193878.220   116629626.39309  22193874.580    90880218.32247
  23166372.680   121740234.54008  23166370.060    94862573.18946
  21132434.300   111051988.79608  21132430.460    86534109.24648
  24548863.100   129005150.42906  24548864.180   100523492.15644
  24401768.920   128232551.98007  24401769.400    99921641.89944
  23172762.720   121773720.49108  23172762.520    94888623.59247
  23624212.980   124146488.62808  23624210.680    96737704.32747
  22068914.400   115972938.38009  22068911.620    90368521.48048
 15 02 15 00 32 30.0000000  0  8G16G18G21G22G25G27G29G31
  22179270.420   116552862.11009  22179266.860    90820402.00147
  23153750.480   121673904.35008  23153747.820    94810887.36846
  21137705.120   111079686.75809  21137701.200    86555692.07248
  24531979.020                    24531980.640                  
  24419449.860   128325465.52307  24419450.480    99994042.04144
  23160535.020   121709463.57208  23160534.780    94838553.29147
  23638232.280   124220160.15808  23638229.960    96795110.69047
  22084059.200   116052524.69409  22084056.500    90430536.73648
 15 02 15 00 33  0.0000000  0  8G16G18G21G22G25G27G29G31
  22164694.480   116476265.45609  22164690.940    90760716.30947
  23141165.040   121607767.74208  23141162.440    94759352.39846
  21143051.420   111107781.58109  21143047.520    86577584.14448
  24515078.880                    24515079.700                  
  24437164.180   128418555.38407  24437164.860   100066579.52745
  23148330.980   121645330.86708  23148330.680    94788579.77147
  23652252.860   124293838.45608  23652250.480    96852522.31446
  22099265.100   116132431.91709  22099262.400    90492802.04848
 15 02 15 00 33 30.0000000  0  8G16G18G21G22G25G27G29G31
  22150149.820   116399832.70209  22150146.240    90701158.31947
  23128615.820   121541821.62408  23128613.260    94707965.84746
  21148471.900   111136266.09609  21148467.960    86599779.86848
  24498159.440   128738697.46809  24498160.060   100315869.72157
  24454910.660   128511814.75407  24454911.660   100139249.03544
  23136149.440   121581316.51908  23136149.060    94738698.47647
  23666273.600   124367517.86308  23666271.180    96909934.81046
  22114530.400   116212651.39709  22114527.720    90555310.68048
 15 02 15 00 34  0.0000000  0  8G16G18G21G22G25G27G29G31
  22135637.500   116323569.79909  22135633.800    90641732.69247
  23116104.140   121476072.90708  23116101.680    94656733.12946
  21153967.040   111165142.94209  21153963.080    86622281.31048
  24481223.480   128649696.05907                                
  24472690.180   128605246.70407  24472691.300   100212053.06845
  23123991.140   121517424.51308  23123990.800    94688912.52647
  23680295.340   124441202.27809  23680292.840    96967351.21546
  22129855.380   116293184.62909  22129852.720    90618063.78948
 15 02 15 00 34 30.0000000  0  8G16G18G21G22G25G27G29G31
  22121157.060   116247474.02109  22121153.220    90582437.27947
  23103629.620   121410519.33208  23103627.260    94605652.46446
  21159535.640   111194405.96108  21159531.680    86645083.66748
  24464270.900   128560608.19209  24464272.580   100177105.48847
  24490501.540   128698845.33108  24490502.800   100284986.95946
  23111855.180   121453649.93808  23111854.960    94639218.08847
  23694316.960   124514886.42808  23694314.520    97024767.41546
  22145238.680   116374024.04609  22145235.940    90681055.49548
 15 02 15 00 35  0.0000000  0  8G16G18G21G22G25G27G29G31
  22106709.760   116171552.60309  22106705.920    90523277.73947
  23091193.760   121345168.59608  23091191.280    94554729.85246
  21165178.260   111224058.14808  21165174.320    86668189.27348
  24447301.900   128471435.99405  24447301.280   100107611.56453
  24508345.480   128792614.53708  24508346.580   100358053.77846
  23099742.440   121389997.57508  23099742.300    94589618.87447
  23708339.440   124588575.41508  23708337.120    97082187.37347
  22160680.680   116455171.93809  22160677.920    90744287.56048
 15 02 15 00 35 30.0000000  0  8G16G18G21G22G25G27G29G31
  22092294.520   116095799.95009  22092290.680    90464249.69647
  23078795.580   121280015.66009  23078793.000    94503961.36946
  21170893.160   111254090.50008  21170889.240    86691591.10848
  24430315.960   128382176.55808  24430314.680   100038052.31345
  24526220.220   128886545.82108  24526221.300   100431246.87446
  23087651.560   121326459.87108  23087651.440    94540108.99847
  23722361.360   124662261.41008  23722359.080    97139605.00446
  22176179.400   116536618.06209  22176176.620    90807752.01248
 15 02 15 00 36  0.0000000  0  8G16G18G21G22G25G27G29G31
  22077914.040   116020230.22809  22077910.300    90405364.21247
  23066437.960   121215075.82408  23066435.300    94453358.94046
  21176682.700   111284514.96109  21176678.780    86715298.48848
  24413314.220   128292833.38507                                
  24544127.940   128980650.53608  24544128.880   100504575.14646
  23075584.880   121263049.15008  23075584.660    94490698.07347
  23736385.140   124735957.01308  23736382.840    97197030.14146
  22191736.680   116618372.06209  22191733.880    90871456.37348
 15 02 15 00 36 30.0000000  0  8G16G18G21G22G25G27G29G31
  22063567.220   115944837.54509  22063563.520    90346616.67347
  23054119.840   121150343.93908  23054117.180    94402918.54246
  21182544.960   111315321.68708  21182541.060    86739303.73148
  24396299.020   128203421.77306  24396299.140    99898763.48142
  24562066.900   129074919.64608  24562068.000   100578031.49646
  23063540.860   121199757.31408  23063540.600    94441379.78147
  23750409.060   124809653.34108  23750406.720    97254455.82946
  22207350.520   116700423.20609  22207347.780    90935392.26548
 15 02 15 00 37  0.0000000  0  8G16G18G21G22G25G27G29G31
  22049254.160   115869622.33809  22049250.520    90288007.43347
  23041841.420   121085820.58809  23041838.760    94352640.65746
  21188479.340   111346507.24309  21188475.460    86763604.16948
  24379268.440   128113929.20507  24379269.180    99829027.92743
  24580036.560   129169350.22908  24580037.480   100651613.66646
  23051519.100   121136582.36208  23051518.780    94392152.57947
  23764432.860   124883349.29408  23764430.660    97311881.21647
  22223020.120   116782767.28909  22223017.400    90999556.43148
 15 02 15 00 37 30.0000000  0  8G16G18G21G22G25G27G29G31
  22034975.960   115794589.85109  22034972.260    90229540.56747
  23029603.860   121021511.63409  23029601.080    94302529.82546
  21194486.200   111378073.40809  21194482.260    86788201.18048
  24362224.560   128024365.10007  24362224.580    99759237.98543
  24598037.360   129263944.50608  24598038.360   100725323.38346
  23039520.180   121073527.56008  23039519.880    94343018.98947
  23778457.100   124957047.42008  23778454.980    97369308.29046
  22238745.520   116865404.59509  22238742.800    91063949.07348
 15 02 15 00 38  0.0000000  0  8G16G18G21G22G25G27G29G31
  22020733.040   115719742.82009  22020729.300    90171218.20147
  23017407.680   120957420.06609  23017404.780    94252588.38646
  21200565.360   111410019.55909  21200561.360    86813094.29248
  24345167.480   127934731.36307  24345168.140    99689394.09945
  24616069.160   129358702.00508  24616070.060   100799160.27445
  23027544.140   121010593.38908  23027543.900    94293979.40447
  23792481.960   125030748.62208  23792479.900    97426737.79047
  22254526.320   116948333.12509  22254523.660    91128568.64348
 15 02 15 00 38 30.0000000  0  8G16G18G21G22G25G27G29G31
  22006525.620   115645082.50509  22006521.960    90113041.34447
  23005253.360   120893548.56209  23005250.360    94202818.41846
  21206716.380   111442343.25609  21206712.340    86838281.58848
  24328097.620   127845029.61007  24328098.280    99619496.52743
  24634131.620   129453620.87307  24634132.680   100873122.90545
  23015590.880   120947778.96708  23015590.680    94245033.12847
  23806507.200   125104451.93208  23806505.280    97484168.90247
  22270361.840   117031549.35009  22270359.220    91193412.38948
 15 02 15 00 39  0.0000000  0  8G16G18G21G22G25G27G29G31
  21992353.920   115570609.86609  21992350.300    90055010.72347
  22993141.100   120829898.30609  22993138.100    94153220.84846
  21212938.700   111475041.62909  21212934.620    86863760.84448
  24311015.260   127755262.33008  24311015.900    99549548.50847
  24652224.160   129548698.98706  24652225.380   100947209.58344
  23003660.220   120885083.04408  23003660.020    94196179.18747
  23820532.600   125178155.93808  23820530.800    97541600.56046
  22286251.360   117115049.09409  22286248.760    91258477.05748
 15 02 15 00 39 30.0000000  0  8G16G18G21G22G25G27G29G31
  21978218.200   115496326.48709  21978214.680    89997127.57847
  22981071.360   120766471.38408  22981068.300    94103797.32246
  21219232.040   111508113.06809  21219227.920    86889530.79848
  24293920.700   127665430.20508  24293920.500    99479541.73547
  24670346.780   129643934.61306  24670348.020   101021419.02544
  22991752.020   120822505.11708  22991751.860    94147417.19148
  23834558.040   125251859.86508  23834556.200    97599032.17347
  22302194.300   117198829.55409  22302191.740    91323760.47248
 15 02 15 00 40  0.0000000  0  8G16G18G21G22G25G27G29G31
  21964118.840   115422234.31609  21964115.420    89939393.42547
  22969044.460   120703270.34108  22969041.520    94054549.79746
  21225596.020   111541555.91109  21225591.880    86915590.15648
  24276814.360   127575535.90707  24276814.500    99409493.98144
  24688499.180   129739326.75407  24688500.440   101095750.43945
  22979866.260   120760045.08508  22979866.120    94098747.06648
  23848583.600   125325564.32008  23848581.800    97656464.18347
  22318190.080   117282887.67709  22318187.500    91389260.24048
 15 02 15 00 40 30.0000000  0  8G16G18G21G22G25G27G29G31
  21950056.420   115348335.92309  21950053.040    89881810.27247
  22957061.140   120640298.02908  22957058.260    94005480.49846
  21232030.420   111575368.69309  21232026.280    86941937.77748
  24259697.020   127485583.03507  24259697.240    99339404.61754
  24706681.520   129834874.30608  24706682.500   101170203.00544
  22968002.900   120697702.90708  22968002.800    94050168.76847
  23862609.140   125399268.78608  23862607.320    97713896.21046
  22334238.220   117367220.78309  22334235.640    91454974.27748
 15 02 15 00 41  0.0000000  0  8G16G18G21G22G25G27G29G31
  21936031.040   115274632.02509  21936027.640    89824378.66747
  22945121.680   120577556.15608  22945118.820    93956590.75546
  21238534.660   111609548.59509  21238530.520    86968571.46848
  24242569.380   127395560.99009  24242568.880    99269265.15746
  24724893.100   129930575.02908  24724893.940   101244774.90244
  22956161.780   120635477.31508  22956161.660    94001681.31247
  23876634.500   125472972.21908  23876632.580    97771327.44046
  22350338.040   117451825.39609  22350335.420    91520899.87848
 15 02 15 00 41 30.0000000  0  8G16G18G21G22G25G27G29G31
  21922043.960   115201129.32409  21922040.500    89767103.83748
  22933227.340   120515051.34008  22933224.560    93907885.74346
  21245109.300   111644098.54309  21245105.140    86995493.50248
  24225431.520   127305500.01909  24225431.920    99199093.49149
  24743134.300   130026432.07808  24743135.300   101319468.58445
  22944343.640   120573372.53808  22944343.520    93953288.00247
  23890660.460   125546678.84208  23890658.560    97828761.15447
  22366489.740   117536702.65609  22366487.100    91587037.92748
 15 02 15 00 42  0.0000000  0  8G16G18G21G22G25G27G29G31
  21908094.740   115127825.59409  21908091.240    89709984.05847
  22921377.920   120452782.29909  22921375.100    93859364.43746
  21251753.380   111679013.39309  21251749.180    87022699.88248
  24208283.660   127215385.09109  24208283.980    99128873.23847
  24761404.300   130122440.42308  24761405.420   101394280.17145
  22932547.760   120511384.61309  22932547.600    93904985.75447
  23904686.280   125620384.64008  23904684.320    97886194.22546
  22382692.040   117621845.84109  22382689.320    91653383.19248
 15 02 15 00 42 30.0000000  0  8G16G18G21G22G25G27G29G31
  21894184.140   115054724.82409  21894180.600    89653022.41747
  22909574.280   120390753.40009  22909571.360    93811030.23846
  21258466.860   111714293.12908  21258462.700    87050190.57748
  24191127.260   127125226.05309  24191127.160    99058622.34348
  24779703.120   130218600.78008  24779704.360   101469210.16946
  22920774.440   120449515.25408  22920774.260    93856775.87848
  23918712.260   125694091.43108  23918710.280    97943628.08046
  22398944.760   117707253.98909  22398941.900    91719934.92248
 15 02 15 00 43  0.0000000  0  7G16G18G21G25G27G29G31
  21880312.520   114981828.99009  21880309.000    89596220.48248
  22897816.860   120328967.23709  22897813.840    93762885.19246
  21265249.400   111749935.94008  21265245.340    87077964.19948
  24798030.660   130314911.73808  24798031.980   101544257.51846
  22909023.580   120387764.08908  22909023.340    93808658.11448
  23932738.280   125767798.61108  23932736.240    98001062.22646
  22415247.320   117792924.24409  22415244.540    91786690.88348
 15 02 15 00 43 30.0000000  0  8G16G18G21G22G25G27G29G31
  21866480.100   114909139.05609  21866476.520    89539578.97548
  22886105.780   120267425.01408  22886102.720    93714930.24846
  21272100.520   111785939.08708  21272096.540    87106018.60148
  24156787.220                                                  
  24816386.400   130411370.97208  24816387.780   101619420.38846
  22897294.940   120326129.84908  22897294.680    93760631.44948
  23946764.120   125841504.90808  23946762.020    98058495.67846
  22431599.040   117878852.66809  22431596.240    91853648.01548
 15 02 15 00 44  0.0000000  0  7G16G18G21G22G27G29G31
  21852688.420   114836663.29109  21852684.860    89483104.35348
  22874442.700   120206135.49609  22874439.640    93667172.20746
  21279021.100   111822307.21108  21279017.180    87134357.40148
  24139607.660   126854488.52309  24139607.960    98847656.79547
  22885589.700   120264618.53608  22885589.460    93712700.58748
  23960791.040   125915216.64708  23960788.920    98115933.36546
  22448000.480   117965042.31009  22447997.640    91920808.69548
 15 02 15 00 44 30.0000000  0  7G16G18G21G22G27G29G31
  21838934.820   114764387.63009  21838931.220    89426785.65848
  22862825.180   120145085.41909  22862822.080    93619600.74046
  21286007.740   111859022.60708  21286003.860    87162966.79648
  24122418.040   126764156.33107  24122418.000    98777268.07344
  22873904.780   120203214.05108  22873904.580    93664852.95547
  23974815.940   125988917.83408  23974813.820    98173362.83546
  22464448.040   118051474.44609  22464445.180    91988158.32348
 15 02 15 00 45  0.0000000  0  7G16G18G21G22G27G29G31
  21825224.560   114692339.66709  21825220.960    89370644.39948
  22851258.560   120084302.70909  22851255.500    93572237.61546
  21293065.000   111896109.00509  21293061.200    87191865.29148
  24105224.220   126673803.64307  24105225.600    98706868.31843
  22862244.940   120141941.61508  22862244.820    93617108.23447
  23988843.680   126062633.96108  23988841.600    98230803.95846
  22480945.980   118138171.49009  22480943.180    92055714.37548
 15 02 15 00 45 30.0000000  0  7G16G18G21G22G27G29G31
  21811553.260   114620496.48409  21811549.660    89314662.70048
  22839738.380   120023763.96009  22839735.360    93525064.58446
  21300187.740   111933539.40908  21300183.980    87221031.83948
  24088022.520   126583408.41706  24088020.580    98636436.61843
  22850605.380   120080775.91808  22850605.280    93569446.67947
  24002869.400   126136339.33308  24002867.360    98288236.69346
  22497489.060   118225105.66809  22497486.320    92123455.20348
 15 02 15 00 46  0.0000000  0  7G16G18G21G22G27G29G31
  21797921.260   114548859.94909  21797917.660    89258842.02748
  22828265.360   119963472.81709  22828262.400    93478084.49546
  21307375.660   111971312.37008  21307371.960    87250465.31348
  24070812.900   126492971.65508  24070813.140    98565951.33346
  22838986.120   120019716.98308  22838986.100    93521868.32147
  24016893.040   126210034.10608  24016890.980    98345661.16946
  22514076.740   118312274.03109  22514073.980    92191378.52348
 15 02 15 00 46 30.0000000  0  7G16G18G21G22G27G29G31
  21784333.740   114477457.12509  21784330.160    89203203.47248
  22816844.640   119903456.37109  22816841.720    93431318.46346
  21314633.200   112009451.11609  21314629.540    87280183.82448
  24053600.800   126402521.55707  24053601.240    98495470.22744
  22827391.940   119958789.34308  22827391.980    93474392.26248
  24030919.400   126283742.96508  24030917.240    98403096.64446
  22530713.160   118399698.67209  22530710.360    92259501.52847
 15 02 15 00 47  0.0000000  0  7G16G18G21G22G27G29G31
  21770787.520   114406271.39309  21770783.940    89147734.07648
  22805472.960   119843697.97609  22805470.120    93384753.51346
  21321956.460   112047935.15208  21321952.820    87310171.37448
  24036383.420   126312042.24808  24036383.860    98424966.50145
  22815819.200   119897974.21808  22815819.260    93427003.86947
  24044944.880   126357447.17108  24044942.720    98460528.47646
  22547394.200   118487357.69809  22547391.420    92327807.16647
 15 02 15 00 47 30.0000000  0  7G16G18G21G22G27G29G31
  21757283.700   114335308.49509  21757280.180    89092438.32648
  22794151.620   119784204.12409  22794148.820    93338394.70246
  21329345.840   112086766.61109  21329342.200    87340429.66748
  24019161.720   126221540.36308  24019162.100    98354445.46245
  22804268.520   119837275.12908  22804268.480    93379705.90947
  24058970.020   126431149.82108  24058967.900    98517959.09646
  22564120.040   118575252.14909  22564117.300    92396296.26148
 15 02 15 00 48  0.0000000  0  7G16G18G21G22G27G29G31
  21743822.260   114264568.03709  21743818.720    89037315.89348
  22782880.580   119724974.49609  22782877.680    93292241.76446
  21336800.520   112125941.14809  21336796.840    87370955.27848
  24001935.880   126131016.78308  24001936.340    98283907.91746
  22792739.440   119776689.41508  22792739.280    93332496.27647
  24072994.500   126504849.09708  24072992.460    98575387.07746
  22580889.640   118663376.64809  22580886.940    92464964.59948
 15 02 15 00 48 30.0000000  0  7G16G18G21G22G27G29G31
  21730404.480   114194056.78309  21730400.900    88982372.06148
  22771661.240   119666016.39009  22771658.240    93246300.38746
  21344321.060   112165461.77308  21344317.360    87401750.56448
  23984707.100   126040478.57308  23984707.760    98213359.53447
  22781232.800   119716221.53008  22781232.620    93285378.45347
  24087019.160   126578549.34808  24087017.160    98632815.82246
  22597703.300   118751732.64909  22597700.640    92533813.32348
 15 02 15 00 49  0.0000000  0  7G16G18G21G22G27G29G31
  21717030.440   114123775.40009  21717026.780    88927607.35348
  22760493.720   119607330.98109  22760490.740    93200571.52946
  21351906.900   112205325.46608  21351903.180    87432813.18648
  23967475.180   125949926.14108  23967475.820    98142800.29446
  22769748.280   119655869.96208  22769748.140    93238351.27447
  24101043.620   126652248.60108  24101041.640    98690243.79946
  22614560.240   118840316.07009  22614557.680    92602839.25247
 15 02 15 00 49 30.0000000  0  7G16G18G21G22G27G29G31
  21703700.620   114053726.37409  21703696.880    88873023.70048
  22749378.660   119548921.09409  22749375.740    93155057.35446
  21359557.740   112245530.84408  21359554.020    87464142.05048
  23950240.860   125859361.78409  23950241.200    98072231.55546
  22758285.940   119595634.94108  22758285.740    93191414.91047
  24115068.160   126725947.93508  24115066.220    98747671.82346
  22631459.940   118929124.16709  22631457.360    92672040.27348
 15 02 15 00 50  0.0000000  0  7G16G18G21G22G27G29G31
  21690415.300   113983911.49309  21690411.520    88818622.50348
  22738316.440   119490788.75409  22738313.460    93109759.44746
  21367273.160   112286075.71508  21367269.480    87495735.45248
  23933004.600   125768788.25008  23933005.020    98001655.54946
  22746845.700   119535516.01108  22746845.380    93144569.00148
  24129092.540   126799646.43208  24129090.620    98805099.20046
  22648401.800   119018154.01709  22648399.360    92741414.06548
 15 02 15 00 50 30.0000000  0  7G16G18G21G22G27G29G31
  21677174.860   113914332.58509  21677171.100    88764405.17448
  22727307.360   119432935.72709  22727304.360    93064679.18947
  21375052.740   112326957.51909  21375049.040    87527591.40548
  23915767.000   125678208.02609  23915767.440    97931074.61246
  22735427.400   119475512.52109  22735427.020    93097813.05748
  24143116.740   126873343.95808  24143114.840    98862525.81146
  22665385.240   119107402.21809  22665382.880    92810958.00748
 15 02 15 00 51  0.0000000  0  7G16G18G21G22G27G29G31
  21663979.740   113844992.10309  21663976.080    88710373.64048
  22716352.000   119375365.09209  22716349.020    93019818.97947
  21382896.360   112368175.79409  21382892.640    87559709.54648
  23898528.520   125587623.38308  23898528.720    97860490.13046
  22724031.180   119415624.83809  22724030.820    93051147.36148
  24157140.820   126947040.74608  24157138.980    98919951.85746
  22682409.740   119196866.17809  22682407.420    92880670.07548
 15 02 15 00 51 30.0000000  0  7G16G18G21G22G27G29G31
  21650829.900   113775889.78209  21650826.380    88656527.68148
  22705450.380   119318076.93909  22705447.380    92975178.88046
  21390803.220   112409726.41609  21390799.480    87592086.65648
  23881289.160   125497034.63808  23881289.460    97789901.98747
  22712656.540   119355850.56809  22712656.160    93004570.02047
  24171164.400   127020734.72008  24171162.460    98977375.71546
  22699474.360   119286540.64109  22699472.060    92950546.17048
 15 02 15 00 52  0.0000000  0  7G16G18G21G22G27G29G31
  21637726.520   113707031.49909  21637723.020    88602871.87948
  22694603.700   119261077.56909  22694600.680    92930763.80346
  21398773.620   112451610.80409  21398769.820    87624723.83748
  23864050.440   125406448.22308  23864050.760    97719315.55545
  22701304.080   119296193.16608  22701303.680    92958083.75648
  24185188.080   127094429.28108  24185185.920    99034800.01946
  22716579.120   119376426.34109  22716576.880    93020586.84648
 15 02 15 00 52 30.0000000  0  7G16G18G21G22G27G29G31
  21624669.740   113638418.02009  21624666.260    88549406.83848
  22683812.200   119204368.05309  22683809.180    92886574.59046
  21406806.960   112493826.09409  21406803.100    87657618.86648
  23846812.540   125315865.64508  23846812.820    97648731.92547
  22689973.640   119236651.34209  22689973.240    92911687.54548
  24199211.540   127168123.06508  24199209.380    99092223.71446
  22733723.300   119466519.21309  22733721.160    93090788.96748
 15 02 15 00 53  0.0000000  0  7G16G18G21G22G27G29G31
  21611659.980   113570051.23509  21611656.460    88496134.02148
  22673076.220   119147950.04309  22673073.200    92842612.52946
  21414902.860   112536370.23009  21414898.920    87690770.14548
