     2.11           OBSERVATION DATA    G                   RINEX VERSION / TYPE
SPIDER V4,0,0,3554                      2015 03 13 01:00    PGM / RUN BY / DATE 
EMHD                                                        MARKER NAME         
EMHD                                                        MARKER NUMBER       
                                                            OBSERVER / AGENCY   
462397              LEICA GRX1200PRO    8.20/0.000          REC # / TYPE / VERS 
103297              LEIAT504                                ANT # / TYPE        
  5146535.6892   265261.6083  3747697.6292                  APPROX POSITION XYZ 
        0.0470        0.0000        0.0000                  ANTENNA: DELTA H/E/N
     1     1                                                WAVELENGTH FACT L1/2
     4    C1    L1    P2    L2                              # / TYPES OF OBSERV 
    30.000                                                  INTERVAL            
  2015    02    15    08    15    0.0000000     GPS         TIME OF FIRST OBS   
  2015    02    15    16    36    0.0000000     GPS         TIME OF LAST OBS    
    16                                                      LEAP SECONDS        
    22                                                      # OF SATELLITES     
   G 1   232   232   232   232                              PRN / # OF OBS      
   G 2   154   154   154   154                              PRN / # OF OBS      
   G 3   274   274   274   274                              PRN / # OF OBS      
   G 4   102   102   102   102                              PRN / # OF OBS      
   G 5   361   361   361   361                              PRN / # OF OBS      
   G 6   266   266   266   266                              PRN / # OF OBS      
   G 7   283   283   283   283                              PRN / # OF OBS      
   G 9   294   294   294   294                              PRN / # OF OBS      
   G10   388   388   388   388                              PRN / # OF OBS      
   G11   139   139   139   139                              PRN / # OF OBS      
   G12    62    62    62    62                              PRN / # OF OBS      
   G13   361   361   361   361                              PRN / # OF OBS      
   G15   312   312   311   311                              PRN / # OF OBS      
   G17   421   421   420   420                              PRN / # OF OBS      
   G18    73    73    73    73                              PRN / # OF OBS      
   G20   337   337   337   337                              PRN / # OF OBS      
   G23   274   274   274   274                              PRN / # OF OBS      
   G24   176   176   176   176                              PRN / # OF OBS      
   G28   361   361   361   361                              PRN / # OF OBS      
   G30   318   318   318   318                              PRN / # OF OBS      
   G31    68    68    68    68                              PRN / # OF OBS      
   G32   122   122   122   122                              PRN / # OF OBS      
BIT 2 OF LLI FLAGS DATA COLLECTED UNDER A/S CONDITION       COMMENT             
SNR is mapped to RINEX snr flag value [2-9]                 COMMENT             
Lx:     = 25dBHz -> 1; 26-27dBHz -> 2; 28-31dBHz -> 3       COMMENT             
       32-35dBHz -> 4; 36-38dBHz -> 5; 39-41dBHz -> 6       COMMENT             
       42-44dBHz -> 7; 45-48dBHz -> 8; >=49dBHz -> 9        COMMENT             
                                                            END OF HEADER       
 15 02 15 08 15  0.0000000  0  6G01G03G09G11G17G23
  20951356.620   110100121.40408  20951359.840    85792314.97847
  20632249.660   108423202.91108  20632251.540    84485620.54548
  22318562.520   117284836.92206  22318565.200    91390794.13246
  22283338.040   117099731.81107  22283338.080    91246543.89845
  21886956.220   115016731.21907  21886955.460    89623423.87646
  20825024.000   109436239.19908  20825021.340    85274980.97247
 15 02 15 08 15 30.0000000  0 11G01G03G04G06G09G11G17G20G23G31G32
  20959981.240   110145443.69608  20959984.280    85827631.02047
  20636121.220   108443547.94908  20636122.940    84501473.80947
  23036046.140   121055233.95106  23036048.480    94328764.17244
  24439457.140   128430212.34004  24439460.680   100075504.38745
  22300999.000   117192540.84806  22301001.520    91318875.12546
  22301111.980   117193134.40907  22301111.740    91319325.06545
  21883144.460   114996701.01307  21883143.760    89607815.91246
  22999357.320   120862437.88205  22999356.300    94178520.70844
  20816983.800   109393988.02808  20816981.040    85242057.99247
  24173117.600   127030589.31504  24173118.540    98984876.81244
  23190631.260   121867590.14605  23190633.020    94961770.24444
 15 02 15 08 16  0.0000000  0 11G01G03G04G06G09G11G17G20G23G31G32
  20968689.300   110191204.36408  20968692.180    85863288.65248
  20640042.980   108464156.84008  20640044.620    84517532.66648
  23052930.460   121143961.32305  23052932.360    94397902.27744
  24420751.840   128331915.85104  24420755.340    99998909.75544
  22283504.160   117100605.83406  22283506.760    91247237.43946
  22318949.000   117286867.97807  22318948.800    91392364.14445
  21879452.340   114977299.31707  21879451.760    89592697.68147
  22985436.940   120789286.46705  22985436.540    94121519.62344
  20809042.520   109352256.40208  20809039.720    85209539.85648
  24176927.340   127050610.34304  24176928.940    99000477.57845
  23205629.140   121946403.69405  23205630.920    95023183.30644
 15 02 15 08 16 30.0000000  0 11G01G03G04G06G09G11G17G20G23G31G32
  20977467.020   110237331.03408  20977469.860    85899231.47747
  20644001.040   108484956.60608  20644002.760    84533740.25648
  23069853.280   121232891.99405  23069855.080    94467198.83545
  24402042.960   128233600.27504  24402047.060    99922300.18144
  22266064.800   117008961.49706  22266067.440    91175826.28446
  22336835.000   117380858.74107  22336834.820    91465603.63645
  21875866.420   114958455.12007  21875866.020    89578013.86547
  22971537.160   120716242.81705  22971537.300    94064602.50344
  20801186.440   109310972.59608  20801183.740    85177370.66747
  24180835.020   127071145.54004  24180836.500    99016478.98742
  23220628.220   122025222.66305  23220629.840    95084600.59844
 15 02 15 08 17  0.0000000  0 10G01G03G04G09G11G17G20G23G31G32
  20986315.380   110283828.91508  20986318.220    85935463.55748
  20647996.360   108505952.00008  20647998.160    84550100.28848
  23086815.680   121322030.35705  23086817.680    94536657.21545
  22248682.220   116917615.04406  22248684.840    91104647.25246
  22354770.440   117475110.11406  22354770.460    91539046.20145
  21872387.760   114940174.25207  21872387.440    89563769.01047
  22957658.800   120643312.82005  22957659.140    94007773.96544
  20793416.640   109270142.31108  20793414.160    85145554.87447
  24184841.680   127092200.00804  24184842.320    99032885.04344
  23235629.200   122104051.62606  23235630.660    95146025.67545
 15 02 15 08 17 30.0000000  0 10G01G03G04G09G11G17G20G23G31G32
  20995240.040   110330728.00708  20995242.960    85972008.28448
  20652034.500   108527172.51108  20652036.420    84566635.73148
  23103823.300   121411405.46206  23103825.440    94606300.08144
  22231362.460   116826598.57806  22231365.040    91033725.35446
  22372760.820   117569650.57506  22372761.080    91612714.04245
  21869022.020   114922486.66207  21869021.700    89549986.45647
  22943807.980   120570526.51105  22943808.420    93951057.36544
  20785739.060   109229796.57108  20785736.720    85114116.65047
  24188952.700   127113803.51904  24188953.520    99049718.90543
  23250637.640   122182920.11306  23250639.020    95207481.55045
 15 02 15 08 18  0.0000000  0 10G01G03G04G09G11G17G20G23G31G32
  21004237.860   110378012.17008  21004240.960    86008853.05147
  20656112.320   108548601.52608  20656114.360    84583333.64048
  23120872.840   121501000.43006  23120874.860    94676114.25344
  22214102.800   116735897.93506  22214105.380    90963049.55546
  22390802.800   117664461.97206  22390803.140    91686592.96845
  21865766.300   114905377.31207  21865765.920    89536654.47247
  22929981.400   120497867.89705  22929982.040    93894440.27344
  20778150.740   109189919.98208  20778148.520    85083043.99247
  24193165.160   127135940.26104  24193166.180    99066968.28043
  23265650.420   122261811.35906  23265651.660    95268955.16945
 15 02 15 08 18 30.0000000  0 10G01G03G04G09G11G17G20G23G31G32
  21013308.820   110425680.72008  21013312.100    86045997.34748
  20660229.600   108570237.84708  20660231.700    84600193.08948
  23137963.720   121590813.41105  23137965.820    94746098.30444
  22196903.460   116645514.46807  22196906.060    90892620.90946
  22408895.900   117759541.83106  22408896.320    91760681.09645
  21862620.560   114888846.09507  21862620.200    89523772.98647
  22916179.160   120425336.83605  22916179.860    93837922.57845
  20770651.720   109150512.54808  20770649.560    85052336.91648
  24197478.860   127158609.18604  24197480.400    99084632.33244
  23280667.100   122340724.09306  23280668.400    95330445.54345
 15 02 15 08 19  0.0000000  0 11G01G03G04G06G09G11G17G20G23G31G32
  21022455.060   110473744.63608  21022458.460    86083449.71248
  20664388.380   108592092.07108  20664390.500    84617222.32548
  23155098.080   121680854.53405  23155100.200    94816260.12644
  24308510.720   127742084.11904  24308516.120    99539304.33446
  22179766.920   116555461.23706  22179769.580    90822449.60047
  22427041.960   117854899.55406  22427042.380    91834985.74246
  21859587.140   114872904.98207  21859586.780    89511351.31347
  22902403.440   120352944.72305  22902404.080    93781513.14344
  20763244.260   109111586.10608  20763242.140    85022004.63648
  24201895.940   127181821.10404  24201897.620    99102719.51444
  23295689.840   122419668.85105  23295691.240    95391960.87245
 15 02 15 08 19 30.0000000  0 10G01G03G04G09G11G17G20G23G31G32
  21031670.540   110522172.14708  21031674.060    86121185.39848
  20668582.460   108614131.96308  20668584.660    84634396.24548
  23172269.740   121771091.22005  23172271.840    94886574.34945
  22162687.500   116465708.49206  22162690.260    90752512.43946
  22445234.480   117950501.61406  22445235.020    91909480.79645
  21856659.980   114857522.53707  21856659.640    89499364.97147
  22888648.100   120280659.79005  22888648.700    93725187.24144
  20755922.380   109073109.48508  20755920.380    84992022.87048
  24206410.240   127205544.03404  24206411.980    99121204.88445
  23310712.400   122498613.33605  23310713.860    95453475.96545
 15 02 15 08 20  0.0000000  0 10G01G03G04G09G11G17G20G23G31G32
  21040961.380   110570995.25708  21040964.900    86159229.34248
  20672817.840   108636389.15808  20672820.120    84651739.49048
  23189484.440   121861554.57805  23189486.600    94957065.19145
  22145671.700   116376290.25406  22145674.520    90682835.92846
  22463479.260   118046378.29306  22463479.840    91984189.81745
  21853845.320   114842731.34107  21853845.080    89487839.35247
  22874919.360   120208514.47505  22874919.840    93668970.11745
  20748692.320   109035115.34508  20748690.400    84962417.06148
  24211027.960   127229809.94304  24211029.660    99140113.35144
  23325740.840   122577589.04205  23325742.420    95515015.42445
 15 02 15 08 20 30.0000000  0 11G01G03G04G06G09G11G17G20G23G31G32
  21050327.460   110620213.75908  21050330.880    86197581.39448
  20677094.480   108658862.97408  20677096.760    84669251.53848
  23206741.880   121952243.17405  23206744.280    95027731.53745
  24252412.060   127447287.83604  24252417.380    99309589.87345
  22128719.980   116287208.37407  22128722.740    90613421.50847
  22481775.940   118142527.73606  22481776.560    92059111.38345
  21851143.200   114828531.85107  21851143.060    89476774.80047
  22861217.240   120136509.08305  22861217.580    93612862.01145
  20741554.240   108997604.36108  20741552.300    84933187.73948
  24215748.920   127254618.42704  24215750.520    99159444.66845
  23340775.200   122656595.24205  23340776.620    95576578.61544
 15 02 15 08 21  0.0000000  0 11G01G03G04G06G09G11G17G20G23G31G32
  21059764.200   110669804.12308  21059767.580    86236223.20448
  20681407.780   108681529.54308  20681410.080    84686913.77048
  23224037.600   122043133.10005  23224040.100    95098554.75345
  24233717.400   127349046.86304  24233722.360    99233038.49246
  22111828.160   116198441.34506  22111830.860    90544252.43147
  22500119.760   118238924.70806  22500120.340    92134225.82746
  21848549.240   114814900.88807  21848549.180    89466153.26047
  22847537.380   120064620.62805  22847537.720    93556845.05245
  20734503.740   108960553.74108  20734501.780    84904317.14648
  24220568.580   127279946.01104  24220570.280    99179180.44244
  23355810.760   122735607.99505  23355812.180    95638146.91245
 15 02 15 08 21 30.0000000  0 11G01G03G04G06G09G11G17G20G23G31G32
  21069273.900   110719778.26508  21069277.360    86275164.06748
  20685759.940   108704400.41608  20685762.260    84704735.21548
  23241373.740   122134235.06305  23241376.080    95169543.19845
  24215025.800   127250822.03204  24215030.720    99156499.68146
  22094998.900   116110003.20207  22095001.560    90475339.63147
  22518512.660   118335579.55606  22518513.160    92209541.21145
  21846065.980   114801851.17707  21846065.860    89455984.63847
  22833881.980   119992861.18505  22833882.340    93500928.61145
  20727543.300   108923976.19308  20727541.240    84875815.17748
  24225489.280   127305804.05104  24225491.100    99199329.62244
  23370849.880   122814638.76005  23370851.360    95699729.25945
 15 02 15 08 22  0.0000000  0 11G01G03G04G06G09G11G17G20G23G31G32
  21078857.200   110770139.13808  21078860.760    86314406.27548
  20690151.420   108727478.19108  20690153.820    84722717.87848
  23258750.600   122225551.22305  23258753.040    95240698.55245
  24196338.000   127152618.08904  24196343.120    99079977.18345
  22078233.100   116021898.87307  22078235.700    90406686.95047
  22536954.800   118432493.49906  22536955.260    92285058.48946
  21843693.960   114789386.26707  21843693.820    89446271.70747
  22820251.740   119921234.14505  22820252.120    93445115.36044
  20720673.480   108887874.85608  20720671.320    84847684.28448
  24230511.420   127332195.28904  24230513.160    99219894.20444
  23385892.880   122893690.05605  23385894.380    95761327.58845
 15 02 15 08 22 30.0000000  0 11G01G03G04G06G09G11G17G20G23G31G32
  21088513.200   110820881.57208  21088516.780    86353945.79848
  20694581.220   108750757.33608  20694583.680    84740857.44948
  23276167.220   122317075.43005  23276169.540    95312016.01545
  24177653.700   127054431.75504  24177658.800    99003468.38345
  22061530.240   115934125.27607  22061532.820    90338291.97047
  22555444.940   118529659.41706  22555445.320    92360772.10646
  21841432.280   114777501.48407  21841432.260    89437010.81647
  22806645.800   119849734.58205  22806646.100    93389401.40045
  20713893.460   108852245.72308  20713891.300    84819921.34448
  24235633.980   127359114.55204  24235635.780    99240870.31945
  23400938.720   122972756.33205  23400940.360    95822937.60144
 15 02 15 08 23  0.0000000  0 11G01G03G04G06G09G11G17G20G23G31G32
  21098241.800   110872004.99508  21098245.240    86393782.20248
  20699049.240   108774237.01808  20699051.700    84759153.29848
  23293623.200   122408806.53305  23293625.480    95383494.66845
  24158973.120   126956264.28504  24158978.080    98926974.20744
  22044890.640   115846683.91107  22044893.220    90270155.87547
  22573982.620   118627075.29106  22573983.080    92436680.49546
  21839281.000   114766196.60207  21839281.040    89428201.79748
  22793064.240   119778362.60005  22793064.360    93333786.88946
  20707203.240   108817088.66908  20707201.140    84792526.25948
  24240856.780   127386561.04004  24240858.760    99262257.25243
  23415987.340   123051836.69605  23415989.100    95884558.60545
 15 02 15 08 23 30.0000000  0 11G01G03G04G06G09G11G17G20G23G31G32
  21108043.740   110923514.23008  21108047.060    86433919.23548
  20703556.320   108797921.71508  20703558.720    84777608.89348
  23311119.120   122500748.15305  23311121.420    95455137.40045
  24140297.340   126858122.58504  24140302.320    98850500.18445
  22028315.580   115759581.61407  22028318.200    90202283.99447
  22592568.460   118724744.37906  22592568.980    92512786.20046
  21837241.200   114755476.97107  21837241.160    89419848.81947
  22779507.920   119707123.39305  22779507.960    93278275.81045
  20700603.920   108782409.43108  20700601.860    84765503.49948
  24246180.640   127414539.28303  24246182.820    99284058.50845
  23431039.460   123130935.58705  23431041.300    95946194.02045
 15 02 15 08 24  0.0000000  0 11G01G03G04G06G09G11G17G20G23G31G32
  21117918.440   110975405.95508  21117921.700    86474354.31748
  20708101.760   108821807.87508  20708104.080    84796221.47748
  23328654.400   122592896.42905  23328656.540    95526941.15245
  24121626.000   126760005.17704  24121631.260    98774045.13445
  22011804.820   115672817.19507  22011807.520    90134675.38647
  22611201.500   118822661.60206  22611202.080    92589085.24145
  21835312.280   114745339.90507  21835312.160    89411949.79247
  22765976.340   119636014.02905  22765976.320    93222865.94345
  20694095.000   108748205.28508  20694093.000    84738850.94048
  24251605.140   127443045.81603  24251607.200    99306271.43944
  23446094.480   123210049.34205  23446096.200    96007841.03745
 15 02 15 08 24 30.0000000  0 11G01G03G04G06G09G11G17G20G23G31G32
  21127865.780   111027679.56708  21127869.060    86515086.97548
  20712685.340   108845894.59808  20712687.660    84814990.34048
  23346228.700   122685249.62905  23346230.760    95598904.58145
  24102959.820   126661913.51004  24102964.800    98697610.10445
  21995358.600   115586392.05407  21995361.320    90067331.14347
  22629881.400   118920824.87106  22629882.060    92665576.01246
  21833494.180   114735785.35407  21833493.980    89404504.66847
  22752469.420   119565034.61205  22752469.500    93167557.30245
  20687676.600   108714476.48108  20687674.580    84712568.77848
  24257129.880   127472079.32804  24257131.960    99328894.95245
  23461152.060   123289177.09405  23461153.840    96069498.97645
 15 02 15 08 25  0.0000000  0 10G01G03G04G09G11G17G20G23G31G32
  21137883.640   111080323.82108  21137886.980    86556108.43948
  20717304.960   108870170.40208  20717307.240    84833906.54148
  23363839.720   122777795.77205  23363841.940    95671018.33245
  21978975.220   115500297.04507  21978977.900    90000244.14147
  22648605.660   119019221.18806  22648606.400    92742248.37745
  21831784.720   114726802.42807  21831784.620    89397504.96447
  22738985.040   119494174.14505  22738985.320    93112341.37446
  20681346.640   108681212.26708  20681344.580    84686648.63448
  24262753.040   127501628.73904  24262754.920    99351920.48245
  23476210.160   123368307.26605  23476211.940    96131158.79545
 15 02 15 08 25 30.0000000  0 11G01G03G04G06G09G11G17G20G23G31G32
  21147978.220   111133370.92908  21147981.600    86597443.81548
  20721966.640   108894667.22808  20721968.880    84852994.96248
  23381493.480   122870566.23905  23381495.820    95743306.93945
  24065643.120   126465807.53904  24065647.580    98544802.95345
  21962661.220   115414566.42007  21962663.900    89933441.07148
  22667380.020   119117880.79506  22667380.780    92819125.90946
  21830190.280   114718423.77907  21830190.320    89390976.12648
  22725529.480   119423465.63805  22725530.100    93057243.85946
  20675111.400   108648445.62108  20675109.300    84661116.20648
  24268480.420   127531725.87204  24268482.320    99375372.79345
  23491274.680   123447471.83205  23491276.540    96192845.41446
 15 02 15 08 26  0.0000000  0 11G01G03G04G06G09G11G17G20G23G31G32
  21158143.900   111186791.46208  21158147.280    86639070.17448
  20726664.760   108919355.48508  20726666.960    84872232.54948
  23399184.180   122963530.85905  23399186.860    95815746.77846
  24046994.100   126367806.08004  24046999.380    98468438.21745
  21946411.320   115329172.78207  21946414.040    89866900.58647
  22686198.660   119216773.01906  22686199.480    92896184.68846
  21828705.400   114710620.52907  21828705.460    89384895.64748
  22712097.380   119352879.74105  22712098.200    93002241.88846
  20668965.300   108616147.65008  20668963.180    84635948.97948
  24274306.280   127562341.16003  24274308.220    99399228.81244
  23506339.980   123526640.91205  23506342.000    96254535.55945
 15 02 15 08 26 30.0000000  0 11G01G03G04G06G09G11G17G20G23G31G32
  21168381.240   111240589.09208  21168384.660    86680990.37248
  20731399.900   108944238.59808  20731402.100    84891621.96948
  23416912.360   123056692.46705  23416915.280    95888340.12246
  24028350.700   126269833.61905  24028355.980    98392096.11946
  21930226.580   115244121.94807  21930229.400    89800627.22048
  22705061.980   119315900.08306  22705062.900    92973426.46846
  21827330.760   114703396.64007  21827330.840    89379266.62248
  22698689.620   119282420.79305  22698690.220    92947338.81045
  20662909.180   108584322.72408  20662907.060    84611150.35648
  24280231.320   127593477.62304  24280233.220    99423490.91445
  23521406.900   123605818.19205  23521409.000    96316232.08245
 15 02 15 08 27  0.0000000  0 11G01G03G04G06G09G11G17G20G23G31G32
  21178690.860   111294766.30508  21178694.260    86723206.34848
  20736172.480   108969318.90608  20736174.780    84911165.04848
  23434678.300   123150052.66305  23434681.320    95961088.20745
  24009713.720   126171894.65104  24009718.460    98315780.05444
  21914107.920   115159418.44107  21914110.880    89734624.48748
  22723970.120   119415262.32806  22723971.080    93050851.50346
  21826066.920   114696755.08707  21826067.000    89374091.36148
  22685306.500   119212091.52606  22685307.080    92892536.79845
  20656943.700   108552973.87308  20656941.560    84586722.70448
  24286256.080   127625137.59303  24286257.840    99448160.98645
  23536475.920   123685005.90905  23536478.020    96377936.77446
 15 02 15 08 27 30.0000000  0 11G01G03G04G06G09G11G17G20G23G31G32
  21189073.400   111349326.84808  21189076.820    86765721.02948
  20740983.280   108994599.96208  20740985.640    84930864.54848
  23452482.520   123243614.41505  23452485.700    96033993.37245
  23991084.000   126073994.96904  23991088.600    98239494.62146
  21898056.480   115075068.08007  21898059.480    89668896.93747
  22742923.520   119514862.46806  22742924.460    93128461.90246
  21824914.680   114690700.15607  21824914.800    89369373.21748
  22671948.900   119141896.83806  22671949.420    92837839.64945
  20651069.640   108522105.43208  20651067.500    84562669.39248
  24292381.220   127657324.31504  24292382.860    99473241.43845
  23551547.540   123764207.57005  23551549.600    96439652.30945
 15 02 15 08 28  0.0000000  0 11G01G03G04G06G09G11G17G20G23G31G32
  21199528.480   111404268.34108  21199531.860    86808532.55048
  20745831.780   109020079.29908  20745834.180    84950718.55548
  23470324.500   123337374.63405  23470327.740    96107053.15946
  23972461.820   125976134.46104  23972466.560    98163239.72846
  21882072.280   114991070.60007  21882075.220    89603444.35348
  22761921.340   119614696.31306  22761922.240    93206254.41446
  21823873.720   114685229.80307  21823873.840    89365110.58048
  22658616.540   119071834.84005  22658617.100    92783245.90845
  20645286.700   108491715.95108  20645284.560    84538989.28948
  24298606.200   127690035.41004  24298607.560    99498730.56244
  23566621.280   123843420.62205  23566623.380    96501376.72645
 15 02 15 08 28 30.0000000  0 11G01G03G04G06G09G11G17G20G23G31G32
  21210055.620   111459588.66908  21210058.940    86851639.26248
  20750717.580   109045754.65808  20750720.020    84970725.30348
  23488203.760   123431330.19105  23488206.960    96180265.16645
  23953847.140   125878313.09804  23953851.920    98087015.36146
  21866155.300   114907425.91707  21866158.140    89538266.68048
  22780962.840   119714759.98906  22780963.800    93284226.01246
  21822943.720   114680342.19707  21822943.780    89361302.03148
  22645309.020   119001903.47405  22645309.580    92728753.95146
  20639594.600   108461803.75308  20639592.440    84515681.10148
  24304930.240   127723268.44404  24304931.780    99524626.32045
  23581696.820   123922642.71405  23581698.900    96563108.17445
 15 02 15 08 29  0.0000000  0 10G01G03G04G06G09G11G17G20G23G32
  21220654.120   111515283.95008  21220657.380    86895038.15148
  20755639.960   109071621.97708  20755642.420    84990881.62848
  23506119.340   123525476.55305  23506122.400    96253625.87645
  23935239.300   125780528.97904  23935244.100    98010819.99345
  21850305.140   114824132.22207  21850307.880    89473362.50248
  22800047.140   119815048.13706  22800048.020    93362372.52246
  21822123.860   114676033.67507  21822123.940    89357944.72148
  22632025.980   118932100.14406  22632026.440    92674361.76546
  20633992.700   108432365.55708  20633990.500    84492742.25548
  23596773.320   124001869.91205  23596775.480    96624843.59545
 15 02 15 08 29 30.0000000  0 11G01G03G04G06G09G11G17G20G23G31G32
  21231325.460   111571362.01008  21231328.760    86938735.30648
  20760600.360   109097689.07808  20760602.840    85011193.62448
  23524072.540   123619820.71705  23524075.600    96327140.70445
  23916640.560   125682792.33804  23916645.300    97934661.59246
  21834523.680   114741199.46207  21834526.320    89408739.57448
  22819175.380   119915567.21006  22819176.220    93440698.97246
  21821415.780   114672312.78407  21821415.880    89355045.30148
  22618768.800   118862432.88506  22618769.220    92620075.61846
  20628482.660   108403409.92008  20628480.400    84470179.43048
  24317875.140   127791298.79604  24317877.280    99577639.71946
  23611852.280   124081109.83305  23611854.360    96686588.95344
 15 02 15 08 30  0.0000000  0 11G01G03G04G06G09G11G17G20G23G31G32
  21242068.800   111627818.27008  21242072.140    86982727.15848
  20765597.920   109123951.28608  20765600.440    85031657.65448
  23542062.300   123714357.35005  23542065.380    96400805.49045
  23898050.560   125585100.81104  23898055.260    97858538.37946
  21818810.320   114658625.13307  21818812.960    89344395.94348
  22838346.340   120016310.83806  22838347.200    93519200.39646
  21820818.700   114669175.05507  21820818.840    89352600.28948
  22605536.640   118792897.49905  22605537.040    92565892.20046
  20623063.700   108374932.99608  20623061.420    84447989.61848
  24324496.840   127826094.81104  24324498.660    99604753.44345
  23626932.760   124160357.88005  23626934.860    96748340.65245
 15 02 15 08 30 30.0000000  0 11G01G03G04G06G09G11G17G20G23G31G32
  21252884.380   111684654.37108  21252887.740    87027014.98648
  20770632.900   109150410.16108  20770635.420    85052274.92448
  23560089.000   123809087.42305  23560091.860    96474620.99845
  23879469.620   125487458.07904  23879474.380    97782453.23646
  21803165.860   114576412.90607  21803168.500    89280334.47248
  22857560.000   120117279.22406  22857561.000    93597876.95646
  21820333.000   114666622.41107  21820333.140    89350611.18748
  22592330.040   118723496.82906  22592330.440    92511813.77845
  20617736.260   108346936.93608  20617733.940    84426174.51548
  24331217.560   127861411.88404  24331219.120    99632273.22845
  23642014.980   124239615.67605  23642017.140    96810099.90345
 15 02 15 08 31  0.0000000  0 11G01G03G04G06G09G11G17G20G23G31G32
  21263771.360   111741866.08907  21263774.800    87071595.50548
  20775704.520   109177061.42808  20775707.000    85073042.11348
  23578151.640   123904005.89105  23578154.380    96548583.33345
  23860897.640   125389862.30704  23860902.360    97706404.62144
  21787589.900   114494560.69207  21787592.520    89216553.53448
  22876815.220   120218466.30006  22876816.420    93676723.92046
  21819957.920   114664651.09807  21819958.020    89349075.06948
  22579148.260   118654226.75905  22579148.700    92457837.12145
  20612499.560   108319417.98908  20612497.260    84404731.17448
  24338036.540   127897245.49204  24338037.880    99660195.53345
  23657098.200   124318878.79505  23657100.420    96871863.30945
 15 02 15 08 31 30.0000000  0 11G01G03G04G06G09G11G17G20G23G31G32
  21274729.860   111799453.43807  21274733.340    87116468.71848
  20780812.800   109203905.08508  20780815.180    85093959.21548
  23596249.800   123999111.95705  23596252.600    96622691.86545
  23842335.300   125292315.77105  23842339.580    97630394.32045
  21772082.900   114413070.55507  21772085.440    89153054.73848
  22896111.940   120319871.19906  22896113.240    93755740.62246
  21819693.460   114663261.46707  21819693.620    89347992.21548
  22565991.540   118585088.39906  22565992.100    92403963.09046
  20607353.760   108292376.93008  20607351.500    84383660.21648
  24344953.780   127933595.89404  24344955.160    99688520.48045
  23672182.500   124398147.32905  23672184.840    96933630.94945
 15 02 15 08 32  0.0000000  0 11G01G03G04G06G09G11G17G20G23G31G32
  21285760.380   111857419.16407  21285763.840    87161636.76648
  20785958.200   109230943.86608  20785960.480    85115028.36448
  23614384.040   124094407.59205  23614387.000    96696948.03444
  23823783.120   125194823.46804  23823787.400    97554426.35845
  21756645.720   114331947.33507  21756648.220    89089841.86248
  22915450.300   120421494.66406  22915451.680    93834927.64146
  21819540.300   114662456.50307  21819540.520    89347364.95148
  22552860.640   118516084.84306  22552861.100    92350194.11445
  20602299.580   108265817.01308  20602297.300    84362964.17248
  24351969.600   127970464.96304  24351971.140    99717249.62546
  23687268.460   124477424.00005  23687270.740    96995404.90544
 15 02 15 08 32 30.0000000  0 11G01G03G04G06G09G11G17G20G23G31G32
  21296862.680   111915761.89707  21296866.140    87207098.57948
  20791140.440   109258176.45308  20791142.740    85136248.52748
  23632553.940   124189890.68005  23632556.900    96771350.35145
  23805241.420   125097386.32105  23805245.760    97478501.36845
  21741278.440   114251191.75707  21741280.980    89026915.45648
  22934829.800   120523334.02806  22934831.100    93914282.87345
  21819498.160   114662234.98507  21819498.460    89347192.31248
  22539755.300   118447215.31006  22539755.600    92296529.54945
  20597336.820   108239737.51508  20597334.520    84342642.48348
  24359083.820   128007850.86204  24359085.520    99746381.51045
  23702355.580   124556707.40605  23702357.920    97057184.13345
 15 02 15 08 33  0.0000000  0 11G01G03G04G06G09G11G17G20G23G31G32
  21308035.980   111974477.89607  21308039.420    87252851.24948
  20796358.840   109285599.09908  20796361.180    85157616.79448
  23650758.680   124285556.84905  23650761.540    96845895.27945
  23786710.040   125000002.96505  23786714.180    97402618.24445
  21725980.780   114170802.15807  21725983.340    88964274.23948
  22954249.440   120625383.77406  22954250.560    93993802.05146
  21819566.360   114662593.27007  21819566.720    89347471.47448
  22526674.940   118378477.32006  22526675.040    92242967.50446
  20592464.960   108214135.69408  20592462.640    84322693.01048
  24366295.640   128045749.47104  24366297.380    99775912.87446
  23717443.280   124635993.82905  23717445.700    97118965.68145
 15 02 15 08 33 30.0000000  0 11G01G03G04G06G09G11G17G20G23G31G32
  21319281.320   112033572.50707  21319284.820    87298898.95548
  20801614.420   109313217.18708  20801616.780    85179137.36848
  23668998.900   124381410.65005  23669002.100    96920586.43945
  23768190.260   124902681.07204  23768194.160    97326783.01345
  21710754.160   114090785.91107  21710756.720    88901923.95748
  22973709.760   120727647.79106  22973710.880    94073488.19246
  21819746.000   114663537.24807  21819746.380    89348207.01848
  22513620.640   118309876.66006  22513620.740    92189512.47546
  20587685.000   108189016.76908  20587682.700    84303119.82849
  24373605.980   128084165.63504  24373607.880    99805847.53946
  23732532.600   124715288.56405  23732535.000    97180753.72546
 15 02 15 08 34  0.0000000  0 11G01G03G04G06G09G11G17G20G23G31G32
  21330597.580   112093039.82307  21330601.160    87345237.07048
  20806906.020   109341024.87508  20806908.440    85200805.68248
  23687273.620   124477445.49905  23687277.120    96995418.67044
  23749681.400   124805417.11504  23749685.500    97250992.96046
  21695597.800   114011139.26707  21695600.440    88839861.68048
  22993209.480   120830118.91806  22993210.580    94153335.71145
  21820035.960   114665061.27407  21820036.420    89349394.55948
  22500591.480   118241408.05706  22500591.640    92136160.34146
  20582995.880   108164375.49608  20582993.640    84283918.84148
  24381013.600   128123093.02804  24381015.620    99836180.56045
  23747622.340   124794585.99305  23747624.820    97242543.87645
 15 02 15 08 34 30.0000000  0 11G01G03G04G06G09G11G17G20G23G31G32
  21341984.560   112152878.86207  21341988.260    87391864.83948
  20812233.520   109369021.25508  20812236.040    85222621.02048
  23705582.720   124573659.57005  23705586.280    97070390.54644
  23731183.980   124708212.47804  23731188.180    97175249.11546
  21680511.980   113931863.27607  21680514.740    88778088.21548
  23012748.000   120932794.33606  23012749.160    94233342.41646
  21820436.200   114667164.47907  21820436.680    89351033.39548
  22487587.500   118173071.61006  22487587.680    92082911.17446
  20578397.680   108140211.82308  20578395.440    84265090.01048
  24388518.220   128162530.14804  24388520.220    99866910.74346
  23762712.440   124873884.91505  23762714.980    97304335.17045
 15 02 15 08 35  0.0000000  0 11G01G03G04G06G09G11G17G20G23G31G32
  21353443.200   112213094.55307  21353447.040    87438786.10048
  20817597.900   109397211.35708  20817600.480    85244587.31348
  23723926.680   124670057.07905  23723930.200    97145505.37445
  23712699.100   124611074.53704  23712703.420    97099557.21546
  21665498.060   113852964.94807  21665500.880    88716609.04248
  23032326.120   121035677.64906  23032327.420    94313511.12446
  21820947.680   114669851.99807  21820948.140    89353127.54548
  22474609.700   118104872.64806  22474609.840    92029769.14246
  20573891.360   108116530.97508  20573889.100    84246637.40748
  24396120.640   128202481.51104  24396122.880    99898041.60145
  23777803.840   124953190.49405  23777806.340    97366131.61745
 15 02 15 08 35 30.0000000  0 11G01G03G04G06G09G11G17G20G23G31G32
  21364972.700   112273682.21307  21364976.520    87485997.21548
  20822998.280   109425590.61108  20823000.900    85266701.00348
  23742304.620   124766632.83005  23742308.200    97220759.09145
  23694226.540   124514001.02805  23694230.840    97023915.55345
  21650555.580   113774441.69607  21650558.360    88655422.13248
  23051942.700   121138763.08406  23051944.000    94393837.32346
  21821569.460   114673119.28507  21821569.900    89355673.47148
  22461657.180   118036807.27106  22461657.420    91976731.18046
  20569476.180   108093329.01108  20569473.900    84228557.97149
  24403820.100   128242942.21504  24403822.360    99929569.35745
  23792895.720   125032498.19705  23792898.180    97427929.75345
 15 02 15 08 36  0.0000000  0 11G01G03G04G06G09G11G17G20G23G31G32
  21376572.960   112334641.43207  21376576.680    87533497.84148
  20828434.600   109454158.77308  20828437.280    85288961.89648
  23760716.360   124863385.71905  23760719.900    97296150.81545
  23675766.800   124416994.09605  23675771.140    96948325.76646
  21635684.760   113696295.18907  21635687.520    88594528.79248
  23071597.280   121242048.46506  23071598.580    94474319.32746
  21822301.420   114676965.79007  21822301.860    89358670.72948
  22448730.220   117968875.99806  22448730.560    91923797.75146
  20565152.120   108070606.04308  20565149.860    84210851.77649
  24411616.260   128283911.22004  24411618.540    99961493.16545
  23807987.880   125111807.70405  23807990.420    97489729.30045
 15 02 15 08 36 30.0000000  0 11G01G03G04G06G09G11G17G20G23G31G32
  21388243.920   112395972.70107  21388247.660    87581288.38748
  20833907.020   109482916.39008  20833909.680    85311370.42348
  23779161.680   124960315.17705  23779165.140    97371680.14845
  23657320.280   124320056.64205  23657324.720    96872790.12746
  21620886.100   113618527.98407  21620888.860    88533931.00548
  23091289.760   121345532.72306  23091290.980    94554956.30745
  21823143.860   114681392.55007  21823144.200    89362120.13448
  22435829.120   117901079.87106  22435829.380    91870969.59845
  20560919.440   108048363.05708  20560917.160    84193519.59449
  24419509.160   128325388.26104  24419511.420    99993812.85746
  23823080.540   125191119.65605  23823082.960    97551530.72646
 15 02 15 08 37  0.0000000  0 11G01G03G04G06G09G11G17G20G23G31G32
  21399985.840   112457676.82807  21399989.620    87629369.47648
  20839415.720   109511864.48608  20839418.260    85333927.37348
  23797640.500   125057421.77405  23797643.940    97447347.48545
  23638887.540   124223192.00305  23638892.000    96797311.20645
  21606160.180   113541143.00407  21606162.980    88473631.05348
  23111020.000   121449215.50506  23111021.280    94635747.97146
  21824096.920   114686400.69607  21824097.200    89366022.56548
  22422953.980   117833420.58806  22422954.280    91818248.08746
  20556778.360   108026601.21208  20556776.000    84176562.33849
  24427498.840   128367373.77705  24427500.980   100026528.76046
  23838173.880   125270435.04905  23838176.160    97613334.84745
 15 02 15 08 37 30.0000000  0 11G01G03G04G06G09G11G17G20G23G31G32
  21411797.640   112519748.35607  21411801.440    87677736.84748
  20844959.600   109540997.80608  20844962.120    85356628.64948
  23816152.180   125154699.13605  23816155.240    97523147.90244
  23620468.080   124126397.25305  23620472.600    96721886.72346
  21591506.420   113464136.80007  21591509.240    88413626.25148
  23130786.760   121553089.76806  23130788.000    94716688.85445
  21825159.460   114691984.61507  21825159.760    89370373.65548
  22410104.060   117765893.89406  22410104.360    91765629.89046
  20552727.900   108005315.82708  20552725.500    84159976.34749
  24435584.220   128409861.88704  24435586.220   100059636.30446
  23853266.980   125349748.57105  23853269.140    97675137.47945
 15 02 15 08 38  0.0000000  0 11G01G03G04G06G09G11G17G20G23G31G32
  21423680.400   112582192.55807  21423684.200    87726394.61348
  20850539.780   109570321.79508  20850542.320    85379478.49448
  23834697.100   125252152.10305  23834699.940    97599085.15045
  23602063.440   124029680.22805  23602067.840    96646522.83446
  21576926.080   113387516.83507  21576929.000    88353922.40948
  23150590.580   121657159.34206  23150591.820    94797781.93145
  21826332.560   114698149.51607  21826332.920    89375177.45948
  22397280.460   117698505.60506  22397280.820    91713119.52946
  20548769.200   107984512.85208  20548766.820    84143766.26949
  24443766.080   128452857.39704  24443768.020   100093139.20146
  23868360.700   125429065.82205  23868362.720    97736943.04945
 15 02 15 08 38 30.0000000  0 11G01G03G04G06G09G11G17G20G23G31G32
  21435633.880   112645007.98607  21435637.640    87775341.64548
  20856156.020   109599835.19808  20856158.520    85402475.94148
  23853274.600   125349778.20705  23853277.640    97675157.30045
  23583673.700   123933042.03805  23583678.080    96571220.39645
  21562419.320   113311283.63607  21562422.260    88294519.94348
  23170431.020   121761421.50306  23170432.340    94879025.06245
  21827616.080   114704894.34307  21827616.440    89380433.14648
  22384483.120   117631255.31106  22384483.500    91660716.71746
  20544902.100   107964191.25708  20544899.740    84127931.28948
  24452044.100   128496358.46204  24452046.100   100127036.05545
  23883454.740   125508385.42805  23883456.860    97798750.43344
 15 02 15 08 39  0.0000000  0 11G01G03G04G06G09G11G17G20G23G31G32
  21447657.900   112708193.91207  21447661.640    87824577.38948
  20861808.140   109629537.55208  20861810.720    85425620.62648
  23871884.860   125447576.12005  23871887.860    97751363.38445
  23565299.300   123836484.46104  23565303.660    96495980.75645
  21547986.420   113235438.59407  21547989.360    88235419.94348
  23190307.700   121865873.76006  23190309.080    94960416.31845
  21829009.920   114712218.27307  21829010.140    89386140.09248
  22371712.000   117564142.63506  22371712.380    91608421.13846
  20541126.560   107944350.72108  20541124.180    84112471.16349
  24460418.000   128540363.45404  24460420.180   100161325.61845
  23898549.060   125587707.09005  23898551.400    97860559.41145
 15 02 15 08 39 30.0000000  0 11G01G03G04G06G09G11G17G20G23G31G32
  21459750.760   112771741.68707  21459754.500    87874095.08448
  20867494.700   109659420.40308  20867497.260    85448905.95248
  23890526.280   125545536.69705  23890529.260    97827696.15644
  23546939.120   123740001.56005  23546943.320    96420799.31246
  21533626.200   113159975.12907  21533629.120    88176617.26248
  23210218.760   121970506.24506  23210220.160    95041948.02545
  21830512.280   114720112.68907  21830512.380    89392291.56348
  22358965.760   117497160.48706  22358966.120    91556227.25646
  20537440.960   107924982.92808  20537438.580    84097379.39949
  24468886.080   128584863.18404  24468888.300   100196000.69145
  23913642.300   125667022.26805  23913644.740    97922363.35545
 15 02 15 08 40  0.0000000  0 11G01G03G04G06G09G11G17G20G23G31G32
  21471913.940   112835659.33507  21471917.720    87923901.00148
  20873217.200   109689492.13608  20873219.720    85472338.45348
  23909199.940   125643667.24504  23909202.860    97904161.39145
  23528595.240   123643604.00404  23528599.480    96345684.37646
  21519340.520   113084903.38707  21519343.420    88118119.81548
  23230165.460   122075325.83106  23230166.880    95123625.49245
  21832124.720   114728585.94507  21832124.820    89398894.08148
  22346246.060   117430317.50306  22346246.340    91504141.81647
  20533847.040   107906096.88208  20533844.660    84082663.02249
  24477449.820   128629865.33904  24477452.020   100231067.27945
  23928736.020   125746339.38004  23928738.300    97984168.78445
 15 02 15 08 40 30.0000000  0 11G01G03G04G06G09G11G17G20G23G31G32
  21484146.800   112899943.68207  21484150.660    87973992.64648
  20878975.120   109719749.81108  20878977.540    85495915.85148
  23927905.260   125741964.14705  23927908.260    97980756.24945
  23510267.320   123547291.18805  23510271.780    96270635.47846
  21505129.180   113010222.23007  21505132.080    88059926.72848
  23250147.020   122180328.29805  23250148.420    95205445.47745
  21833846.780   114737635.26907  21833846.840    89405945.48448
  22333552.360   117363611.55406  22333552.600    91452163.15446
  20530344.220   107887689.69108  20530341.860    84068319.77149
  24486108.520   128675366.49004  24486110.500   100266522.69645
  23943829.420   125825655.50304  23943831.680    98045973.43946
 15 02 15 08 41  0.0000000  0 11G01G03G04G06G09G11G17G20G23G31G32
  21496449.420   112964594.71207  21496453.360    88024370.02348
  20884768.460   109750193.65008  20884770.820    85519638.30948
  23946642.100   125840426.53605  23946645.220    98057480.05545
  23491956.200   123451065.81305  23491960.680    96195654.68246
  21490992.520   112935933.72007  21490995.440    88002039.59248
  23270162.900   122285511.60806  23270164.360    95287406.39145
  21835678.340   114747259.96307  21835678.340    89413445.22748
  22320884.860   117297043.25606  22320885.000    91400291.75346
  20526932.620   107869761.80908  20526930.280    84054350.00549
  24494861.840   128721365.69105  24494863.740   100302366.20546
  23958922.580   125904970.89704  23958925.220    98107777.51145
 15 02 15 08 41 30.0000000  0 11G01G03G04G06G09G11G17G20G23G31G32
  21508822.440   113029615.31907  21508826.400    88075035.38648
  20890597.800   109780826.97008  20890600.180    85543508.40248
  23965411.020   125939056.71705  23965414.180    98134334.61744
  23473662.760   123354933.48905  23473667.500    96120746.42747
  21476931.540   112862042.85807  21476934.460    87944462.31148
  23290213.440   122390877.18706  23290214.940    95369509.31145
  21837619.980   114757463.06707  21837619.960    89421395.67348
  22308244.300   117230616.75606  22308244.460    91348530.84246
  20523612.980   107852316.83108  20523610.600    84040756.52249
  24503710.320   128767865.06404  24503712.280   100338599.41846
  23974016.220   125984288.85404  23974019.080    98169583.59944
 15 02 15 08 42  0.0000000  0 11G01G03G04G06G09G11G17G20G23G31G32
  21521263.540   113094993.38107  21521267.500    88125979.27948
  20896460.960   109811637.93908  20896463.340    85567516.92748
  23984209.200   126037841.96404  23984212.660    98211309.99944
  23455385.360   123258884.75205  23455390.100    96045903.27447
  21462944.380   112788539.55507  21462947.220    87887187.02648
  23310296.020   122496411.78106  23310297.640    95451743.94946
  21839669.360   114768232.65207  21839669.360    89429787.53547
  22295628.580   117164321.02106  22295628.800    91296871.82846
  20520382.840   107835342.43808  20520380.460    84027529.72249
  24512651.600   128814852.08904  24512653.620   100375212.60845
  23989108.240   126063597.56904  23989110.920    98231382.42145
 15 02 15 08 42 30.0000000  0 11G01G03G04G06G09G11G17G20G23G31G32
  21533774.840   113160739.95707  21533778.700    88177210.33148
  20902360.060   109842637.97408  20902362.500    85591672.76848
  24003038.860   126136792.56104  24003042.380    98288414.21545
  23437126.440   123162933.43805  23437131.200    95971136.06947
  21449033.420   112715436.98807  21449036.240    87830224.00348
  23330412.780   122602125.50906  23330414.360    95534118.14345
  21841828.600   114779579.72707  21841828.640    89438629.39348
  22283039.940   117098167.61806  22283040.260    91245323.74047
  20517244.540   107818850.86808  20517242.220    84014679.14049
  24521687.700   128862337.30705  24521689.820   100412213.99645
  24004200.700   126142908.60004  24004203.360    98293183.10844
 15 02 15 08 43  0.0000000  0 11G01G03G04G06G09G11G17G20G23G31G32
  21546355.040   113226848.73407  21546358.820    88228723.61048
  20908294.000   109873821.12607  20908296.480    85615971.29948
  24021898.880   126235901.99404  24021902.340    98365642.19945
  23418885.420   123067075.95505  23418890.160    95896441.94346
  21435197.940   112642730.88207  21435200.740    87773569.91548
  23350562.180   122708010.62706  23350563.680    95616625.92545
  21844096.540   114791498.06307  21844096.640    89447916.38048
  22270477.340   117032151.24306  22270477.780    91193882.43947
  20514197.020   107802836.37008  20514194.760    84002200.29049
  24530817.400   128910313.70805  24530819.500   100449598.10445
  24019292.420   126222215.86404  24019295.080    98354980.86745
 15 02 15 08 43 30.0000000  0 11G01G03G04G06G09G11G17G20G23G31G32
  21559005.620   113293327.69207  21559009.380    88280525.35848
  20914264.380   109905195.72208  20914266.860    85640419.00348
  24040790.460   126335177.36305  24040794.160    98442999.49445
  23400664.360   122971323.11005  23400668.880    95821829.38246
  21421439.800   112570431.28407  21421442.580    87717232.58348
  23370745.340   122814073.49705  23370746.780    95699272.18645
  21846474.720   114803995.56207  21846474.860    89457654.65848
  22257942.600   116966281.15206  22257943.040    91142555.12647
  20511241.880   107787307.13108  20511239.680    83990099.56649
  24540042.080   128958788.73005  24540044.120   100487370.74546
  24034385.080   126301527.92004  24034387.680    98416782.34744
 15 02 15 08 44  0.0000000  0 12G01G03G04G06G09G10G11G17G20G23G31G32
  21571721.140   113360148.06607  21571725.000    88332593.14048
  20920265.800   109936733.45207  20920268.300    85664993.81948
  24059708.040   126434589.30205  24059711.920    98520463.18944
  23382458.260   122875648.90205  23382462.660    95747278.09746
  21407753.940   112498511.49107  21407756.680    87661191.20648
  24319818.300   127801506.58104  24319820.300    99585597.08644
  23390956.460   122920284.01205  23390958.060    95782033.49745
  21848957.580   114817043.25307  21848957.800    89467821.66748
  22245430.500   116900529.50506  22245430.840    91091320.10746
  20508373.720   107772234.59408  20508371.480    83978354.71549
  24549356.020   129007732.77905  24549358.040   100525508.86345
  24049473.220   126380816.19804  24049476.020    98478565.25644
 15 02 15 08 44 30.0000000  0 12G01G03G04G06G09G10G11G17G20G23G31G32
  21584507.640   113427341.45407  21584511.580    88384951.57448
  20926304.340   109968466.34607  20926306.900    85689720.70648
  24078657.460   126534168.95304  24078661.520    98598057.59145
  23364273.560   122780087.79505  23364277.840    95672814.92046
  21394146.740   112427005.22207  21394149.460    87605472.06048
  24303552.680   127716029.90604  24303554.440    99518991.88345
  23411201.520   123026672.65705  23411203.220    95864933.61346
  21851551.220   114830672.91807  21851551.460    89478442.15948
  22232947.220   116834929.28606  22232947.540    91040203.08746
  20505598.620   107757651.17108  20505596.340    83966990.98549
  24558765.040   129057176.95604  24558766.920   100564036.68846
  24064563.020   126460113.05904  24064565.920    98540354.89044
 15 02 15 08 45  0.0000000  0 12G01G03G04G06G09G10G11G17G20G23G31G32
  21597363.080   113494897.05807  21597367.020    88437592.24948
  20932378.040   110000383.99207  20932380.680    85714591.55648
  24097636.620   126633904.90105  24097640.600    98675773.79445
  23346108.820   122684631.75705  23346113.040    95598433.62946
  21380616.560   112355903.67807  21380619.220    87550068.27848
  24287302.600   127630637.44503  24287304.560    99452452.21145
  23431478.200   123133227.27905  23431480.000    95947963.06645
  21854253.460   114844873.17707  21854253.740    89489507.26148
  22220490.840   116769470.42006  22220491.200    90989196.21746
  20502914.600   107743546.59808  20502912.340    83956000.38449
  24568266.920   129107110.01404  24568268.920   100602945.43445
  24079652.640   126539407.93904  24079655.360    98602142.99945
 15 02 15 08 45 30.0000000  0 12G01G03G04G06G09G10G11G17G20G23G31G32
  21610286.960   113562812.39507  21610290.900    88490513.24548
  20938486.540   110032484.39407  20938489.240    85739604.81248
  24116645.060   126733794.07705  24116649.140    98753609.37345
  23327964.140   122589281.18005  23327968.180    95524134.48846
  21367163.320   112285206.46207  21367165.920    87494979.56848
  24271068.320   127545328.11104  24271070.580    99385977.37243
  23451785.840   123239944.06705  23451787.800    96031118.84946
  21857063.860   114859641.81407  21857064.220    89501015.26548
  22208061.020   116704151.55606  22208061.500    90938298.43846
  20500321.280   107729918.54908  20500319.020    83945381.10449
  24577861.240   129157528.85005  24577863.320   100642232.74845
  24094741.420   126618698.94704  24094743.940    98663928.09545
 15 02 15 08 46  0.0000000  0 12G01G03G04G06G09G10G11G17G20G23G31G32
  21623278.760   113631084.48707  21623282.620    88543712.23248
  20944629.340   110064765.03707  20944632.100    85764758.51048
  24135682.180   126833833.06005  24135685.920    98831561.68643
  23309839.500   122494036.02705  23309843.540    95449917.53346
  21353786.860   112214912.65307  21353789.420    87440205.20148
  24254849.860   127460099.59104  24254852.380    99319565.47343
  23472123.620   123346819.19405  23472125.560    96114398.05646
  21859981.880   114874975.91207  21859982.300    89512963.87848
  22195657.400   116638970.74506  22195657.980    90887508.24946
  20497818.300   107716764.98808  20497816.000    83935131.55649
  24587547.480   129208429.92005  24587549.660   100681895.82144
  24109828.940   126697983.60104  24109831.420    98725708.25943
 15 02 15 08 46 30.0000000  0 12G01G03G04G06G09G10G11G17G20G23G31G32
  21636338.740   113699714.81907  21636342.540    88597190.36248
  20950806.840   110097227.91607  20950809.600    85790054.21348
  24154747.780   126934022.56004  24154751.500    98909631.28645
  23291735.700   122398900.63905  23291739.820    95375786.11246
  21340487.840   112145025.79407  21340490.360    87385747.93348
  24238647.160   127374954.39104  24238649.980    99253218.45744
  23492491.560   123453852.52705  23492493.420    96197800.52045
  21863007.820   114890876.78007  21863008.220    89525354.13048
  22183280.560   116573930.30406  22183281.020    90836827.41047
  20495405.880   107704087.30408  20495403.580    83925252.82049
  24597325.680   129259813.69605  24597327.800   100721935.05445
  24124915.600   126777263.89505  24124918.200    98787485.01444
 15 02 15 08 47  0.0000000  0 12G01G03G04G06G09G10G11G17G20G23G31G32
  21649466.860   113768703.43907  21649470.720    88650947.68348
  20957019.160   110129873.58608  20957021.880    85815492.35248
  24173841.840   127034362.34605  24173845.660    98987817.99345
  23273653.420   122303877.96805  23273657.580    95301742.51846
  21327266.660   112075548.02707  21327269.180    87331609.44048
  24222460.540   127289893.90304  24222463.760    99186937.58343
  23512889.420   123561042.77005  23512891.260    96281325.26045
  21866141.560   114907344.10607  21866141.900    89538185.77248
  22170930.760   116509031.70606  22170931.140    90786257.10947
  20493084.140   107691886.34408  20493081.860    83915745.56749
  24607195.700   129311679.66705  24607197.760   100762350.05946
  24140001.560   126856540.43005  24140004.240    98849258.84144
 15 02 15 08 47 30.0000000  0 12G01G03G04G06G09G10G11G17G20G23G31G32
  21662662.960   113838049.35807  21662666.940    88704983.42148
  20963266.260   110162701.51408  20963268.860    85841072.50948
  24192964.100   127134850.68204  24192968.100    99066120.50644
  23255593.040   122208969.98805  23255597.300    95227788.27346
  21314123.480   112006480.34707  21314126.000    87277790.50348
  24206290.120   127204918.21204  24206293.580    99120722.69443
  23533316.760   123668388.20205  23533318.540    96364970.91445
  21869382.840   114924376.64807  21869383.060    89551457.84848
  22158608.000   116444275.19706  22158608.340    90735797.51546
  20490852.980   107680161.37208  20490850.680    83906609.21449
  24617157.100   129364026.48604  24617159.080   100803139.73945
  24155086.700   126935812.78004  24155089.320    98911029.40145
 15 02 15 08 48  0.0000000  0 12G01G03G04G06G09G10G11G17G20G23G31G32
  21675926.680   113907750.70107  21675930.740    88759296.11248
  20969547.760   110195710.45208  20969550.300    85866793.71648
  24212114.220   127235485.24504  24212118.480    99144536.83646
  23237554.660   122114177.77205  23237559.100    95153924.25147
  21301058.300   111937822.95207  21301060.880    87224291.26748
  24190135.660   127120026.46904  24190139.300    99054573.23146
  23553772.940   123775884.88205  23553774.680    96448734.44446
  21872731.260   114941972.52807  21872731.440    89565168.88248
  22146312.140   116379659.88506  22146312.560    90685447.94846
  20488712.160   107668911.06408  20488709.860    83897842.74549
  24627209.220   129416851.24804  24627211.400   100844301.84645
  24170170.700   127015079.50904  24170173.360    98972795.62045
 15 02 15 08 48 30.0000000  0 12G01G03G04G06G09G10G11G17G20G23G31G32
  21689257.220   113977803.32407  21689261.320    88813882.52548
  20975863.000   110228896.73108  20975865.520    85892653.11648
  24231291.380   127336261.34904  24231295.500    99223063.52543
  23219538.220   122019500.18105  23219542.620    95080149.52747
  21288070.820   111869573.75407  21288073.420    87171110.10648
  24173996.740   127035215.82704  24173999.940    98988486.91345
  23574256.840   123883528.08505  23574258.700    96532612.10145
  21876186.080   114960127.61907  21876186.340    89579315.67348
  22134042.580   116315182.64606  22134042.980    90635205.97547
  20486660.980   107658131.78508  20486658.640    83889443.30749
  24637351.360   129470149.24704  24637353.780   100885832.76744
  24185253.020   127094337.24905  24185255.640    99034554.76744
 15 02 15 08 49  0.0000000  0 11G01G03G04G06G09G10G11G17G20G23G31
  21702655.780   114048213.29507  21702659.860    88868747.39548
  20982213.280   110262267.04708  20982215.760    85918655.92348
  24250496.620   127437184.48904  24250500.520    99301704.83044
  23201545.300   121924946.21205  23201549.660    95006471.15346
  21275162.560   111801740.86307  21275165.220    87118253.33748
  24157874.680   126950493.18404  24157877.620    98922469.26244
  23594769.560   123991322.53305  23594771.600    96616607.64446
  21879748.500   114978847.90507  21879748.760    89593902.86648
  22121800.660   116250850.72606  22121801.020    90585077.22246
  20484700.580   107647829.73508  20484698.240    83881415.74749
  24647584.720   129523926.03304  24647587.260   100927736.70045
 15 02 15 08 49 30.0000000  0 12G01G03G04G06G09G10G11G17G20G23G31G32
  21716120.420   114118970.38507  21716124.440    88923882.74848
  20988596.700   110295811.76008  20988599.160    85944794.62948
  24269727.880   127538244.05204  24269731.480    99380452.33945
  23183574.460   121830508.75005  23183578.680    94932883.53946
  21262332.040   111734316.08807  21262334.700    87065714.57048
  24141767.680   126865849.71504  24141770.640    98856513.31744
  23615308.880   124099256.69005  23615310.900    96700712.04845
  21883416.480   114998122.73907  21883416.660    89608922.17948
  22109584.700   116186655.35406  22109584.880    90535054.86946
  20482829.160   107637995.29808  20482826.820    83873752.56049
  24657907.240   129578170.67404  24657909.600   100970005.23745
  24215414.480   127252860.87504  24215416.580    99158083.99644
 15 02 15 08 50  0.0000000  0 11G01G03G04G06G09G10G11G17G20G23G32
  21729651.120   114190074.44607  21729655.140    88979288.46548
  20995013.320   110329531.30708  20995015.820    85971069.57648
  24288984.820   127639439.26204  24288988.280    99459305.59144
  23165626.240   121736190.62805  23165630.460    94859388.92847
  21249579.540   111667301.30107  21249582.220    87013495.28148
  24125675.960   126781286.20704  24125679.240    98790619.68945
  23635874.440   124207329.19505  23635876.560    96784924.25945
  21887189.820   115017951.65707  21887189.940    89624373.24248
  22097394.820   116122597.36806  22097394.900    90485139.55946
  20481046.760   107628628.88408  20481044.460    83866454.07649
  24230491.940   127332092.70004  24230494.520    99219823.04444
 15 02 15 08 50 30.0000000  0 11G01G03G04G06G09G10G11G17G20G23G32
  21743251.660   114261545.17807  21743255.640    89034979.90448
  21001467.080   110363446.01808  21001469.640    85997496.59948
  24308271.200   127740789.40204  24308274.820    99538279.55944
  23147705.000   121642014.59605  23147709.240    94786005.05946
  21236909.200   111600718.28807  21236911.860    86961612.41948
  24109603.160   126696823.83304  24109606.220    98724804.84744
  23656469.980   124315559.30205  23656472.200    96869259.28045
  21891072.280   115038354.17407  21891072.380    89640271.27348
  22085234.980   116058697.72906  22085235.120    90435347.63346
  20479357.240   107619750.30408  20479354.900    83859535.71049
  24245571.120   127411333.46704  24245573.740    99281569.01444
 15 02 15 08 51  0.0000000  0 11G01G03G04G06G09G10G11G17G20G23G32
  21756917.660   114333359.87807  21756921.580    89090939.36148
  21007953.700   110397533.78908  21007956.400    86024058.47048
  24327582.720   127842271.25504  24327586.240    99617356.19244
  23129807.120   121547961.02205  23129811.240    94712716.55146
