     2.11           OBSERVATION DATA    G                   RINEX VERSION / TYPE
SPIDER V4,0,0,3554                      2015 03 16 00:47    PGM / RUN BY / DATE 
ADCK                                                        MARKER NAME         
ADCK                                                        MARKER NUMBER       
                                                            OBSERVER / AGENCY   
496498              LEICA GRX1200+GNSS  8.20/4.007          REC # / TYPE / VERS 
                    LEIAR25         NONE                    ANT # / TYPE        
  5227539.7664   314968.1794  3630496.8998                  APPROX POSITION XYZ 
        0.0480        0.0000        0.0000                  ANTENNA: DELTA H/E/N
     1     1                                                WAVELENGTH FACT L1/2
     4    C1    L1    P2    L2                              # / TYPES OF OBSERV 
    30.000                                                  INTERVAL            
  2015    02    16    00    00    0.0000000     GPS         TIME OF FIRST OBS   
  2015    02    16    05    00   30.0000000     GPS         TIME OF LAST OBS    
    16                                                      LEAP SECONDS        
    16                                                      # OF SATELLITES     
   G 1   200   200   200   200                              PRN / # OF OBS      
   G 3    80    80    80    80                              PRN / # OF OBS      
   G 4   356   356   356   356                              PRN / # OF OBS      
   G11   263   263   263   263                              PRN / # OF OBS      
   G14   190   189   189   189                              PRN / # OF OBS      
   G16   589   589   589   589                              PRN / # OF OBS      
   G18   522   522   522   522                              PRN / # OF OBS      
   G19   466   466   466   466                              PRN / # OF OBS      
   G21   400   400   400   400                              PRN / # OF OBS      
   G22   543   543   543   543                              PRN / # OF OBS      
   G25    84    84    84    84                              PRN / # OF OBS      
   G27   602   602   602   602                              PRN / # OF OBS      
   G28    31    31    31    31                              PRN / # OF OBS      
   G29   136   136   136   136                              PRN / # OF OBS      
   G31   199   199   199   199                              PRN / # OF OBS      
   G32   250   250   250   250                              PRN / # OF OBS      
BIT 2 OF LLI FLAGS DATA COLLECTED UNDER A/S CONDITION       COMMENT             
SNR is mapped to RINEX snr flag value [2-9]                 COMMENT             
Lx:     = 25dBHz -> 1; 26-27dBHz -> 2; 28-31dBHz -> 3       COMMENT             
       32-35dBHz -> 4; 36-38dBHz -> 5; 39-41dBHz -> 6       COMMENT             
       42-44dBHz -> 7; 45-48dBHz -> 8; >=49dBHz -> 9        COMMENT             
                                                            END OF HEADER       
 15 02 16 00 00  0.0000000  0  7G16G18G21G25G27G29G31
  23112526.340   121457147.74508  23112523.620    94641938.25246
  23882025.680   125500949.19808  23882024.900    97792968.40345
  20935956.920   110019202.07708  20935953.340    85729237.03148
  23365744.960   122787809.58608  23365745.480    95678810.23846
  24064530.220   126459976.56708  24064531.440    98540253.71246
  22680429.760   119186455.29009  22680427.780    92872550.44148
  21442737.840   112682341.72809  21442734.900    87804406.63148
 15 02 16 00 00 30.0000000  0  7G16G18G21G25G27G29G31
  23096317.940   121371972.07509  23096315.220    94575567.62146
  23867725.900   125425804.06108  23867725.020    97734413.93945
  20936184.780   110020399.57309  20936181.220    85730170.15548
  23381603.920   122871149.02808  23381604.460    95743750.04946
  24050611.380   126386833.11908  24050612.720    98483258.90146
  22693978.840   119257656.50409  22693976.860    92928031.89247
  21453994.320   112741495.03209  21453991.420    87850500.10348
 15 02 16 00 01  0.0000000  0  7G16G18G21G25G27G29G31
  23080123.980   121286872.12008  23080121.200    94509255.98646
  23853434.960   125350705.39008  23853434.080    97675895.66645
  20936499.020   110022050.80809  20936495.460    85731456.84448
  23397506.560   122954718.00708  23397507.100    95808868.70746
  24036714.680   126313805.66408  24036716.040    98426354.46146
  22707536.500   119328902.61209  22707534.500    92983548.32547
  21465336.040   112801096.15809  21465333.200    87896942.51548
 15 02 16 00 01 30.0000000  0  7G16G18G21G25G27G29G31
  23063944.200   121201846.55008  23063941.240    94443002.31846
  23839152.800   125275652.79708  23839151.920    97617413.31545
  20936898.960   110024152.30408  20936895.340    85733094.38248
  23413452.260   123038513.04008  23413452.900    95874163.50546
  24022839.540   126240891.45108  24022840.900    98369538.26846
  22721102.000   119400189.93709  22721100.000    93039096.87247
  21476761.980   112861139.92009  21476759.180    87943729.84448
 15 02 16 00 02  0.0000000  0  7G16G18G21G25G27G29G31
  23047778.900   121116897.14908  23047775.860    94376807.99446
  23824880.020   125200649.35808  23824879.080    97558969.24045
  20937384.460   110026703.45609  20937380.780    85735082.29848
  23429440.880   123122533.57108  23429441.560    95939634.01047
  24008985.980   126168090.58308  24008987.240    98312810.35646
  22734675.280   119471517.93409  22734673.200    93094677.11147
  21488271.720   112921624.10609  21488268.980    87990860.35648
 15 02 16 00 02 30.0000000  0  7G16G18G21G25G27G29G31
  23031628.860   121032028.37908  23031625.860    94310676.51146
  23810617.620   125125700.65408  23810616.720    97500567.81745
  20937955.920   110029706.32809  20937952.180    85737422.20648
  23445472.800   123206781.65608  23445473.560    96005281.83246
  23995154.580   126095405.81508  23995155.680    98256172.94046
  22748256.780   119542888.82309  22748254.560    93150290.77047
  21499865.480   112982549.76509  21499862.740    88038334.86948
 15 02 16 00 03  0.0000000  0  7G16G18G21G25G27G29G31
  23015493.880   120947238.80208  23015490.940    94244606.74046
  23796365.480   125050805.96508  23796364.540    97442208.50545
  20938612.540   110033157.06209  20938608.800    85740111.10748
  23461547.220   123291253.09608  23461548.020    96071103.70647
  23981344.580   126022833.69108  23981345.580    98199623.29946
  22761845.680   119614298.39409  22761843.320    93205934.58947
  21511542.200   113043911.32209  21511539.480    88086149.06148
 15 02 16 00 03 30.0000000  0  7G16G18G21G25G27G29G31
  22999375.040   120862533.91309  22999372.120    94178602.95246
  23782124.940   124975972.18708  23782123.960    97383896.62945
  20939355.080   110037059.38909  20939351.380    85743151.88148
  23477664.860   123375951.62908  23477665.640    96137102.53146
  23967556.840   125950378.65708  23967557.800    98143164.88046
  22775442.800   119685751.27409  22775440.400    93261612.13247
  21523302.340   113105711.15409  21523299.560    88134304.74448
 15 02 16 00 04  0.0000000  0  7G16G18G21G25G27G29G31
  22983271.640   120777910.03809  22983268.720    94112662.30546
  23767895.460   124901196.66908  23767894.480    97325630.14345
  20940182.300   110041406.76909  20940178.640    85746539.46648
  23493824.500   123460870.88208  23493825.160    96203273.33846
  23953790.300   125878035.04308  23953791.120    98086793.28046
  22789046.860   119757240.88709  22789044.500    93317318.30747
  21535144.280   113167940.76109  21535141.480    88182795.32448
 15 02 16 00 04 30.0000000  0  7G16G18G21G25G27G29G31
  22967184.740   120693372.77109  22967181.820    94046789.14746
  23753678.360   124826486.06308  23753677.320    97267414.23945
  20941094.900   110046202.55409  20941091.240    85750276.44248
  23510026.740   123546014.18308  23510027.380    96269618.72646
  23940045.720   125805806.98008  23940046.520    98030511.70946
  22802658.520   119828770.56609  22802656.300    93373055.69547
  21547068.400   113230602.39309  21547065.620    88231622.54748
 15 02 16 00 05  0.0000000  0  7G16G18G21G25G27G29G31
  22951114.360   120608922.47808  22951111.440    93980983.75847
  23739473.840   124751841.43708  23739472.740    97209249.75145
  20942092.480   110051444.71709  20942088.820    85754361.24848
  23526271.160   123631379.25508  23526271.740    96336136.94246
  23926322.800   125733692.84808  23926323.660    97974318.93446
  22816277.480   119900338.93709  22816275.400    93428823.23247
  21559074.060   113293692.50909  21559071.320    88280783.65248
 15 02 16 00 05 30.0000000  0  7G16G18G21G25G27G29G31
  22935060.660   120524560.06408  22935057.760    93915246.83546
  23725282.340   124677264.99108  23725281.040    97151138.37745
  20943174.620   110057131.24109  20943170.960    85758792.30448
  23542557.500   123716964.54908  23542558.100    96402826.74246
  23912621.400   125661691.88108  23912622.240    97918214.32546
  22829903.500   119971944.32609  22829901.440    93484619.61347
  21571160.620   113357207.99009  21571157.940    88330276.20848
 15 02 16 00 06  0.0000000  0  7G16G18G21G25G27G29G31
  22919024.280   120440288.65708  22919021.480    93849580.82747
  23711104.620   124602760.86308  23711103.160    97093083.34445
  20944341.560   110063263.43108  20944337.880    85763570.64248
  23558885.940   123802770.86008  23558886.540    96469688.77446
  23898941.800   125589805.61808  23898942.620    97862199.09846
  22843536.620   120043587.16508  22843534.580    93540445.18547
  21583328.000   113421148.15509  21583325.340    88380099.68748
 15 02 16 00 06 30.0000000  0  7G16G18G21G25G27G29G31
  22903005.280   120356108.74908  22903002.520    93783986.11946
  23696940.900   124528330.44908  23696939.420    97035085.75145
  20945592.860   110069839.11009  20945589.180    85768694.55148
  23575256.060   123888796.11108  23575256.700    96536721.40746
  23885283.760   125518032.77408  23885284.600    97806272.27146
  22857176.660   120115266.36409  22857174.620    93596299.09047
  21595575.500   113485509.21309  21595572.840    88430251.13848
 15 02 16 00 07  0.0000000  0  7G16G18G21G25G27G29G31
  22887004.120   120272022.40109  22887001.340    93718464.31847
  23682791.700   124453976.40008  23682790.140    96977147.65445
  20946928.420   110076857.64008  20946924.760    85774163.54648
  23591667.740   123975039.84308  23591668.420    96603924.28446
  23871647.360   125446373.63108  23871648.280    97750434.02546
  22870823.640   120186982.03809  22870821.660    93652181.40547
  21607902.740   113550289.44109  21607900.100    88480729.21348
 15 02 16 00 07 30.0000000  0  7G16G18G21G25G27G29G31
  22871020.600   120188028.29209  22871017.720    93653014.38847
  23668657.140   124379699.23208  23668655.580    96919269.48345
  20948347.400   110084314.70109  20948343.760    85779974.25648
  23608120.280   124061498.24508  23608121.000    96671294.43346
  23858032.060   125374825.11208  23858033.020    97694681.99546
  22884476.800   120258729.73309  22884474.860    93708088.67747
  21620308.800   113615483.66809  21620306.180    88531529.88948
 15 02 16 00 08  0.0000000  0  7G16G18G21G25G27G29G31
  22855056.040   120104133.57609  22855053.000    93587641.90346
  23654538.620   124305506.46608  23654537.140    96861457.06345
  20949850.960   110092215.87309  20949847.300    85786131.02148
  23624614.540   124148175.91508  23624615.240    96738835.43546
  23844438.880   125303392.62908  23844439.860    97639020.36346
  22898137.200   120330515.00509  22898135.200    93764025.22847
  21632794.260   113681094.85909  21632791.560    88582655.46848
 15 02 16 00 08 30.0000000  0  7G16G18G21G25G27G29G31
  22839110.200   120020337.28809  22839107.020    93522346.11646
  23640436.240   124231398.37908  23640434.740    96803710.61745
  20951438.240   110100557.20709  20951434.600    85792630.76348
  23641149.860   124235069.42908  23641150.520    96806544.63246
  23830867.320   125232073.52908  23830868.220    97583447.08446
  22911804.180   120402334.92809  22911802.100    93819988.78447
  21645358.180   113747118.05809  21645355.360    88634102.09448
 15 02 16 00 09  0.0000000  0  7G16G18G21G25G27G29G31
  22823183.040   119936639.32909  22823179.820    93457126.95646
  23626350.100   124157375.64508  23626348.520    96746030.68945
  20953108.700   110109335.64408  20953105.080    85799471.11848
  23657725.720   124322176.07408  23657726.400    96874419.90346
  23817316.960   125160865.86708  23817317.840    97527960.65347
  22925477.180   120474186.57409  22925475.020    93875977.06947
  21657999.700   113813548.95009  21657996.760    88685866.40348
 15 02 16 00 09 30.0000000  0  7G16G18G21G25G27G29G31
  22807275.700   119853045.88509  22807272.480    93391989.22847
  23612281.520   124083445.35508  23612279.960    96688422.78745
  20954863.020   110118554.73408  20954859.400    85806654.83748
  23674342.760   124409499.13608  23674343.460    96942463.81646
  23803788.620   125089773.77208  23803789.540    97472564.27047
  22939156.960   120546073.81409  22939154.680    93931993.08447
  21670719.140   113880389.41009  21670716.100    88737949.86148
 15 02 16 00 10  0.0000000  0  7G16G18G21G25G27G29G31
  22791387.780   119769554.82508  22791384.620    93326931.27946
  23598230.420   124009606.78608  23598228.860    96630886.35446
  20956700.380   110128210.41208  20956696.780    85814178.75248
  23691000.160   124497034.47108  23691000.940    97010673.12646
  23790281.660   125018793.87108  23790282.500    97417255.31647
  22952842.800   120617993.12609  22952840.440    93988034.09647
  21683515.420   113947633.86309  21683512.320    88790348.11248
 15 02 16 00 10 30.0000000  0  7G16G18G21G25G27G29G31
  22775519.940   119686169.43309  22775516.880    93261955.67646
  23584197.500   123935863.52708  23584195.900    96573424.18646
  20958620.680   110138301.82208  20958617.140    85822042.19748
  23707697.980   124584782.09408  23707698.820    97079047.85646
  23776796.200   124947926.99308  23776796.940    97362034.43246
  22966534.720   120689944.68309  22966532.400    94044100.22647
  21696388.200   114015280.64709  21696385.120    88843059.87148
 15 02 16 00 11  0.0000000  0  7G16G18G21G25G27G29G31
  22759672.400   119602890.51009  22759669.420    93197063.02847
  23570183.060   123862217.56008  23570181.420    96516037.81846
  20960623.740   110148828.13408  20960620.240    85830244.51648
  23724435.960   124672740.51308  23724436.800    97147586.84046
  23763332.060   124877172.48308  23763332.700    97306901.09147
  22980232.600   120761927.59909  22980230.320    94100190.79047
  21709336.940   114083326.89309  21709333.920    88896082.89148
 15 02 16 00 11 30.0000000  0  7G16G18G21G25G27G29G31
  22743845.660   119519720.63009  22743842.700    93132255.34747
  23556187.820   123788672.82408  23556186.200    96458730.33845
  20962709.620   110159789.56009  20962706.140    85838785.89348
  23741214.080   124760909.81008  23741214.940    97216290.14246
  23749889.440   124806531.20908  23749890.080    97251855.99547
  22993936.500   120833942.47908  22993934.400    94156306.24647
  21722361.400   114151770.98909  21722358.440    88949415.93548
 15 02 16 00 12  0.0000000  0  7G16G18G21G25G27G29G31
  22728040.200   119436662.15409  22728037.160    93067534.47746
  23542212.400   123715232.10008  23542210.700    96401503.89245
  20964878.160   110171185.28308  20964874.700    85847665.68748
  23758032.180   124849289.39608  23758033.100    97285157.31946
  23736468.360   124736003.38108  23736469.040    97196899.30346
  23007646.420   120905989.06008  23007644.540    94212446.40847
  21735461.200   114220611.05309  21735458.320    89003057.52048
 15 02 16 00 12 30.0000000  0  7G16G18G21G25G27G29G31
  22712256.260   119353716.61909  22712253.160    93002901.61347
  23528257.260   123641897.90708  23528255.620    96344360.45145
  20967129.080   110183013.79509  20967125.540    85856882.71048
  23774890.080   124937878.18508  23774891.040    97354187.49746
  23723068.820   124665588.83808  23723069.540    97142030.88546
  23021362.280   120978066.61408  23021360.560    94268610.69747
  21748635.840   114289844.34809  21748633.000    89057005.52248
 15 02 16 00 13  0.0000000  0  7G16G18G21G25G27G29G31
  22696493.800   119270884.02209  22696490.720    92938356.75747
  23514322.560   123568671.02708  23514320.860    96287300.63645
  20969461.800   110195272.31108  20969458.260    85866434.80648
  23791787.260   125026673.39408  23791788.140    97423378.52746
  23709690.460   124595285.56708  23709691.200    97087249.16346
  23035083.640   121050172.97309  23035082.000    94324797.43847
  21761884.520   114359466.53409  21761881.680    89111256.54848
 15 02 16 00 13 30.0000000  0  7G16G18G21G25G27G29G31
  22680753.540   119188168.12409  22680750.400    92873902.82747
  23500409.260   123495556.51508  23500407.560    96230328.37145
  20971876.540   110207962.02608  20971873.040    85876322.90448
  23808723.920   125115676.21408  23808724.800    97492731.33446
  23696333.620   124525095.57508  23696334.420    97032555.71646
  23048810.860   121122309.74709  23048809.220    94381007.89047
  21775207.160   114429477.29009  21775204.300    89165810.36348
 15 02 16 00 14  0.0000000  0  7G16G18G21G25G27G29G31
  22665035.580   119105569.56109  22665032.340    92809540.33147
  23486517.560   123422555.40708  23486515.800    96173444.48746
  20974372.860   110221080.47608  20974369.380    85886545.08748
  23825699.700   125204884.47008  23825700.580    97562244.21946
  23682998.040   124455017.61208  23682998.860    96977949.57246
  23062543.480   121194474.71608  23062541.760    94437240.31347
  21788603.040   114499872.84209  21788600.140    89220664.02348
 15 02 16 00 14 30.0000000  0  7G16G18G21G25G27G29G31
  22649339.880   119023088.23709  22649336.660    92745269.19247
  23472647.680   123349668.89808  23472645.880    96116649.88346
  20976950.160   110234624.66208  20976946.720    85897099.00748
  23842714.100   125294295.37508  23842714.980    97631915.01446
  23669683.480   124385049.74708  23669684.340    96923429.21146
  23076281.140   121266666.33808  23076279.320    94493493.49847
  21802071.260   114570648.76609  21802068.400    89275814.06748
 15 02 16 00 15  0.0000000  0  7G16G18G21G25G27G29G31
  22633667.540   118940729.83209  22633664.360    92681093.83147
  23458800.900   123276903.86708  23458799.120    96059949.95745
  20979609.160   110248598.07708  20979605.740    85907987.38448
  23859767.600   125383911.92508  23859768.460    97701746.05946
  23656390.640   124315195.81608  23656391.540    96868997.63246
  23090024.480   121338887.96208  23090022.620    94549770.06647
  21815612.140   114641806.48409  21815609.280    89331261.61948
 15 02 16 00 15 30.0000000  0  7G16G18G21G25G27G29G31
  22618018.680   118858495.21109  22618015.620    92617014.92547
  23444977.480   123204261.65608  23444975.620    96003345.71146
  20982349.420   110262998.16708  20982346.000    85919208.24248
  23876859.840   125473732.05008  23876860.660    97771735.72446
  23643119.320   124245454.59608  23643120.080    96814653.85546
  23103773.240   121411138.28608  23103771.400    94606068.98347
  21829225.020   114713342.63009  21829222.140    89387004.04048
 15 02 16 00 16  0.0000000  0  7G16G18G21G25G27G29G31
  22602393.500   118776385.09009  22602390.580    92553033.03347
  23431177.660   123131743.25708  23431175.860    95946837.95746
  20985170.500   110277822.86708  20985167.060    85930759.95848
  23893990.400   125563753.64808  23893991.260    97841882.37646
  23629869.280   124175824.90808  23629869.900    96760396.99246
  23117527.080   121483415.26008  23117525.200    94662388.67547
  21842909.120   114785253.11109  21842906.280    89443038.15648
 15 02 16 00 16 30.0000000  0  7G16G18G21G25G27G29G31
  22586792.500   118694401.73109  22586789.640    92489149.92047
  23417402.100   123059352.30108  23417400.180    95890429.48346
  20988072.160   110293071.00408  20988068.700    85942641.63148
  23911159.120   125653976.09108  23911160.160    97912185.51746
  23616640.500   124106307.02608  23616641.120    96706227.26146
  23131286.060   121555719.23608  23131284.180    94718729.41247
  21856664.120   114857536.10809  21856661.320    89499362.54748
 15 02 16 00 17  0.0000000  0  7G16G18G21G25G27G29G31
  22571216.080   118612547.26509  22571213.220    92425367.24047
  23403651.340   122987091.84008  23403649.380    95834122.71545
  20991054.180   110308741.75308  20991050.720    85954852.61348
  23928366.000   125744398.76108  23928367.100    97982644.68946
  23603433.040   124036901.18808  23603433.580    96652144.82646
  23145050.140   121628049.99108  23145048.300    94775091.01047
  21870489.580   114930189.34809  21870486.840    89555975.43148
 15 02 16 00 17 30.0000000  0  7G16G18G21G25G27G29G31
  22555664.100   118530820.89009  22555661.180    92361684.36947
  23389925.360   122914961.82708  23389923.360    95777917.58846
  20994116.020   110324831.83408  20994112.560    85967390.34048
  23945610.280   125835017.95308  23945611.400    98053257.00046
  23590246.360   123967604.63008  23590246.900    96598147.54147
  23158818.840   121700404.77908  23158817.000    94831471.34347
  21884384.480   115003207.50409  21884381.780    89612872.67148
 15 02 16 00 18  0.0000000  0  7G16G18G21G25G27G29G31
  22540137.860   118449229.75609  22540134.900    92298106.88347
  23376225.680   122842969.83008  23376223.580    95721820.00045
  20997258.440   110341345.44108  20997255.020    85980258.09048
  23962892.800   125925838.18508  23962893.980    98124025.96146
  23577081.520   123898422.74508  23577082.020    96544239.62847
  23172593.020   121772788.59408  23172591.200    94887874.29947
  21898349.420   115076593.64309  21898346.760    89670056.64948
 15 02 16 00 18 30.0000000  0  7G16G18G21G25G27G29G31
  22524636.760   118367770.67709  22524633.700    92234632.28547
  23362552.020   122771114.69008  23362549.840    95665829.04145
  21000480.200   110358276.16208  21000476.800    85993450.86648
  23980212.500   126016853.56008  23980213.700    98194946.97946
  23563937.460   123829350.53708  23563937.960    96490417.18647
  23186371.700   121845196.03308  23186369.920    94944295.64947
  21912382.900   115150339.97109  21912380.260    89727521.29148
 15 02 16 00 19  0.0000000  0  7G16G18G21G25G27G29G31
  22509161.480   118286447.43709  22509158.380    92171263.53547
  23348905.020   122699399.77308  23348902.920    95609947.35746
  21003781.500   110375624.72308  21003778.080    86006969.22548
  23997569.480   126108064.54108  23997570.700    98266020.41946
  23550814.500   123760389.30308  23550815.040    96436681.20747
  23200155.120   121917628.22308  23200153.320    95000736.28247
  21926484.760   115224445.50609  21926482.060    89785265.83748
 15 02 16 00 19 30.0000000  0  7G16G18G21G25G27G29G31
  22493712.740   118205263.58709  22493709.600    92108003.41747
  23335285.640   122627829.86908  23335283.580    95554178.66346
  21007162.460   110393391.78008  21007159.040    86020813.69948
  24014963.840   126199471.88708  24014964.920    98337246.86746
  23537713.020   123691540.97608  23537713.700    96383033.21947
  23213943.500   121990086.56808  23213941.760    95057197.30747
  21940654.840   115298909.64209  21940652.100    89843289.81348
 15 02 16 00 20  0.0000000  0  7G16G18G21G25G27G29G31
  22478290.260   118124217.71309  22478287.040    92044850.79647
  23321693.800   122556404.58308  23321691.740    95498522.65646
  21010622.120   110411572.40308  21010618.680    86034980.42348
  24032394.700   126291071.21208  24032395.660    98408622.91146
  23524632.320   123622801.94908  23524633.060    96329470.39247
  23227736.180   122062567.31708  23227734.440    95113675.78347
  21954891.980   115373726.13209  21954889.200    89901588.34948
 15 02 16 00 20 30.0000000  0  7G16G18G21G25G27G29G31
  22462894.720   118043313.55909  22462891.440    91981808.61147
  23308130.400   122485128.35308  23308128.220    95442982.79245
  21014160.680   110430167.53308  21014157.180    86049470.13648
  24049862.200   126382863.40208  24049863.060    98480149.24246
  23511572.800   123554174.05508  23511573.540    96275994.16247
  23241533.440   122135072.34008  23241531.740    95170173.17447
  21969196.040   115448894.56109  21969193.260    89960161.11948
 15 02 16 00 21  0.0000000  0  7G16G18G21G25G27G29G31
  22447527.040   117962556.16309  22447523.860    91918880.79047
  23294596.360   122414006.44808  23294594.120    95387563.18746
  21017778.420   110449178.66408  21017774.840    86064284.01348
  24067366.740   126474850.33308  24067367.620    98551827.31145
  23498534.980   123485660.15308  23498535.720    96222606.77047
  23255335.800   122207604.10508  23255334.160    95226691.41047
  21983567.040   115524414.74909  21983564.320    90019007.99048
 15 02 16 00 21 30.0000000  0  7G16G18G21G25G27G29G31
  22432186.440   117881941.32809  22432183.400    91856064.05847
  23281091.040   122343035.62308  23281088.860    95332261.30546
  21021474.000   110468598.82608  21021470.360    86079416.61348
  24084907.060   126567025.09808  24084907.940    98623651.75246
  23485517.680   123417254.26608  23485518.420    96169303.53847
  23269142.100   122280156.40908  23269140.500    95283225.64147
  21998003.440   115600278.71909  21998000.820    90078122.74148
 15 02 16 00 22  0.0000000  0  7G16G18G21G25G27G29G31
  22416873.820   117801473.39309  22416870.840    91793361.79347
  23267615.480   122272221.35808  23267613.320    95277081.42046
  21025247.660   110488429.30708  21025243.980    86094868.94248
  24102483.380   126659389.08008  24102484.160    98695623.63945
  23472521.420   123348958.75108  23472522.160    96116086.29247
  23282952.760   122352731.45508  23282951.100    95339777.58347
  22012505.220   115676486.21909  22012502.680    90137505.17448
 15 02 16 00 22 30.0000000  0  7G16G18G21G25G27G29G31
  22401589.840   117721155.54409  22401586.920    91730776.48747
  23254170.480   122201567.69608  23254168.320    95222026.68145
  21029099.400   110508670.18508  21029095.660    86110641.06748
  24120095.760   126751942.66508  24120096.560    98767743.26245
  23459546.520   123280774.96808  23459547.060    96062956.12747
  23296767.940   122425330.42708  23296766.240    95396348.17647
  22027072.120   115753035.84009  22027069.660    90197154.20648
 15 02 16 00 23  0.0000000  0  7G16G18G21G25G27G29G31
  22386334.460   117640987.70509  22386331.520    91668308.04947
  23240756.040   122131074.74508  23240753.980    95167097.16046
  21033028.520   110529317.96308  21033024.760    86126730.24048
  24137743.540   126844682.41708  24137744.520    98840007.94046
  23446592.400   123212700.42908  23446592.800    96009911.06747
  23310587.060   122497950.25908  23310585.360    95452935.02347
  22041703.220   115829922.50009  22041700.700    90257065.85748
 15 02 16 00 23 30.0000000  0  7G16G18G21G25G27G29G31
  22371108.420   117560974.10109  22371105.400    91605959.80147
  23227373.220   122060747.88708  23227371.080    95112297.05546
  21037035.340   110550373.80508  21037031.540    86143137.39848
  24155427.000   126937609.56308  24155428.020    98912418.66346
  23433659.440   123144737.35708  23433659.760    95956952.87647
  23324410.560   122570593.08108  23324408.880    95509539.79147
  22056398.380   115907145.71909  22056395.820    90317239.76748
 15 02 16 00 24  0.0000000  0  7G16G18G21G25G27G29G31
  22355911.960   117481115.88709  22355908.880    91543732.62947
  23214022.280   121990588.54508  23214020.140    95057627.50246
  21041119.260   110571835.17008  21041115.500    86159860.53548
  24173145.760   127030722.05208  24173146.800    98984973.79046
  23420747.500   123076884.75208  23420747.800    95904080.73947
  23338238.280   122643258.07208  23338236.580    95566161.82347
  22071156.920   115984701.90309  22071154.320    90377673.11848
 15 02 16 00 24 30.0000000  0  7G16G18G21G25G27G29G31
  22340744.780   117401411.94109  22340741.660    91481625.66347
  23200703.220   121920596.70108  23200701.080    95003088.43846
  21045279.580   110593698.08308  21045275.880    86176896.56948
  24190899.080   127124015.87908  24190900.140    99057670.21946
  23407855.980   123009139.52508  23407856.280    95851292.28747
  23352069.560   122715941.87908  23352067.820    95622798.51547
  22085977.800   116062585.69009  22085975.120    90438361.75148
 15 02 16 00 25  0.0000000  0  7G16G18G21G25G27G29G31
  22325608.320   117321869.29409  22325605.180    91419644.39347
  23187417.560   121850780.12608  23187415.320    94948685.95946
  21049517.060   110615966.20908  21049513.340    86194248.36048
  24208687.680   127217495.16408  24208688.820    99130511.15746
  23394985.900   122941506.85108  23394986.200    95798591.55147
  23365905.340   122788649.16708  23365903.560    95679453.50847
  22100861.460   116140799.46509  22100858.700    90499307.51948
 15 02 16 00 25 30.0000000  0  7G16G18G21G25G27G29G31
  22310502.240   117242486.34409  22310499.080    91357787.56047
  23174165.120   121781137.90209  23174162.760    94894419.32646
  21053830.800   110638634.96008  21053827.040    86211912.32448
  24226510.700   127311155.32808  24226511.880    99203493.02746
  23382136.520   122873983.12108  23382136.860    95745975.70147
  23379744.900   122861376.28808  23379743.100    95736123.95547
  22115806.700   116219336.99009  22115803.900    90560505.55748
 15 02 16 00 26  0.0000000  0  7G16G18G21G25G27G29G31
  22295427.200   117163266.72409  22295424.060    91296058.00447
  23160946.440   121711673.03408  23160943.980    94840290.91546
  21058220.700   110661704.00408  21058216.920    86229888.20748
  24244368.120   127404996.40408  24244369.280    99276615.88446
  23369308.080   122806569.43208  23369308.420    95693445.59347
  23393588.400   122934124.19608  23393586.560    95792810.62047
  22130813.280   116298196.92109  22130810.480    90621954.83048
 15 02 16 00 26 30.0000000  0  7G16G18G21G25G27G29G31
  22280383.420   117084211.43109  22280380.340    91234456.49247
  23147762.220   121642389.44809  23147759.740    94786303.74446
  21062686.460   110685171.58109  21062682.660    86248174.63148
  24262259.660   127499016.79208  24262260.900    99349878.44646
  23356500.520   122739265.20308  23356500.880    95641000.78447
  23407435.760   123006892.30908  23407433.900    95849513.01947
  22145880.600   116377375.93609  22145877.780    90683652.73348
 15 02 16 00 27  0.0000000  0  7G16G18G21G25G27G29G31
  22265371.380   117005323.07609  22265368.300    91172985.05847
  23134612.900   121573289.26009  23134610.380    94732459.49146
  21067227.900   110709036.72309  21067224.040    86266770.84548
  24280185.140   127593215.67308  24280186.400    99423280.10446
  23343713.840   122672070.65108  23343714.220    95588641.42847
  23421286.940   123079680.48308  23421285.020    95906231.03847
  22161008.120   116456871.45409  22161005.280    90745597.25948
 15 02 16 00 27 30.0000000  0  7G16G18G21G25G27G29G31
  22250391.680   116926604.54109  22250388.640    91111645.95047
  23121499.140   121504376.05209  23121496.620    94678760.92446
  21071844.840   110733298.83609  21071840.960    86285676.38348
  24298144.520   127687592.85708  24298145.800    99496820.67545
  23330948.140   122604986.57608  23330948.520    95536368.14947
  23435141.980   123152489.33908  23435140.120    95962965.16646
  22176195.540   116536681.74209  22176192.720    90807787.05248
 15 02 16 00 28  0.0000000  0  7G16G18G21G25G27G29G31
  22235444.460   116848056.81909  22235441.480    91050439.95847
  23108421.300   121435651.56009  23108418.780    94625209.42546
  21076536.880   110757955.70909  21076533.020    86304889.54348
  24316137.440   127782146.19208  24316138.740    99570498.53946
  23318203.240   122538011.97408  23318203.620    95484180.19547
  23449000.800   123225317.91108  23448998.960    96019714.68047
  22191442.140   116616803.20009  22191439.340    90870219.33248
 15 02 16 00 28 30.0000000  0  7G16G18G21G25G27G29G31
  22220530.180   116769682.05609  22220527.220    90989368.73247
  23095379.860   121367118.30909  23095377.220    94571806.93346
  21081303.680   110783005.52209  21081299.840    86324408.87548
  24334163.660   127876874.43908  24334164.920    99644312.67745
  23305479.100   122471146.59608  23305479.480    95432077.34547
  23462863.260   123298165.60908  23462861.400    96076479.08147
  22206747.360   116697232.96309  22206744.660    90932891.83848
 15 02 16 00 29  0.0000000  0  7G16G18G21G25G27G29G31
  22205648.600   116691478.75509  22205645.580    90928431.10347
  23082374.700   121298776.00009  23082372.000    94518553.21646
  21086144.520   110808444.46909  21086140.700    86344231.43648
  24352222.440   127971773.56408  24352223.580    99718259.97845
  23292775.220   122404387.48908  23292775.600    95380057.30347
  23476728.760   123371029.28208  23476726.940    96133255.93146
  22222110.100   116777964.93609  22222107.480    90995799.83548
 15 02 16 00 29 30.0000000  0  8G16G18G21G22G25G27G29G31
  22190800.820   116613452.94709  22190797.720    90867631.78547
  23069407.040   121230630.87808  23069404.400    94465453.16846
  21091059.760   110834274.67309  21091056.020    86364358.87048
  24544615.940   128982824.81507  24544617.580   100506097.37944
  24370314.200   128066845.92408  24370315.260    99792342.28145
  23280092.260   122337738.09508  23280092.600    95328122.75147
  23490598.020   123443912.61208  23490596.200    96190048.10746
  22237530.600   116859000.26509  22237528.040    91058944.21348
 15 02 16 00 30  0.0000000  0  8G16G18G21G22G25G27G29G31
  22175986.180   116535601.13609  22175983.060    90806968.04847
  23056476.280   121162679.90409  23056473.780    94412504.38646
  21096048.160   110860489.20709  21096044.520    86384785.77648
  24527298.800   128891824.34308  24527300.580   100435188.75244
  24388437.680   128162084.95508  24388438.760    99866554.43545
  23267429.160   122271192.92408  23267429.460    95276269.40647
  23504469.980   123516809.98008  23504468.080    96246851.21446
  22253007.300   116940330.83609  22253004.760    91122318.64548
 15 02 16 00 30 30.0000000  0  8G16G18G21G22G25G27G29G31
  22161207.360   116457937.50809  22161204.180    90746450.95247
  23043585.400   121094938.36408  23043583.000    94359718.81346
  21101111.700   110887098.73408  21101108.160    86405520.48048
  24509966.320   128800744.04508  24509967.980   100364217.89445
  24406594.980   128257501.61908  24406596.020    99940905.01745
  23254788.080   122204763.98908  23254788.440    95224506.64947
  23518346.860   123589732.96208  23518344.840    96303674.27846
  22268542.000   117021966.08309  22268539.480    91185930.48548
 15 02 16 00 31  0.0000000  0  8G16G18G21G22G25G27G29G31
  22146463.420   116380457.21309  22146460.160    90686076.70847
  23030733.420   121027401.37608  23030731.160    94307092.62946
  21106248.840   110914094.87008  21106245.360    86426556.43548
  24492617.800   128709579.56908  24492619.400   100293181.39145
  24424784.480   128353087.66108  24424785.480   100015387.57145
  23242167.820   122138444.15208  23242168.100    95172828.89047
  23532227.200   123662674.48108  23532225.180    96360511.78847
  22284132.780   117103895.88509  22284130.240    91249771.85648
 15 02 16 00 31 30.0000000  0  8G16G18G21G22G25G27G29G31
  22131754.200   116303159.90309  22131750.960    90625845.04647
  23017920.460   120960069.22108  23017918.260    94254626.05446
  21111458.720   110941473.02708  21111455.240    86447890.06148
  24475253.240   128618330.86208  24475254.780   100222079.24445
  24443005.480   128448839.48108  24443006.580   100089999.29745
  23229567.840   122072230.93608  23229568.040    95121234.20347
  23546110.480   123735631.49408  23546108.560    96417361.36846
  22299778.620   117186115.16109  22299776.080    91313838.78048
 15 02 16 00 32  0.0000000  0  8G16G18G21G22G25G27G29G31
  22117080.200   116226047.68309  22117076.940    90565757.61247
  23005147.180   120892945.31808  23005144.860    94202321.75146
  21116741.240   110969232.94908  21116737.760    86469521.17648
  24457873.040   128527000.19008  24457874.520   100150913.21545
  24461257.860   128544756.28808  24461259.040   100164739.58845
  23216988.240   122006124.63108  23216988.320    95069722.83447
  23559996.900   123808604.63208  23559995.000    96474223.52747
  22315479.020   117268621.16509  22315476.480    91378129.13548
 15 02 16 00 32 30.0000000  0  8G16G18G21G22G25G27G29G31
  22102442.520   116149126.48409  22102439.320    90505819.03447
  22992414.680   120826035.65308  22992412.340    94150184.39346
  21122096.920   110997377.31108  21122093.440    86491451.85148
  24440478.560   128435594.62108  24440479.940   100079688.80745
  24479542.100   128640840.57608  24479543.360   100239610.38245
  23204429.620   121940128.84308  23204429.720    95018297.56747
  23573887.120   123881597.77608  23573885.260    96531101.25546
  22331234.240   117351415.41509  22331231.740    91442644.10348
 15 02 16 00 33  0.0000000  0  8G16G18G21G22G25G27G29G31
  22087841.460   116072397.55909  22087838.280    90446030.27647
  22979723.260   120759341.88008  22979720.940    94098215.25246
  21127525.120   111025902.63909  21127521.620    86513679.38648
  24423070.020   128344115.39708  24423071.280   100008406.97745
  24497857.780   128737090.13708  24497859.180   100314609.94645
  23191891.840   121874242.50908  23191891.980    94966957.58547
  23587780.820   123954609.46808  23587779.020    96587993.44147
  22347043.580   117434493.85609  22347041.080    91507380.51148
 15 02 16 00 33 30.0000000  0  8G16G18G21G22G25G27G29G31
  22073276.860   115995860.17409  22073273.680    90386390.76747
  22967072.980   120692864.17008  22967070.660    94046414.47246
  21133025.080   111054805.13208  21133021.580    86536200.81348
  24405647.360   128252562.07708  24405648.580    99937067.39545
  24516204.220   128833501.05408  24516205.660   100389735.23345
  23179374.360   121808462.79708  23179374.500    94915700.68947
  23601677.480   124027636.66008  23601675.680    96644897.69747
  22362905.940   117517850.85509  22362903.400    91572333.97848
 15 02 16 00 34  0.0000000  0  8G16G18G21G22G25G27G29G31
  22058749.340   115919517.75209  22058746.140    90326903.18047
  22954464.500   120626606.16608  22954462.140    93994784.89346
  21138596.840   111084084.92608  21138593.340    86559016.23948
  24388211.400   128160938.50308  24388212.380    99865673.03245
  24534581.400   128930073.50008  24534582.840   100464986.38645
  23166877.460   121742791.07608  23166877.580    94864527.93147
  23615577.320   124100680.58108  23615575.480    96701814.99947
  22378821.020   117601484.97509  22378818.500    91637503.37748
 15 02 16 00 34 30.0000000  0  8G16G18G21G22G25G27G29G31
  22044259.460   115843373.10509  22044256.260    90267569.70148
  22941898.460   120560571.14808  22941896.060    93943329.07846
  21144240.260   111113741.12508  21144236.760    86582124.97148
  24370762.800   128069248.06608  24370763.740    99794226.55346
  24552989.200   129026806.88707  24552990.780   100540362.97346
  23154401.200   121677227.92908  23154401.340    94813439.79247
  23629480.420   124173741.67808  23629478.580    96758745.69847
  22394788.420   117685394.24209  22394785.940    91702887.18148
 15 02 16 00 35  0.0000000  0  8G16G18G21G22G25G27G29G31
  22029807.420   115767427.35909  22029804.240    90208391.20647
  22929375.220   120494760.97008  22929372.700    93892048.44446
  21149954.820   111143771.13309  21149951.280    86605524.97348
  24353301.700   127977491.83108  24353302.560    99722728.76945
  24571427.240   129123698.94208  24571428.800   100615863.17844
  23141945.360   121611772.14208  23141945.540    94762435.30147
  23643386.580   124246818.74208  23643384.660    96815688.83046
  22410807.400   117769574.58409  22410805.000    91768482.20748
 15 02 16 00 35 30.0000000  0  8G16G18G21G22G25G27G29G31
  22015393.780   115691683.29809  22015390.680    90149369.88047
  22916895.380   120429178.91608  22916892.720    93840945.58246
  21155740.400   111174174.26409  21155736.820    86629215.72748
  24335828.860   127885673.33708  24335829.520    99651182.46045
  24589895.400   129220749.24508  24589897.000   100691486.68844
  23129510.120   121546424.54708  23129510.320    94711515.12947
  23657295.960   124319912.71008  23657293.980    96872645.14646
  22426877.620   117854024.06809  22426875.280    91834286.96148
 15 02 16 00 36  0.0000000  0  8G16G18G21G22G25G27G29G31
  22001018.980   115616143.19609  22001015.920    90090507.47947
  22904459.460   120363827.80208  22904456.780    93790022.66546
  21161596.760   111204949.38109  21161593.160    86653196.34248
  24318344.740   127793795.57908  24318345.220    99579589.95645
  24608393.540   129317956.88008  24608395.100   100767232.81344
  23117095.460   121481185.36808  23117095.740    94660679.43847
  23671208.540   124393023.71608  23671206.520    96929614.74546
  22442998.560   117938740.05409  22442996.180    91900299.37648
 15 02 16 00 36 30.0000000  0  8G16G18G21G22G25G27G29G31
  21986682.820   115540806.41109  21986679.840    90031803.49947
  22892067.460   120298707.61308  22892064.800    93739279.68446
  21167523.000   111236091.65409  21167519.380    86677463.04648
  24300849.220   127701857.96108  24300849.440    99507950.75445
  24626920.780   129415317.64008  24626922.240   100843098.22744
  23104700.840   121416051.52608  23104701.100    94609925.80947
  23685123.680   124466148.62308  23685121.720    96986595.15946
  22459169.180   118023716.99909  22459166.800    91966515.13348
 15 02 16 00 37  0.0000000  0  8G16G18G21G22G25G27G29G31
  21972387.160   115465682.36509  21972384.180    89973265.30247
  22879721.220   120233827.86708  22879718.580    93688724.07446
  21173520.280   111267607.15009  21173516.600    86702020.57748
  24283344.100   127609870.15208  24283344.180    99436272.43945
  24645478.320   129512837.58707  24645479.760   100919087.70345
  23092327.640   121351030.33108  23092327.900    94559259.97447
  23699042.760   124539294.46808  23699040.900    97043591.88846
  22475390.280   118108959.06309  22475387.800    92032937.48048
 15 02 16 00 37 30.0000000  0  8G16G18G21G22G25G27G29G31
  21958130.540   115390763.46409  21958127.540    89914886.95448
  22867419.420   120169181.63808  22867416.800    93638350.42546
  21179586.420   111299484.59209  21179582.720    86726860.14448
  24265828.120   127517825.07408  24265828.060    99364549.48745
  24664064.020   129610505.80307  24664065.540   100995192.69145
  23079974.060   121286112.02908  23079974.340    94508674.31147
  23712964.060   124612451.73208  23712962.320    97100597.51446
  22491659.460   118194453.93709  22491656.940    92099556.82548
 15 02 16 00 38  0.0000000  0  8G16G18G21G22G25G27G29G31
  21943914.280   115316056.61609  21943911.260    89856673.84248
  22855163.420   120104776.09408  22855160.800    93588164.31846
  21185722.100   111331727.42109  21185718.340    86751984.43648
  24248302.660   127425730.21708  24248302.480    99292787.73245
  24682678.600   129708325.64807  24682680.180   101071415.83044
  23067640.980   121221301.18608  23067641.260    94458172.38847
  23726888.400   124685624.77508  23726886.740    97157615.42246
  22507977.120   118280203.55309  22507974.560    92166374.66148
 15 02 16 00 38 30.0000000  0  8G16G18G21G22G25G27G29G31
  21929739.040   115241565.44209  21929736.040    89798628.79447
  22842953.960   120040615.30808  22842951.320    93538168.93746
  21191927.200   111364335.35309  21191923.400    86777393.21348
  24230768.520   127333589.52108  24230768.140    99220990.24146
  24701322.000   129806297.36807  24701323.620   101147757.31245
  23055328.640   121156599.21808  23055328.920    94407755.30147
  23740816.060   124758815.04808  23740814.340    97214646.77346
  22524342.940   118366206.29509  22524340.360    92233389.74348
 15 02 16 00 39  0.0000000  0  8G16G18G21G22G25G27G29G31
  21915604.640   115167288.79009  21915601.620    89740750.89547
  22830790.960   119976698.74009  22830788.320    93488363.85046
  21198200.760   111397303.04409  21198196.940    86803082.32748
  24213225.460   127241401.98908  24213224.980    99149156.25346
  24719993.460   129904416.30508  24719995.180   101224213.52045
  23043036.300   121092002.74108  23043036.560    94357420.41647
  23754746.340   124832019.03008  23754744.660    97271688.79246
  22540755.680   118452455.71509  22540753.120    92300597.04148
 15 02 16 00 39 30.0000000  0  8G16G18G21G22G25G27G29G31
  21901512.380   115093233.43509  21901509.360    89683045.42848
  22818675.860   119913033.69909  22818673.240    93438754.73546
  21204543.540   111430634.73209  21204539.760    86829055.07248
  24195674.900   127149174.98908  24195674.340    99077291.49146
  24738693.600   130002686.09107  24738695.540   101300787.22645
  23030764.920   121027516.57908  23030765.240    94307171.49248
  23768680.220   124905241.58208  23768678.540    97328745.27546
  22557215.860   118538954.34509  22557213.340    92367998.52148
 15 02 16 00 40  0.0000000  0  8G16G18G21G22G25G27G29G31
  21887461.140   115019393.82009  21887458.160    89625508.08448
  22806607.620   119849614.74109  22806605.020    93389337.39646
  21210953.660   111464320.47209  21210949.920    86855303.69948
  24178115.920   127056903.48208  24178115.220    99005392.03346
  24757420.740   130101097.64807  24757422.740   101377471.43545
  23018513.000   120963132.89908  23018513.360    94257002.42547
  23782616.120   124978474.76608  23782614.400    97385810.05547
  22573721.380   118625691.20409  22573718.860    92435585.64148
 15 02 16 00 40 30.0000000  0  8G16G18G21G22G25G27G29G31
  21873452.760   114945779.56209  21873449.820    89568146.34148
  22794588.120   119786451.92909  22794585.540    93340119.64946
  21217432.320   111498366.44809  21217428.640    86881833.04048
  24160550.340   126964597.36508  24160549.520    98933465.60446
  24776176.080   130199657.04107  24776178.040   101454270.87446
  23006282.000   120898858.98308  23006282.420    94206918.88547
  23796555.400   125051725.68608  23796553.700    97442888.65946
  22590273.100   118712670.94609  22590270.620    92503362.02048
 15 02 16 00 41  0.0000000  0  8G16G18G21G22G25G27G29G31
  21859487.240   114872390.05909  21859484.260    89510959.71848
  22782617.380   119723545.29409  22782614.860    93291101.51346
  21223978.700   111532768.20709  21223975.060    86908639.61048
  24142978.200   126872256.47108  24142977.220    98861512.03546
  24794958.860   130298360.30507  24794960.860   101531182.33645
  22994071.420   120834692.10708  22994071.880    94156918.75147
  23810497.480   125124991.64508  23810495.840    97499978.97846
  22606870.000   118799887.98109  22606867.560    92571323.30448
 15 02 16 00 41 30.0000000  0  8G16G18G21G22G25G27G29G31
  21845564.680   114799226.29509  21845561.600    89453949.00048
  22770695.620   119660895.91809  22770693.060    93242283.84147
  21230592.220   111567522.61009  21230588.580    86935720.96348
  24125399.740   126779882.35908  24125398.600    98789532.58446
  24813768.480   130397204.83407  24813770.380   101608203.90445
  22981880.960   120770630.95208  22981881.480    94107001.00448
  23824442.260   125198271.80108  23824440.680    97557080.35347
  22623511.260   118887338.18509  22623508.880    92639466.27148
 15 02 16 00 42  0.0000000  0  7G16G18G21G22G27G29G31
  21831686.560   114726296.30009  21831683.460    89397120.43948
  22758824.460   119598512.44809  22758821.840    93193673.37246
  21237273.720   111602634.10309  21237270.040    86963080.57448
  24107816.540   126687483.55108  24107815.260    98717533.86946
  22969711.780   120706681.46408  22969712.260    94057170.26748
  23838390.780   125271571.67108  23838389.220    97614197.09247
  22640197.480   118975024.56409  22640195.080    92707793.27448
 15 02 16 00 42 30.0000000  0  7G16G18G21G22G27G29G31
  21817851.620   114653593.05809  21817848.500    89340468.56648
  22747002.540   119536387.93109  22746999.920    93145264.68846
  21244021.040   111638091.36009  21244017.320    86990709.60948
  24090227.320   126595052.87108  24090225.940    98645510.30746
  22957562.000   120642833.94908  22957562.400    94007418.98647
  23852341.100   125344881.59708  23852339.740    97671321.66046
  22656926.340   119062934.81209  22656923.920    92776294.72548
 15 02 16 00 43  0.0000000  0  7G16G18G21G22G27G29G31
  21804060.940   114581122.16709  21804057.720    89283997.74048
  22735231.060   119474528.56809  22735228.480    93097062.60346
  21250834.640   111673897.14808  21250830.940    87018610.21748
  24072633.180   126502596.66508  24072631.740    98573466.83646
  22945432.380   120579092.29008  22945432.680    93957750.17747
  23866294.180   125418205.70308  23866292.920    97728457.27646
  22673697.940   119151069.86509  22673695.520    92844971.33947
 15 02 16 00 43 30.0000000  0  7G16G18G21G22G27G29G31
  21790315.140   114508887.12209  21790311.880    89227710.70048
  22723510.720   119412937.86009  22723508.140    93049069.86846
  21257714.460   111710051.30108  21257710.840    87046782.28248
  24055035.000   126410119.14808  24055033.560    98501406.75046
  22933323.120   120515457.65908  22933323.360    93908164.77147
  23880250.160   125491544.91008  23880248.920    97785604.67546
  22690511.980   119239428.08409  22690509.520    92913821.85047
 15 02 16 00 44  0.0000000  0  7G16G18G21G22G27G29G31
  21776614.340   114436888.75309  21776611.060    89171608.08448
  22711841.800   119351617.47109  22711839.280    93001287.77446
  21264659.840   111746550.35208  21264656.340    87075223.10348
  24037432.920   126317621.12208  24037431.440    98429330.68445
  22921233.960   120451928.64008  22921234.160    93858661.66747
  23894208.780   125564897.69008  23894207.560    97842762.63046
  22707367.620   119328005.08909  22707365.240    92982842.84347
 15 02 16 00 44 30.0000000  0  7G16G18G21G22G27G29G31
  21762959.200   114365130.43709  21762955.900    89115692.51748
  22700224.920   119290570.65409  22700222.360    92953718.84646
  21271670.780   111783393.73908  21271667.380    87103932.24248
  24019827.720   126225106.38308  24019826.160    98357241.57546
  22909165.020   120388506.14508  22909165.260    93809241.56447
  23908170.200   125638265.10608  23908168.960    97899931.97846
  22724264.580   119416799.00009  22724262.200    93052032.86347
 15 02 16 00 45  0.0000000  0  7G16G18G21G22G27G29G31
  21749350.340   114293615.37209  21749347.000    89059966.49248
  22688660.920   119229801.39009  22688658.260    92906366.18746
  21278747.220   111820581.32408  21278743.920    87132909.56448
  24002220.100   126132579.02908  24002218.460    98285142.62346
  22897116.620   120325191.56208  22897116.860    93759905.54047
  23922134.560   125711648.02708  23922133.360    97957113.41746
  22741202.500   119505808.31509  22741200.180    93121390.70747
 15 02 16 00 45 30.0000000  0  7G16G18G21G22G27G29G31
  21735787.880   114222344.30809  21735784.520    89004430.61248
  22677149.800   119169310.07209  22677147.120    92859230.12246
  21285888.360   111858108.74008  21285885.160    87162151.70948
  23984610.240   126040039.88308  23984608.560    98213034.47846
  22885088.380   120261983.00708  22885088.620    93710652.14747
  23936101.680   125785045.35908  23936100.440    98014306.09246
  22758180.540   119595028.42809  22758178.280    93190912.82847
 15 02 16 00 46  0.0000000  0  7G16G18G21G22G27G29G31
  21722271.840   114151317.33309  21722268.500    88949084.92348
  22665691.680   119109097.29509  22665689.020    92812311.09747
  21293093.800   111895973.55408  21293090.560    87191656.76548
  23966998.240   125947489.20508  23966996.500    98140917.35746
  22873080.000   120198878.51308  22873080.260    93661479.83847
  23950071.220   125858455.06508  23950069.840    98071508.40946
  22775197.760   119684454.27809  22775195.540    93260595.26048
 15 02 16 00 46 30.0000000  0  7G16G18G21G22G27G29G31
  21708803.320   114080540.15009  21708800.040    88893933.87648
  22654287.800   119049169.41509  22654285.140    92765614.07047
  21300363.820   111934177.58308  21300360.520    87221426.14148
  23949385.280   125854933.43708  23949383.400    98068796.24246
  22861092.060   120135881.42608  22861092.320    93612391.23448
  23964043.640   125931880.31008  23964042.240    98128722.85346
  22792254.240   119774086.39109  22792252.020    93330438.40747
 15 02 16 00 47  0.0000000  0  7G16G18G21G22G27G29G31
  21695382.420   114010013.15209  21695379.180    88838977.78048
  22642938.220   118989526.89309  22642935.520    92719139.39246
  21307697.640   111972716.75008  21307694.260    87251456.65648
  23931771.620   125762373.69108  23931769.640    97996672.02446
  22849124.240   120072990.06608  22849124.500    93563385.00448
  23978018.640   126005319.15208  23978017.160    98185947.89246
  22809349.200   119863920.67409  22809346.960    93400439.09447
 15 02 16 00 47 30.0000000  0  7G16G18G21G22G27G29G31
  21682009.960   113939740.47909  21682006.760    88784219.86148
  22631643.680   118930173.73209  22631640.940    92672890.19847
  21315095.240   112011591.10009  21315091.820    87281748.36848
  23914157.960   125669814.04208  23914155.820    97924547.87346
  22837176.840   120010206.11308  22837177.080    93514462.47447
  23991996.560   126078773.35408  23991995.000    98243184.91946
  22826482.320   119953955.56209  22826480.080    93470596.09447
 15 02 16 00 48  0.0000000  0  7G16G18G21G22G27G29G31
  21668685.660   113869720.70009  21668682.440    88729659.00048
  22620404.020   118871108.95909  22620401.260    92626865.72147
  21322555.800   112050796.31409  21322552.360    87312297.88748
  23896544.140   125577253.83908  23896541.960    97852423.29146
  22825249.240   119947526.07009  22825249.440    93465620.90947
  24005976.800   126152239.72808  24005975.080    98300431.42346
  22843652.340   120044184.50009  22843650.140    93540904.30647
 15 02 16 00 48 30.0000000  0  7G16G18G21G22G27G29G31
  21655410.740   113799960.39309  21655407.460    88675300.32448
  22609220.540   118812339.32309  22609217.780    92581071.21547
  21330079.800   112090334.65709  21330076.260    87343106.98148
  23878931.480   125484699.83708  23878929.260    97780303.52346
  22813342.240   119884954.22608  22813342.360    93416863.64847
  24019960.080   126225722.25208  24019958.340    98357690.51046
  22860859.600   120134609.15309  22860857.420    93611365.01847
 15 02 16 00 49  0.0000000  0  7G16G18G21G22G27G29G31
  21642184.980   113730458.26609  21642181.640    88621142.82048
  22598093.040   118753864.07609  22598090.260    92535506.10247
  21337666.240   112130200.89309  21337662.560    87374171.57748
  23861319.840   125392151.25308  23861317.740    97708187.96446
  22801455.120   119822487.03909  22801455.160    93368187.93447
  24033945.900   126299217.79908  24033944.140    98414959.73946
  22878102.780   120225222.79409  22878100.700    93681972.98047
 15 02 16 00 49 30.0000000  0  7G16G18G21G22G27G29G31
  21629009.000   113661217.83209  21629005.620    88567189.24748
  22587022.220   118695686.92109  22587019.500    92490173.27046
  21345314.960   112170394.30209  21345311.140    87405491.12248
  23843710.020   125299612.11208  23843707.940    97636079.77846
  22789588.180   119760125.84108  22789588.180    93319594.81748
  24047934.360   126372727.38208  24047932.640    98472239.89846
  22895381.720   120316024.02909  22895379.640    93752727.12847
 15 02 16 00 50  0.0000000  0  7G16G18G21G22G27G29G31
  21615883.060   113592240.53309  21615879.680    88513440.71148
  22576008.380   118637809.30309  22576005.740    92445073.86047
  21353025.540   112210913.20109  21353021.660    87437064.29848
  23826102.460   125207084.52208  23826100.300    97563980.57446
  22777741.260   119697869.98209  22777741.260    93271083.79147
  24061925.360   126446250.42008  24061923.680    98529530.54546
  22912695.680   120407009.30909  22912693.580    93823624.69547
 15 02 16 00 50 30.0000000  0  7G16G18G21G22G27G29G31
  21602808.120   113523531.33609  21602804.780    88459901.07748
  22565052.540   118580236.11409  22565049.920    92400211.64847
  21360798.100   112251758.12909  21360794.260    87468891.50748
  23808497.980   125114573.13808  23808495.700    97491893.98446
  22765914.880   119635721.89109  22765914.820    93222656.71848
  24075919.220   126519788.66108  24075917.680    98586833.01346
  22930044.600   120498178.25909  22930042.480    93894665.36447
 15 02 16 00 51  0.0000000  0  7G16G18G21G22G27G29G31
  21589783.760   113455087.90409  21589780.460    88406568.54348
  22554154.380   118522965.79709  22554151.740    92355585.44547
  21368631.440   112292922.74509  21368627.640    87500967.83248
  23790896.380   125022076.75208  23790893.920    97419819.08746
  22754108.140   119573677.05108  22754108.060    93174310.12048
  24089915.420   126593339.19608  24089914.000    98644145.07847
  22947427.100   120589523.44608  22947425.000    93965843.37047
 15 02 16 00 51 30.0000000  0  7G16G18G21G22G27G29G31
  21576811.160   113386916.67809  21576807.920    88353448.11748
  22543315.020   118466004.55809  22543312.380    92311200.08647
  21376526.180   112334410.07909  21376522.400    87533295.62248
  23773298.900   124929602.04808  23773296.340    97347761.07146
  22742321.860   119511739.75809  22742321.780    93126047.31047
  24103914.620   126666905.79408  24103913.320    98701469.64846
  22964843.360   120681046.13108  22964841.220    94037159.68347
 15 02 16 00 52  0.0000000  0  7G16G18G21G22G27G29G31
  21563890.300   113319017.25309  21563887.120    88300539.49348
  22532534.480   118409352.39309  22532531.720    92267055.56147
  21384481.540   112376215.95609  21384477.780    87565871.62848
  23755705.600   124837149.40308  23755702.880    97275720.22646
  22730555.580   119449907.60708  22730555.440    93077866.43648
  24117916.340   126740485.97308  24117915.300    98758804.79747
  22982292.360   120772741.18008  22982290.240    94108610.30047
 15 02 16 00 52 30.0000000  0  7G16G18G21G22G27G29G31
  21551022.020   113251394.10909  21551018.820    88247846.14248
  22521813.540   118353013.51509  22521810.720    92223155.15347
  21392497.460   112418340.15509  21392493.780    87598695.67548
  23738117.320   124744723.10008  23738114.540    97203699.90946
  22718809.600   119388182.29709  22718809.420    93029768.80848
  24131920.920   126814081.16308  24131920.120    98816151.63346
  22999773.920   120864607.14008  22999771.780    94180194.09847
 15 02 16 00 53  0.0000000  0  7G16G18G21G22G27G29G31
  21538206.160   113184046.09709  21538202.920    88195367.17848
  22511152.040   118296986.92309  22511149.220    92179498.08847
  21400572.900   112460777.19909  21400569.300    87631763.50448
  23720533.960   124652322.38208  23720531.080    97131699.53046
  22707083.300   119326560.18209  22707083.060    92981751.59747
  24145927.800   126887687.84008  24145926.980    98873507.42246
  23017286.780   120956637.58008  23017284.640    94251906.06647
 15 02 16 00 53 30.0000000  0  7G16G18G21G22G27G29G31
  21525443.440   113116977.47709  21525440.220    88143105.92448
  22500550.860   118241277.19609  22500548.000    92136087.93247
  21408708.040   112503528.06608  21408704.540    87665075.86348
  23702956.420   124559952.44108  23702953.460    97059723.12446
  22695377.140   119265044.13508  22695376.920    92933817.03548
  24159937.500   126961308.91908  24159936.620    98930874.44346
  23034830.920   121048832.55308  23034828.840    94323746.23147
 15 02 16 00 54  0.0000000  0  7G16G18G21G22G27G29G31
  21512734.380   113050190.70109  21512731.120    88091064.28248
  22490010.440   118185886.88109  22490007.540    92092926.66247
  21416902.620   112546591.46909  21416899.260    87698631.75548
