     2.11           OBSERVATION DATA    G                   RINEX VERSION / TYPE
SPIDER V4,0,0,3554                      2015 03 13 01:20    PGM / RUN BY / DATE 
ADJF                                                        MARKER NAME         
ADJF                                                        MARKER NUMBER       
                                                            OBSERVER / AGENCY   
496631              LEICA GRX1200+GNSS  8.20/4.007          REC # / TYPE / VERS 
103293              LEIAT504                                ANT # / TYPE        
  5273000.2084   285396.0090  3566759.2257                  APPROX POSITION XYZ 
        0.0480        0.0000        0.0000                  ANTENNA: DELTA H/E/N
     1     1                                                WAVELENGTH FACT L1/2
     4    C1    L1    P2    L2                              # / TYPES OF OBSERV 
    30.000                                                  INTERVAL            
  2015    02    16    00    00    0.0000000     GPS         TIME OF FIRST OBS   
  2015    02    16    23    59   30.0000000     GPS         TIME OF LAST OBS    
    16                                                      LEAP SECONDS        
    30                                                      # OF SATELLITES     
   G 1   835   834   834   834                              PRN / # OF OBS      
   G 2   932   932   931   931                              PRN / # OF OBS      
   G 3   853   852   852   852                              PRN / # OF OBS      
   G 4   851   851   851   851                              PRN / # OF OBS      
   G 5   668   668   668   668                              PRN / # OF OBS      
   G 6   760   759   759   759                              PRN / # OF OBS      
   G 7   656   656   656   656                              PRN / # OF OBS      
   G 9   799   799   799   799                              PRN / # OF OBS      
   G10   781   781   780   780                              PRN / # OF OBS      
   G11   798   798   798   798                              PRN / # OF OBS      
   G12   827   827   827   827                              PRN / # OF OBS      
   G13   822   822   822   822                              PRN / # OF OBS      
   G14   938   937   937   937                              PRN / # OF OBS      
   G15   726   726   726   726                              PRN / # OF OBS      
   G16   688   688   687   687                              PRN / # OF OBS      
   G17   935   935   934   934                              PRN / # OF OBS      
   G18   931   930   930   930                              PRN / # OF OBS      
   G19   778   778   778   778                              PRN / # OF OBS      
   G20   820   820   820   820                              PRN / # OF OBS      
   G21   721   709   708   704                              PRN / # OF OBS      
   G22   725   724   724   724                              PRN / # OF OBS      
   G23   741   740   740   740                              PRN / # OF OBS      
   G24   845   842   842   841                              PRN / # OF OBS      
   G25   873   872   872   872                              PRN / # OF OBS      
   G27   831   830   830   830                              PRN / # OF OBS      
   G28   898   897   897   897                              PRN / # OF OBS      
   G29   768   768   768   768                              PRN / # OF OBS      
   G30   703   703   703   703                              PRN / # OF OBS      
   G31   811   811   811   811                              PRN / # OF OBS      
   G32   756   756   756   756                              PRN / # OF OBS      
BIT 2 OF LLI FLAGS DATA COLLECTED UNDER A/S CONDITION       COMMENT             
SNR is mapped to RINEX snr flag value [2-9]                 COMMENT             
Lx:     = 25dBHz -> 1; 26-27dBHz -> 2; 28-31dBHz -> 3       COMMENT             
       32-35dBHz -> 4; 36-38dBHz -> 5; 39-41dBHz -> 6       COMMENT             
       42-44dBHz -> 7; 45-48dBHz -> 8; >=49dBHz -> 9        COMMENT             
                                                            END OF HEADER       
 15 02 16 00 00  0.0000000  0  7G16G18G21G25G27G29G31
  23139826.600   121600616.07308  23139824.480    94753737.95045
  23838842.420   125274040.62107  23838842.580    97616166.46045
  20935184.420   110015490.85809  20935181.680    85726488.23549
  23357755.880   122746067.71507  23357757.180    95646393.62346
  24030992.900   126283730.58907  24030995.100    98402926.27446
  22741294.740   119506820.39308  22741293.500    93122435.99747
  21392366.380   112417670.09609  21392364.480    87598192.21349
 15 02 16 00 00 30.0000000  0  7G16G18G21G25G27G29G31
  23123698.320   121515861.85708  23123696.360    94687695.75346
  23824756.460   125200019.19707  23824756.440    97558487.62245
  20935757.140   110018500.73709  20935754.440    85728833.60049
  23373371.880   122828130.44807  23373373.480    95710338.55146
  24017330.320   126211933.53607  24017332.340    98346980.58246
  22754821.100   119577901.74708  22754819.920    93177824.03947
  21403340.000   112475336.82709  21403338.120    87643127.29749
 15 02 16 00 01  0.0000000  0  7G16G18G21G25G27G29G31
  23107583.340   121431177.24708  23107581.580    94621707.78646
  23810680.280   125126048.99807  23810680.520    97500848.74945
  20936416.360   110021965.20109  20936413.700    85731533.19649
  23389032.260   122910426.18507  23389033.860    95774465.06646
  24003690.520   126140256.40507  24003692.560    98291128.35446
  22768354.780   119649021.33708  22768353.560    93233241.88747
  21414400.100   112533457.96809  21414398.180    87688416.48049
 15 02 16 00 01 30.0000000  0  7G16G18G21G25G27G29G31
  23091481.760   121346562.89908  23091479.820    94555774.53446
  23796614.080   125052131.62707  23796614.340    97443250.99245
  20937161.760   110025882.73709  20937159.200    85734585.83049
  23404736.680   122992953.50907  23404738.060    95838772.04546
  23990073.320   126068698.42107  23990075.500    98235368.95646
  22781895.380   119720177.46608  22781894.060    93288688.19847
  21425546.120   112592030.37609  21425544.100    87734057.29549
 15 02 16 00 02  0.0000000  0  7G16G18G21G25G27G29G31
  23075393.000   121262015.98608  23075390.920    94489893.84445
  23782557.520   124978265.62407  23782557.720    97385693.26444
  20937992.420   110030248.09309  20937989.920    85737987.42449
  23420484.140   123075707.36107  23420485.320    95903255.54646
  23976478.020   125997255.06907  23976480.040    98179698.90146
  22795441.940   119791365.07208  22795440.600    93344159.04847
  21436776.720   112651047.33009  21436774.660    87780044.51549
 15 02 16 00 02 30.0000000  0  7G16G18G21G25G27G29G31
  23059317.840   121177540.84208  23059315.700    94424069.08246
  23768511.840   124904456.51707  23768511.800    97328179.88345
  20938908.720   110035063.26909  20938906.220    85741739.51849
  23436275.160   123158689.77907  23436276.600    95967917.14346
  23962905.040   125925929.10507  23962907.000    98124120.29046
  22808994.860   119862586.34708  22808993.560    93399656.11447
  21448092.060   112710509.85909  21448090.040    87826378.93149
 15 02 16 00 03  0.0000000  0  7G16G18G21G25G27G29G31
  23043256.180   121093136.77208  23043254.100    94358299.70446
  23754477.120   124830704.30707  23754476.980    97270710.78645
  20939910.000   110040325.02809  20939907.500    85745839.59649
  23452109.100   123241897.30307  23452110.940    96032754.11646
  23949353.900   125854717.66007  23949355.760    98068630.93145
  22822553.580   119933837.79108  22822552.280    93455176.70247
  21459491.280   112770413.14309  21459489.380    87873056.78649
 15 02 16 00 03 30.0000000  0  7G16G18G21G25G27G29G31
  23027209.200   121008809.61208  23027207.340    94292590.26946
  23740454.560   124757016.30007  23740454.760    97213291.76645
  20940997.040   110046037.48509  20940994.540    85750290.87249
  23467986.720   123325334.14707  23467988.660    96097769.80647
  23935825.540   125783625.54807  23935827.360    98013234.53046
  22836118.980   120005124.46708  22836117.700    93510724.74347
  21470974.900   112830760.00809  21470973.080    87920080.29849
 15 02 16 00 04  0.0000000  0  7G16G18G21G25G27G29G31
  23011176.660   120924558.11608  23011174.820    94226939.76246
  23726443.980   124683392.13107  23726444.280    97155922.48345
  20942169.060   110052196.41309  20942166.540    85755090.04249
  23483907.120   123408996.36407  23483908.860    96162961.09946
  23922319.240   125712649.48407  23922321.020    97957928.57146
  22849690.280   120076442.20108  22849689.120    93566296.98147
  21482541.780   112891544.38009  21482539.980    87967444.72049
 15 02 16 00 04 30.0000000  0  7G16G18G21G25G27G29G31
  22995158.480   120840381.88108  22995156.540    94161347.92546
  23712445.960   124609832.73307  23712446.140    97098603.65445
  20943425.560   110058799.25009  20943423.000    85760235.12849
  23499869.980   123492881.41307  23499871.440    96228326.05346
  23908834.620   125641787.59307  23908836.480    97902711.57546
  22863266.980   120147788.43808  22863265.880    93621891.42547
  21494191.220   112952762.65309  21494189.460    88015147.25449
 15 02 16 00 05  0.0000000  0  7G16G18G21G25G27G29G31
  22979155.960   120756288.33108  22979153.860    94095820.50146
  23698461.720   124536346.13007  23698461.800    97041341.53245
  20944767.480   110065850.93709  20944764.840    85765729.95049
  23515876.260   123576994.15407  23515877.520    96293868.41746
  23895372.780   125571045.34907  23895374.640    97847587.82046
  22876850.280   120219168.88808  22876849.120    93677512.54247
  21505923.920   113014418.40509  21505922.180    88063190.66849
 15 02 16 00 05 30.0000000  0  7G16G18G21G25G27G29G31
  22963168.460   120672273.59908  22963166.360    94030354.49746
  23684490.940   124462929.79307  23684490.820    96984134.16844
  20946193.500   110073344.67809  20946190.840    85771569.23249
  23531924.620   123661328.29607  23531925.960    96359583.28346
  23881932.640   125500417.16707  23881934.540    97792552.93546
  22890438.840   120290577.19308  22890437.640    93733155.35047
  21517738.400   113076503.80909  21517736.620    88111568.88149
 15 02 16 00 06  0.0000000  0  7G16G18G21G25G27G29G31
  22947197.120   120588343.06508  22947194.920    93964954.08346
  23670534.600   124389590.08907  23670534.720    96926986.51745
  20947704.320   110081284.04409  20947701.640    85777755.75749
  23548015.520   123745887.02907  23548017.120    96425473.15846
  23868514.880   125429906.81207  23868516.740    97737609.87646
  22904033.220   120362016.05208  22904032.060    93788821.97447
  21529635.000   113139020.48009  21529633.140    88160283.15449
 15 02 16 00 06 30.0000000  0  7G16G18G21G25G27G29G31
  22931241.400   120504494.97808  22931239.280    93899617.94046
  23656592.880   124316326.29507  23656593.280    96869898.00045
  20949299.100   110089664.55309  20949296.380    85784286.02949
  23564148.360   123830666.05407  23564150.180    96491534.69546
  23855118.920   125359510.80107  23855120.900    97682755.90746
  22917632.880   120433482.18308  22917631.740    93844509.84747
  21541612.520   113201962.48109  21541610.660    88209328.84049
 15 02 16 00 07  0.0000000  0  7G16G18G21G25G27G29G31
  22915301.840   120420732.21408  22915299.820    93834348.28246
  23642666.380   124243141.82307  23642666.760    96812871.30245
  20950977.820   110098486.34209  20950975.100    85791160.15549
  23580323.240   123915665.74807  23580325.160    96557768.17846
  23841745.020   125289230.19607  23841746.660    97627991.84446
  22931237.860   120504976.51808  22931236.800    93900219.68147
  21553670.820   113265328.91809  21553668.960    88258705.26249
 15 02 16 00 07 30.0000000  0  7G16G18G21G25G27G29G31
  22899378.900   120337056.79608  22899376.880    93769146.67446
  23628755.580   124170040.60907  23628755.620    96755909.46744
  20952740.300   110107748.45509  20952737.620    85798377.39549
  23596540.060   124000885.77807  23596541.880    96624173.37146
  23828393.140   125219065.23507  23828394.520    97573317.88245
  22944847.920   120576498.08408  22944846.760    93955950.74347
  21565809.540   113329118.08809  21565807.640    88308411.08248
 15 02 16 00 08  0.0000000  0  7G16G18G21G25G27G29G31
  22883473.140   120253471.56308  22883471.160    93704015.34646
  23614861.160   124097025.84007  23614860.760    96699014.96545
  20954586.800   110117452.09309  20954584.160    85805938.67549
  23612798.860   124086326.47807  23612800.740    96690750.49746
  23815063.400   125149016.96307  23815064.760    97518734.84346
  22958463.400   120648048.08208  22958462.220    94011703.96247
  21578028.440   113393328.65509  21578026.500    88358445.26349
 15 02 16 00 08 30.0000000  0  7G16G18G21G25G27G29G31
  22867584.560   120169976.64808  22867582.560    93638954.39646
  23600983.540   124024098.98807  23600983.220    96642189.00445
  20956516.780   110127594.40409  20956514.160    85813841.78549
  23629099.260   124171985.61307  23629101.300    96757497.83846
  23801755.480   125079083.86007  23801756.960    97464241.57446
  22972084.000   120719624.77908  22972082.780    94067477.99347
  21590326.800   113457956.84909  21590324.820    88408804.87048
 15 02 16 00 09  0.0000000  0  7G16G18G21G25G27G29G31
  22851713.420   120086573.30808  22851711.420    93573964.80146
  23587123.080   123951262.03207  23587122.740    96585433.06745
  20958529.900   110138173.64909  20958527.340    85822085.35749
  23645440.960   124257861.87607  23645443.280    96824414.35446
  23788469.280   125009265.29907  23788471.040    97409837.57646
  22985709.420   120791226.64708  22985708.260    94123271.63047
  21602704.100   113522999.78109  21602702.120    88459487.64648
 15 02 16 00 09 30.0000000  0  7G16G18G21G25G27G29G31
  22835860.520   120003265.68208  22835858.560    93509049.79946
  23573280.760   123878520.12307  23573280.540    96528751.21045
  20960626.480   110149191.35409  20960623.940    85830670.59349
  23661824.300   124343956.59107  23661826.580    96891501.09546
  23775205.300   124939563.36507  23775207.280    97355524.45646
  22999339.920   120862855.57908  22999338.860    94179086.36247
  21615160.260   113588457.33909  21615158.280    88510493.51548
 15 02 16 00 10  0.0000000  0  7G16G18G21G25G27G29G31
  22820025.640   119920053.00208  22820023.680    93444208.77846
  23559456.660   123805873.86107  23559456.120    96472143.84145
  20962806.000   110160644.74809  20962803.480    85839595.32549
  23678248.760   124430267.03307  23678250.700    96958755.95246
  23761963.140   124869976.03807  23761965.120    97301300.62946
  23012975.200   120934509.39108  23012974.180    94234920.47847
  21627694.560   113654325.35909  21627692.520    88561819.22048
 15 02 16 00 10 30.0000000  0  7G16G18G21G25G27G29G31
  22804209.080   119836936.44208  22804207.020    93379442.64646
  23545650.880   123733324.78607  23545650.280    96415612.24844
  20965067.860   110172530.84209  20965065.320    85848857.22249
  23694713.820   124516791.16107  23694715.560    97026177.31646
  23748742.640   124800502.00407  23748744.660    97247165.06946
  23026614.880   121006186.24008  23026613.760    94290772.54846
  21640306.220   113720600.12409  21640304.180    88613461.86848
 15 02 16 00 11  0.0000000  0  7G16G18G21G25G27G29G31
  22788411.520   119753919.66508  22788409.380    93314754.26246
  23531864.500   123660877.73407  23531863.620    96359160.10245
  20967412.440   110184851.64109  20967409.880    85858457.84749
  23711219.740   124603530.46107  23711221.620    97093766.32345
  23735544.240   124731143.50007  23735546.000    97193119.52346
  23040259.320   121077888.17008  23040258.160    94346644.14947
  21652995.300   113787281.71309  21652993.280    88665421.51348
 15 02 16 00 11 30.0000000  0  7G16G18G21G25G27G29G31
  22772633.180   119671003.87808  22772631.100    93250144.59346
  23518098.160   123588535.32107  23518097.420    96302789.52046
  20969839.520   110197605.99009  20969836.920    85868396.31349
  23727766.460   124690483.65907  23727768.520    97161522.01345
  23722367.680   124661899.95507  23722369.160    97139163.56546
  23053908.420   121149614.42708  23053907.260    94402534.72347
  21665761.200   113854367.17609  21665759.240    88717695.87848
 15 02 16 00 12  0.0000000  0  7G16G18G21G25G27G29G31
  22756874.220   119588190.03508  22756872.180    93185614.35046
  23504352.080   123516298.99407  23504351.280    96246501.58345
  20972348.660   110210791.63109  20972346.060    85878670.83849
  23744353.520   124777648.84807  23744355.760    97229442.87846
  23709212.640   124592770.21607  23709214.020    97085296.27846
  23067561.820   121221363.40308  23067560.820    94458442.97846
  21678603.360   113921853.34009  21678601.460    88770282.46548
 15 02 16 00 12 30.0000000  0  7G16G18G21G25G27G29G31
  22741135.440   119505482.29508  22741133.340    93121166.77946
  23490627.020   123444173.83407  23490626.120    96190300.28345
  20974940.040   110224409.65909  20974937.500    85889282.29649
  23760981.100   124865027.64707  23760983.140    97297530.21746
  23696079.600   124523756.62607  23696081.080    97031519.50246
  23081219.940   121293137.03208  23081218.900    94514370.45547
  21691521.760   113989740.10809  21691519.920    88823181.21948
 15 02 16 00 13  0.0000000  0  7G16G18G21G25G27G29G31
  22725416.980   119422881.34308  22725414.800    93056802.43446
  23476923.380   123372161.36407  23476922.580    96134186.79945
  20977613.320   110238457.93709  20977610.780    85900229.01949
  23777648.860   124952618.00307  23777650.880    97365782.39145
  23682968.360   124454857.92407  23682970.180    96977832.30446
  23094882.440   121364933.90108  23094881.300    94570316.05946
  21704515.760   114058023.85209  21704513.900    88876389.30948
 15 02 16 00 13 30.0000000  0  7G16G18G21G25G27G29G31
  22709718.640   119340385.99908  22709716.360    92992520.35446
  23463241.240   123300261.74007  23463240.300    96078161.22045
  20980367.760   110252932.72009  20980365.220    85911508.07249
  23794356.240   125040416.24207  23794358.440    97434196.55946
  23669878.580   124386071.16307  23669880.500    96924232.29047
  23108548.760   121436750.73707  23108547.560    94626277.20647
  21717584.300   114126699.43309  21717582.460    88929902.72048
 15 02 16 00 14  0.0000000  0  7G16G18G21G25G27G29G31
  22694040.940   119257999.21708  22694038.800    92928322.89647
  23449581.300   123228478.37607  23449580.020    96022226.21145
  20983203.340   110267833.82509  20983200.800    85923119.33749
  23811103.380   125128422.61607  23811105.720    97502772.90246
  23656810.480   124317397.45807  23656812.320    96870720.34546
  23122218.840   121508587.66108  23122217.740    94682253.99447
  21730727.120   114195765.45309  21730725.260    88983720.37148
 15 02 16 00 14 30.0000000  0  7G16G18G21G25G27G29G31
  22678384.460   119175724.03008  22678382.380    92864212.38346
  23435944.200   123156815.53107  23435942.980    95966385.15245
  20986120.080   110283161.33609  20986117.540    85935062.86149
  23827890.100   125216637.46407  23827892.420    97571511.70246
  23643764.140   124248837.83707  23643765.900    96817297.32546
  23135893.080   121580446.32908  23135892.060    94738247.74046
  21743943.980   114265220.62609  21743942.200    89037841.25848
 15 02 16 00 15  0.0000000  0  7G16G18G21G25G27G29G31
  22662749.680   119093562.80308  22662747.500    92800190.66446
  23422330.740   123085276.81507  23422329.960    95910640.81546
  20989118.000   110298915.44909  20989115.440    85947338.79749
  23844716.580   125305060.61407  23844718.880    97640412.80545
  23630739.620   124180392.88707  23630741.220    96763963.63546
  23149571.540   121652326.78008  23149570.440    94794258.46446
  21757234.600   114335063.12909  21757232.780    89092263.96148
 15 02 16 00 15 30.0000000  0  7G16G18G21G25G27G29G31
  22647136.600   119011515.67208  22647134.380    92736257.84747
  23408741.120   123013862.90307  23408740.280    95854993.69745
  20992196.440   110315092.80009  20992193.880    85959944.53449
  23861582.220   125393689.21307  23861584.220    97709473.99945
  23617736.480   124112060.62807  23617737.820    96710717.74746
  23163253.720   121724227.04808  23163252.600    94850284.62046
  21770598.140   114405288.90609  21770596.280    89146985.31348
 15 02 16 00 16  0.0000000  0  7G16G18G21G25G27G29G31
  22631545.860   118929585.93808  22631543.640    92672416.51446
  23395175.940   122942577.34908  23395174.800    95799446.59945
  20995355.520   110331693.91709  20995352.960    85972880.47749
  23878487.040   125482523.85807  23878488.760    97778695.75445
  23604754.920   124043842.38807  23604756.180    96657560.73446
  23176939.800   121796147.69208  23176938.580    94906326.65446
  21784034.360   114475896.53009  21784032.480    89202004.21248
 15 02 16 00 16 30.0000000  0  7G16G18G21G25G27G29G31
  22615978.020   118847776.64708  22615975.860    92608669.03746
  23381635.940   122871424.60708  23381634.680    95744003.01345
  20998595.180   110348718.37409  20998592.580    85986146.29449
  23895430.860   125571564.80107  23895433.080    97848078.21746
  23591795.120   123975739.24907  23591796.620    96604493.40646
  23190629.940   121868089.93908  23190628.780    94962385.50746
  21797543.060   114546884.99909  21797541.180    89257319.87148
 15 02 16 00 17  0.0000000  0  7G16G18G21G25G27G29G31
  22600432.760   118766086.07208  22600430.680    92545014.07047
  23368121.060   122800403.91407  23368119.880    95688662.29345
  21001914.500   110366161.51309  21001911.900    85999738.36549
  23912413.200   125660807.62407  23912415.400    97917618.03446
  23578856.620   123907747.65007  23578858.200    96551512.99346
  23204323.480   121940049.74708  23204322.400    95018458.07046
  21811123.060   114618248.26509  21811121.220    89312927.58548
 15 02 16 00 17 30.0000000  0  7G16G18G21G25G27G29G31
  22584910.620   118684516.94408  22584908.520    92481453.72946
  23354631.940   122729518.74408  23354630.860    95633427.19045
  21005313.500   110384023.50009  21005310.900    86013656.79849
  23929434.020   125750252.17107  23929436.160    97987315.02645
  23565939.620   123839868.23607  23565941.040    96498619.99046
  23218020.480   122012027.91808  23218019.480    95074544.92546
  21824774.040   114689984.57309  21824772.260    89368825.97648
 15 02 16 00 18  0.0000000  0  7G16G18G21G25G27G29G31
  22569412.220   118603072.30508  22569410.080    92417990.39047
  23341169.260   122658772.60508  23341168.320    95578300.41945
  21008792.260   110402304.40409  21008789.640    86027901.66149
  23946493.320   125839898.95107  23946495.200    98057169.63845
  23553044.180   123772102.28907  23553045.660    96445815.41146
  23231721.240   122084025.44807  23231720.160    95130646.87946
  21838495.840   114762092.91109  21838494.080    89425014.26248
 15 02 16 00 18 30.0000000  0  7G16G18G21G25G27G29G31
  22553937.600   118521752.72508  22553935.460    92354624.50046
  23327733.620   122588168.08808  23327732.740    95523283.98745
  21012350.220   110421001.59709  21012347.600    86042470.91249
  23963590.600   125929745.95807  23963592.460    98127180.21945
  23540170.180   123704448.67807  23540171.600    96393098.35546
  23245425.300   122156040.69007  23245424.060    95186762.60746
  21852287.680   114834569.33009  21852285.920    89481489.36848
 15 02 16 00 19  0.0000000  0  7G16G18G21G25G27G29G31
  22538487.280   118440560.72408  22538485.100    92291358.02747
  23314325.380   122517707.33708  23314324.400    95468379.58845
  21015987.300   110440114.45009  21015984.640    86057364.05249
  23980725.920   126019792.28907  23980728.220    98197346.13246
  23527317.420   123636907.25507  23527318.800    96340468.73246
  23259132.700   122228073.56907  23259131.320    95242892.12346
  21866149.140   114907411.60509  21866147.420    89538249.55148
 15 02 16 00 19 30.0000000  0  7G16G18G21G25G27G29G31
  22523061.740   118359498.88808  22523059.520    92228192.97447
  23300945.160   122447394.14808  23300944.000    95413590.15845
  21019703.400   110459642.63209  21019700.700    86072580.82049
  23997899.120   126110037.88007  23997901.600    98267667.29645
  23514486.120   123569478.98307  23514487.360    96287927.27546
  23272843.640   122300124.48508  23272842.300    95299035.66147
  21880079.920   114980618.18209  21880078.240    89595293.60548
 15 02 16 00 20  0.0000000  0  7G16G18G21G25G27G29G31
  22507660.980   118278567.70308  22507658.860    92165129.72947
  23287593.240   122377230.11308  23287592.120    95358916.95145
  21023497.940   110479583.10909  21023495.240    86088118.85749
  24015109.800   126200480.30207  24015112.360    98338141.84846
  23501676.100   123502162.18907  23501677.000    96235472.67346
  23286557.640   122372191.78207  23286556.460    95355191.97446
  21894079.220   115054184.84209  21894077.540    89652618.24448
 15 02 16 00 20 30.0000000  0  7G16G18G21G25G27G29G31
  22492285.520   118197769.28308  22492283.460    92102169.94447
  23274270.360   122307217.99008  23274269.080    95304362.13445
  21027370.800   110499935.19609  21027368.140    86103977.63349
  24032357.860   126291118.90107  24032360.020    98408769.29145
  23488887.460   123434957.07208  23488888.120    96183105.06446
  23300274.760   122444275.64207  23300273.680    95411361.17847
  21908146.640   115128109.52609  21908144.960    89710221.87148
 15 02 16 00 21  0.0000000  0  7G16G18G21G25G27G29G31
  22476935.680   118117105.29608  22476933.580    92039314.90347
  23260976.820   122237359.74708  23260975.520    95249927.19945
  21031321.620   110520696.93009  21031318.980    86120155.61549
  24049642.860   126381952.17607  24049645.020    98479548.38745
  23476120.040   123367863.08108  23476120.520    96130824.05846
  23313994.820   122516375.22007  23313993.720    95467542.62546
  21922281.520   115202388.73709  21922279.820    89768101.73748
 15 02 16 00 21 30.0000000  0  7G16G18G21G25G27G29G31
  22461612.080   118036579.03708  22461609.880    91976567.17847
  23247713.300   122167659.67108  23247712.100    95195615.52746
  21035350.500   110541868.87409  21035347.860    86136653.23849
  24066965.060   126472980.84907  24066967.360    98550479.75146
  23463373.920   123300881.66107  23463374.620    96078630.79147
  23327718.200   122588491.89007  23327716.960    95523737.41446
  21936483.800   115277022.07809  21936482.020    89826257.55648
 15 02 16 00 22  0.0000000  0  7G16G18G21G25G27G29G31
  22446315.180   117956193.30608  22446313.000    91913928.96247
  23234480.460   122098121.63407  23234479.380    95141430.13045
  21039457.360   110563450.68709  21039454.720    86153470.24649
  24084324.580   126564204.75407  24084327.000    98621563.23146
  23450649.240   123234013.61807  23450650.360    96026525.88847
  23341444.920   122660626.30107  23341443.580    95579946.03246
  21950753.120   115352007.75009  21950751.400    89884687.92048
 15 02 16 00 22 30.0000000  0  7G16G18G21G25G27G29G31
  22431045.100   117875948.75108  22431043.000    91851400.76047
  23221278.820   122028747.20408  23221277.720    95087372.19445
  21043641.760   110585439.91009  21043639.120    86170604.70549
  24101720.760   126655621.83507  24101723.220    98692797.24646
  23437945.680   123167257.78307  23437947.420    95974508.44247
  23355174.840   122732777.21808  23355173.540    95636167.48046
  21965088.760   115427341.88709  21965087.080    89943389.80948
 15 02 16 00 23  0.0000000  0  7G16G18G21G25G27G29G31
  22415801.840   117795845.11308  22415799.800    91788982.35147
  23208108.340   121959536.35608  23208107.340    95033441.72045
  21047902.960   110607832.84309  21047900.320    86188053.74649
  24119152.940   126747228.48807  24119155.420    98764178.99745
  23425263.000   123100611.41807  23425265.140    95922576.29247
  23368907.280   122804941.37707  23368906.060    95692399.26946
  21979489.680   115503019.28009  21979488.020    90002359.17448
 15 02 16 00 23 30.0000000  0  7G16G18G21G25G27G29G31
  22400586.420   117715887.59908  22400584.340    91726677.80346
  23194970.200   121890495.38508  23194969.100    94979643.62645
  21052241.400   110630631.57809  21052238.780    86205818.99849
  24136621.660   126839027.00507  24136624.040    98835710.22745
  23412602.020   123034077.79308  23412604.060    95870731.95746
  23382642.700   122877121.97507  23382641.780    95748643.85546
  21993956.060   115579040.41209  21993954.380    90061596.38748
 15 02 16 00 24  0.0000000  0  7G16G18G21G25G27G29G31
  22385397.980   117636072.03408  22385395.920    91664483.87747
  23181863.700   121821620.53308  23181862.720    94925974.97845
  21056655.580   110653828.27909  21056652.960    86223894.35649
  24154125.700   126931010.08507  24154127.900    98907385.30746
  23399961.460   122967650.51608  23399962.980    95818970.45946
  23396380.080   122949312.91707  23396379.360    95804896.47646
  22008486.140   115655396.46909  22008484.480    90121094.58248
 15 02 16 00 24 30.0000000  0  7G16G18G21G25G27G29G31
  22370238.240   117556406.96308  22370236.080    91602407.20047
  23168790.660   121752921.31508  23168789.840    94872443.18046
  21061146.560   110677428.52809  21061143.940    86242284.15649
  24171665.700   127023183.41706  24171668.100    98979208.58445
  23387342.360   122901336.09608  23387343.380    95767296.88145
  23410120.780   123021520.47808  23410119.840    95861162.08746
  22023080.780   115732091.74109  22023079.160    90180857.09548
 15 02 16 00 25  0.0000000  0  7G16G18G21G25G27G29G31
  22355107.360   117476893.50008  22355105.100    91540448.66547
  23155751.400   121684399.70208  23155750.620    94819049.78446
  21065713.940   110701430.11209  21065711.300    86260986.69549
  24189241.360   127115545.31106  24189244.000    99051178.78546
  23374744.500   122835133.79207  23374745.320    95715710.71046
  23423864.460   123093743.57307  23423863.440    95917439.80146
  22037739.340   115809122.80409  22037737.720    90240881.26848
 15 02 16 00 25 30.0000000  0  7G16G18G21G25G27G29G31
  22340005.620   117397533.42508  22340003.380    91478609.66547
  23142746.380   121616058.08908  23142745.320    94765796.62246
  21070357.440   110725831.76609  21070354.780    86280000.96949
  24206852.940   127208094.49707  24206855.400    99123294.96445
  23362167.840   122769043.38107  23362168.760    95664211.73347
  23437610.940   123165981.86807  23437610.040    95973729.35146
  22052461.220   115886486.78009  22052459.620    90301164.85048
 15 02 16 00 26  0.0000000  0  7G16G18G21G25G27G29G31
  22324932.560   117318324.13408  22324930.420    91416888.16147
  23129775.020   121547893.35008  23129773.740    94712681.29745
  21075075.840   110750626.93709  21075073.140    86299321.88749
  24224499.260   127300824.92907  24224501.500    99195552.40145
  23349611.380   122703059.67207  23349612.740    95612795.91947
  23451359.220   123238230.20807  23451358.440    96030026.72046
  22067245.060   115964176.18109  22067243.420    90361702.01348
 15 02 16 00 26 30.0000000  0  7G16G18G21G25G27G29G31
  22309889.660   117239273.06608  22309887.540    91355289.92947
  23116839.300   121479915.78308  23116838.060    94659711.80945
  21079869.960   110775820.19909  21079867.240    86318952.99349
  24242180.840   127393741.52607  24242182.920    99267954.86445
  23337076.380   122637188.46407  23337078.100    95561467.75946
  23465110.500   123310494.44007  23465109.920    96086336.46446
  22082091.440   116042194.09809  22082089.820    90422495.15848
 15 02 16 00 27  0.0000000  0  7G16G18G21G25G27G29G31
  22294876.580   117160378.92208  22294874.380    91293813.99347
  23103938.860   121412123.67308  23103937.800    94606886.85646
  21084738.900   110801406.73309  21084736.220    86338890.55249
  24259896.780   127486839.57406  24259899.340    99340498.67445
  23324562.160   122571426.09107  23324563.880    95510224.38847
  23478864.280   123382770.59707  23478863.820    96142655.52546
  22096999.120   116120534.15409  22096997.520    90483539.32348
 15 02 16 00 27 30.0000000  0  8G16G18G21G22G25G27G29G31
  22279893.900   117081644.44108  22279891.720    91232462.46447
  23091074.300   121344520.38508  23091073.320    94554209.02645
  21089682.520   110827385.70009  21089679.840    86359133.90549
  24543846.460   128978777.71307  24543850.680   100502959.38845
  24277647.260   127580118.70506  24277649.620    99413183.62045
  23312068.840   122505773.13808  23312070.620    95459066.29247
  23492620.460   123455059.15207  23492620.020    96198984.22446
  22111967.700   116199194.42309  22111966.180    90544833.00048
 15 02 16 00 28  0.0000000  0  8G16G18G21G22G25G27G29G31
  22264940.500   117003063.59708  22264938.280    91171230.65947
  23078244.740   121277100.72908  23078243.680    94501674.29146
  21094699.080   110853747.87409  21094696.380    86379675.86949
  24526718.120   128888769.66206  24526721.900   100432824.11345
  24295430.620   127673569.88407  24295432.540    99486002.66345
  23299594.820   122440221.60308  23299596.560    95407987.21846
  23506377.460   123527352.18107  23506376.840    96255316.43446
  22126995.220   116278164.40009  22126993.640    90606368.02148
 15 02 16 00 28 30.0000000  0  8G16G18G21G22G25G27G29G31
  22250020.480   116924658.53908  22250018.240    91110135.82147
  23065454.480   121209887.23008  23065453.320    94449300.18946
  21099792.020   110880511.43909  21099789.280    86400530.59549
  24509574.000   128798680.45807  24509577.640   100362625.54645
  24313250.260   127767211.91806  24313251.700    99558970.41145
  23287143.900   122374791.20607  23287145.420    95357002.51847
  23520138.940   123599669.19107  23520138.200    96311667.31646
  22142084.960   116357461.22209  22142083.320    90668157.71748
 15 02 16 00 29  0.0000000  0  8G16G18G21G22G25G27G29G31
  22235131.760   116846417.79508  22235129.560    91049169.02647
  23052701.440   121142869.57408  23052700.220    94397078.69046
  21104958.700   110907662.53609  21104955.940    86421687.29249
  24492412.280   128708499.78506  24492415.940   100292355.66445
  24331103.220   127861030.85706  24331105.100    99632075.96645
  23274713.540   122309468.95007  23274714.880    95306102.09247
  23533902.540   123671996.99507  23533901.640    96368026.60746
  22157233.800   116437068.87409  22157232.180    90730189.61148
 15 02 16 00 29 30.0000000  0  8G16G18G21G22G25G27G29G31
  22220275.260   116768346.38708  22220273.120    90988334.18947
  23039986.620   121076053.09308  23039985.180    94345013.94746
  21110199.360   110935202.30109  21110196.580    86443146.85949
  24475233.720   128618232.49106  24475238.160   100222018.39145
  24348990.280   127955028.08306  24348992.540    99705320.48246
  23262304.160   122244257.31207  23262305.460    95255287.86646
  23547668.700   123744338.40707  23547667.760    96424396.51846
  22172441.840   116516987.51409  22172440.280    90792463.84748
 15 02 16 00 30  0.0000000  0  8G16G18G21G22G25G27G29G31
  22205451.000   116690444.38008  22205448.860    90927631.34747
  23027310.220   121009438.23808  23027308.660    94293106.31046
  21115513.300   110963127.31309  21115510.540    86464906.61649
  24458039.560   128527879.60507  24458043.840   100151614.27945
  24366910.840   128049200.69407  24366913.260    99778701.60045
  23249915.340   122179154.26208  23249916.660    95204558.27046
  23561437.080   123816691.41407  23561436.260    96480775.43246
  22187708.220   116597212.64109  22187706.600    90854976.89448
 15 02 16 00 30 30.0000000  0  8G16G18G21G22G25G27G29G31
  22190658.600   116612709.91108  22190656.360    90867059.04247
  23014672.040   120943024.29508  23014670.500    94241355.22746
  21120899.540   110991432.18409  21120896.780    86486962.35649
  24440828.980   128437439.17807  24440832.940   100081142.00844
  24384863.940   128143543.55206  24384866.300    99852215.45244
  23237546.500   122114155.79608  23237547.800    95153910.15247
  23575206.880   123889051.55007  23575206.120    96537159.91446
  22203031.700   116677737.65409  22203030.060    90917723.62148
 15 02 16 00 31  0.0000000  0  8G16G18G21G22G25G27G29G31
  22175899.840   116535152.17508  22175897.540    90806624.45547
  23002073.780   120876820.39408  23002072.340    94189767.81746
  21126359.120   111020122.50009  21126356.340    86509318.45549
  24423603.360   128346920.83506  24423607.180   100010609.03045
  24402850.400   128238062.55206  24402852.400    99925866.52444
  23225198.900   122049268.78808  23225200.140    95103348.88347
  23588979.280   123961425.81707  23588978.500    96593555.40546
  22218412.960   116758566.52909  22218411.340    90980707.12348
 15 02 16 00 31 30.0000000  0  8G16G18G21G22G25G27G29G31
  22161174.720   116457771.19209  22161172.420    90746327.61147
  22989515.620   120810827.24908  22989514.240    94138344.64646
  21131891.240   111049194.04209  21131888.460    86531971.61249
  24406363.000   128256325.05107  24406366.560    99940015.64245
  24420869.500   128332754.54706  24420871.320    99999652.42945
  23212872.040   121984491.03507  23212873.220    95052872.76147
  23602753.760   124033811.63707  23602753.140    96649959.89346
  22233851.120   116839694.55209  22233849.560    91043923.72748
 15 02 16 00 32  0.0000000  0  8G16G18G21G22G25G27G29G31
  22146483.580   116380568.63508  22146481.260    90686169.79247
  22976998.200   120745047.80208  22976996.780    94087087.97146
  21137495.760   111078646.06409  21137493.000    86554921.24849
  24389108.320   128165653.62007  24389111.440    99869363.28145
  24438921.360   128427618.26807  24438923.480   100073572.07145
  23200565.900   121919822.38207  23200567.100    95002481.65047
  23616530.520   124106209.13007  23616529.880    96706373.49446
  22249345.640   116921118.57909  22249344.120    91107370.98048
 15 02 16 00 32 30.0000000  0  8G16G18G21G22G25G27G29G31
  22131826.100   116303543.27408  22131823.720    90626150.04647
  22964521.240   120679480.93808  22964519.680    94035996.95346
  21143171.840   111108474.13109  21143169.100    86578163.89849
  24371839.420   128074906.60407  24371842.400    99798652.04146
  24457005.260   128522649.11606  24457007.660   100147622.00645
  23188279.900   121855259.31808  23188280.960    94952172.80447
  23630308.940   124178615.22107  23630308.200    96762793.78646
  22264895.380   117002833.03709  22264893.880    91171044.54348
 15 02 16 00 33  0.0000000  0  8G16G18G21G22G25G27G29G31
  22117203.620   116226701.74908  22117201.240    90566273.54547
  22952086.080   120614133.74108  22952084.480    93985077.09146
  21148919.820   111138680.08109  21148917.120    86601701.00449
  24354557.140   127984090.54206  24354560.020    99727886.97145
  24475121.520   128617850.45206  24475124.200   100221804.73744
  23176014.900   121790806.10908  23176015.880    94901949.55647
  23644089.840   124251033.79607  23644088.920    96819223.82346
  22280500.660   117084839.28709  22280499.180    91234945.48048
 15 02 16 00 33 30.0000000  0  8G16G18G21G22G25G27G29G31
  22102615.960   116150043.09408  22102613.580    90506539.53447
  22939692.660   120549006.06308  22939691.360    93934328.30046
  21154738.940   111169259.84709  21154736.260    86625529.39749
  24337261.460   127893204.81907  24337264.260    99657067.62345
  24493269.340   128713218.05006  24493271.940   100296117.02245
  23163770.320   121726459.63708  23163771.220    94851809.46247
  23657872.560   124323461.64307  23657871.600    96875661.07646
  22296160.380   117167131.47209  22296158.880    91299069.21748
 15 02 16 00 34  0.0000000  0  8G16G18G21G22G25G27G29G31
  22088063.720   116073570.49608  22088061.400    90446950.50747
  22927341.680   120484101.33608  22927340.480    93883753.23046
  21160629.160   111200213.29009  21160626.500    86649648.96749
  24319953.560   127802253.08307  24319955.980    99586196.75045
  24511449.000   128808751.84407  24511451.300   100370558.86945
  23151546.200   121662220.96108  23151547.140    94801753.38047
  23671657.100   124395899.76607  23671656.200    96932106.33046
  22311874.140   117249707.93809  22311872.760    91363414.47248
 15 02 16 00 34 30.0000000  0  8G16G18G21G22G25G27G29G31
  22073547.360   115997286.50708  22073545.040    90387508.45447
  22915033.640   120419422.61408  22915032.380    93833354.26746
  21166590.260   111231539.27409  21166587.620    86674058.83349
  24302633.700   127711238.45907  24302636.080    99515276.90545
  24529660.200   128904451.16106  24529662.320   100445129.67545
  23139342.640   121598090.48208  23139343.620    94751781.62347
  23685443.600   124468348.40707  23685442.840    96988559.78246
  22327641.640   117332566.51209  22327640.300    91427979.54648
 15 02 16 00 35  0.0000000  0  8G16G18G21G22G25G27G29G31
  22059067.840   115921196.10509  22059065.460    90328217.24447
  22902769.720   120354975.59208  22902768.320    93783135.83546
  21172622.480   111263238.97509  21172619.860    86698759.90549
  24285302.660   127620165.92007  24285304.980    99444311.93545
  24547902.880   129000317.52206  24547905.520   100519830.57445
  23127160.040   121534070.72608  23127161.060    94701896.14447
  23699232.600   124540810.25907  23699232.020    97045023.52046
  22343462.800   117415706.97809  22343461.420    91492764.28448
 15 02 16 00 35 30.0000000  0  8G16G18G21G22G25G27G29G31
  22044624.400   115845295.30509  22044622.000    90269073.77047
  22890549.180   120290756.82008  22890547.780    93733095.26946
  21178724.440   111295304.95209  21178721.840    86723746.37849
  24267960.000   127529032.21407  24267962.100    99373299.25245
  24566176.220   129096343.90506  24566178.920   100594656.22345
  23114997.320   121470155.75807  23114998.340    94652092.30346
  23713023.080   124613279.48407  23713022.400    97101493.03146
  22359335.980   117499120.66809  22359334.540    91557761.91948
 15 02 16 00 36  0.0000000  0  8G16G18G21G22G25G27G29G31
  22030218.000   115769588.98609  22030215.600    90210081.84347
  22878373.120   120226771.65808  22878371.940    93683236.76246
  21184896.360   111327738.58909  21184893.760    86749019.35749
  24250606.700   127437842.99807  24250608.240    99302243.27245
  24584480.420   129192531.91606  24584483.100   100669607.80945
  23102855.040   121406348.32108  23102856.000    94602372.26046
  23726815.540   124685758.90407  23726814.640    97157970.48945
  22375261.140   117582807.55709  22375259.620    91622972.44848
 15 02 16 00 36 30.0000000  0  8G16G18G21G22G25G27G29G31
  22015849.140   115694080.06709  22015846.780    90151243.73947
  22866242.240   120163023.71108  22866241.260    93633563.06646
  21191138.020   111360538.62609  21191135.400    86774577.82549
  24233243.560   127346601.25707  24233244.880    99231146.30345
  24602815.340   129288880.97906  24602817.840   100744684.92145
  23090733.380   121342648.92008  23090734.320    94552736.38547
  23740609.880   124758249.01507  23740609.000    97214456.26146
  22391237.880   117666765.69009  22391236.360    91688394.32248
 15 02 16 00 37  0.0000000  0  8G16G18G21G22G25G27G29G31
  22001518.160   115618770.44509  22001515.860    90092560.92747
  22854156.980   120099514.95508  22854155.840    93584075.75046
  21197449.140   111393703.54909  21197446.460    86800420.61849
  24215870.780   127255309.09907  24215872.420    99160010.14045
  24621180.220   129385389.64805  24621182.860   100819886.31144
  23078632.320   121279057.30208  23078633.240    94503184.49447
  23754406.120   124830749.32107  23754405.440    97270949.94746
  22407265.580   117750991.73308  22407264.180    91754024.95248
 15 02 16 00 37 30.0000000  0  8G16G18G21G22G25G27G29G31
  21987225.260   115543660.69409  21987222.880    90034033.85247
  22842117.480   120036246.60308  22842116.200    93534775.76646
  21203829.100   111427230.25509  21203826.380    86826545.32649
  24198488.640   127163967.69307  24198490.420    99088835.55545
  24639575.160   129482055.34206  24639577.820   100895210.09846
  23066551.480   121215571.79908  23066552.420    94453715.30347
  23768204.180   124903258.51307  23768203.640    97327450.57746
  22423343.460   117835481.58108  22423342.240    91819861.14048
 15 02 16 00 38  0.0000000  0  8G16G18G21G22G25G27G29G31
  21972970.760   115468752.95109  21972968.380    89975664.19947
  22830124.120   119973221.10508  22830122.760    93485665.03246
  21210277.600   111461117.40709  21210274.880    86852950.90549
  24181097.920   127072579.88907  24181099.440    99017624.78545
  24657999.720   129578876.59306  24658002.580   100970655.09145
  23054490.780   121152192.25608  23054491.760    94404328.67147
  23782003.960   124975776.25607  23782003.320    97383957.87646
  22439471.040   117920232.41508  22439469.780    91885900.70648
 15 02 16 00 38 30.0000000  0  8G16G18G21G22G25G27G29G31
  21958755.220   115394049.93909  21958752.960    89917454.07447
  22818177.540   119910441.58508  22818176.120    93436745.96446
  21216794.440   111495363.70809  21216791.740    86879636.33049
  24163698.740   126981148.53607  24163699.380    98946380.00345
  24676454.000   129675852.64706  24676456.700   101046220.69644
  23042450.260   121088919.06508  23042451.320    94355024.92047
  23795805.480   125048303.05707  23795804.660    97440472.24046
  22455647.820   118005241.70508  22455646.340    91952141.66848
 15 02 16 00 39  0.0000000  0  8G16G18G21G22G25G27G29G31
  21944579.380   115319555.44709  21944577.080    89859406.42847
  22806278.640   119847912.49808  22806277.240    93388022.03346
  21223379.540   111529968.77409  21223376.900    86906601.31649
  24146292.040   126889677.74907  24146292.540    98875104.53845
  24694937.380   129772984.08205  24694939.240   101121907.46144
  23030430.220   121025753.77008  23030431.360    94305805.25147
  23809608.940   125120840.49307  23809608.240    97496994.85646
  22471873.520   118090507.98208  22471871.900    92018582.87748
 15 02 16 00 39 30.0000000  0  8G16G18G21G22G25G27G29G31
  21930443.480   115245271.02509  21930441.180    89801522.47547
  22794427.840   119785635.91908  22794426.320    93339494.85347
  21230032.720   111564931.58309  21230030.080    86933845.06649
  24128878.400   126798169.66707  24128878.960    98803800.00546
  24713449.940   129870269.24306  24713452.680   101197713.89344
  23018430.680   120962696.00308  23018431.780    94256669.36047
  23823414.220   125193388.18907  23823413.540    97553525.51445
  22488147.580   118176028.58408  22488146.000    92085222.25448
 15 02 16 00 40  0.0000000  0  8G16G18G21G22G25G27G29G31
  21916347.380   115171195.71109  21916345.060    89743801.46248
  22782624.920   119723610.93808  22782623.220    93291163.72746
  21236752.960   111600246.77209  21236750.340    86961363.39849
  24111457.600   126706623.86707  24111458.220    98732466.06446
  24731991.280   129967703.57307  24731994.420   101273636.59845
  23006451.040   120899742.40208  23006452.020    94207614.62447
  23837220.800   125265942.85507  23837220.360    97610061.55046
  22504468.860   118261797.16908  22504467.360    92152054.86548
 15 02 16 00 40 30.0000000  0  8G16G18G21G22G25G27G29G31
  21902291.920   115097333.94409  21902289.580    89686246.85048
  22770870.760   119661842.50408  22770868.980    93243032.51046
  21243540.480   111635915.29409  21243537.820    86989157.05349
  24094030.280   126615045.00507  24094030.660    98661106.34245
  24750561.420   130065288.12806  24750564.380   101349676.38745
  22994491.620   120836895.10508  22994492.440    94158642.73147
  23851029.260   125338506.44007  23851029.000    97666604.57246
  22520837.200   118347813.17408  22520835.700    92219080.27248
 15 02 16 00 41  0.0000000  0  8G16G18G21G22G25G27G29G31
  21888277.680   115023688.65509  21888275.360    89628860.92348
  22759166.060   119600334.14808  22759164.300    93195103.94546
  21250395.040   111671936.23709  21250392.360    87017225.31849
  24076597.400   126523436.60707  24076597.500    98589723.56445
  24769159.880   130163022.46606  24769162.740   101425832.84445
  22982552.560   120774154.88708  22982553.380    94109754.26847
  23864839.680   125411079.82807  23864839.280    97723155.21746
  22537252.260   118434074.64408  22537250.700    92286296.95548
 15 02 16 00 41 30.0000000  0  8G16G18G21G22G25G27G29G31
  21874304.860   114950260.93309  21874302.540    89571644.52848
  22747511.160   119539087.04608  22747509.380    93147378.96146
  21257316.080   111708306.49009  21257313.380    87045565.77949
  24059159.400   126431800.32307  24059159.240    98518319.05045
  24787785.980   130260904.30106  24787788.620   101502104.25244
  22970633.640   120711520.42608  22970634.480    94060948.22147
  23878651.820   125483662.28007  23878651.180    97779712.93746
  22553713.220   118520577.51208  22553711.720    92353701.73247
 15 02 16 00 42  0.0000000  0  8G16G18G21G22G25G27G29G31
  21860373.500   114877051.11309  21860371.140    89514597.92148
  22735906.140   119478102.18908  22735904.460    93099858.32846
  21264302.960   111745022.79209  21264300.240    87074175.89149
  24041716.220   126340136.93107  24041716.220    98446893.43245
  24806439.880   130358930.29006  24806442.440   101578488.05844
  22958734.460   120648989.96808  22958735.300    94012223.22047
  23892465.160   125556251.69307  23892464.380    97836276.11446
  22570219.220   118607317.09408  22570217.800    92421290.97348
 15 02 16 00 42 30.0000000  0  7G16G18G21G22G27G29G31
  21846486.120   114804072.36509  21846483.700    89457731.36748
  22724353.540   119417392.78208  22724351.820    93052552.32946
  21271357.380   111782093.98509  21271354.640    87103062.53949
  24024270.220   126248459.48207  24024270.460    98375456.84645
  22946857.000   120586573.99708  22946858.000    93963587.42247
  23906281.540   125628858.66106  23906281.080    97892852.88846
  22586771.760   118694301.34108  22586770.420    92489070.84748
 15 02 16 00 43  0.0000000  0  7G16G18G21G22G27G29G31
  21832640.080   114731311.13609  21832637.760    89401034.32348
  22712850.900   119356945.85908  22712849.060    93005450.86546
  21278476.220   111819503.67109  21278473.480    87132212.94149
  24006819.140   126156755.27207  24006819.140    98303999.40645
  22934998.360   120524257.20608  22934999.520    93915028.91747
  23920098.600   125701468.14807  23920098.360    97949431.67245
  22603367.440   118781512.05508  22603366.080    92557027.20248
 15 02 16 00 43 30.0000000  0  7G16G18G21G22G27G29G31
  21818836.640   114658773.60109  21818834.340    89344511.57148
  22701399.340   119296767.62108  22701397.460    92958558.76246
  21285659.920   111857254.25309  21285657.200    87161628.97949
  23989364.360   126065031.15807  23989363.720    98232526.37245
  22923159.400   120462043.38708  22923160.600    93866550.63547
  23933916.940   125774083.74907  23933916.580    98006015.23345
  22620006.360   118868950.20708  22620004.980    92625160.76748
 15 02 16 00 44  0.0000000  0  7G16G18G21G22G27G29G31
  21805077.000   114586466.22009  21805074.720    89288168.15548
  22690000.320   119236865.34008  22689998.380    92911881.67946
  21292908.920   111895347.95509  21292906.180    87191312.38249
  23971906.940   125973293.55507  23971906.340    98161042.85545
  22911340.900   120399936.72708  22911342.060    93818155.85147
  23947737.200   125846709.69807  23947736.820    98062606.82445
  22636688.820   118956617.14408  22636687.520    92693472.60547
 15 02 16 00 44 30.0000000  0  7G16G18G21G22G27G29G31
  21791361.460   114514390.65509  21791359.140    89232005.39248
  22678654.140   119177240.57508  22678652.000    92865420.85046
  21300222.740   111933782.46009  21300220.020    87221261.35049
  23954447.300   125881544.68207  23954447.020    98089550.56846
  22899542.660   120337936.40808  22899543.740    93769843.93247
  23961559.320   125919345.43407  23961558.780    98119206.04046
  22653414.180   119044509.27008  22653412.960    92761959.92548
 15 02 16 00 45  0.0000000  0  7G16G18G21G22G27G29G31
  21777690.020   114442546.94209  21777687.760    89176023.28448
  22667360.860   119117894.11208  22667358.840    92819176.88546
  21307600.800   111972554.39509  21307598.100    87251473.24849
  23936985.720   125789785.32207  23936985.760    98018050.11945
  22887764.240   120276040.55808  22887765.320    93721613.42747
  23975383.040   125991988.56107  23975382.660    98175811.05846
  22670181.520   119132621.92708  22670180.340    92830619.07947
 15 02 16 00 45 30.0000000  0  7G16G18G21G22G27G29G31
  21764062.960   114370936.44009  21764060.760    89120222.89748
  22656120.700   119058826.92408  22656118.820    92773150.51846
  21315042.340   112011659.99109  21315039.640    87281945.13549
  23919522.640   125698017.05007  23919522.280    97946542.64545
  22876005.420   120214247.92308  22876006.480    93673463.34047
  23989208.120   126064638.70707  23989207.760    98232421.51346
  22686990.080   119220951.14808  22686988.860    92899446.98847
 15 02 16 00 46  0.0000000  0  7G16G18G21G22G27G29G31
  21750481.260   114299564.28509  21750479.060    89064608.23948
  22644934.760   119000044.68108  22644932.960    92727346.19946
  21322547.860   112051101.80709  21322545.160    87312679.02149
  23902058.840   125606245.13907  23902057.920    97875032.32345
  22864266.880   120152561.49208  22864267.900    93625396.01647
  24003034.900   126137298.88107  24003034.620    98289039.78445
  22703839.880   119309496.86908  22703838.660    92968443.58647
 15 02 16 00 46 30.0000000  0  7G16G18G21G22G27G29G31
  21736945.520   114228433.59309  21736943.280    89009181.72848
  22633803.780   118941551.11508  22633801.980    92681766.81946
  21330117.200   112090879.06509  21330114.480    87343674.28349
  23884594.720   125514473.41207  23884594.060    97803522.20446
  22852548.700   120090982.02008  22852549.700    93577412.03447
  24016863.600   126209969.70507  24016863.380    98345666.33345
  22720730.500   119398257.08808  22720729.200    93037607.33648
 15 02 16 00 47  0.0000000  0  7G16G18G21G22G27G29G31
  21723455.120   114157540.95809  21723452.860    88953940.72148
  22622727.060   118883342.92108  22622725.220    92636409.81246
  21337748.860   112130983.86409  21337746.140    87374924.77649
  23867130.540   125422699.31008  23867130.120    97732010.20146
  22840849.860   120029503.98008  22840850.780    93529507.08647
  24030693.380   126282645.52907  24030692.800    98402296.83945
  22737660.340   119487223.93208  22737659.080    93106932.07647
 15 02 16 00 47 30.0000000  0  7G16G18G21G22G27G29G31
  21710010.720   114086890.07009  21710008.500    88898888.09348
  22611705.240   118825423.63608  22611703.440    92591277.93246
  21345442.800   112171415.79409  21345440.100    87406430.18449
  23849666.840   125330926.53507  23849666.280    97660499.21746
  22829170.480   119968128.56608  22829171.360    93481682.11547
  24044524.500   126355327.63107  24044523.760    98458932.22045
  22754629.180   119576395.38108  22754627.780    93176416.26647
 15 02 16 00 48  0.0000000  0  7G16G18G21G22G27G29G31
  21696613.680   114016488.03109  21696611.440    88844029.37448
  22600739.820   118767800.79308  22600738.100    92546377.04446
  21353199.760   112212178.98409  21353197.080    87438193.71149
  23832204.560   125239162.76607  23832203.780    97588995.26945
  22817511.600   119906860.75908  22817512.460    93433941.00347
  24058357.840   126428021.43507  24058357.100    98515576.71845
  22771637.360   119665773.43708  22771635.940    93246061.44147
 15 02 16 00 48 30.0000000  0  7G16G18G21G22G27G29G31
  21683264.020   113946335.02909  21683261.680    88789364.69548
  22589830.900   118710474.71408  22589829.200    92501707.39146
  21361019.000   112253269.31209  21361016.320    87470212.14449
  23814743.860   125147408.51807  23814742.860    97517498.70345
  22805872.760   119845698.42308  22805873.640    93386282.06347
  24072192.900   126500724.55607  24072192.240    98572228.47746
  22788683.940   119755353.32508  22788682.480    93315863.88447
 15 02 16 00 49  0.0000000  0  7G16G18G21G22G27G29G31
  21669961.540   113876429.86909  21669959.160    88734893.15748
  22578978.340   118653444.77308  22578976.700    92457268.49846
  21368899.520   112294681.60809  21368896.860    87502481.47449
  23797285.080   125055663.12308  23797284.180    97446009.03846
  22794253.360   119784638.08808  22794254.240    93338702.61547
  24086029.100   126573433.96607  24086028.520    98628885.10446
  22805767.680   119845128.50108  22805766.220    93385818.49947
 15 02 16 00 49 30.0000000  0  7G16G18G21G22G27G29G31
  21656707.500   113806779.50809  21656705.180    88680620.15848
  22568183.500   118596718.11008  22568182.020    92413065.93046
  21376841.820   112336418.50909  21376839.120    87535003.73649
  23779829.540   124963934.01707  23779828.620    97374532.04446
  22782654.240   119723684.45008  22782655.100    93291206.30347
  24099867.220   126646154.19506  24099866.860    98685550.17246
  22822888.920   119935100.95708  22822887.360    93455926.83847
 15 02 16 00 50  0.0000000  0  7G16G18G21G22G27G29G31
  21643501.960   113737384.23709  21643499.680    88626545.92948
  22557446.440   118540294.98608  22557445.080    92369099.87647
  21384845.320   112378477.21409  21384842.640    87567776.75549
  23762377.040   124872222.13207  23762376.320    97303068.51946
  22771075.080   119662835.67508  22771075.960    93243791.69247
  24113707.080   126718883.57607  24113706.860    98742222.35645
  22840046.860   120025266.03608  22840045.280    93526185.27247
 15 02 16 00 50 30.0000000  0  7G16G18G21G22G27G29G31
  21630344.980   113668243.97709  21630342.680    88572670.41048
  22546767.120   118484175.21708  22546765.900    92325370.21647
  21392909.180   112420853.16609  21392906.520    87600796.98349
  23744927.900   124780527.21307  23744927.000    97231618.16446
  22759515.420   119602089.12508  22759516.240    93196456.73447
  24127548.040   126791618.77407  24127547.660    98798899.09745
  22857240.380   120115618.30108  22857238.840    93596589.55947
 15 02 16 00 51  0.0000000  0  7G16G18G21G22G27G29G31
  21617237.060   113599361.30909  21617234.780    88518995.62048
  22536146.220   118428362.17408  22536145.120    92281879.56247
  21401033.120   112463544.88709  21401030.480    87634063.26649
  23727482.700   124688852.92207  23727481.540    97160183.87546
  22747975.220   119541445.15908  22747976.020    93149201.72747
  24141390.680   126864361.82607  24141389.960    98855581.98245
  22874469.060   120206155.24008  22874467.600    93667137.76147
 15 02 16 00 51 30.0000000  0  7G16G18G21G22G27G29G31
  21604179.040   113530741.03509  21604176.820    88465525.28948
  22525584.580   118372860.45408  22525583.500    92238631.48746
  21409217.440   112506553.75809  21409214.820    87667576.66649
  23710042.460   124597204.29907  23710041.140    97088769.56746
  22736454.960   119480906.35508  22736455.840    93102028.65747
  24155235.280   126937114.94607  24155234.260    98912272.70745
  22891732.780   120296876.52208  22891731.300    93737829.58547
 15 02 16 00 52  0.0000000  0  7G16G18G21G22G27G29G31
  21591171.140   113462384.18809  21591168.960    88412260.22748
  22515082.460   118317671.39908  22515081.320    92195627.05147
  21417461.580   112549877.01909  21417458.960    87701335.05348
  23692607.360   124505583.23107  23692606.200    97017376.76046
  22724954.540   119420471.71808  22724955.500    93054936.76947
  24169081.480   127009877.10006  24169080.480    98968970.46646
  22909030.920   120387778.36408  22909029.320    93808662.13347
 15 02 16 00 52 30.0000000  0  7G16G18G21G22G27G29G31
  21578214.140   113394294.65109  21578211.900    88359203.44248
  22504640.540   118262798.62608  22504639.300    92152869.05547
  21425765.400   112593513.78509  21425762.760    87735337.72248
