     2.11           OBSERVATION DATA    G                   RINEX VERSION / TYPE
SPIDER V4,0,0,3554                      2015 04 16 07:38    PGM / RUN BY / DATE 
CABS                                                        MARKER NAME         
CABS                                                        MARKER NUMBER       
                                                            OBSERVER / AGENCY   
462287              LEICA GRX1200PRO    8.10/2.127          REC # / TYPE / VERS 
103298              LEIAT504                                ANT # / TYPE        
  5116912.3402   671231.6412  3737143.4301                  APPROX POSITION XYZ 
        0.0600        0.0000        0.0000                  ANTENNA: DELTA H/E/N
     1     1                                                WAVELENGTH FACT L1/2
     4    C1    L1    P2    L2                              # / TYPES OF OBSERV 
    30.000                                                  INTERVAL            
  2015    02    16    00    00    0.0000000     GPS         TIME OF FIRST OBS   
  2015    02    16    23    59   30.0000000     GPS         TIME OF LAST OBS    
    16                                                      LEAP SECONDS        
    30                                                      # OF SATELLITES     
   G 1   802   802   802   802                              PRN / # OF OBS      
   G 2   942   942   942   942                              PRN / # OF OBS      
   G 3   847   847   847   847                              PRN / # OF OBS      
   G 4   831   831   831   831                              PRN / # OF OBS      
   G 5   645   645   645   645                              PRN / # OF OBS      
   G 6   837   837   837   837                              PRN / # OF OBS      
   G 7   673   673   672   672                              PRN / # OF OBS      
   G 9   808   808   808   808                              PRN / # OF OBS      
   G10   752   752   752   752                              PRN / # OF OBS      
   G11   769   769   769   769                              PRN / # OF OBS      
   G12   830   830   830   830                              PRN / # OF OBS      
   G13   791   791   791   791                              PRN / # OF OBS      
   G14   940   940   940   940                              PRN / # OF OBS      
   G15   686   686   685   685                              PRN / # OF OBS      
   G16   665   665   665   665                              PRN / # OF OBS      
   G17   942   942   942   942                              PRN / # OF OBS      
   G18   907   907   907   907                              PRN / # OF OBS      
   G19   750   750   750   750                              PRN / # OF OBS      
   G20   789   789   789   789                              PRN / # OF OBS      
   G21   731   731   731   731                              PRN / # OF OBS      
   G22   657   657   657   657                              PRN / # OF OBS      
   G23   756   756   755   755                              PRN / # OF OBS      
   G24   814   814   814   814                              PRN / # OF OBS      
   G25   855   855   855   855                              PRN / # OF OBS      
   G27   801   801   801   801                              PRN / # OF OBS      
   G28   872   872   872   872                              PRN / # OF OBS      
   G29   782   782   782   782                              PRN / # OF OBS      
   G30   719   719   719   719                              PRN / # OF OBS      
   G31   871   871   870   870                              PRN / # OF OBS      
   G32   769   769   769   769                              PRN / # OF OBS      
BIT 2 OF LLI FLAGS DATA COLLECTED UNDER A/S CONDITION       COMMENT             
SNR is mapped to RINEX snr flag value [2-9]                 COMMENT             
Lx:     = 25dBHz -> 1; 26-27dBHz -> 2; 28-31dBHz -> 3       COMMENT             
       32-35dBHz -> 4; 36-38dBHz -> 5; 39-41dBHz -> 6       COMMENT             
       42-44dBHz -> 7; 45-48dBHz -> 8; >=49dBHz -> 9        COMMENT             
                                                            END OF HEADER       
 15 02 16 00 00  0.0000000  0  7G16G18G21G25G27G29G31
  23258477.700   122224133.36407  23258479.700    95239602.18145
  23818515.060   125167187.68006  23818517.720    97532892.03843
  20898311.560   109821518.78308  20898312.820    85575284.25249
  23155599.040   121683688.76907  23155604.140    94818567.00546
  24422180.520   128339434.41105  24422186.180   100004777.36845
  22349961.080   117450321.52308  22349963.200    91519955.89447
  21679177.300   113924866.70608  21679178.920    88772639.63948
 15 02 16 00 00 30.0000000  0  7G16G18G21G25G27G29G31
  23241525.940   122135051.40407  23241528.060    95170187.69045
  23803352.100   125087506.19006  23803354.920    97470802.67745
  20897551.400   109817524.22808  20897552.700    85572171.62849
  23171999.040   121769871.96807  23172004.160    94885722.71046
  24407615.980   128262897.13705  24407621.560    99945138.01544
  22362765.000   117517606.12008  22362767.020    91572385.42947
  21690882.940   113986380.16208  21690884.540    88820572.18248
 15 02 16 00 01  0.0000000  0  7G16G18G21G25G27G29G31
  23224590.780   122046056.98107  23224593.000    95100841.42645
  23788199.340   125007878.27406  23788202.300    97408755.05744
  20896875.760   109813973.81108  20896877.080    85569405.07749
  23188445.380   121856298.73006  23188450.460    94953068.21046
  24393068.140   128186447.50705  24393073.480    99885566.94044
  22375583.280   117584966.33608  22375585.260    91624873.89347
  21702670.600   114048324.67008  21702672.220    88868840.61548
 15 02 16 00 01 30.0000000  0  7G16G18G21G25G27G29G31
  23207672.120   121957149.25407  23207674.360    95031562.70045
  23773056.700   124928303.84706  23773059.820    97346749.09645
  20896284.040   109810864.36108  20896285.380    85566982.14049
  23204937.460   121942965.63406  23204942.500    95020600.84546
  24378536.420   128110082.99205  24378541.700    99826062.18545
  22388415.260   117652398.82508  22388417.240    91677418.67247
  21714539.320   114110695.14108  21714540.980    88917440.97248
 15 02 16 00 02  0.0000000  0  7G16G18G21G25G27G29G31
  23190770.280   121868329.63207  23190772.440    94962352.63445
  23757924.940   124848785.52306  23757927.940    97284786.85645
  20895776.100   109808194.94808  20895777.400    85564902.08449
  23221475.080   122029871.50107  23221480.160    95088319.67146
  24364020.840   128033803.43805  24364026.020    99766623.64144
  22401260.780   117719902.69908  22401262.860    91730019.07647
  21726488.540   114173488.80008  21726490.240    88966371.08848
 15 02 16 00 02 30.0000000  0  7G16G18G21G25G27G29G31
  23173885.780   121779600.93307  23173887.780    94893213.40645
  23742804.480   124769327.01906  23742807.480    97222871.24544
  20895351.940   109805965.84308  20895353.240    85563165.12549
  23238058.220   122117016.28707  23238063.320    95156224.68146
  24349521.660   127957609.80605  24349526.700    99707252.05644
  22414119.960   117787478.31908  22414122.160    91782675.38747
  21738518.080   114236704.65408  21738519.860    89015630.18548
 15 02 16 00 03  0.0000000  0  7G16G18G21G25G27G29G31
  23157018.840   121690964.36307  23157020.680    94824145.97845
  23727695.760   124689930.14406  23727698.620    97161003.64045
  20895011.300   109804175.74708  20895012.580    85561770.25349
  23254686.580   122204398.13407  23254691.660    95224314.42346
  24335038.620   127881501.07005  24335043.660    99647946.59444
  22426992.540   117855124.06508  22426994.780    91835386.34247
  21750627.360   114300339.48708  21750629.180    89065215.75648
 15 02 16 00 03 30.0000000  0  7G16G18G21G25G27G29G31
  23140169.760   121602421.93707  23140171.520    94755151.90845
  23712599.460   124610598.19406  23712602.200    97099186.65145
  20894754.220   109802824.84608  20894755.520    85560717.60749
  23271360.040   122292016.92507  23271365.080    95292588.78346
  24320571.920   127805478.22405  24320577.080    99588708.05445
  22439878.640   117922840.98608  22439880.940    91888152.75547
  21762816.140   114364391.94208  21762817.920    89115126.74648
 15 02 16 00 04  0.0000000  0  7G16G18G21G25G27G29G31
  23123338.960   121513975.61707  23123340.700    94686232.71645
  23697515.940   124531334.00306  23697518.580    97037422.41645
  20894580.520   109801912.14108  20894581.820    85560006.41449
  23288078.360   122379871.53007  23288083.360    95361046.90346
  24306121.460   127729541.07505  24306126.840    99529536.29045
  22452778.080   117990628.00308  22452780.460    91940973.79347
  21775083.780   114428858.77508  21775085.520    89165360.62848
 15 02 16 00 04 30.0000000  0  7G16G18G21G25G27G29G31
  23106526.880   121425627.65607  23106528.640    94617390.17046
  23682445.740   124452140.69306  23682448.460    96975713.43344
  20894490.200   109801437.55808  20894491.480    85559636.62049
  23304841.460   122467961.58407  23304846.520    95429688.47546
  24291687.440   127653690.27905  24291693.060    99470431.82745
  22465690.840   118058485.05708  22465693.240    91993849.39947
  21787430.020   114493738.62608  21787431.760    89215916.34148
 15 02 16 00 05  0.0000000  0  7G16G18G21G25G27G29G31
  23089733.940   121337380.26607  23089735.720    94548625.98246
  23667389.420   124373021.04106  23667392.380    96914061.85945
  20894483.260   109801400.83308  20894484.480    85559608.00949
  23321649.080   122556286.30006  23321654.220    95498512.90246
  24277269.920   127577926.03905  24277275.740    99411394.80046
  22478616.980   118126412.48408  22478619.360    92046779.83947
  21799854.500   114559029.51208  21799856.220    89266792.34248
 15 02 16 00 05 30.0000000  0  7G16G18G21G25G27G29G31
  23072960.040   121249232.75307  23072961.760    94479939.62045
  23652347.140   124293975.50706  23652350.400    96852467.99245
  20894558.920   109801798.30908  20894560.100    85559917.74349
  23338500.680   122644842.19206  23338505.860    95567517.47946
  24262868.420   127502245.91905  24262874.360    99352423.30946
  22491555.900   118194406.96208  22491558.320    92099762.53547
  21812356.260   114624726.42508  21812358.000    89317984.73048
 15 02 16 00 06  0.0000000  0  7G16G18G21G25G27G29G31
  23056205.720   121161188.41207  23056207.500    94411333.66346
  23637320.000   124215008.33906  23637323.160    96790935.17844
  20894717.480   109802631.37108  20894718.620    85560566.89049
  23355396.280   122733629.87906  23355401.580    95636702.66346
  24248483.220   127426651.50905  24248489.140    99293518.63345
  22504507.740   118262468.97808  22504510.080    92152797.84147
  21824935.100   114690828.55508  21824936.880    89369492.86648
 15 02 16 00 06 30.0000000  0  7G16G18G21G25G27G29G31
  23039471.320   121073248.68007  23039473.220    94342809.21546
  23622308.220   124136121.58106  23622311.380    96729465.04345
  20894958.640   109803898.69408  20894959.800    85561554.42749
  23372335.700   122822647.83306  23372341.000    95706067.28046
  24234114.180   127351142.32205  24234119.980    99234680.33845
  22517472.460   118330598.25608  22517474.660    92205885.57247
  21837590.480   114757332.73908  21837592.220    89421314.29648
 15 02 16 00 07  0.0000000  0  7G16G18G21G25G27G29G31
  23022757.040   120985414.61407  23022759.020    94274367.10846
  23607312.100   124057316.80306  23607315.100    96668058.81144
  20895282.120   109805598.55608  20895283.280    85562879.00549
  23389318.700   122911894.21606  23389323.900    95775609.86945
  24219761.320   127275717.56205  24219766.920    99175907.83745
  22530449.820   118398793.83408  22530451.820    92259024.96347
  21850321.780   114824235.95208  21850323.500    89473446.65948
 15 02 16 00 07 30.0000000  0  7G16G18G21G25G27G29G31
  23006063.320   120897688.87807  23006065.420    94206009.41046
  23592332.460   123978598.39206  23592335.340    96606719.84944
  20895687.800   109807730.57908  20895688.980    85564540.33649
  23406345.220   123001368.90406  23406350.200    95845330.39746
  24205424.560   127200378.12105  24205430.220    99117201.84245
  22543439.720   118467055.14908  22543441.540    92312215.57447
  21863128.700   114891536.76308  21863130.420    89525888.83348
 15 02 16 00 08  0.0000000  0  7G16G18G21G25G27G29G31
  22989390.580   120810073.29807  22989392.760    94137737.55046
  23577369.680   123899968.28206  23577372.440    96545449.71545
  20896175.760   109810294.91008  20896176.940    85566538.52249
  23423415.060   123091070.73106  23423419.800    95915227.89945
  24191104.080   127125123.91905  24191109.680    99058562.26844
  22556442.100   118535382.26408  22556443.780    92365457.45647
  21876010.720   114959232.47408  21876012.480    89578638.72448
 15 02 16 00 08 30.0000000  0  7G16G18G21G25G27G29G31
  22972739.080   120722568.79207  22972741.220    94069552.23746
  23562424.140   123821428.66906  23562426.820    96484250.08644
  20896745.560   109813289.38708  20896746.740    85568871.88949
  23440527.800   123180997.82206  23440532.340    95985300.94545
  24176799.780   127049954.12905  24176805.220    98999988.43444
  22569456.700   118603774.07508  22569458.400    92418749.75047
  21888967.220   115027319.74508  21888969.060    89631693.72448
 15 02 16 00 09  0.0000000  0  7G16G18G21G25G27G29G31
  22956109.400   120635178.78907  22956111.460    94001456.15646
  23547496.640   123742983.40406  23547499.180    96423123.97544
  20897397.280   109816714.44308  20897398.480    85571540.77449
  23457683.440   123271150.62807  23457687.960    96055549.86246
  24162511.880   126974870.25305  24162517.120    98941481.58345
  22582483.560   118672231.07308  22582485.360    92472092.84147
  21901998.020   115095797.47408  21901999.940    89685052.98348
 15 02 16 00 09 30.0000000  0  7G16G18G21G25G27G29G31
  22939501.840   120547905.29407  22939503.860    93933450.85746
  23532587.660   123664635.39706  23532590.000    96362073.63545
  20898130.840   109820569.41608  20898132.060    85574544.65949
  23474881.700   123361527.94707  23474886.280    96125973.73145
  24148240.260   126899872.16505  24148245.340    98883041.57945
  22595522.760   118740752.86508  22595524.640    92525486.42747
  21915102.680   115164663.12708  21915104.620    89738714.51848
 15 02 16 00 10  0.0000000  0  7G16G18G21G25G27G29G31
  22922916.800   120460750.47507  22922918.780    93865538.02846
  23517697.780   123586388.05806  23517700.060    96301101.73845
  20898946.240   109824854.41708  20898947.480    85577883.62549
  23492122.560   123452129.52706  23492127.340    96196572.34346
  24133985.120   126824960.70705  24133990.200    98824669.08444
  22608574.380   118809340.06608  22608576.340    92578930.98347
  21928280.900   115233915.10908  21928282.840    89792677.09048
 15 02 16 00 10 30.0000000  0  7G16G18G21G25G27G29G31
  22906354.380   120373714.76807  22906356.380    93797718.01646
  23502827.080   123508241.97306  23502829.340    96240208.74445
  20899842.800   109829565.71108  20899844.000    85581554.77449
  23509405.380   123542952.20006  23509410.480    96267343.23246
  24119746.060   126750133.71605  24119751.200    98766362.38446
  22621637.940   118877989.95008  22621639.920    92632424.37647
  21941531.740   115303548.63308  21941533.660    89846936.96448
 15 02 16 00 11  0.0000000  0  7G16G18G21G25G27G29G31
  22889815.260   120286801.68607  22889817.300    93729993.56646
  23487976.440   123430201.68606  23487978.880    96179398.19845
  20900820.800   109834705.11508  20900822.000    85585559.51249
  23526730.420   123633996.88806  23526735.860    96338287.12445
  24105523.420   126675393.35705  24105528.620    98708123.22745
  22634713.800   118946704.25807  22634715.780    92685967.97047
  21954855.180   115373563.30408  21954857.020    89901493.83748
 15 02 16 00 11 30.0000000  0  7G16G18G21G25G27G29G31
  22873299.700   120200011.90307  22873301.700    93662365.19046
  23473146.200   123352269.05006  23473148.900    96118671.53445
  20901879.940   109840270.82808  20901881.140    85589896.43849
  23544097.280   123725261.29906  23544102.960    96409402.22946
  24091316.880   126600738.32305  24091322.320    98649950.50046
  22647801.620   119015481.53408  22647803.680    92739560.62747
  21968250.420   115443955.25608  21968252.160    89956344.68748
 15 02 16 00 12  0.0000000  0  7G16G18G21G25G27G29G31
  22856807.820   120113346.25307  22856809.660    93594833.52546
  23458336.600   123274445.24306  23458339.460    96058029.64045
  20903019.700   109846260.44608  20903020.940    85594563.67549
  23561505.620   123816743.01406  23561511.440    96480686.65145
  24077126.380   126526167.33405  24077131.940    98591843.25846
  22660901.160   119084319.87908  22660903.180    92793200.87147
  21981716.740   115514720.84808  21981718.400    90011486.68948
 15 02 16 00 12 30.0000000  0  7G16G18G21G25G27G29G31
  22840340.220   120026808.29907  22840342.000    93527401.37046
  23443548.500   123196734.66706  23443551.520    95997476.01045
  20904240.260   109852674.49608  20904241.500    85599561.63949
  23578955.540   123908442.67606  23578961.400    96552140.90146
  24062952.160   126451682.11705  24062957.840    98533802.90146
  22674012.500   119153220.54908  22674014.540    92846889.68247
  21995253.940   115585859.15208  21995255.580    90066919.11548
 15 02 16 00 13  0.0000000  0  7G16G18G21G25G27G29G31
  22823896.960   119940398.29307  22823898.720    93460068.92846
  23428782.020   123119138.11106  23428785.280    95937011.21245
  20905541.080   109859510.34308  20905542.320    85604888.28049
  23596446.580   124000357.34806  23596452.260    96623762.69446
  24048793.980   126377280.90105  24048799.640    98475827.95546
  22687135.340   119222181.45408  22687137.420    92900625.42247
  22008861.180   115657365.69408  22008862.880    90122638.48248
 15 02 16 00 13 30.0000000  0  7G16G18G21G25G27G29G31
  22807478.640   119854119.59407  22807480.420    93392838.79946
  23414038.280   123041660.17806  23414041.580    95876638.85245
  20906922.280   109866768.69508  20906923.540    85610544.14749
  23613978.580   124092487.46806  23613984.120    96695552.37646
  24034652.120   126302965.20905  24034657.680    98417919.67646
  22700269.880   119291203.73608  22700272.000    92954408.99747
  22022538.220   115729239.58608  22022540.100    90178644.10048
 15 02 16 00 14  0.0000000  0  7G16G18G21G25G27G29G31
  22791085.420   119767972.94607  22791087.260    93325711.57846
  23399317.420   122964301.86506  23399320.700    95816359.71345
  20908383.460   109874447.22408  20908384.700    85616527.41849
  23631550.980   124184830.69106  23631556.460    96767508.10345
  24020526.420   126228733.87405  24020531.940    98360077.12045
  22713415.640   119360285.21907  22713417.840    93008238.70347
  22036284.400   115801476.88308  22036286.500    90234932.89448
 15 02 16 00 14 30.0000000  0  7G16G18G21G25G27G29G31
  22774717.900   119681961.11607  22774719.740    93258689.39646
  23384620.200   122887067.07406  23384623.280    95756176.79645
  20909924.520   109882545.64108  20909925.760    85622837.88149
  23649163.760   124277386.63206  23649169.140    96839629.58145
  24006416.960   126154587.67706  24006422.400    98302300.90946
  22726572.880   119429427.08107  22726575.200    93062115.44747
  22050099.420   115874075.74208  22050101.680    90291503.42248
 15 02 16 00 15  0.0000000  0  7G16G18G21G25G27G29G31
  22758376.600   119596087.00507  22758378.400    93191774.52446
  23369947.380   122809959.75807  23369950.100    95696093.22144
  20911545.620   109891064.65008  20911546.860    85629476.07649
  23666816.900   124370155.23906  23666822.160    96911916.81245
  23992323.840   126080527.61406  23992329.200    98244591.84045
  22739741.680   119498629.70007  22739744.060    93116039.54147
  22063983.040   115947034.50708  22063985.340    90348354.39648
 15 02 16 00 15 30.0000000  0  7G16G18G21G25G27G29G31
  22742061.620   119510351.33007  22742063.420    93124967.51947
  23355299.080   122732980.96107  23355301.460    95636109.78244
  20913246.200   109900001.45508  20913247.460    85636439.82549
  23684509.940   124463133.91106  23684515.140    96984367.70145
  23978246.880   126006552.33806  23978252.220    98186948.82745
  22752921.760   119567891.60607  22752924.200    93170009.84147
  22077934.540   116020349.42308  22077936.700    90405482.88548
 15 02 16 00 16  0.0000000  0  7G16G18G21G25G27G29G31
  22725773.420   119424756.58207  22725775.280    93058270.32946
  23340675.600   122656133.29306  23340677.740    95576228.52144
  20915026.240   109909355.72608  20915027.500    85643728.87349
  23702242.920   124556321.90706  23702248.080    97056981.70744
  23964186.100   125932662.30306  23964191.400    98129372.20146
  22766113.100   119637212.37107  22766115.560    93224026.00147
  22091953.300   116094017.93408  22091955.300    90462886.89748
 15 02 16 00 16 30.0000000  0  7G16G18G21G25G27G29G31
  22709512.460   119339305.33307  22709514.400    92991684.97546
  23326077.620   122579420.62106  23326079.720    95516452.45544
  20916885.580   109919126.55808  20916886.820    85651342.51049
  23720015.720   124649718.68106  23720020.760    97129758.39944
  23950141.560   125858857.96805  23950146.700    98071862.39146
  22779315.700   119706592.57907  22779318.200    93278088.48247
  22106038.980   116168038.25608  22106040.780    90520565.05348
 15 02 16 00 17  0.0000000  0  7G16G18G21G25G27G29G31
  22693278.980   119253998.18507  22693280.980    92925211.89946
  23311505.440   122502844.32806  23311507.600    95456782.65345
  20918823.720   109929311.59408  20918824.960    85659278.91449
  23737827.820   124743321.72406  23737832.740    97202695.80145
  23936113.140   125785138.22605  23936118.080    98014418.49246
  22792529.260   119776030.39207  22792531.840    93332195.84447
  22120190.780   116242406.37008  22120192.420    90578514.21448
 15 02 16 00 17 30.0000000  0  7G16G18G21G25G27G29G31
  22677073.360   119168836.99807  22677075.340    92858852.55647
  23296959.660   122426406.81906  23296961.980    95397221.00645
  20920840.540   109939910.10508  20920841.780    85667537.49849
  23755678.940   124837129.56206  23755683.760    97275792.80145
  23922100.680   125711502.69605  23922105.460    97957040.20546
  22805753.780   119845525.56707  22805756.360    93386347.89547
  22134408.160   116317119.31908  22134409.740    90636732.07948
 15 02 16 00 18  0.0000000  0  7G16G18G21G25G27G29G31
  22660896.220   119083825.30407  22660898.160    92792609.69646
  23282441.000   122350111.92806  23282443.400    95337770.47045
  20922936.120   109950922.60508  20922937.380    85676118.67349
  23773569.140   124931142.85906  23773574.040    97349049.88945
  23908104.600   125637953.13805  23908109.360    97899728.91346
  22818989.440   119915079.38707  22818992.040    93440545.65147
  22148691.020   116392176.29908  22148692.640    90695218.02148
 15 02 16 00 18 30.0000000  0  7G16G18G21G25G27G29G31
  22644747.540   118998962.99007  22644749.360    92726483.22147
  23267949.960   122273961.43707  23267952.440    95278432.46345
  20925109.880   109962345.74308  20925111.100    85685019.83249
  23791497.840   125025358.39506  23791502.900    97422464.55246
  23894124.440   125564487.68705  23894129.340    97842483.16647
  22832235.880   119984689.42407  22832238.440    93494787.21147
  22163038.440   116467572.37208  22163040.160    90753968.18548
 15 02 16 00 19  0.0000000  0  7G16G18G21G25G27G29G31
  22628627.820   118914253.32607  22628629.620    92660475.69747
  23253487.020   122197958.02707  23253489.560    95219209.07645
  20927361.820   109974179.65008  20927362.980    85694241.06449
  23809464.960   125119775.72806  23809470.180    97496036.48145
  23880160.500   125491106.91305  23880165.500    97785303.38746
  22845493.160   120054356.20407  22845495.640    93549072.98647
  22177450.120   116543305.76208  22177451.900    90812981.20248
 15 02 16 00 19 30.0000000  0  7G16G18G21G25G27G29G31
  22612537.660   118829699.46107  22612539.540    92594589.58147
  23239052.960   122122106.00507  23239055.460    95160103.64045
  20929691.960   109986424.56008  20929693.100    85703782.55549
  23827470.580   125214394.91706  23827475.920    97569765.69445
  23866212.900   125417812.40605  23866218.140    97728190.83546
  22858761.340   120124080.52207  22858763.720    93603403.59246
  22191925.720   116619375.22008  22191927.600    90872256.09048
 15 02 16 00 20  0.0000000  0  7G16G18G21G25G27G29G31
  22596476.960   118745300.23907  22596478.900    92528823.95947
  23224647.740   122046405.08807  23224650.160    95101115.95646
  20932099.420   109999075.72708  20932100.520    85713640.61549
  23845513.840   125309211.50606  23845519.120    97643648.72245
  23852281.120   125344600.77005  23852286.560    97671142.84946
  22872039.700   120193858.87707  22872042.120    93657776.30047
  22206464.020   116695774.53308  22206466.000    90931788.01048
 15 02 16 00 20 30.0000000  0  7G16G18G21G25G27G29G31
  22580446.820   118661061.15808  22580448.740    92463183.11747
  23210272.360   121970861.28107  23210274.760    95042250.67846
  20934584.680   110012135.80408  20934585.760    85723817.30749
  23863595.040   125404227.72106  23863600.300    97717687.30345
  23838365.780   125271475.43005  23838371.320    97614162.10747
  22885328.940   120263694.68007  22885331.480    93712193.78647
  22221065.260   116772504.74308  22221067.320    90991577.77048
 15 02 16 00 21  0.0000000  0  7G16G18G21G25G27G29G31
  22564447.280   118576982.61408  22564449.080    92397667.37547
  23195926.900   121895475.08307  23195929.360    94983508.21945
  20937147.140   110025601.61108  20937148.180    85734310.15249
  23881713.520   125499440.55606  23881718.740    97791879.08145
  23824466.560   125198434.68106  23824472.060    97557247.28746
  22898628.640   120333585.70607  22898631.380    93766654.28947
  22235728.480   116849560.84208  22235730.600    91051621.46948
 15 02 16 00 21 30.0000000  0  7G16G18G21G25G27G29G31
  22548478.580   118493066.47108  22548480.380    92332278.17747
  23181611.860   121820249.24207  23181614.400    94924890.72245
  20939786.620   110039472.21708  20939787.640    85745118.42449
  23899869.160   125594848.79606  23899874.340    97866223.14445
  23810583.500   125125478.46906  23810588.920    97500398.33146
  22911938.860   120403531.72607  22911941.740    93821157.65847
  22250453.320   116926940.66108  22250455.440    91111917.41348
 15 02 16 00 22  0.0000000  0  7G16G18G21G25G27G29G31
  22532541.340   118409315.78108  22532543.160    92267017.90946
  23167328.020   121745187.70807  23167330.620    94866401.25245
  20942503.080   110053747.52908  20942504.140    85756242.05249
  23918061.760   125690452.16705  23918066.940    97940719.24445
  23796716.820   125052607.87206  23796722.080    97443616.08346
  22925259.760   120473533.49107  22925262.720    93875704.46647
  22265239.480   117004642.40708  22265241.500    91172464.20147
 15 02 16 00 22 30.0000000  0  7G16G18G21G25G27G29G31
  22516635.980   118325732.54208  22516637.820    92201888.11247
  23153075.980   121670293.24507  23153078.600    94808041.95846
  20945296.380   110068426.43008  20945297.440    85767680.16749
  23936291.020   125786249.52906  23936296.360    98015366.49744
  23782866.440   124979822.99306  23782871.500    97386900.63646
  22938591.180   120543590.93607  22938594.240    93930294.65247
  22280086.420   117082663.30608  22280088.380    91233259.68347
 15 02 16 00 23  0.0000000  0  7G16G18G21G25G27G29G31
  22500762.660   118242317.49908  22500764.460    92136889.39147
  23138855.880   121595566.70907  23138858.440    94749813.53845
  20948165.920   110083506.20408  20948167.020    85779430.64849
  23954556.720   125882237.96005  23954562.200    98090162.66445
  23769031.980   124907122.18106  23769036.860    97330250.68546
  22951932.780   120613701.66207  22951935.880    93984926.35247
  22294993.200   117160998.82408  22294995.160    91294300.33048
 15 02 16 00 23 30.0000000  0  7G16G18G21G25G27G29G31
  22484921.820   118159073.28808  22484923.620    92072023.78147
  23124668.460   121521011.63707  23124670.920    94691718.71145
  20951111.660   110098986.33708  20951112.800    85791493.09249
  23972858.820   125978416.75706  23972864.200    98165107.15644
  23755213.540   124834505.98106  23755218.380    97273666.67446
  22965284.640   120683866.08307  22965287.720    94039599.90046
  22309959.420   117239646.63408  22309961.380    91355584.32148
 15 02 16 00 24  0.0000000  0  7G16G18G21G25G27G29G31
  22469113.840   118076001.73808  22469115.580    92007292.70947
  23110514.100   121446630.12007  23110516.360    94633759.11646
  20954133.280   110114865.01008  20954134.420    85803866.08649
  23991197.040   126074784.21006  23991202.160    98240198.66245
  23741411.100   124761974.05806  23741415.860    97217148.33145
  22978646.800   120754083.99107  22978649.740    94094315.13046
  22324984.500   117318603.61308  22324986.440    91417109.22547
 15 02 16 00 24 30.0000000  0  7G16G18G21G25G27G29G31
  22453338.940   117993104.42808  22453340.700    91942697.42147
  23096393.300   121372424.60007  23096395.340    94575936.67645
  20957230.480   110131140.84608  20957231.600    85816548.56749
  24009571.020   126171338.65706  24009575.840    98315435.85544
  23727624.580   124689525.94705  23727629.280    97160695.28545
  22992018.940   120824354.57207  22992021.760    94149071.39546
  22340067.820   117397866.87608  22340069.760    91478872.79047
 15 02 16 00 25  0.0000000  0  7G16G18G21G25G27G29G31
  22437597.840   117910384.89908  22437599.620    91878240.65347
  23082306.760   121298399.26707  23082308.720    94518254.61545
  20960403.280   110147814.00108  20960404.400    85829540.63949
  24027980.760   126268080.41806  24027985.320    98390819.01845
  23713854.340   124617163.36006  23713858.900    97104308.87645
  23005401.220   120894678.91807  23005403.960    94203869.54946
  22355209.200   117477435.09908  22355211.080    91540873.98547
 15 02 16 00 25 30.0000000  0  7G16G18G21G25G27G29G31
  22421890.960   117827844.94208  22421892.700    91813923.81447
  23068254.940   121224556.46507  23068256.920    94460714.80645
  20963651.480   110164883.25508  20963652.560    85842841.36649
  24046425.820   126365007.98406  24046430.320    98466346.96145
  23700100.300   124544886.02005  23700104.840    97047988.91646
  23018793.720   120965056.62507  23018796.340    94258709.29547
  22370408.020   117557305.20908  22370409.820    91603110.41247
 15 02 16 00 26  0.0000000  0  7G16G18G21G25G27G29G31
  22406218.760   117745486.71508  22406220.400    91749748.58547
  23054238.140   121150897.58407  23054240.280    94403318.31645
  20966974.680   110182346.75208  20966975.740    85856449.29049
  24064905.760   126462119.56606  24064910.340    98542018.29045
  23686362.500   124472693.48805  23686367.000    96991735.01145
  23032196.200   121035487.06707  23032198.840    94313590.12246
  22385663.720   117637474.17208  22385665.400    91665579.70947
 15 02 16 00 26 30.0000000  0  7G16G18G21G25G27G29G31
  22390581.440   117663312.16208  22390583.140    91685716.48047
  23040257.200   121077427.32907  23040259.480    94346068.78645
  20970372.720   110200203.64108  20970373.780    85870363.75349
  24083420.320   126559414.19306  24083425.140    98617832.24145
  23672640.880   124400586.13606  23672645.460    96935547.47846
  23045608.840   121105970.50407  23045611.420    94368512.26046
  22400975.720   117717939.36508  22400977.380    91728279.82947
 15 02 16 00 27  0.0000000  0  7G16G18G21G25G27G29G31
  22374979.420   117581322.95408  22374981.160    91621828.80647
  23026312.380   121004146.80607  23026314.760    94288967.10445
  20973845.260   110218452.02808  20973846.320    85884583.28349
  24101969.120   126656889.75906  24101974.260    98693787.20745
  23658935.400   124328563.16506  23658939.960    96879425.72045
  23059031.420   121176505.72407  23059033.840    94423474.74046
  22416343.400   117798697.10308  22416345.080    91791207.91347
 15 02 16 00 27 30.0000000  0  7G16G18G21G25G27G29G31
  22359413.380   117499523.06508  22359415.160    91558088.64447
  23012404.540   120931060.52707  23012407.000    94232016.78145
  20977392.400   110237092.33008  20977393.460    85899108.19849
  24120552.280   126754546.84205  24120557.940    98769883.59446
  23645246.340   124256626.55406  23645250.920    96823371.25246
  23072464.040   121247094.33207  23072466.460    94478478.80146
  22431766.580   117879746.48108  22431768.340    91854363.25547
 15 02 16 00 28  0.0000000  0  7G16G18G21G25G27G29G31
  22343883.440   117417912.74708  22343885.260    91494496.21447
  22998533.860   120858169.35907  22998536.340    94175218.49145
  20981013.520   110256121.60408  20981014.620    85913936.20849
  24139169.340   126852382.26505  24139175.560    98846118.94644
  23631573.300   124184774.43606  23631578.040    96767382.61346
  23085906.420   121317734.54407  23085908.880    94533523.08846
  22447244.440   117961083.00608  22447246.280    91917742.34948
 15 02 16 00 28 30.0000000  0  7G16G18G21G25G27G29G31
  22328390.000   117336494.01808  22328391.780    91431053.05447
  22984700.680   120785475.56307  22984703.240    94118573.98546
  20984708.260   110275537.84808  20984709.400    85929065.74949
  24157820.120   126950394.29205  24157826.720    98922491.93145
  23617916.260   124113006.43706  23617921.120    96711459.51646
  23099358.420   121388425.48407  23099360.920    94588606.89846
  22462776.320   118042703.42608  22462778.240    91981342.65847
 15 02 16 00 29  0.0000000  0  7G16G18G21G25G27G29G31
  22312933.400   117255268.95808  22312935.100    91367760.82047
  22970905.660   120712982.29607  22970908.180    94062085.75346
  20988476.600   110295340.79308  20988477.780    85944496.61349
  24176504.600   127048582.13905  24176511.180    98999001.90145
  23604275.320   124041323.13706  23604280.300    96655602.42146
  23112820.100   121459167.43107  23112822.680    94643730.44846
  22478361.680   118124605.00908  22478363.700    92045162.04447
 15 02 16 00 29 30.0000000  0  7G16G18G21G25G27G29G31
  22297513.900   117174238.86008  22297515.580    91304620.50447
  22957148.980   120640690.98507  22957151.440    94005754.89145
  20992318.000   110315527.82208  20992319.280    85960226.76449
  24195222.180   127146943.21805  24195228.540    99075646.83445
  23590650.260   123969723.28706  23590655.360    96599810.35346
  23126291.340   121529959.26507  23126293.980    94698892.87546
  22493999.800   118206783.98408  22494001.860    92109197.59147
 15 02 16 00 30  0.0000000  0  7G16G18G21G25G27G29G31
  22282131.920   117093406.07008  22282133.620    91241633.94347
  22943431.160   120568604.21907  22943433.620    93949583.41146
  20996232.320   110336097.82808  20996233.660    85976255.34249
  24213972.620   127245476.31005  24213978.460    99152425.84244
  23577041.160   123898207.17506  23577046.320    96544083.52746
  23139772.220   121600801.12607  23139774.840    94754094.28846
  22509690.240   118289237.88208  22509692.260    92173447.35947
 15 02 16 00 30 30.0000000  0  7G16G18G21G25G27G29G31
  22266788.300   117012774.98408  22266790.060    91178804.54447
  22929753.300   120496727.38607  22929755.720    93893575.52046
  21000219.700   110357051.66708  21000221.040    85992583.00949
  24232756.020   127344182.39505  24232761.420    99229339.62845
  23563448.460   123826777.02806  23563453.540    96488423.69346
  23153262.980   121671694.61607  23153265.460    94809335.94246
  22525432.860   118371966.16008  22525434.840    92237910.92647
 15 02 16 00 31  0.0000000  0  7G16G18G21G25G27G29G31
  22251483.300   116932346.69508  22251485.020    91116133.16647
  22916115.580   120425061.41707  22916117.960    93837731.92645
  21004279.680   110378386.82208  21004280.980    86009207.80549
  24251571.860   127443058.74405  24251576.720    99306386.12344
  23549871.900   123755431.64306  23549876.900    96432829.90846
  23166763.180   121742638.51907  23166765.620    94864616.85346
  22541226.860   118454964.35908  22541228.800    92302584.82247
 15 02 16 00 31 30.0000000  0  7G16G18G21G25G27G29G31
  22236217.280   116852123.23108  22236218.940    91053621.39347
  22902518.500   120353608.87607  22902520.820    93782054.66046
  21008411.800   110400101.13308  21008413.060    86026128.05149
  24270419.820   127542103.95006  24270424.260    99383564.17744
  23536311.400   123684170.84406  23536316.280    96377302.03646
  23180272.840   121813632.03307  23180275.220    94919936.44346
  22557071.720   118538229.63408  22557073.620    92367466.82647
 15 02 16 00 32  0.0000000  0  8G16G18G21G22G25G27G29G31
  22220991.320   116772110.34808  22220992.880    90991273.70447
  22888963.420   120282376.65707  22888965.660    93726549.06846
  21012616.700   110422197.91408  21012617.940    86043346.32249
  24553137.980   129027609.20205  24553140.600   100541006.97445
  24289300.200   127641320.39106  24289304.540    99460875.66344
  23522767.820   123612998.60206  23522772.500    96321843.15046
  23193792.660   121884679.29007  23193795.000    94975297.91146
  22572967.580   118621762.68908  22572969.440    92432557.49447
 15 02 16 00 32 30.0000000  0  8G16G18G21G22G25G27G29G31
  22205803.020   116692295.57608  22205804.520    90929080.39647
  22875447.940   120211352.28007  22875450.160    93671205.43146
  21016891.380   110444661.50108  21016892.600    86060850.41849
  24535039.940   128932504.95006  24535042.820   100466900.54644
  24308209.920   127740691.99205  24308214.600    99538308.00646
  23509238.260   123541900.14706  23509242.820    96266441.80645
  23207319.920   121955765.75807  23207322.200    95030689.93346
  22588911.120   118705546.45808  22588913.000    92497843.52747
 15 02 16 00 33  0.0000000  0  8G16G18G21G22G25G27G29G31
  22190656.460   116612699.94308  22190657.940    90867057.84346
  22861976.220   120140557.06507  22861978.340    93616040.32845
  21021238.960   110467508.09108  21021240.140    86078652.95349
  24516929.220   128837335.20405  24516932.600   100392743.10545
  24327152.440   127840235.93805  24327157.400    99615874.69045
  23495726.280   123470894.15806  23495730.720    96211112.48246
  23220858.100   122026909.58207  23220860.380    95086126.65046
  22604905.300   118789596.47508  22604907.260    92563337.02647
 15 02 16 00 33 30.0000000  0  8G16G18G21G22G25G27G29G31
  22175550.600   116533318.08908  22175552.100    90805201.86747
  22848547.260   120069986.37707  22848549.300    93561050.20646
  21025657.820   110490729.27008  21025658.960    86096747.38349
  24498805.080   128742094.80106  24498808.760   100318530.47044
  24346126.080   127939943.46205  24346131.240    99693568.80744
  23482230.440   123399973.22406  23482234.840    96155849.44346
  23234405.740   122098102.91007  23234408.160    95141601.93946
  22620948.180   118873902.27608  22620950.180    92629029.82647
 15 02 16 00 34  0.0000000  0  8G16G18G21G22G25G27G29G31
  22160486.080   116454153.59108  22160487.620    90743515.26247
  22835161.660   119999643.86207  22835163.700    93506237.87346
  21030148.000   110514325.33308  21030149.140    86115133.92949
  24480668.060   128646787.42906  24480671.720   100244265.58545
  24365130.900   128039814.47305  24365136.100    99771390.30945
  23468751.100   123329138.76706  23468755.440    96100653.78946
  23247963.080   122169347.10007  23247965.640    95197116.84746
  22637039.480   118958462.38708  22637041.500    92694920.80447
 15 02 16 00 34 30.0000000  0  8G16G18G21G22G25G27G29G31
  22145462.720   116375205.45108  22145464.300    90681997.25747
  22821819.320   119929528.91908  22821821.460    93451602.86146
  21034708.620   110538291.55008  21034709.740    86133808.90649
  24462518.320   128551412.73605  24462522.040   100169948.18545
  24384166.020   128139844.33105  24384171.440    99849335.60745
  23455287.620   123258387.61306  23455291.900    96045523.05246
  23261529.480   122240638.60007  23261532.140    95252668.62846
  22653178.100   119043270.83708  22653180.060    92761005.28247
 15 02 16 00 35  0.0000000  0  8G16G18G21G22G25G27G29G31
  22130481.540   116296479.08408  22130483.140    90620652.05347
  22808521.360   119859647.57607  22808523.580    93397149.87446
  21039340.000   110562629.59308  21039341.100    86152773.61949
  24444356.600   128455975.86105  24444360.400   100095582.35244
  24403231.700   128240034.66106  24403237.200    99927405.93445
  23441840.560   123187722.83306  23441844.780    95990459.62045
  23275105.380   122311980.41307  23275108.100    95308259.62846
  22669364.000   119128327.69508  22669365.820    92827283.32747
 15 02 16 00 35 30.0000000  0  8G16G18G21G22G25G27G29G31
  22115542.780   116217975.83908  22115544.440    90559480.70947
  22795268.120   119790001.55807  22795270.380    93342880.25446
  21044041.760   110587337.36408  21044042.820    86172026.43349
  24426183.440   128360478.79205  24426187.700   100021169.56945
  24422327.360   128340383.49705  24422333.140   100005599.79545
  23428409.760   123117143.83306  23428414.080    95935463.03046
  23288690.680   122383371.93307  23288693.560    95363889.34746
  22685596.420   119213629.39708  22685598.180    92893752.16147
 15 02 16 00 36  0.0000000  0  8G16G18G21G22G25G27G29G31
  22100646.540   116139695.98108  22100648.240    90498483.44447
  22782059.700   119720591.55507  22782062.000    93288794.54946
  21048813.200   110612411.66308  21048814.300    86191564.85249
  24407999.120   128264922.43805  24408003.300    99946710.54445
  24441452.560   128440887.36705  24441458.460   100083914.44744
  23414994.860   123046648.83306  23414999.380    95880531.89846
  23302285.080   122454811.15807  23302288.060    95419556.23946
  22701874.480   119299171.12108  22701876.180    92960408.02247
 15 02 16 00 36 30.0000000  0  8G16G18G21G22G25G27G29G31
  22085793.500   116061642.88708  22085795.240    90437662.86847
  22768896.900   119651421.39307  22768899.200    93234895.74346
  21053654.240   110637851.66308  21053655.360    86211388.22949
  24389804.180   128169309.97406  24389808.560    99872207.82744
  24460607.200   128541545.86905  24460613.260   100162349.61145
  23401596.160   122976238.72306  23401600.800    95825666.90346
  23315888.580   122526298.79706  23315891.760    95475260.85046
  22718197.800   119384951.10408  22718199.560    93027249.53047
 15 02 16 00 37  0.0000000  0  8G16G18G21G22G25G27G29G31
  22070983.920   115983818.07708  22070985.700    90377020.17547
  22755780.100   119582492.66407  22755782.300    93181185.06845
  21058564.520   110663655.54808  21058565.660    86231495.15449
  24371599.120   128073643.16705  24371603.220    99797662.67444
  24479790.960   128642356.93705  24479797.060   100240903.68245
  23388213.580   122905913.01606  23388218.280    95770867.67246
  23329501.100   122597833.94206  23329504.380    95531002.47346
  22734565.660   119470965.50908  22734567.620    93094273.72547
 15 02 16 00 37 30.0000000  0  8G16G18G21G22G25G27G29G31
  22056218.440   115906224.65108  22056220.200    90316557.77547
  22742710.040   119513808.90707  22742712.040    93127665.29746
  21063543.900   110689822.72608  21063545.080    86251885.16349
  24353384.420   127977925.33706  24353388.440    99723077.80544
  24499003.640   128743319.93705  24499009.700   100319576.10045
  23374847.260   122835672.55906  23374852.000    95716134.86346
  23343122.860   122669417.62806  23343126.240    95586781.91146
  22750977.800   119557212.53108  22750979.960    93161479.17247
 15 02 16 00 38  0.0000000  0  8G16G18G21G22G25G27G29G31
  22041497.320   115828864.56408  22041499.100    90256277.20947
  22729687.020   119445372.32208  22729688.820    93074338.11146
  21068592.180   110716351.69308  21068593.380    86272557.08549
  24335160.400   127882159.00806  24335164.220    99648455.09244
  24518245.060   128844433.12205  24518250.920   100398365.55245
  23361497.180   122765517.09206  23361501.840    95661468.28346
  23356753.640   122741049.18706  23356757.260    95642598.65946
  22767433.700   119643688.95808  22767435.920    93228863.37246
 15 02 16 00 38 30.0000000  0  8G16G18G21G22G25G27G29G31
  22026820.920   115751739.63008  22026822.720    90196179.87247
  22716711.420   119377184.95807  22716713.100    93021205.12145
  21073708.860   110743240.29108  21073710.100    86293509.24149
  24316927.580   127786346.18206  24316931.240    99573796.09845
  24537514.720   128945694.46405  24537520.240   100477270.44645
  23348163.120   122695446.09206  23348167.740    95606867.51246
  23370393.540   122812728.06806  23370397.320    95698452.27546
  22783932.680   119730391.20008  22783934.840    93296423.53647
 15 02 16 00 39  0.0000000  0  8G16G18G21G22G25G27G29G31
  22012189.660   115674851.84008  22012191.420    90136267.32047
  22703783.660   119309249.40207  22703785.260    92968268.32445
  21078893.600   110770486.38008  21078894.860    86314739.95949
  24298686.200   127690488.79106  24298689.800    99499102.36044
  24556812.240   129047102.24905  24556817.460   100556289.42844
  23334845.100   122625459.41106  23334849.680    95552332.46346
  23384042.580   122884453.84806  23384046.260    95754342.45446
  22800474.040   119817315.80308  22800476.040    93364156.96246
 15 02 16 00 39 30.0000000  0  8G16G18G21G22G25G27G29G31
  21997604.180   115598204.44408  21997605.860    90076542.08447
  22690904.500   119241569.29607  22690906.160    92915530.58246
  21084146.540   110798090.64308  21084147.800    86336249.78249
  24280436.920   127594590.55306  24280440.680    99424376.82145
  24576137.500   129148656.40405  24576142.420   100635422.47045
  23321543.380   122555558.38007  23321547.860    95497864.15346
  23397700.980   122956227.73406  23397704.520    95810270.11946
  22817057.520   119904461.62508  22817059.360    93432062.75946
 15 02 16 00 40  0.0000000  0  8G16G18G21G22G25G27G29G31
  21983065.000   115521800.39508  21983066.600    90017006.46247
  22678074.480   119174147.55807  22678076.360    92862994.15646
  21089467.360   110826051.64108  21089468.580    86358037.57549
  24262180.400   127498654.87506  24262184.100    99349622.06944
  24595490.440   129250355.82505  24595495.180   100714668.71844
  23308258.020   122485743.64207  23308262.480    95443463.07746
  23411368.580   123028050.14107  23411372.140    95866235.57146
  22833682.500   119991825.98508  22833684.280    93500138.85546
 15 02 16 00 40 30.0000000  0  8G16G18G21G22G25G27G29G31
  21968572.120   115445639.81808  21968573.700    89957660.56447
  22665293.760   119106984.70007  22665295.900    92810659.47946
  21094855.420   110854366.05808  21094856.640    86380100.75949
  24243916.940   127402681.96006  24243920.840    99274838.30245
  24614870.220   129352196.99905  24614874.980   100794025.38044
  23294988.740   122416013.05507  23294993.160    95389127.58746
  23425045.060   123099918.60007  23425048.460    95922236.93546
  22850348.060   120079403.91808  22850349.840    93568381.36946
 15 02 16 00 41  0.0000000  0  8G16G18G21G22G25G27G29G31
  21954126.460   115369727.42508  21954128.020    89898508.04447
  22652563.260   119040085.88908  22652565.660    92758530.55046
  21100310.940   110883034.80508  21100312.120    86402440.05049
  24225647.380   127306676.87306  24225651.360    99200029.42946
  24634277.040   129454180.86005  24634282.020   100873493.27544
  23281735.940   122346369.24407  23281740.420    95334859.72246
  23438730.760   123171835.57307  23438733.860    95978276.09646
  22867054.080   120167195.01908  22867055.920    93636789.99146
 15 02 16 00 41 30.0000000  0  8G16G18G21G22G25G27G29G31
  21939728.400   115294065.38808  21939730.020    89839550.62547
  22639883.540   118973453.26908  22639885.940    92706609.04046
  21105833.520   110912055.86708  21105834.640    86425053.86349
  24207372.220   127210642.23005  24207376.260    99125197.53245
  24653710.620   129556305.78805  24653715.900   100953071.06844
  23268499.580   122276812.04707  23268504.180    95280659.33746
  23452425.580   123243801.29507  23452428.540    96034353.24946
  22883800.020   120255196.15507  22883802.000    93705362.27646
 15 02 16 00 42  0.0000000  0  8G16G18G21G22G25G27G29G31
  21925377.900   115218653.26408  21925379.540    89780787.92947
  22627254.580   118907086.99208  22627256.780    92654895.07346
  21111422.380   110941425.26408  21111423.480    86447939.10349
  24189091.700   127114577.88305  24189095.620    99050342.49145
  24673170.260   129658567.61605  24673175.740   101032755.55344
  23255279.260   122207338.91507  23255283.940    95226524.46046
  23466128.980   123315812.73506  23466131.940    96090466.02946
  22900584.920   120343401.70208  22900586.980    93774093.84946
 15 02 16 00 42 30.0000000  0  8G16G18G21G22G25G27G29G31
  21911075.760   115143495.24508  21911077.440    89722223.24147
  22614677.060   118840991.15308  22614679.040    92603391.83646
  21117077.480   110971142.86508  21117078.560    86471095.67849
  24170806.420   127018487.81406  24170809.940    98975467.35745
  24692655.960   129760966.42805  24692661.580   101112546.79444
  23242075.320   122137951.50307  23242080.080    95172456.35947
  23479841.260   123387871.27406  23479844.200    96146615.50346
  22917408.560   120431810.45908  22917410.620    93842983.75846
 15 02 16 00 43  0.0000000  0  8G16G18G21G22G25G27G29G31
  21896822.520   115068593.85308  21896824.180    89663858.50747
  22602151.520   118775168.75708  22602153.320    92552101.68146
  21122798.780   111001208.36908  21122799.840    86494523.34049
  24152516.880   126922375.05206  24152520.060    98900574.56045
  24712167.480   129863501.46104  24712173.360   101192444.14545
  23228887.740   122068650.60707  23228892.620    95118455.67546
  23493562.560   123459977.80406  23493565.400    96202802.35046
  22934270.480   120520420.09708  22934272.460    93912030.18546
 15 02 16 00 43 30.0000000  0  8G16G18G21G22G25G27G29G31
  21882618.160   114993949.39308  21882619.820    89605694.00147
  22589677.960   118709620.04807  22589679.740    92501024.78846
  21128585.600   111031618.41508  21128586.680    86518219.47949
  24134223.080   126826240.59706  24134226.140    98825664.83445
  24731704.300   129966169.11805  24731710.300   101272444.84445
  23215716.240   121999434.25707  23215721.200    95064520.86946
  23507292.720   123532130.05407  23507295.320    96259024.83745
  22951169.680   120609225.62708  22951171.540    93981229.26046
 15 02 16 00 44  0.0000000  0  8G16G18G21G22G25G27G29G31
  21868463.060   114919563.50908  21868464.680    89547730.97547
  22577256.860   118644347.37107  22577258.780    92450162.98646
  21134437.500   111062370.36008  21134438.580    86542182.02949
  24115925.460   126730085.89206  24115928.220    98750739.31545
  24751266.040   130068967.17905  24751272.120   101352547.12945
  23202560.720   121930301.87706  23202565.760    95010651.48647
  23521031.520   123604327.18107  23521033.840    96315282.29846
  22968105.460   120698223.36007  22968107.200    94050578.11046
 15 02 16 00 44 30.0000000  0  8G16G18G21G22G25G27G29G31
  21854358.040   114845440.87608  21854359.640    89489973.08547
  22564889.140   118579355.18108  22564891.200    92399519.72646
  21140354.620   111093464.99608  21140355.660    86566411.61549
  24097624.840   126633915.96306  24097627.600    98675801.95445
  24770852.860   130171896.35805  24770858.980   101432751.62745
  23189421.640   121861255.71306  23189426.680    94956849.27147
  23534779.340   123676571.45907  23534781.400    96371576.46745
  22985077.620   120787412.60007  22985079.360    94120076.18646
 15 02 16 00 45  0.0000000  0  8G16G18G21G22G25G27G29G31
  21840303.660   114771584.52408  21840305.240    89432422.67947
  22552575.560   118514647.18608  22552577.760    92349097.92446
  21146336.880   111124901.99208  21146337.900    86590907.97848
  24079321.900   126537734.54406  24079324.580    98600855.56645
  24790464.820   130274956.15305  24790470.660   101513057.90144
  23176299.140   121792296.96807  23176304.180    94903115.19346
  23548536.120   123748863.40807  23548538.020    96427907.81345
  23002085.880   120876791.51807  23002087.660    94189722.06146
 15 02 16 00 45 30.0000000  0  8G16G18G21G22G25G27G29G31
  21826299.960   114697994.75508  21826301.600    89375080.00847
  22540316.100   118450223.16308  22540318.380    92298897.38446
  21152383.380   111156676.54108  21152384.400    86615667.36949
  24061016.820   126441541.87106  24061019.540    98525900.44545
  24810100.880   130378142.83905  24810106.460   101593463.02645
  23163192.900   121723423.39507  23163197.840    94849447.48346
  23562301.660   123821201.32007  23562303.520    96484274.98046
  23019129.200   120966354.92407  23019131.120    94259511.69646
 15 02 16 00 46  0.0000000  0  7G16G18G21G22G27G29G31
  21812347.500   114624674.31908  21812349.200    89317947.20347
  22528111.380   118386086.34908  22528113.660    92248920.64746
  21158494.180   111188788.87508  21158495.200    86640689.96749
  24042710.060   126345340.76206  24042712.980    98450938.75845
  23150103.080   121654635.73807  23150107.880    94795846.72146
  23576075.980   123893585.77906  23576078.120    96540678.40945
  23036207.200   121056100.25707  23036209.200    94329443.09146
 15 02 16 00 46 30.0000000  0  7G16G18G21G22G27G29G31
  21798447.860   114551631.17808  21798449.540    89261030.47847
  22515962.960   118322245.21108  22515965.160    92199174.31546
  21164670.040   111221243.09408  21164671.020    86665978.96849
  24024403.520   126249139.83306  24024406.160    98375977.17045
  23137030.680   121585939.58407  23137035.320    94742317.26246
  23589859.960   123966022.02806  23589862.520    96597122.20346
  23053320.380   121146030.20707  23053322.420    94399518.33846
 15 02 16 00 47  0.0000000  0  7G16G18G21G22G27G29G31
  21784599.600   114478857.95808  21784601.240    89204324.08047
  22503869.400   118258692.38608  22503871.480    92149652.64546
  21170908.700   111254027.37908  21170909.660    86691525.16649
  24006095.740   126152932.17806  24006098.240    98301010.35445
  23123973.920   121517325.61807  23123978.440    94688851.85147
  23603651.860   124038500.34506  23603654.760    96653598.79946
  23070466.440   121236132.76907  23070468.520    94469728.09846
 15 02 16 00 47 30.0000000  0  7G16G18G21G22G27G29G31
  21770803.680   114406359.81408  21770805.260    89147832.02848
  22491831.500   118195432.77408  22491833.480    92100359.45146
  21177210.320   111287142.82508  21177211.340    86717329.41148
  23987787.760   126056722.96306  23987789.880    98226042.31745
  23110933.340   121448796.52907  23110937.720    94635452.59446
  23617452.320   124111023.29706  23617455.560    96710110.17246
  23087645.220   121326407.27607  23087647.300    94540071.82946
 15 02 16 00 48  0.0000000  0  7G16G18G21G22G27G29G31
  21757060.740   114334140.10108  21757062.300    89091556.93147
  22479850.040   118132470.06008  22479851.940    92051297.61346
  21183575.060   111320589.84908  21183576.080    86743392.02548
  23969480.240   125960516.10106  23969482.080    98151076.13245
  23097909.160   121380353.64707  23097913.500    94582120.49046
  23631261.680   124183592.40006  23631265.200    96766657.49446
  23104856.340   121416851.82807  23104858.360    94610548.07046
 15 02 16 00 48 30.0000000  0  7G16G18G21G22G27G29G31
  21743371.380   114262202.16208  21743372.960    89035501.40547
  22467925.600   118069807.68308  22467927.560    92002469.80446
  21190002.760   111354367.59608  21190003.760    86769712.34348
  23951173.800   125864314.96506  23951175.220    98076114.36345
  23084901.560   121311998.10007  23084905.880    94528856.45446
  23645080.040   124256208.29806  23645083.740    96823241.25245
  23122099.440   121507464.72307  23122101.360    94681155.47446
 15 02 16 00 49  0.0000000  0  7G16G18G21G22G27G29G31
  21729735.620   114190545.72608  21729737.220    88979665.22747
  22456058.400   118007445.83008  22456060.340    91953876.16546
  21196492.580   111388471.82008  21196493.560    86796287.06548
  23932868.360   125768119.70707  23932869.460    98001157.19545
  23071910.100   121243727.39407  23071914.440    94475658.52846
  23658907.040   124328868.79607  23658910.680    96879859.78446
  23139373.420   121598240.16107  23139375.280    94751889.54446
 15 02 16 00 49 30.0000000  0  7G16G18G21G22G27G29G31
  21716154.440   114119176.20608  21716156.060    88924052.62248
  22444249.460   117945389.99608  22444251.440    91905520.97246
  21203044.780   111422903.70808  21203045.680    86823117.10548
  23914565.000   125671936.10406  23914565.980    97926209.10544
  23058935.420   121175544.87707  23058939.720    94422529.31947
  23672743.100   124401576.66207  23672746.520    96936515.22846
  23156678.420   121689178.49207  23156680.180    94822750.54346
 15 02 16 00 50  0.0000000  0  7G16G18G21G22G27G29G31
  21702627.960   114048094.14808  21702629.580    88868664.01648
  22432498.880   117883640.63908  22432501.000    91857404.59846
  21209658.840   111457660.72308  21209659.720    86850200.49648
  23896263.960   125575765.25306  23896265.020    97851270.93144
  23045977.180   121107448.99807  23045981.520    94369467.61946
  23686587.880   124474330.31607  23686591.020    96993206.35246
  23174013.520   121780275.18607  23174015.280    94893734.93046
 15 02 16 00 50 30.0000000  0  7G16G18G21G22G27G29G31
  21689157.180   113977304.75808  21689158.780    88813503.45847
  22420807.720   117822202.78908  22420809.900    91809530.96646
  21216334.960   111492743.69208  21216335.780    86877537.87648
  23877966.080   125479611.93506  23877967.280    97776346.43045
  23033035.880   121039442.49307  23033040.300    94316475.55846
  23700441.740   124547131.65207  23700444.740    97049934.58846
  23191378.620   121871529.98607  23191380.560    94964842.51746
 15 02 16 00 51  0.0000000  0  7G16G18G21G22G27G29G31
  21675742.000   113906807.34008  21675743.540    88758570.40848
  22409175.880   117761076.43808  22409178.140    91761900.05446
  21223072.160   111528147.89308  21223073.000    86905125.56348
  23859671.580   125383476.53206  23859673.020    97701435.87145
  23020111.020   120971522.57307  23020115.500    94263550.96647
  23714304.320   124619979.25007  23714307.200    97106698.90346
  23208772.760   121962936.95007  23208774.840    95036068.68946
 15 02 16 00 51 30.0000000  0  7G16G18G21G22G27G29G31
  21662382.960   113836605.04808  21662384.480    88703867.32948
  22397603.860   117700264.42608  22397606.160    91714514.08046
  21229870.480   111563873.13308  21229871.300    86932963.41448
  23841381.100   125287362.20105  23841382.680    97626541.70445
  23007202.880   120903690.27607  23007207.380    94210694.64047
  23728175.640   124692873.40806  23728178.460    97163499.51645
  23226195.460   122054493.99607  23226197.700    95107411.80446
 15 02 16 00 52  0.0000000  0  7G16G18G21G22G27G29G31
  21649080.260   113766698.92508  21649081.760    88649395.02548
  22386091.840   117639768.08208  22386094.120    91667374.08346
  21236729.360   111599916.70908  21236730.200    86961049.31848
  23823095.140   125191270.79806  23823096.940    97551665.41945
  22994311.260   120835944.70507  22994315.760    94157905.90246
  23742055.480   124765813.16306  23742058.460    97220335.61846
  23243646.060   122146197.30507  23243648.420    95178868.89646
 15 02 16 00 52 30.0000000  0  7G16G18G21G22G27G29G31
  21635834.540   113697092.41708  21635836.080    88595156.19448
  22374640.420   117579590.52408  22374642.600    91620482.48246
  21243648.540   111636277.37408  21243649.420    86989382.30148
  23804814.340   125095205.32406  23804816.040    97476809.31846
  22981436.320   120768286.61007  22981440.840    94105185.33946
