     2.11           OBSERVATION DATA    G                   RINEX VERSION / TYPE
SPIDER V4,0,0,3554                      2015 03 13 01:23    PGM / RUN BY / DATE 
CKHR                                                        MARKER NAME         
CKHR                                                        MARKER NUMBER       
                                                            OBSERVER / AGENCY   
496547              LEICA GRX1200+GNSS  8.10/4.007          REC # / TYPE / VERS 
10301042            LEIAR25         NONE                    ANT # / TYPE        
  5141838.0877   498328.5776  3730203.3049                  APPROX POSITION XYZ 
        0.0720        0.0000        0.0000                  ANTENNA: DELTA H/E/N
     1     1                                                WAVELENGTH FACT L1/2
     4    C1    L1    P2    L2                              # / TYPES OF OBSERV 
    30.000                                                  INTERVAL            
  2015    02    16    00    00    0.0000000     GPS         TIME OF FIRST OBS   
  2015    02    16    23    59   30.0000000     GPS         TIME OF LAST OBS    
    16                                                      LEAP SECONDS        
    30                                                      # OF SATELLITES     
   G 1   320   320   320   320                              PRN / # OF OBS      
   G 2   939   939   939   939                              PRN / # OF OBS      
   G 3   468   468   468   468                              PRN / # OF OBS      
   G 4   265   265   264   264                              PRN / # OF OBS      
   G 5   653   653   653   653                              PRN / # OF OBS      
   G 6   817   817   816   816                              PRN / # OF OBS      
   G 7   664   664   664   664                              PRN / # OF OBS      
   G 9   757   757   757   757                              PRN / # OF OBS      
   G10   762   762   762   762                              PRN / # OF OBS      
   G11   221   221   221   221                              PRN / # OF OBS      
   G12   825   825   825   825                              PRN / # OF OBS      
   G13   801   801   801   801                              PRN / # OF OBS      
   G14   492   492   492   492                              PRN / # OF OBS      
   G15   705   690   676   673                              PRN / # OF OBS      
   G16   428   428   428   428                              PRN / # OF OBS      
   G17   791   791   791   791                              PRN / # OF OBS      
   G18   723   723   723   723                              PRN / # OF OBS      
   G19   221   220   220   220                              PRN / # OF OBS      
   G20   764   763   763   763                              PRN / # OF OBS      
   G21   655   652   647   647                              PRN / # OF OBS      
   G22   274   274   274   274                              PRN / # OF OBS      
   G23   570   570   570   570                              PRN / # OF OBS      
   G24   826   826   825   825                              PRN / # OF OBS      
   G25   859   859   859   859                              PRN / # OF OBS      
   G27   371   371   371   371                              PRN / # OF OBS      
   G28   595   595   595   595                              PRN / # OF OBS      
   G29   774   773   773   773                              PRN / # OF OBS      
   G30   710   710   710   710                              PRN / # OF OBS      
   G31   776   776   776   776                              PRN / # OF OBS      
   G32   212   212   212   212                              PRN / # OF OBS      
BIT 2 OF LLI FLAGS DATA COLLECTED UNDER A/S CONDITION       COMMENT             
SNR is mapped to RINEX snr flag value [2-9]                 COMMENT             
Lx:     = 25dBHz -> 1; 26-27dBHz -> 2; 28-31dBHz -> 3       COMMENT             
       32-35dBHz -> 4; 36-38dBHz -> 5; 39-41dBHz -> 6       COMMENT             
       42-44dBHz -> 7; 45-48dBHz -> 8; >=49dBHz -> 9        COMMENT             
                                                            END OF HEADER       
 15 02 16 00 00  0.0000000  0  7G16G18G21G25G27G29G31
  23161099.580   121712409.04308  23161096.720    94840832.84146
  23880636.000   125493634.52708  23880634.580    97787263.32045
  20917559.440   109922521.94908  20917556.080    85653902.81148
  23273450.800   122302801.17708  23273451.640    95300882.93347
  24251650.660   127443298.18708  24251651.700    99306463.38846
  22486870.280   118169293.63309  22486868.140    92079957.00448
  21584041.860   113424898.14309  21584039.000    88383022.00148
 15 02 16 00 00 30.0000000  0  7G16G18G21G25G27G29G31
  23144489.880   121625124.12308  23144486.920    94772818.65546
  23865793.960   125415639.49608  23865792.440    97726488.09945
  20917102.780   109920121.78508  20917099.300    85652032.54948
  23289722.860   122388311.67108  23289723.540    95367514.45046
  24237260.640   127367679.12208  24237261.700    99247539.48546
  22500095.560   118238792.92809  22500093.360    92134112.27448
  21595694.900   113486135.24509  21595691.940    88430739.20548
 15 02 16 00 01  0.0000000  0  7G16G18G21G25G27G29G31
  23127896.280   121537923.95108  23127893.300    94704870.47746
  23850960.600   125337690.53508  23850959.240    97665748.76645
  20916731.420   109918169.96808  20916727.840    85650511.66448
  23306039.360   122474055.32908  23306039.840    95434327.67746
  24222889.640   127292159.75107  24222890.660    99188693.26147
  22513332.840   118308355.21209  22513330.700    92188316.63847
  21607430.700   113547807.61909  21607427.700    88478795.59048
 15 02 16 00 01 30.0000000  0  7G16G18G21G25G27G29G31
  23111319.320   121450811.54408  23111316.300    94636990.71846
  23836136.740   125259791.58908  23836135.500    97605048.43745
  20916445.540   109916667.40108  20916441.880    85649340.84548
  23322400.400   122560032.85608  23322400.640    95501323.14346
  24208537.920   127216741.60808  24208538.780    99129925.95846
  22526582.220   118377981.12109  22526580.140    92242570.57547
  21619249.140   113609914.27409  21619246.140    88527190.38248
 15 02 16 00 02  0.0000000  0  7G16G18G21G25G27G29G31
  23094758.560   121363784.53808  23094755.660    94569177.51046
  23821322.300   125181941.45808  23821321.060    97544386.10745
  20916244.160   109915609.22108  20916240.520    85648516.30248
  23338804.960   122646239.30408  23338805.320    95568496.97146
  24194204.580   127141420.56208  24194205.380    99071234.33046
  22539842.820   118447665.85009  22539840.640    92296870.34147
  21631148.980   113672448.63109  21631146.000    88575918.44248
 15 02 16 00 02 30.0000000  0  7G16G18G21G25G27G29G31
  23078214.560   121276845.40809  23078211.700    94501432.76946
  23806517.800   125104143.62408  23806516.540    97483764.54545
  20916127.300   109914995.51708  20916123.740    85648038.10148
  23355253.000   122732674.52908  23355253.880    95635849.04246
  24179890.120   127066197.54308  24179890.740    99012619.04645
  22553114.760   118517409.51209  22553112.200    92351216.06047
  21643130.120   113735409.55509  21643127.040    88624978.88048
 15 02 16 00 03  0.0000000  0  7G16G18G21G25G27G29G31
  23061688.320   121189999.55908  23061685.520    94433760.70046
  23791724.480   125026404.12408  23791722.980    97423188.41245
  20916095.600   109914829.22108  20916092.080    85647908.52848
  23371745.020   122819340.95808  23371745.940    95703381.29547
  24165594.860   126991075.71308  24165595.420    98954082.62745
  22566398.340   118587214.72509  22566395.720    92405609.70447
  21655192.760   113798798.12409  21655189.440    88674372.55348
 15 02 16 00 03 30.0000000  0  7G16G18G21G25G27G29G31
  23045179.760   121103246.55908  23045176.980    94366160.99246
  23776942.500   124948723.90308  23776940.800    97362658.49845
  20916148.740   109915108.20308  20916145.120    85648125.92748
  23388280.680   122906236.18508  23388281.540    95771091.85046
  24151318.720   126916053.62608  24151319.460    98895623.93145
  22579693.140   118657080.13009  22579690.760    92460050.23447
  21667336.080   113862610.66309  21667332.580    88724096.58748
 15 02 16 00 04  0.0000000  0  7G16G18G21G25G27G29G31
  23028688.800   121016585.69809  23028685.780    94298633.06146
  23762171.860   124871103.03508  23762169.880    97302174.80445
  20916285.840   109915828.66808  20916282.180    85648687.33548
  23404859.120   122993356.49108  23404860.140    95838977.78646
  24137061.020   126841128.48308  24137062.040    98837240.72846
  22592998.840   118727001.86409  22592996.580    92514534.69048
  21679559.000   113926841.28809  21679555.360    88774146.39848
 15 02 16 00 04 30.0000000  0  7G16G18G21G25G27G29G31
  23012216.000   120930020.39009  23012212.800    94231179.59646
  23747413.280   124793546.01408  23747411.020    97241740.86744
  20916507.180   109916991.95208  20916503.480    85649593.78948
  23421480.620   123080702.95308  23421481.800    95907039.92746
  24122821.880   126766302.19907  24122823.320    98778934.59646
  22606315.500   118796981.16909  22606313.220    92569064.01047
  21691861.520   113991490.04309  21691857.740    88824522.02948
 15 02 16 00 05  0.0000000  0  7G16G18G21G25G27G29G31
  22995762.980   120843559.24409  22995759.780    94163807.31446
  23732668.580   124716062.10808  23732666.060    97181363.88045
  20916813.980   109918604.19208  20916810.300    85650850.09248
  23438146.160   123168281.26408  23438147.360    95975282.74946
  24108602.660   126691581.40707  24108604.680    98720710.69447
  22619644.300   118867024.81209  22619642.160    92623643.45248
  21704244.400   114056561.39709  21704240.480    88875226.96448
 15 02 16 00 05 30.0000000  0  7G16G18G21G25G27G29G31
  22979328.100   120757193.65508  22979325.020    94096509.46546
  23717936.180   124638643.78008  23717933.480    97121038.00645
  20917204.040   109920653.80808  20917200.280    85652447.20848
  23454853.700   123256080.09808  23454854.860    96043697.40846
  24094401.700   126616955.74608  24094403.720    98662560.88646
  22632983.300   118937121.43309  22632981.220    92678264.18548
  21716705.140   114122042.49709  21716701.160    88926251.17948
 15 02 16 00 06  0.0000000  0  7G16G18G21G25G27G29G31
  22962912.180   120670927.63209  22962909.240    94029289.21147
  23703217.100   124561296.09508  23703214.780    97060767.17945
  20917677.720   109923143.05508  20917673.880    85654386.88948
  23471603.480   123344101.06708  23471604.460    96112285.15146
  24080219.520   126542427.75308  24080221.160    98604487.14246
  22646332.460   119007272.44609  22646330.540    92732927.26647
  21729243.620   114187933.44009  21729239.860    88977594.75948
 15 02 16 00 06 30.0000000  0  7G16G18G21G25G27G29G31
  22946515.540   120584763.25108  22946512.660    93962148.15247
  23688512.100   124484021.89708  23688510.100    97000553.58645
  20918234.900   109926071.20308  20918231.080    85656668.56548
  23488395.520   123432343.33108  23488396.540    96181045.30046
  24066056.120   126467997.56708  24066057.240    98546489.58246
  22659692.260   119077478.07509  22659690.180    92787632.94247
  21741859.440   114254231.74509  21741856.060    89029255.75948
 15 02 16 00 07  0.0000000  0  7G16G18G21G25G27G29G31
  22930139.160   120498705.47108  22930136.360    93895090.17047
  23673822.100   124406826.56608  23673820.380    96940401.47645
  20918876.040   109929440.54808  20918872.300    85659294.04148
  23505230.120   123520809.12508  23505231.040    96249979.68746
  24051911.900   126393668.22208  24051912.640    98488570.65346
  22673062.940   119147741.40208  22673060.800    92842383.56247
  21754552.880   114320938.45809  21754549.920    89081235.00848
 15 02 16 00 07 30.0000000  0  7G16G18G21G25G27G29G31
  22913783.120   120412754.04809  22913780.280    93828115.06246
  23659147.540   124329711.78208  23659146.140    96880312.11445
  20919600.460   109933247.83708  20919596.800    85662260.76248
  23522106.500   123609495.54508  23522107.380    96319085.96346
  24037786.300   126319437.81408  24037786.880    98430728.90746
  22686443.960   119218058.91309  22686441.920    92897176.39147
  21767323.240   114388049.32309  21767320.680    89133529.18148
 15 02 16 00 08  0.0000000  0  7G16G18G21G25G27G29G31
  22897447.760   120326911.44808  22897444.880    93761224.73746
  23644488.920   124252680.15608  23644487.480    96820287.53645
  20920408.380   109937493.92408  20920404.820    85665569.40948
  23539024.740   123698402.25808  23539025.660    96388363.90846
  24023679.600   126245306.96808  24023680.040    98372964.68946
  22699835.480   119288431.34509  22699833.260    92952012.05247
  21780170.180   114455562.41709  21780167.960    89186136.78048
 15 02 16 00 08 30.0000000  0  7G16G18G21G25G27G29G31
  22881132.980   120241177.14509  22881130.080    93694418.81546
  23629846.320   124175732.35408  23629844.700    96760328.31045
  20921299.140   109942175.27808  20921295.660    85669217.22748
  23555984.480   123787526.11208  23555985.260    96457811.05046
  24009591.500   126171273.64508  24009592.040    98315276.38346
  22713236.900   119358856.16709  22713234.880    93006888.52247
  21793092.960   114523473.03809  21793090.900    89239054.13948
 15 02 16 00 09  0.0000000  0  7G16G18G21G25G27G29G31
  22864840.160   120155557.83508  22864837.300    93627702.46546
  23615221.020   124098875.74408  23615219.180    96700440.09645
  20922273.520   109947295.64008  20922270.020    85673207.12248
  23572986.380   123876870.92508  23572987.260    96527430.33746
  23995522.800   126097342.47408  23995523.460    98257667.67146
  22726648.940   119429337.21509  22726647.060    93061808.77947
  21806092.120   114591783.51209  21806089.960    89292283.05148
 15 02 16 00 09 30.0000000  0  7G16G18G21G25G27G29G31
  22848568.400   120070049.38208  22848565.600    93561072.52746
  23600612.480   124022107.13008  23600610.540    96640620.48945
  20923330.220   109952848.24908  20923326.660    85677533.84148
  23590029.020   123966429.52208  23590030.020    96597216.21146
  23981472.380   126023507.27608  23981473.180    98200133.83446
  22740070.500   119499867.93909  22740068.500    93116767.78847
  21819165.980   114660485.26009  21819163.480    89345816.86448
 15 02 16 00 10  0.0000000  0  7G16G18G21G25G27G29G31
  22832318.980   119984658.19609  22832316.280    93494533.96746
  23586021.980   123945434.11108  23586019.760    96580875.33045
  20924470.000   109958837.48408  20924466.380    85682200.78348
  23607113.140   124056206.01508  23607114.120    96667171.89446
  23967441.160   125949773.09608  23967441.800    98142678.69846
  22753502.480   119570453.21309  22753500.500    93171769.25547
  21832314.860   114729580.98409  21832311.980    89399657.65948
 15 02 16 00 10 30.0000000  0  7G16G18G21G25G27G29G31
  22816091.960   119899384.79808  22816089.200    93428087.17846
  23571449.760   123868857.42908  23571447.460    96521205.26645
  20925692.140   109965259.75208  20925688.500    85687205.16348
  23624238.040   124146197.41508  23624239.080    96737295.05746
  23953428.840   125876138.14108  23953429.360    98085300.84046
  22766944.460   119641090.33509  22766942.480    93226811.14747
  21845537.840   114799066.11609  21845534.540    89453801.89948
 15 02 16 00 11  0.0000000  0  7G16G18G21G25G27G29G31
  22799887.640   119814230.33009  22799884.780    93361733.06746
  23556896.160   123792379.38408  23556893.920    96461612.06845
  20926996.560   109972114.53908  20926992.940    85692546.56348
  23641403.280   124236402.45808  23641404.600    96807584.66446
  23939435.280   125802601.98608  23939435.960    98028000.02446
  22780396.100   119711778.81009  22780393.860    93281893.05947
  21858834.280   114868937.98209  21858830.640    89508247.48948
 15 02 16 00 11 30.0000000  0  7G16G18G21G25G27G29G31
  22783706.220   119729196.07109  22783703.240    93295472.62046
  23542361.900   123716002.48308  23542359.820    96402097.65545
  20928383.060   109979400.76408  20928379.420    85698224.14748
  23658609.000   124326819.62108  23658610.100    96878039.59246
  23925460.500   125729164.20808  23925461.240    97970775.81646
  22793857.280   119782517.80209  22793854.960    93337014.33247
  21872203.580   114939193.48409  21872199.780    89562992.01148
 15 02 16 00 12  0.0000000  0  7G16G18G21G25G27G29G31
  22767547.620   119644281.78109  22767544.560    93229305.64946
  23527846.980   123639726.87608  23527844.980    96342662.19545
  20929850.940   109987114.94808  20929847.360    85704235.21048
  23675854.520   124417445.60008  23675855.200    96948657.21446
  23911504.040   125655822.37608  23911504.540    97913626.37446
  22807327.460   119853304.33009  22807325.260    93392172.61347
  21885644.860   115009827.96309  21885641.040    89618031.84348
 15 02 16 00 12 30.0000000  0  7G16G18G21G25G27G29G31
  22751412.820   119559492.89309  22751409.840    93163236.40847
  23513352.740   123563558.91808  23513350.740    96283310.58645
  20931400.760   109995259.54908  20931397.220    85710581.65448
  23693140.280   124508283.01908  23693140.900    97019439.55346
  23897566.600   125582580.15708  23897566.760    97856554.55647
  22820807.380   119924141.53309  22820805.040    93447370.43747
  21899158.320   115080842.47109  21899154.680    89673367.80648
 15 02 16 00 13  0.0000000  0  7G16G18G21G25G27G29G31
  22735301.800   119474828.74609  22735298.780    93097264.36046
  23498879.160   123487498.55708  23498876.780    96224042.81745
  20933031.860   110003831.05608  20933028.380    85717260.74648
  23710465.800   124599328.14008  23710466.480    97090383.77446
  23883647.520   125509434.86908  23883647.620    97799558.30547
  22834296.380   119995026.49609  22834294.100    93502605.45147
  21912742.980   115152231.76809  21912739.680    89728995.80948
 15 02 16 00 13 30.0000000  0  7G16G18G21G25G27G29G31
  22719215.860   119390296.24009  22719212.820    93031394.88347
  23484427.600   123411553.93008  23484425.180    96164865.24545
  20934745.080   110012833.79109  20934741.600    85724275.85848
  23727831.580   124690585.13408  23727832.340    97161493.05746
  23869747.900   125436391.74108  23869747.920    97742641.64846
  22847795.320   120065963.86008  22847793.180    93557881.27247
  21926399.380   115223998.56309  21926396.600    89784917.96548
 15 02 16 00 14  0.0000000  0  7G16G18G21G25G27G29G31
  22703154.040   119305890.73809  22703151.020    92965624.37447
  23469997.140   123335720.75908  23469994.560    96105774.52145
  20936538.940   110022260.02908  20936535.340    85731620.98748
  23745236.200   124782046.28608  23745237.060    97232761.50546
  23855866.520   125363444.22108  23855866.500    97685799.39046
  22861302.780   120136946.07809  22861300.580    93613192.08147
  21940125.820   115296133.63809  21940123.560    89841127.09848
 15 02 16 00 14 30.0000000  0  7G16G18G21G25G27G29G31
  22687118.060   119221621.16309  22687114.960    92899959.78447
  23455589.720   123260009.17708  23455587.220    96046778.53645
  20938414.520   110032115.74309  20938410.820    85739300.77448
  23762680.600   124873717.73608  23762681.600    97304193.76545
  23842004.500   125290599.26607  23842004.500    97629037.08147
  22874820.220   120207980.53909  22874818.080    93668543.60147
  21953923.320   115368641.42509  21953921.380    89897626.66048
 15 02 16 00 15  0.0000000  0  7G16G18G21G25G27G29G31
  22671107.960   119137487.79009  22671104.860    92834401.33247
  23441205.580   123184420.56608  23441203.080    95987878.36046
  20940371.420   110042399.07509  20940367.660    85747313.76448
  23780164.460   124965596.80308  23780165.920    97375787.77545
  23828161.420   125217855.15007  23828161.680    97572353.53547
  22888347.100   120279065.10709  22888345.200    93723934.11847
  21967791.140   115441517.79409  21967789.380    89954413.43748
 15 02 16 00 15 30.0000000  0  7G16G18G21G25G27G29G31
  22655122.900   119053485.98209  22655119.860    92768945.40147
  23426843.920   123108950.67308  23426841.580    95929070.71145
  20942408.140   110053101.86909  20942404.320    85755653.60848
  23797686.400   125057675.69708  23797687.880    97447537.54546
  23814336.420   125145205.44608  23814336.760    97515743.42546
  22901882.340   120350192.84509  22901880.220    93779358.30547
  21981727.560   115514753.67409  21981725.780    90011480.34048
 15 02 16 00 16  0.0000000  0  7G16G18G21G25G27G29G31
  22639164.380   118969623.40109  22639161.340    92703597.96047
  23412506.360   123033607.30408  23412504.080    95870361.64745
  20944525.580   110064229.05409  20944521.780    85764324.15948
  23815247.360   125149959.01708  23815248.240    97519446.65246
  23800530.640   125072655.78008  23800531.240    97459211.28945
  22915426.660   120421368.59808  22915423.940    93834819.94546
  21995733.060   115588351.79109  21995731.160    90068829.51248
 15 02 16 00 16 30.0000000  0  7G16G18G21G25G27G29G31
  22623232.100   118885898.83909  22623229.100    92638358.06447
  23398193.080   122958390.66508  23398190.700    95811751.32245
  20946722.880   110075775.99108  20946719.100    85773321.78048
  23832846.560   125242442.53408  23832847.360    97591511.69745
  23786743.380   125000202.98508  23786744.060    97402754.56146
  22928979.380   120492589.23009  22928976.860    93890316.48847
  22009806.580   115662306.73009  22009804.360    90126456.71148
 15 02 16 00 17  0.0000000  0  7G16G18G21G25G27G29G31
  22607326.420   118802314.19209  22607323.460    92573227.18047
  23383904.540   122883303.42108  23383902.060    95753241.83545
  20948999.820   110087741.58608  20948996.100    85782645.62248
  23850483.540   125335125.24508  23850484.360    97663731.96346
  23772974.640   124927846.98708  23772975.360    97346373.26246
  22942540.740   120563854.10309  22942538.500    93945847.52347
  22023947.480   115736615.80309  22023944.940    90184359.85248
 15 02 16 00 17 30.0000000  0  7G16G18G21G25G27G29G31
  22591448.580   118718876.00209  22591445.680    92508210.43147
  23369642.000   122808352.82308  23369639.580    95694838.81645
  20951357.200   110100129.90908  20951353.540    85792298.86548
  23868159.000   125428010.54308  23868159.980    97736110.08046
  23759225.180   124855592.35408  23759225.900    97290070.96347
  22956111.260   120635167.80108  22956109.160    94001416.61447
  22038156.220   115811280.90009  22038153.280    90242540.41848
 15 02 16 00 18  0.0000000  0  7G16G18G21G25G27G29G31
  22575598.440   118635583.25709  22575595.600    92443307.01447
  23355405.300   122733538.10508  23355402.880    95636541.69745
  20953794.240   110112936.91908  20953790.640    85802278.36048
  23885872.160   125521094.53408  23885873.480    97808643.01946
  23745494.400   124783436.14508  23745495.060    97233845.50847
  22969690.280   120706527.05009  22969688.400    94057021.18247
  22052431.780   115886296.70509  22052428.340    90300994.27448
 15 02 16 00 18 30.0000000  0  7G16G18G21G25G27G29G31
  22559775.920   118552435.34809  22559773.060    92378516.46047
  23341194.680   122658860.71908  23341192.240    95578351.55745
  20956310.240   110126158.88608  20956306.660    85812581.20548
  23903622.700   125614373.75708  23903624.140    97881328.08346
  23731781.880   124711376.32709  23731782.520    97177695.01246
  22983277.700   120777928.87409  22983275.840    94112658.98847
  22066772.940   115961657.92109  22066769.100    90359717.27048
 15 02 16 00 19  0.0000000  0  7G16G18G21G25G27G29G31
  22543981.980   118469437.33109  22543978.980    92313842.68647
  23327010.880   122584325.19008  23327008.240    95520271.95146
  20958905.580   110139797.71808  20958902.060    85823208.87248
  23921410.780   125707849.68708  23921412.140    97954166.44646
  23718088.040   124639415.19608  23718088.520    97121621.36847
  22996873.600   120849375.68808  22996871.760    94168331.79547
  22081179.740   116037364.64409  22081175.600    90418709.50048
 15 02 16 00 19 30.0000000  0  7G16G18G21G25G27G29G31
  22528217.360   118386593.39909  22528214.280    92249288.99047
  23312855.020   122509936.81908  23312852.760    95462307.04745
  20961580.500   110153854.73508  20961577.020    85834162.40148
  23939236.440   125801523.59008  23939237.300    98027159.10146
  23704413.420   124567555.28907  23704413.900    97065626.67347
  23010478.320   120920869.42308  23010476.420    94224041.16247
  22095652.080   116113416.76809  22095647.820    90477970.87548
 15 02 16 00 20  0.0000000  0  7G16G18G21G25G27G29G31
  22512481.260   118303899.84809  22512478.220    92184852.49047
  23298726.680   122435692.95008  23298724.500    95404454.71945
  20964333.660   110168322.70208  20964330.140    85845436.14948
  23957098.500   125895388.51308  23957099.120    98100300.56745
  23690756.900   124495790.68308  23690757.580    97009706.35846
  23024091.060   120992403.93809  23024088.780    94279782.34347
  22110188.360   116189805.64009  22110184.080    90537494.65248
 15 02 16 00 20 30.0000000  0  7G16G18G21G25G27G29G31
  22496774.940   118221362.81309  22496771.820    92120537.91947
  23284627.140   122361600.18408  23284625.100    95346720.14945
  20967165.740   110183204.93609  20967162.100    85857032.69548
  23974997.260   125989447.65708  23974998.120    98173593.31945
  23677119.360   124424125.79608  23677120.300    96953863.58746
  23037712.280   121063983.39608  23037709.860    94335558.50547
  22124788.920   116266533.08109  22124784.740    90597282.23848
 15 02 16 00 21  0.0000000  0  7G16G18G21G25G27G29G31
  22481098.560   118138982.95709  22481095.340    92056345.84547
  23270556.680   122287659.49608  23270554.520    95289104.07046
  20970076.060   110198498.59208  20970072.380    85868949.84248
  23992932.420   126083698.25808  23992933.580    98247035.29445
  23663500.500   124352558.94008  23663501.620    96898097.25346
  23051341.520   121135605.82208  23051339.120    94391368.15747
  22139452.980   116343594.37409  22139448.880    90657329.97848
 15 02 16 00 21 30.0000000  0  7G16G18G21G25G27G29G31
  22465452.100   118056760.39909  22465448.860    91992276.32847
  23256515.360   122213871.80908  23256513.240    95231607.22846
  20973064.120   110214201.00908  20973060.480    85881185.49348
  24010903.620   126178137.45708  24010904.460    98320624.27445
  23649900.020   124281088.47108  23649901.220    96842406.05246
  23064978.620   121207269.26609  23064976.400    94447209.77347
  22154179.780   116420985.72809  22154175.860    90717634.90748
 15 02 16 00 22  0.0000000  0  7G16G18G21G25G27G29G31
  22449836.000   117974697.02909  22449832.780    91928330.86047
  23242503.820   122140240.06308  23242501.600    95174231.87446
  20976129.700   110230310.98508  20976126.100    85893738.73048
  24028910.500   126272764.05008  24028911.700    98394359.24346
  23636317.940   124209714.30808  23636319.100    96786789.84846
  23078623.400   121278973.34708  23078621.400    94503083.06947
  22168968.780   116498704.29009  22168965.160    90778194.80248
 15 02 16 00 22 30.0000000  0  7G16G18G21G25G27G29G31
  22434251.480   117892799.99209  22434248.320    91864515.00347
  23228523.560   122066772.22308  23228521.160    95116984.23446
  20979273.560   110246832.59808  20979270.040    85906612.71648
  24046953.760   126367582.24508  24046955.120    98468243.52245
  23622755.240   124138441.81308  23622756.280    96731252.84946
  23092276.720   121350723.25508  23092275.060    94558992.02647
  22183820.480   116576752.51209  22183817.140    90839011.57348
 15 02 16 00 23  0.0000000  0  7G16G18G21G25G27G29G31
  22418697.780   117811064.97609  22418694.700    91800825.40447
  23214573.580   121993464.05808  23214571.040    95059861.04346
  20982494.220   110263758.06908  20982490.840    85919801.40748
  24065032.120   126462584.10008  24065033.440    98542270.91946
  23609210.620   124067264.10208  23609211.460    96675789.81447
  23105937.620   121422511.44409  23105936.140    94614930.84247
  22198733.140   116655120.93309  22198730.100    90900077.86048
 15 02 16 00 23 30.0000000  0  7G16G18G21G25G27G29G31
  22403176.040   117729497.93909  22403173.040    91737266.68047
  23200655.180   121920322.64808  23200652.740    95002867.76045
  20985792.380   110281090.32708  20985789.020    85933307.06248
  24083145.960   126557772.46708  24083147.040    98616443.62645
  23595684.780   123996185.35408  23595685.500    96620403.77546
  23119606.720   121494341.76909  23119605.000    94670902.49147
  22213706.980   116733810.63209  22213704.240    90961394.48348
 15 02 16 00 24  0.0000000  0  7G16G18G21G25G27G29G31
  22387686.620   117648100.40909  22387683.600    91673840.04847
  23186768.720   121847349.72008  23186766.520    94946005.77246
  20989167.560   110298827.20908  20989164.180    85947128.01248
  24101295.100   126653145.42008  24101295.720    98690760.18445
  23582177.620   123925204.78308  23582178.260    96565094.26047
  23133283.520   121566213.74608  23133281.560    94726906.58247
  22228741.440   116812818.27509  22228738.940    91022958.85348
 15 02 16 00 24 30.0000000  0  7G16G18G21G25G27G29G31
  22372229.800   117566874.24009  22372226.720    91610546.93347
  23172914.860   121774548.13808  23172912.760    94889277.27946
  20992619.560   110316967.69408  20992616.200    85961263.45948
  24119479.000   126748701.73508  24119479.740    98765219.60445
  23568689.160   123854322.28508  23568689.700    96509861.21147
  23146968.220   121638126.82309  23146966.300    94782942.70347
  22243836.080   116892141.33609  22243833.820    91084769.01848
 15 02 16 00 25  0.0000000  0  7G16G18G21G25G27G29G31
  22356806.100   117485822.27009  22356802.980    91547389.56747
  23159094.340   121701921.37508  23159092.320    94832685.04946
  20996148.240   110335511.25908  20996144.880    85975712.99648
  24137697.600   126844441.21008  24137697.960    98839821.78546
  23555219.520   123783538.93508  23555219.900    96454705.38146
  23160661.060   121710081.44109  23160658.960    94839011.20847
  22258990.500   116971777.89309  22258988.380    91146823.45948
 15 02 16 00 25 30.0000000  0  7G16G18G21G25G27G29G31
  22341415.800   117404945.90309  22341412.740    91484369.03147
  23145307.560   121629471.45908  23145305.260    94776230.60046
  20999753.340   110354456.33208  20999750.000    85990475.39048
  24155950.540   126940362.00608  24155950.940    98914565.18445
  23541768.560   123712854.04208  23541768.840    96399626.25647
  23174361.540   121782076.82208  23174359.040    94895111.47446
  22274204.000   117051724.55309  22274201.960    91209119.53148
 15 02 16 00 26  0.0000000  0  7G16G18G21G25G27G29G31
  22326058.820   117324244.24109  22326055.700    91421484.62647
  23131554.220   121557196.82609  23131551.840    94719912.76746
  21003433.920   110373798.02808  21003430.620    86005546.85248
  24174237.000   127036459.48408  24174237.980    98989446.26246
  23528335.580   123642264.10708  23528335.980    96344621.22646
  23188068.800   121854109.37008  23188066.040    94951240.69746
  22289475.340   117131975.34509  22289473.320    91271652.59048
 15 02 16 00 26 30.0000000  0  7G16G18G21G25G27G29G31
  22310736.320   117243723.72409  22310733.140    91358741.38047
  23117836.000   121485106.77508  23117833.440    94663738.70846
  21007190.680   110393540.04008  21007187.400    86020930.24248
  24192557.980   127132737.25708  24192558.700    99064467.89746
  23514921.620   123571774.22008  23514922.180    96289694.03846
  23201784.080   121926183.80509  23201781.200    95007402.57046
  22304804.920   117212532.22209  22304802.820    91334424.16848
 15 02 16 00 27  0.0000000  0  7G16G18G21G25G27G29G31
  22295448.220   117163383.98809  22295444.980    91296138.99447
  23104152.660   121413200.36409  23104150.140    94607707.79046
  21011022.920   110413678.46108  21011019.580    86036622.52848
  24210912.640   127229191.38908  24210913.420    99139626.92245
  23501526.200   123501381.44308  23501526.800    96234842.54446
  23215506.660   121998296.99608  23215504.020    95063594.64447
  22320191.720   117293389.56309  22320189.420    91397429.87448
 15 02 16 00 27 30.0000000  0  7G16G18G21G25G27G29G31
  22280194.720   117083226.57209  22280191.460    91233678.68847
  23090504.600   121341479.71908  23090502.280    94551821.61246
  21014930.240   110434211.29808  21014926.860    86052622.14848
  24229300.520   127325820.09808  24229301.880    99214921.95145
  23488149.240   123431085.30708  23488149.660    96180066.35847
  23229236.200   122070448.03608  23229234.320    95119816.18147
  22335635.080   117374544.07509  22335632.600    91460667.13348
 15 02 16 00 28  0.0000000  0  7G16G18G21G25G27G29G31
  22264976.960   117003257.06109  22264973.760    91171364.79447
  23076893.080   121269951.16108  23076890.680    94496085.08746
  21018913.100   110455140.95908  21018909.600    86068930.97448
  24247722.160   127422625.70808  24247723.040    99290354.89945
  23474791.440   123360889.35508  23474791.760    96125368.29047
  23242973.840   122142640.49508  23242972.440    95176069.99347
  22351135.160   117455996.70709  22351132.520    91524136.68448
 15 02 16 00 28 30.0000000  0  7G16G18G21G25G27G29G31
  22249794.960   116923475.01509  22249791.800    91109196.96447
  23063318.160   121198614.50609  23063315.680    94440498.11146
  21022970.660   110476463.06308  21022967.000    86085545.60748
  24266176.820   127519604.17908  24266177.660    99365922.47445
  23461452.200   123290790.79708  23461452.440    96070746.07446
  23256718.920   122214871.18009  23256717.220    95232353.64147
  22366690.940   117537741.83409  22366688.160    91587834.17348
 15 02 16 00 29  0.0000000  0  7G16G18G21G25G27G29G31
  22234648.320   116843878.70109  22234645.120    91047173.87447
  23049779.640   121127469.19608  23049777.100    94385060.22946
  21027102.060   110498173.55908  21027098.340    86102462.87948
  24284663.420   127616751.05608  24284664.300    99441621.30246
  23448130.940   123220786.43308  23448130.980    96016197.22547
  23270470.800   122287136.52608  23270468.920    95288664.28947
  22382301.160   117619773.03209  22382298.260    91651754.54848
 15 02 16 00 29 30.0000000  0  7G16G18G21G25G27G29G31
  22219538.980   116764478.36009  22219535.760    90985303.48947
  23036279.500   121056525.63109  23036277.000    94329779.56646
  21031308.520   110520278.78108  21031304.840    86119687.73048
  24303182.900   127714072.78308  24303183.700    99517456.35345
  23434829.000   123150883.95708  23434828.960    95961727.79947
  23284230.720   122359444.41608  23284228.920    95345008.04447
  22397966.800   117702095.51709  22397963.800    91715901.92148
 15 02 16 00 30  0.0000000  0  7G16G18G21G25G27G29G31
  22204465.480   116685266.71409  22204462.280    90923580.14947
  23022816.400   120985776.87809  23022813.940    94274650.72746
  21035588.160   110542768.05809  21035584.400    86137211.84348
  24321733.920   127811558.69408  24321734.660    99593419.38845
  23421544.620   123081074.05008  23421544.640    95907330.54147
  23297996.940   122431785.38709  23297995.120    95401377.56247
  22413685.560   117784697.32309  22413682.460    91780266.93648
 15 02 16 00 30 30.0000000  0  7G16G18G21G25G27G29G31
  22189429.940   116606255.12809  22189426.800    90862012.68747
  23009392.780   120915235.38709  23009390.280    94219683.34146
  21039942.420   110565649.20709  21039938.500    86155041.32748
  24340317.560   127909216.92308  24340318.740    99669516.60946
  23408279.600   123011366.02808  23408279.700    95853012.61746
  23311771.060   122504168.02208  23311769.000    95457779.58146
  22429458.640   117867584.93409  22429455.420    91844854.64848
 15 02 16 00 31  0.0000000  0  7G16G18G21G25G27G29G31
  22174432.420   116527443.09809  22174429.320    90800600.73547
  22996008.480   120844900.50709  22996005.920    94164876.97646
  21044370.460   110588918.17109  21044366.380    86173172.99348
  24358933.340   128007043.23408  24358934.140    99745744.92445
  23395033.300   122941757.01108  23395033.520    95798771.84546
  23325552.340   122576589.60708  23325550.140    95514211.94246
  22445284.920   117950752.39709  22445281.660    91909660.44148
 15 02 16 00 31 30.0000000  0  7G16G18G21G25G27G29G31
  22159472.700   116448829.48109  22159469.600    90739343.37547
  22982663.400   120774771.71009  22982660.700    94110231.16646
  21048871.240   110612569.62209  21048867.100    86191602.69748
  24377580.260   128105033.17608  24377581.680    99822100.57346
  23381805.260   122872243.79908  23381805.560    95744605.68947
  23339340.320   122649046.13108  23339338.180    95570671.53247
  22461163.280   118034193.78409  22461160.120    91974679.66848
 15 02 16 00 32  0.0000000  0  8G16G18G21G22G25G27G29G31
  22144550.760   116370414.40409  22144547.740    90678240.73847
  22969357.800   120704850.29909  22969355.080    94055746.96946
  21053444.260   110636601.29809  21053440.200    86210328.68348
  24546687.980   128993711.99808  24546687.820   100514584.80946
  24396257.680   128203183.68807  24396258.840    99898581.48445
  23368595.200   122802824.57308  23368595.520    95690512.84147
  23353134.780   122721536.13208  23353132.740    95627157.22346
  22477092.860   118117904.20509  22477089.740    92039908.54648
 15 02 16 00 32 30.0000000  0  8G16G18G21G22G25G27G29G31
  22129667.220   116292200.93909  22129664.200    90617295.19747
  22956092.260   120635139.38208  22956089.620    94001426.81646
  21058089.580   110661013.08508  21058085.620    86229350.85448
  24528881.980   128900142.63108  24528882.220   100441674.29845
  24414965.960   128301494.26708  24414967.200    99975187.08245
  23355403.200   122733500.28408  23355403.560    95636493.97847
  23366935.820   122794060.68508  23366933.700    95683669.83846
  22493073.300   118201882.28109  22493070.220    92105345.98148
 15 02 16 00 33  0.0000000  0  8G16G18G21G22G25G27G29G31
  22114824.160   116214200.45009  22114821.200    90556515.60847
  22942869.000   120565650.73708  22942866.220    93947279.84346
  21062808.480   110685811.60008  21062804.660    86248674.36648
  24511062.480   128806502.91008  24511062.700   100368708.84045
  24433705.880   128399972.74108  24433706.880   100051923.46945
  23342231.000   122664279.96908  23342231.400    95582556.04547
  23380745.120   122866628.31009  23380742.900    95740215.99547
  22509105.680   118286133.94509  22509102.760    92170996.58548
 15 02 16 00 33 30.0000000  0  8G16G18G21G22G25G27G29G31
  22100019.960   116136404.12709  22100017.040    90495895.11547
  22929686.440   120496376.29708  22929683.760    93893299.78746
  21067598.720   110710984.94308  21067595.020    86268289.97348
  24493227.860   128712784.54707  24493228.140   100295682.20445
  24452475.300   128498606.84508  24452476.280   100128781.20346
  23329076.540   122595152.67308  23329076.860    95528690.63046
  23394560.520   122939227.72908  23394558.320    95796786.94447
  22525187.480   118370645.34109  22525184.640    92236849.59447
 15 02 16 00 34  0.0000000  0  8G16G18G21G22G25G27G29G31
  22085256.700   116058822.61709  22085253.720    90435441.98847
  22916546.700   120427326.88609  22916544.040    93839495.05746
  21072461.720   110736540.50708  21072458.120    86288203.39748
  24475380.360   128618998.02908  24475380.860   100222602.34645
  24471275.760   128597403.79808  24471276.740   100205765.72545
  23315941.420   122526127.02608  23315941.680    95474904.42447
  23408383.400   123011867.38808  23408381.080    95853389.23546
  22541319.880   118455422.17509  22541317.040    92302909.42847
 15 02 16 00 34 30.0000000  0  8G16G18G21G22G25G27G29G31
  22070533.640   115981451.99709  22070530.620    90375153.20747
  22903449.140   120358498.98109  22903446.540    93785862.96346
  21077396.000   110762470.69608  21077392.500    86308408.74748
  24457519.380   128525140.44708  24457519.800   100149467.21145
  24490105.760   128696356.15208  24490106.880   100282871.41146
  23302824.520   122457196.86708  23302824.640    95421192.62247
  23422212.540   123084540.85208  23422210.220    95910017.88447
  22557501.220   118540455.59809  22557498.260    92369169.21848
 15 02 16 00 35  0.0000000  0  8G16G18G21G22G25G27G29G31
  22055851.580   115904296.65509  22055848.480    90315032.15947
  22890394.720   120289897.63809  22890392.160    93732407.40446
  21082401.660   110788776.15608  21082398.280    86328906.50048
  24439645.780   128431215.81608  24439646.160   100076279.78745
  24508965.540   128795464.64708  24508966.820   100360098.74645
  23289726.160   122388364.34808  23289726.180    95367556.91547
  23436048.440   123157250.17208  23436046.580    95966674.44647
  22573731.180   118625744.74009  22573728.180    92435628.25047
 15 02 16 00 35 30.0000000  0  8G16G18G21G22G25G27G29G31
  22041210.960   115827359.15409  22041207.760    90255080.86447
  22877384.000   120221525.94509  22877381.520    93679130.76746
  21087478.620   110815456.02608  21087475.280    86349696.00748
  24421760.040   128337227.26208  24421760.240   100003042.49245
  24527854.680   128894728.65408  24527855.900   100437447.22645
  23276646.460   122319630.00808  23276646.380    95313997.69547
  23449891.420   123229995.89608  23449889.920    96023359.38846
  22590009.300   118711287.35809  22590006.360    92502284.79547
 15 02 16 00 36  0.0000000  0  8G16G18G21G22G25G27G29G31
  22026611.780   115750639.72209  22026608.420    90195299.49347
  22864417.180   120153384.54109  22864414.700    93626033.57946
  21092626.260   110842507.10909  21092622.880    86370774.77148
  24403862.260   128243175.72508  24403862.380    99929756.09145
  24546773.120   128994144.81908  24546774.260   100514914.32845
  23263585.120   122250992.07108  23263585.000    95260513.63047
  23463740.920   123302776.10408  23463739.760    96080071.19346
  22606334.660   118797078.62409  22606331.900    92569135.09948
 15 02 16 00 36 30.0000000  0  8G16G18G21G22G25G27G29G31
  22012055.080   115674143.56909  22012051.560    90135692.11147
  22851495.260   120085479.23009  22851492.740    93573120.36246
  21097844.800   110869930.43808  21097841.340    86392143.60148
  24385953.260   128149066.31107  24385953.400    99856424.62146
  24565720.720   129093714.76108  24565721.240   100592501.23345
  23250542.620   122182453.40309  23250542.460    95207106.96346
  23477597.520   123375593.38808  23477596.600    96136811.87947
  22622707.400   118883118.73609  22622704.760    92636179.30947
 15 02 16 00 37  0.0000000  0  8G16G18G21G22G25G27G29G31
  21997540.300   115597868.10309  21997536.820    90076256.69347
  22838617.720   120017807.40108  22838615.180    93520389.09546
  21103133.000   110897720.07209  21103129.460    86413797.86148
  24368032.780   128054896.61108  24368032.960    99783046.17145
  24584696.360   129193432.30407  24584697.320   100670203.12445
  23237518.100   122114009.33009  23237518.000    95153773.90747
  23491460.480   123448442.65509  23491459.480    96193577.52147
  22639126.000   118969399.78909  22639123.500    92703411.27247
 15 02 16 00 37 30.0000000  0  8G16G18G21G22G25G27G29G31
  21983068.600   115521819.42609  21983065.300    90016998.00447
  22825785.900   119950375.81308  22825783.260    93467845.02146
  21108491.400   110925878.48909  21108487.820    86435739.48048
  24350102.240   127960673.30808  24350102.440    99709625.85746
  24603700.600   129293300.10908  24603701.300   100748022.15545
  23224512.340   122045663.66308  23224512.280    95100517.58647
  23505330.280   123521328.05808  23505329.040    96250371.28246
  22655590.760   119055923.07309  22655588.360    92770831.97247
 15 02 16 00 38  0.0000000  0  8G16G18G21G22G25G27G29G31
  21968640.380   115445999.17609  21968637.260    89957917.31247
  22813000.100   119883186.37509  22812997.420    93415489.61346
  21113919.560   110954403.87508  21113916.020    86457967.05648
  24332162.060   127866398.53608  24332162.140    99636165.48146
  24622733.180   129393316.04108  24622734.340   100825956.56946
  23211525.240   121977415.90508  23211525.160    95047337.54847
  23519206.660   123594248.58508  23519204.920    96307192.44846
  22672101.020   119142685.12509  22672098.560    92838438.73147
 15 02 16 00 38 30.0000000  0  8G16G18G21G22G25G27G29G31
  21954255.800   115370407.77109  21954252.740    89899014.93348
  22800260.480   119816239.75009  22800257.940    93363323.44546
  21119416.900   110983292.68608  21119413.420    86480477.81848
  24314212.080   127772072.75408  24314211.740    99562665.34945
  24641793.260   129493476.98808  24641794.920   100904003.92145
  23198556.360   121909264.16709  23198556.300    94994232.31847
  23533089.300   123667202.38008  23533086.960    96364039.58946
  22688655.860   119229681.01809  22688653.280    92906227.70647
 15 02 16 00 39  0.0000000  0  8G16G18G21G22G25G27G29G31
  21939915.600   115295049.34109  21939912.480    89840294.08247
  22787568.040   119749540.69109  22787565.580    93311350.20546
  21124983.480   111012544.92008  21124979.920    86503271.77148
  24296253.380   127677700.35808  24296252.580    99489128.81245
  24660880.920   129593783.45507  24660882.180   100982164.80344
  23185606.180   121841210.44909  23185606.040    94941203.45147
  23546978.680   123740191.18008  23546976.540    96420913.91646
  22705255.020   119316909.52309  22705252.380    92974197.94047
 15 02 16 00 39 30.0000000  0  8G16G18G21G22G25G27G29G31
  21925620.160   115219926.19709  21925617.060    89781756.58248
  22774923.300   119683092.05809  22774920.840    93259572.05346
  21130619.200   111042160.38408  21130615.560    86526348.75848
  24278286.340   127583284.05208  24278285.140    99415558.06645
  24679996.160   129694234.41208  24679997.940   101060438.16545
  23172674.720   121773255.10008  23172674.460    94888251.27247
  23560874.800   123813215.27208  23560873.020    96477815.71947
  22721898.060   119404368.63109  22721895.460    93042347.85447
 15 02 16 00 40  0.0000000  0  8G16G18G21G22G25G27G29G31
  21911369.560   115145039.03009  21911366.560    89723402.96248
  22762326.340   119616894.53109  22762323.880    93207989.56946
  21136323.320   111072135.39308  21136319.580    86549705.90148
  24260311.100   127488824.99008  24260309.860    99341954.00545
  24699138.160   129794826.88408  24699139.840   101138821.86645
  23159761.660   121705396.56608  23159761.380    94835374.52547
  23574777.400   123886272.82708  23574775.580    96534743.65846
  22738584.060   119492053.47809  22738581.500    93110673.68247
 15 02 16 00 40 30.0000000  0  8G16G18G21G22G25G27G29G31
  21897164.200   115070389.44309  21897161.220    89665234.45348
  22749777.540   119550950.16509  22749775.180    93156604.35146
  21142095.460   111102468.09909  21142091.660    86573341.78648
  24242328.060   127394324.97908  24242326.760    99268318.02445
  24718306.780   129895558.77208  24718308.920   101217314.13046
  23146866.820   121637634.16108  23146866.580    94782572.69447
  23588686.120   123959362.91608  23588684.080    96591696.95546
  22755312.400   119579960.63909  22755309.820    93179172.73447
 15 02 16 00 41  0.0000000  0  8G16G18G21G22G25G27G29G31
  21883005.580   114995985.17809  21883002.580    89607257.11548
  22737278.480   119485267.22009  22737276.060    93105422.86246
  21147936.400   111133162.49009  21147932.600    86597259.50048
  24224338.640   127299792.15708  24224337.280    99194656.45545
  24737502.800   129996434.26208  24737504.840   101295918.32644
  23133991.360   121569973.61409  23133991.180    94729850.20647
  23602601.680   124032491.15608  23602599.940    96648679.92046
  22772083.500   119668092.83109  22772080.960    93247847.13047
 15 02 16 00 41 30.0000000  0  8G16G18G21G22G25G27G29G31
  21868892.980   114921822.93009  21868889.980    89549468.36348
  22724828.600   119419842.44609  22724826.060    93054442.52946
  21153844.720   111164211.08709  21153840.940    86621453.20848
  24206342.540   127205223.70508  24206340.980    99120967.09745
  24756724.840   130097446.36008  24756726.340   101374628.98645
  23121134.200   121502409.18908  23121134.160    94677202.64647
  23616523.520   124105652.26208  23616522.060    96705688.50046
  22788895.760   119756441.50109  22788893.260    93316690.20747
 15 02 16 00 42  0.0000000  0  8G16G18G21G22G25G27G29G31
  21854826.380   114847902.17509  21854823.300    89491867.78548
  22712427.920   119354675.87809  22712425.280    93003663.42646
  21159819.660   111195609.82408  21159815.920    86645919.75248
  24188339.780   127110619.49608  24188337.940    99047249.83246
  24775972.000   130198591.04707  24775973.560   101453442.88044
  23108294.920   121434938.42309  23108294.920    94624628.04547
  23630451.340   124178843.06409  23630449.920    96762720.24747
  22805748.160   119845001.00909  22805745.640    93385697.57547
 15 02 16 00 42 30.0000000  0  8G16G18G21G22G25G27G29G31
  21840807.200   114774230.68209  21840804.000    89434461.43948
  22700077.840   119289775.37009  22700074.920    92953091.61646
  21165861.860   111227362.18008  21165858.180    86670661.85248
  24170331.620   127015987.07708  24170329.600    98973510.61646
  24795245.320   130299871.89708  24795246.500   101532362.97244
  23095474.360   121367566.45108  23095474.440    94572130.40047
  23644385.940   124252068.64609  23644384.420    96819779.13647
  22822641.160   119933773.79009  22822638.620    93454871.11947
 15 02 16 00 43  0.0000000  0  8G16G18G21G22G25G27G29G31
  21826835.600   114700809.56509  21826832.340    89377250.19948
  22687778.580   119225142.51209  22687775.660    92902728.38746
  21171971.060   111259466.48508  21171967.460    86695678.19548
  24152318.480   126921328.26208  24152316.400    98899750.84545
  24814543.920   130401287.05907  24814545.240   101611387.67145
  23082672.440   121300292.69808  23082672.660    94519709.32547
  23658327.080   124325328.61508  23658325.640    96876864.79747
  22839574.100   120022756.20209  22839571.480    93524208.03747
 15 02 16 00 43 30.0000000  0  7G16G18G21G22G27G29G31
  21812911.960   114627640.75509  21812908.720    89320235.54948
  22675530.520   119160779.25309  22675527.740    92852575.18747
  21178146.840   111291920.97408  21178143.460    86720967.39948
  24134300.840   126826645.63508  24134298.460    98825972.44246
  23069889.220   121233116.76008  23069889.400    94467364.45047
  23672274.440   124398622.21608  23672273.220    96933976.62246
  22856546.320   120111944.91109  22856543.540    93593705.69547
 15 02 16 00 44  0.0000000  0  7G16G18G21G22G27G29G31
  21799036.520   114554725.12509  21799033.320    89263418.19148
  22663334.180   119096687.23709  22663331.440    92802633.40246
  21184388.640   111324722.30408  21184385.380    86746526.88348
  24116278.740   126731939.92908  24116276.200    98752176.04745
  23057124.420   121166037.39109  23057124.600    94415094.85947
  23686227.780   124471947.95608  23686226.560    96991113.47346
  22873556.960   120201335.59209  22873554.100    93663360.73047
 15 02 16 00 44 30.0000000  0  7G16G18G21G22G27G29G31
  21785210.140   114482067.16609  21785207.020    89206801.61248
  22651190.300   119032870.79909  22651187.560    92752906.30546
  21190696.580   111357871.04708  21190693.380    86772357.06648
  24098252.960   126637215.96308  24098250.480    98678365.46745
  23044378.480   121099056.60908  23044378.580    94362902.04647
  23700187.740   124545307.84408  23700186.160    97048276.98146
  22890605.800   120290927.37809  22890602.980    93733172.47347
 15 02 16 00 45  0.0000000  0  7G16G18G21G22G27G29G31
  21771432.860   114409667.22009  21771429.860    89150386.08648
  22639099.040   118969331.00609  22639096.460    92703394.80346
  21197070.140   111391364.21209  21197066.900    86798455.64148
  24080224.060   126542474.98308  24080221.520    98604541.55046
  23031651.040   121032172.96408  23031651.040    94310784.96747
  23714153.800   124618699.84808  23714151.520    97105465.54745
  22907691.940   120380715.83609  22907689.240    93803137.46247
 15 02 16 00 45 30.0000000  0  7G16G18G21G22G27G29G31
  21757705.500   114337529.53509  21757702.560    89094174.91848
  22627061.140   118906071.70609  22627058.560    92654101.82846
  21203509.140   111425200.98609  21203505.780    86824821.95248
  24062192.800   126447721.21208  24062190.460    98530707.71146
  23018942.360   120965388.20008  23018942.360    94258744.89147
  23728126.040   124692126.32008  23728123.780    97162680.95945
  22924815.200   120470699.77909  22924812.580    93873254.77347
 15 02 16 00 46  0.0000000  0  7G16G18G21G22G27G29G31
  21744028.500   114265656.23409  21744025.520    89038169.75048
  22615077.040   118843095.43509  22615074.620    92605029.43947
  21210013.480   111459380.90909  21210010.000    86851455.66048
  24044159.500   126352956.74508  24044157.380    98456865.53546
  23006252.460   120898702.29608  23006252.480    94206781.88647
  23742104.860   124765587.14708  23742103.300    97219923.10746
  22941975.060   120560876.05909  22941972.460    93943521.97147
 15 02 16 00 46 30.0000000  0  7G16G18G21G22G27G29G31
  21730400.900   114194042.40309  21730397.740    88982366.76448
  22603146.040   118780397.96909  22603143.660    92556174.26547
  21216581.420   111493895.29108  21216577.900    86878349.98248
  24026123.480   126258177.55608  24026121.280    98383011.83546
  22993580.000   120832108.14808  22993579.980    94154890.36147
  23756089.260   124839074.68508  23756088.080    97277186.06447
  22959169.680   120651234.59609  22959167.120    94013931.18947
 15 02 16 00 47  0.0000000  0  7G16G18G21G22G27G29G31
  21716824.640   114122698.81409  21716821.380    88926774.36648
  22591270.200   118717990.05609  22591267.760    92507544.77346
  21223214.220   111528750.47509  21223210.640    86905509.86748
  24008086.740   126163394.91708  24008084.560    98309155.45246
  22980926.640   120765614.47709  22980926.600    94103077.12347
  23770080.540   124912597.50508  23770079.260    97334476.50246
  22976400.220   120741781.60109  22976397.700    94084487.24747
 15 02 16 00 47 30.0000000  0  7G16G18G21G22G27G29G31
  21703299.820   114051625.81809  21703296.540    88871392.81848
  22579449.620   118655871.96109  22579447.100    92459141.04046
  21229911.100   111563942.70409  21229907.480    86932932.37748
  23990049.460   126068609.14908  23990047.120    98235296.61045
  22968291.980   120699219.22608  22968292.040    94051340.57647
  23784078.000   124986153.36908  23784076.540    97391792.72246
  22993665.560   120832511.62508  22993663.080    94155185.92247
 15 02 16 00 48  0.0000000  0  7G16G18G21G22G27G29G31
  21689826.920   113980825.55809  21689823.640    88816223.79348
  22567684.700   118594046.11609  22567682.040    92410965.09746
  21236672.000   111599471.27909  21236668.320    86960616.97948
  23972012.000   125973823.01008  23972009.640    98161437.49645
  22955676.100   120632922.43509  22955676.160    93999680.79647
  23798081.540   125059742.63108  23798080.080    97449134.97846
  23010965.100   120923421.65209  23010962.700    94226024.85747
 15 02 16 00 48 30.0000000  0  7G16G18G21G22G27G29G31
  21676406.580   113910301.06609  21676403.260    88761269.64448
  22555975.920   118532515.76509  22555973.180    92363019.35046
  21243496.680   111635334.93009  21243492.920    86988562.68448
  23953975.240   125879039.74507  23953972.820    98087580.51146
  22943079.140   120566725.02908  22943079.200    93948098.36347
  23812091.380   125133365.63608  23812090.020    97506503.53346
  23028298.480   121014509.67309  23028296.180    94297002.49347
 15 02 16 00 49  0.0000000  0  7G16G18G21G22G27G29G31
  21663039.300   113840055.02109  21663035.840    88706532.45948
  22544323.880   118471284.03909  22544321.160    92315306.34646
  21250384.900   111671532.42909  21250381.020    87016768.52748
  23935939.440   125784262.28009  23935937.460    98013728.23046
  22930501.140   120500627.34508  22930501.240    93896593.70348
  23826107.760   125207023.16108  23826106.720    97563898.94546
  23045665.200   121105772.90909  23045663.100    94368116.65447
 15 02 16 00 49 30.0000000  0  7G16G18G21G22G27G29G31
  21649723.840   113770081.15509  21649720.300    88652007.37548
  22532727.460   118410344.87509  22532724.680    92267821.27847
  21257334.540   111708053.27308  21257330.640    87045226.33448
  23917903.840   125689484.99608  23917901.620    97939875.92745
  22917940.540   120434621.12308  22917940.660    93845160.29147
  23840129.240   125280706.35508  23840128.300    97621314.33946
  23063063.180   121197200.12408  23063061.160    94439358.59447
 15 02 16 00 50  0.0000000  0  7G16G18G21G22G27G29G31
  21636461.340   113700386.15709  21636457.880    88597699.58948
  22521188.060   118349704.92409  22521185.320    92220569.39147
  21264346.300   111744901.13308  21264342.540    87073938.94348
  23899869.860   125594715.17608  23899867.280    97866029.42746
  22905398.240   120368710.93909  22905398.320    93793801.72447
  23854156.760   125354419.82808  23854155.540    97678753.36846
  23080492.800   121288792.98309  23080490.740    94510729.60447
 15 02 16 00 50 30.0000000  0  7G16G18G21G22G27G29G31
  21623253.140   113630976.99009  21623249.860    88543614.53948
  22509706.940   118289371.03109  22509704.240    92173555.98247
  21271420.760   111782078.54808  21271417.140    87102908.35648
  23881838.460   125499959.29109  23881835.900    97792193.90246
  22892875.060   120302901.28308  22892875.200    93742521.48648
  23868190.840   125428167.15308  23868189.040    97736218.82746
  23097954.400   121380553.05209  23097952.080    94582230.91747
 15 02 16 00 51  0.0000000  0  7G16G18G21G22G27G29G31
  21610099.540   113561854.74909  21610096.380    88489753.05148
  22498284.380   118229344.99709  22498281.740    92126782.46547
  21278557.420   111819582.59408  21278553.960    87132132.28148
  23863810.100   125405219.54108  23863807.240    97718370.88046
  22880370.860   120237191.14309  22880371.000    93691318.81647
  23882231.200   125501948.89708  23882229.360    97793711.03746
  23115447.040   121472476.22109  23115444.500    94653859.29547
 15 02 16 00 51 30.0000000  0  7G16G18G21G22G27G29G31
  21597001.160   113493022.37609  21596997.960    88436117.44248
  22486920.880   118169629.60609  22486918.320    92080250.99047
  21285756.280   111857412.90509  21285752.840    87161610.44448
  23845785.360   125310499.10608  23845782.340    97644562.91046
  22867885.800   120171581.42308  22867885.820    93640194.33248
  23896277.840   125575765.22708  23896276.240    97851230.20046
  23132970.200   121564560.27609  23132967.540    94725613.04747
 15 02 16 00 52  0.0000000  0  7G16G18G21G22G27G29G31
  21583957.700   113424478.74209  21583954.520    88382706.81648
  22475616.240   118110223.97909  22475613.860    92033960.89947
  21293016.420   111895564.56009  21293012.880    87191339.00648
  23827764.260   125215797.63308  23827760.820    97570769.63546
  22855419.160   120106068.90608  22855419.120    93589145.66147
  23910330.480   125649612.87108  23910328.860    97908773.76646
  23150522.780   121656799.21009  23150520.000    94797487.48647
 15 02 16 00 52 30.0000000  0  7G16G18G21G22G27G29G31
  21570969.880   113356227.68409  21570966.720    88329524.18948
  22464371.320   118051131.72509  22464368.860    91987914.99347
  21300337.600   111934036.73809  21300333.960    87221317.32948
  23809747.240   125121118.53708  23809743.600    97496993.87946
  22842971.300   120040654.85208  22842971.120    93538173.66747
  23924389.320   125723492.46908  23924387.540    97966342.24946
  23168104.360   121749190.93108  23168101.540    94869480.99447
 15 02 16 00 53  0.0000000  0  7G16G18G21G22G27G29G31
  21558038.420   113288272.47109  21558035.260    88276572.08248
  22453186.680   117992356.17909  22453184.120    91942115.88947
  21307719.540   111972828.46909  21307715.840    87251544.65048
