     2.11           OBSERVATION DATA    G                   RINEX VERSION / TYPE
SPIDER V4,0,0,3554                      2015 03 18 00:28    PGM / RUN BY / DATE 
CKTS                                                        MARKER NAME         
CKTS                                                        MARKER NUMBER       
                                                            OBSERVER / AGENCY   
496659              LEICA GRX1200+GNSS  8.10/4.007          REC # / TYPE / VERS 
10321004            LEIAR25         NONE                    ANT # / TYPE        
  5190783.6897   517202.7561  3658836.0979                  APPROX POSITION XYZ 
        0.0720        0.0000        0.0000                  ANTENNA: DELTA H/E/N
     1     1                                                WAVELENGTH FACT L1/2
     4    C1    L1    P2    L2                              # / TYPES OF OBSERV 
    30.000                                                  INTERVAL            
  2015    02    16    00    00    0.0000000     GPS         TIME OF FIRST OBS   
  2015    02    16    23    59   30.0000000     GPS         TIME OF LAST OBS    
    16                                                      LEAP SECONDS        
    30                                                      # OF SATELLITES     
   G 1   819   819   819   819                              PRN / # OF OBS      
   G 2   778   778   778   778                              PRN / # OF OBS      
   G 3   852   851   851   851                              PRN / # OF OBS      
   G 4   841   841   841   841                              PRN / # OF OBS      
   G 5   541   541   541   541                              PRN / # OF OBS      
   G 6   664   664   663   663                              PRN / # OF OBS      
   G 7   667   667   667   667                              PRN / # OF OBS      
   G 9   806   806   805   805                              PRN / # OF OBS      
   G10   680   680   679   679                              PRN / # OF OBS      
   G11   781   781   780   780                              PRN / # OF OBS      
   G12   830   830   830   830                              PRN / # OF OBS      
   G13   805   805   805   805                              PRN / # OF OBS      
   G14   776   776   776   776                              PRN / # OF OBS      
   G15   587   566   561   555                              PRN / # OF OBS      
   G16   546   546   546   546                              PRN / # OF OBS      
   G17   773   773   772   772                              PRN / # OF OBS      
   G18   725   725   725   725                              PRN / # OF OBS      
   G19   666   666   666   666                              PRN / # OF OBS      
   G20   805   805   805   805                              PRN / # OF OBS      
   G21   723   715   713   712                              PRN / # OF OBS      
   G22   651   651   650   650                              PRN / # OF OBS      
   G23   751   750   750   750                              PRN / # OF OBS      
   G24   830   830   830   830                              PRN / # OF OBS      
   G25   860   860   860   860                              PRN / # OF OBS      
   G27   814   814   814   814                              PRN / # OF OBS      
   G28   637   637   636   636                              PRN / # OF OBS      
   G29   773   773   773   773                              PRN / # OF OBS      
   G30   713   713   713   713                              PRN / # OF OBS      
   G31   689   689   689   689                              PRN / # OF OBS      
   G32   766   766   765   765                              PRN / # OF OBS      
BIT 2 OF LLI FLAGS DATA COLLECTED UNDER A/S CONDITION       COMMENT             
SNR is mapped to RINEX snr flag value [2-9]                 COMMENT             
Lx:     = 25dBHz -> 1; 26-27dBHz -> 2; 28-31dBHz -> 3       COMMENT             
       32-35dBHz -> 4; 36-38dBHz -> 5; 39-41dBHz -> 6       COMMENT             
       42-44dBHz -> 7; 45-48dBHz -> 8; >=49dBHz -> 9        COMMENT             
                                                            END OF HEADER       
 15 02 16 00 00  0.0000000  0  6G18G21G25G27G29G31
  23802929.020   125085290.18308  23802927.340    97469074.40845
  20905289.140   109858039.81608  20905285.600    85603654.94748
  23221817.040   122031464.81208  23221817.900    95089451.53046
  24263482.060   127505465.04606  24263483.860    99354918.13145
  22517255.840   118328968.01209  22517253.300    92204382.70147
  21547566.740   113233224.08309  21547563.720    88233665.61548
 15 02 16 00 00 30.0000000  0  6G18G21G25G27G29G31
  23788242.120   125008110.58908  23788240.580    97408934.61045
  20905172.120   109857424.80608  20905168.560    85603175.72248
  23237831.340   122115620.62908  23237832.280    95155027.45846
  24249347.740   127431190.31707  24249349.900    99297041.83146
  22530324.960   118397646.45209  22530322.460    92257898.37047
  21558889.520   113292725.86109  21558886.440    88280030.60848
 15 02 16 00 01  0.0000000  0  6G18G21G25G27G29G31
  23773564.940   124930982.39608  23773563.540    97348834.85745
  20905139.840   109857255.13408  20905136.240    85603043.51948
  23253890.960   122200014.41508  23253891.700    95220788.82946
  24235232.460   127357013.06108  24235234.640    99239241.49546
  22543404.580   118466380.18509  22543401.760    92311457.09047
  21570295.880   113352666.92409  21570292.840    88326737.92048
 15 02 16 00 01 30.0000000  0  6G18G21G25G27G29G31
  23758898.160   124853909.03508  23758896.760    97288777.86045
  20905192.360   109857531.10508  20905188.680    85603258.57148
  23269995.860   122284646.37208  23269996.480    95286735.78946
  24221136.280   127282934.38908  24221138.000    99181517.88346
  22556494.680   118535169.19309  22556491.980    92365058.87447
  21581785.540   113413045.77609  21581782.660    88373786.35348
 15 02 16 00 02  0.0000000  0  6G18G21G25G27G29G31
  23744242.520   124776894.24108  23744241.120    97228766.46945
  20905329.700   109858252.80008  20905325.960    85603820.94148
  23286146.100   122369516.52408  23286146.780    95352868.35246
  24207058.940   127208954.97508  24207060.060    99123871.61346
  22569595.320   118604013.65209  22569592.840    92418703.92347
  21593358.300   113473860.83309  21593355.460    88421174.70348
 15 02 16 00 02 30.0000000  0  6G18G21G25G27G29G31
  23729598.540   124699940.75208  23729597.060    97168802.84545
  20905551.680   109859419.43408  20905547.960    85604730.02148
  23302341.560   122454623.97108  23302342.380    95419185.81246
  24193000.280   127135074.80208  24193000.840    99066302.65946
  22582706.080   118672912.99509  22582704.040    92472391.72147
  21605013.820   113535110.22609  21605010.900    88468901.47648
 15 02 16 00 03  0.0000000  0  6G18G21G25G27G29G31
  23714966.620   124623050.60308  23714965.080    97108888.55145
  20905858.100   109861029.84408  20905854.460    85605984.88648
  23318581.840   122539967.15508  23318582.700    95485686.98946
  24178960.220   127061293.08208  24178960.420    99008810.45446
  22595827.000   118741865.94408  22595824.740    92526121.20847
  21616751.400   113596791.02409  21616748.420    88516964.41348
 15 02 16 00 03 30.0000000  0  6G18G21G25G27G29G31
  23700346.980   124546224.13908  23700345.320    97049023.90345
  20906248.500   109863081.26008  20906244.860    85607583.40748
  23334866.380   122625543.20308  23334867.360    95552369.59146
  24164938.280   126987607.67108  24164938.520    98951393.36246
  22608958.140   118810870.43008  22608956.040    92579890.93547
  21628570.200   113658899.03509  21628567.140    88565360.25748
 15 02 16 00 04  0.0000000  0  6G18G21G25G27G29G31
  23685740.340   124469465.68308  23685738.640    96989212.23045
  20906722.900   109865574.08408  20906719.180    85609525.86048
  23351195.200   122711352.56408  23351196.300    95619233.98946
  24150934.820   126914019.92208  24150935.340    98894052.37146
  22622099.300   118879926.94809  22622096.880    92633701.18447
  21640470.000   113721432.57709  21640466.820    88614087.67548
 15 02 16 00 04 30.0000000  0  6G18G21G25G27G29G31
  23671147.540   124392779.74108  23671145.980    96929457.07345
  20907281.520   109868509.53608  20907277.760    85611813.24648
  23367568.620   122797396.29508  23367569.920    95686281.03446
  24136950.500   126840531.86608  24136950.860    98836788.94346
  22635250.480   118949036.72908  22635248.300    92687552.93947
  21652450.820   113784391.72509  21652447.400    88663146.72748
 15 02 16 00 05  0.0000000  0  6G18G21G25G27G29G31
  23656568.280   124316165.00808  23656566.740    96869757.40845
  20907923.500   109871883.23208  20907919.760    85614442.10248
  23383986.000   122883669.76008  23383987.060    95753507.07746
  24122984.480   126767139.56308  24122984.700    98779600.14946
  22648411.120   119018196.09609  22648409.340    92741443.33047
  21664511.480   113847770.54309  21664507.840    88712532.81048
 15 02 16 00 05 30.0000000  0  6G18G21G25G27G29G31
  23642003.260   124239625.29508  23642001.660    96810116.19445
  20908648.780   109875694.74308  20908645.060    85617412.11548
  23400447.300   122970172.79108  23400447.800    95820912.02446
  24109036.700   126693843.64907  24109036.860    98722486.50246
  22661581.140   119087405.01308  22661579.380    92795372.32447
  21676651.560   113911567.38009  21676647.940    88762244.62148
 15 02 16 00 06  0.0000000  0  6G18G21G25G27G29G31
  23627454.140   124163169.44008  23627452.480    96750540.30445
  20909458.520   109879950.05008  20909454.920    85620727.94748
  23416953.300   123056910.81708  23416953.260    95888500.06846
  24095108.160   126620650.49608  24095108.860    98665452.92346
  22674761.580   119156668.63509  22674759.940    92849343.97147
  21688871.900   113975786.22309  21688868.520    88812285.24148
 15 02 16 00 06 30.0000000  0  6G18G21G25G27G29G31
  23612919.260   124086788.64508  23612917.500    96691022.92245
  20910350.400   109884636.87508  20910346.800    85624380.02248
  23433501.520   123143871.56908  23433501.400    95956261.64046
  24081197.220   126547548.71408  24081198.020    98608490.52746
  22687950.500   119225975.81609  22687948.580    92903349.54647
  21701170.000   114040413.04909  21701166.760    88862643.79248
 15 02 16 00 07  0.0000000  0  6G18G21G25G27G29G31
  23598400.800   124010494.56308  23598398.940    96631573.09745
  20911325.960   109889763.48508  20911322.300    85628374.80048
  23450093.600   123231063.36208  23450093.460    96024203.28446
  24067305.420   126474547.44308  24067306.420    98551606.49547
  22701149.420   119295335.62909  22701147.760    92957396.12547
  21713547.120   114105455.04309  21713544.000    88913325.85248
 15 02 16 00 07 30.0000000  0  6G18G21G25G27G29G31
  23583898.780   123934286.94008  23583896.940    96572190.62345
  20912384.220   109895324.84208  20912380.520    85632708.32248
  23466728.860   123318481.55208  23466728.880    96092321.33046
  24053432.180   126401642.92008  24053433.300    98494797.85847
  22714356.960   119364742.94208  22714355.240    93011479.72148
  21726002.000   114170906.16309  21725998.980    88964326.71248
 15 02 16 00 08  0.0000000  0  6G18G21G25G27G29G31
  23569413.840   123858169.01508  23569412.080    96512878.05345
  20913525.460   109901322.20908  20913521.740    85637381.60148
  23483407.200   123406126.34208  23483407.260    96160615.94746
  24039577.560   126328836.21408  24039578.580    98438065.44946
  22727573.780   119434198.93709  22727571.900    93065601.30047
  21738534.460   114236765.05309  21738531.480    89015645.31348
 15 02 16 00 08 30.0000000  0  6G18G21G25G27G29G31
  23554946.360   123782142.53108  23554944.800    96453636.72045
  20914749.200   109907753.08708  20914745.460    85642392.68048
  23500128.060   123493995.64308  23500128.280    96229085.50246
  24025741.120   126256126.10307  24025742.080    98381408.26346
  22740800.000   119503702.34909  22740797.900    93119759.73947
  21751143.920   114303028.10709  21751140.940    89067278.83948
 15 02 16 00 09  0.0000000  0  6G18G21G25G27G29G31
  23540497.400   123706213.37708  23540495.940    96394471.24645
  20916055.920   109914619.73708  20916052.100    85647743.33448
  23516892.060   123582091.94608  23516892.540    96297731.94746
  24011923.620   126183515.98807  24011924.180    98324828.97945
  22754035.660   119573255.41808  22754033.560    93173956.94447
  21763830.560   114369696.25409  21763827.500    89119228.03048
 15 02 16 00 09 30.0000000  0  6G18G21G25G27G29G31
  23526066.560   123630379.29208  23526065.120    96335379.83446
  20917444.480   109921916.25708  20917440.580    85653428.93648
  23533698.100   123670408.99208  23533698.800    96366550.38746
  23998124.220   126111000.59508  23998124.860    98268323.52946
  22767279.720   119642852.76109  22767277.580    93228188.62647
  21776592.760   114436761.85709  21776589.660    89171486.92848
 15 02 16 00 10  0.0000000  0  6G18G21G25G27G29G31
  23511654.220   123554641.98708  23511652.540    96276363.85045
  20918914.520   109929641.06708  20918910.480    85659448.27948
  23550545.900   123758944.97808  23550546.560    96435539.44146
  23984342.880   126038578.99608  23984343.560    98211891.18046
  22780532.060   119712493.25808  22780529.780    93282453.88748
  21789429.940   114504221.76209  21789426.860    89224053.04848
 15 02 16 00 10 30.0000000  0  6G18G21G25G27G29G31
  23497261.960   123479009.61708  23497259.860    96217429.61145
  20920466.760   109937797.89908  20920462.640    85665804.25048
  23567436.300   123847704.47708  23567436.980    96504702.64346
  23970580.400   125966256.59408  23970581.260    98155536.12546
  22793793.420   119782181.73409  22793790.460    93336756.63047
  21802342.700   114572078.80509  21802339.700    89276928.65648
 15 02 16 00 11  0.0000000  0  6G18G21G25G27G29G31
  23482889.580   123403481.87208  23482887.340    96158576.91345
  20922100.560   109946383.59408  20922096.500    85672494.41248
  23584368.480   123936683.53608  23584369.020    96574036.93846
  23956836.340   125894030.47808  23956837.060    98099256.09046
  22807063.220   119851915.05408  22807060.660    93391094.25347
  21815330.100   114640327.75109  21815327.100    89330109.63048
 15 02 16 00 11 30.0000000  0  6G18G21G25G27G29G31
  23468537.580   123328061.58708  23468535.280    96099807.91745
  20923815.760   109955397.30108  20923811.840    85679518.08848
  23601342.160   124025880.96608  23601342.780    96643541.39446
  23943110.420   125821900.36508  23943110.960    98043050.86545
  22820341.600   119921692.80709  22820339.080    93445466.44947
  21828391.560   114708965.81109  21828388.380    89383593.81848
 15 02 16 00 12  0.0000000  0  6G18G21G25G27G29G31
  23454207.020   123252754.35108  23454204.720    96041127.05045
  20925612.820   109964840.97308  20925608.960    85686876.80048
  23618357.800   124115298.96808  23618358.560    96713217.74746
  23929403.280   125749869.33708  23929403.760    97986922.81746
  22833628.820   119991517.46708  22833626.660    93499875.25647
  21841527.280   114777993.87609  21841523.800    89437381.91348
 15 02 16 00 12 30.0000000  0  6G18G21G25G27G29G31
  23439898.140   123177561.28408  23439895.980    95982535.12945
  20927491.220   109974711.73808  20927487.300    85694568.31148
  23635414.980   124204934.91408  23635415.920    96783063.91746
  23915714.700   125677935.74708  23915715.160    97930870.71646
  22846924.260   120061386.96608  22846922.560    93554319.01947
  21854736.520   114847407.73609  21854732.840    89491470.62148
 15 02 16 00 13  0.0000000  0  6G18G21G25G27G29G31
  23425610.380   123102479.25208  23425608.220    95924029.71045
  20929449.560   109985002.94708  20929445.660    85702587.43348
  23652512.360   124294782.05308  23652513.460    96853074.62546
  23902043.760   125606093.81308  23902044.240    97874890.06047
  22860227.200   120131295.29709  22860225.840    93608793.04147
  21868017.500   114917199.07409  21868013.800    89545853.44948
 15 02 16 00 13 30.0000000  0  6G18G21G25G27G29G31
  23411345.680   123027518.17608  23411343.380    95865618.54345
  20931488.980   109995720.65708  20931485.200    85710938.89648
  23669651.060   124384846.36108  23669652.220    96923254.56746
  23888391.640   125534350.45308  23888392.180    97818986.17247
  22873538.820   120201249.05709  22873537.240    93663302.45747
  21881371.020   114987372.43709  21881367.520    89600533.96148
 15 02 16 00 14  0.0000000  0  6G18G21G25G27G29G31
  23397104.480   122952680.66908  23397102.060    95807303.67945
  20933609.420   110006863.90009  20933605.680    85719621.95248
  23686830.860   124475127.02408  23686831.960    96993603.10146
  23874758.120   125462705.81408  23874758.800    97763159.26447
  22886859.180   120271247.49609  22886857.340    93717846.66447
  21894796.720   115057925.47109  21894793.460    89655510.32648
 15 02 16 00 14 30.0000000  0  6G18G21G25G27G29G31
  23382886.280   122877963.80008  23382883.760    95749082.80345
  20935809.540   110018425.66108  20935805.720    85728631.13748
  23704050.640   124565617.09608  23704051.680    97064114.83246
  23861142.200   125391153.94408  23861142.940    97707404.62047
  22900186.980   120341285.10508  22900185.200    93772421.39247
  21908293.020   115128849.60309  21908289.920    89710775.87348
 15 02 16 00 15  0.0000000  0  6G18G21G25G27G29G31
  23368692.520   122803375.46108  23368690.060    95690962.08145
  20938090.140   110030410.46308  20938086.340    85737969.93548
  23721311.120   124656320.55308  23721312.060    97134792.80846
  23847544.720   125319699.72708  23847545.580    97651726.06546
  22913523.040   120411366.18208  22913521.200    93827029.98947
  21921860.340   115200147.23609  21921857.300    89766332.45448
 15 02 16 00 15 30.0000000  0  6G18G21G25G27G29G31
  23354523.180   122728915.72308  23354520.980    95632941.58345
  20940450.560   110042814.38308  20940446.740    85747635.34848
  23738611.480   124747233.82008  23738612.420    97205634.27346
  23833965.600   125248340.72308  23833966.060    97596121.69346
  22926866.620   120481488.23809  22926864.600    93881670.53747
  21935497.820   115271813.62309  21935494.840    89822176.37448
 15 02 16 00 16  0.0000000  0  6G18G21G25G27G29G31
  23340379.280   122654589.28208  23340377.240    95575024.93546
  20942891.080   110055639.18408  20942887.240    85757628.71048
  23755951.980   124838358.49208  23755952.660    97276640.47045
  23820404.980   125177079.41508  23820405.200    97540593.43046
  22940218.500   120551653.00108  22940216.440    93936344.33847
  21949205.500   115343848.41209  21949202.540    89878307.34548
 15 02 16 00 16 30.0000000  0  6G18G21G25G27G29G31
  23326260.960   122580396.62308  23326258.780    95517212.52745
  20945410.860   110068880.50408  20945406.960    85767946.61448
  23773331.720   124929690.64308  23773332.360    97347808.35846
  23806862.420   125105912.94708  23806862.640    97485139.07846
  22953578.260   120621857.55608  22953576.000    93991049.22647
  21962982.300   115416246.50009  21962979.480    89934721.42548
 15 02 16 00 17  0.0000000  0  6G18G21G25G27G29G31
  23312168.840   122506341.32108  23312166.460    95459507.16245
  20948009.840   110082538.08708  20948005.820    85778588.90448
  23790750.880   125021230.15508  23790751.620    97419137.80346
  23793337.940   125034842.11308  23793338.460    97429759.28746
  22966945.420   120692102.55008  22966943.700    94045785.48947
  21976828.040   115489006.13109  21976825.320    89991417.21148
 15 02 16 00 17 30.0000000  0  6G18G21G25G27G29G31
  23298103.860   122432428.85308  23298101.300    95401913.08045
  20950688.440   110096614.18508  20950684.360    85789557.31348
  23808210.020   125112978.63708  23808210.860    97490630.10646
  23779832.100   124963869.69308  23779832.680    97374456.13446
  22980320.840   120762390.52009  22980319.100    94100555.33247
  21990742.660   115562127.40109  21990739.940    90048394.79948
 15 02 16 00 18  0.0000000  0  6G18G21G25G27G29G31
  23284065.080   122358654.86508  23284062.400    95344426.89845
  20953445.180   110111101.07308  20953441.180    85800845.79548
  23825707.660   125204928.65408  23825708.540    97562279.44146
  23766343.900   124892989.17008  23766344.600    97319224.58246
  22993703.260   120832714.66108  22993701.280    94155353.33547
  22004724.400   115635601.43109  22004721.580    90105647.27448
 15 02 16 00 18 30.0000000  0  6G18G21G25G27G29G31
  23270053.620   122285025.15508  23270050.920    95287053.16145
  20956280.180   110125999.36608  20956276.300    85812454.85948
  23843243.780   125297081.18408  23843244.780    97634086.56145
  23752873.720   124822202.61008  23752874.260    97264066.28345
  23007093.200   120903076.59809  23007091.020    94210180.77847
  22018773.080   115709427.39609  22018770.100    90163173.96748
 15 02 16 00 19  0.0000000  0  6G18G21G25G27G29G31
  23256071.100   122211547.21308  23256068.440    95229797.67345
  20959194.360   110141313.81109  20959190.520    85824388.19248
  23860819.200   125389440.67408  23860820.320    97706054.95746
  23739422.420   124751515.34708  23739422.220    97208985.33745
  23020490.860   120973481.63008  23020488.280    94265041.80847
  22032889.220   115783608.27809  22032886.220    90220977.23148
 15 02 16 00 19 30.0000000  0  6G18G21G25G27G29G31
  23242117.160   122138218.83708  23242114.560    95172658.72545
  20962186.560   110157038.18308  20962182.780    85836640.95848
  23878432.800   125482000.81108  23878433.780    97778179.68245
  23725988.860   124680922.33208  23725988.300    97153977.81445
  23033895.600   121043924.06609  23033893.640    94319931.98647
  22047071.460   115858136.48109  22047068.540    90279051.13348
 15 02 16 00 20  0.0000000  0  6G18G21G25G27G29G31
  23228192.420   122065043.24308  23228189.740    95115638.81945
  20965256.520   110173171.09208  20965252.800    85849212.06648
  23896084.560   125574760.65608  23896085.340    97850460.06645
  23712573.400   124610423.63008  23712572.980    97099043.84646
  23047307.060   121114403.94508  23047304.600    94374851.36846
  22061319.300   115933009.27209  22061316.420    90337393.54448
 15 02 16 00 20 30.0000000  0  7G16G18G21G25G27G29G31
  22558438.660   118545386.30605  22558434.860    92373012.51941
  23214297.360   121992024.05208  23214294.620    95058740.79346
  20968404.260   110189712.85608  20968400.620    85862101.73448
  23913774.360   125667720.29208  23913775.180    97922896.10746
  23699175.960   124540020.31408  23699176.220    97044184.17746
  23060726.020   121184922.36709  23060723.720    94429800.76147
  22075632.560   116008225.46509  22075629.560    90396003.53548
 15 02 16 00 21  0.0000000  0  7G16G18G21G25G27G29G31
  22542667.860   118462510.92106  22542664.160    92308434.27643
  23200432.760   121919165.61608  23200430.180    95001968.04545
  20971629.880   110206663.89508  20971626.260    85875310.35448
  23931502.100   125760880.50907  23931503.280    97995488.42746
  23685796.980   124469714.39608  23685797.740    96989400.41246
  23074152.700   121255480.76409  23074151.220    94484781.29947
  22090010.960   116083783.83109  22090007.860    90454880.16348
 15 02 16 00 21 30.0000000  0  7G16G18G21G25G27G29G31
  22526925.160   118379783.53306  22526921.380    92243971.45243
  23186598.560   121846466.87708  23186596.100    94945319.73046
  20974932.500   110224019.53808  20974928.880    85888834.24048
  23949266.960   125854236.46408  23949268.480    98068233.29045
  23672435.920   124399501.93508  23672436.380    96934689.43646
  23087586.580   121326075.31808  23087585.080    94539790.00447
  22104453.360   116159678.56909  22104450.200    90514018.88448
 15 02 16 00 22  0.0000000  0  7G16G18G21G25G27G29G31
  22511211.480   118297208.40107  22511207.720    92179627.19244
  23172795.780   121773933.07008  23172793.260    94888799.92245
  20978312.340   110241780.79908  20978308.760    85902674.19148
  23967069.320   125947789.27308  23967070.860    98141131.52945
  23659093.200   124329385.21308  23659093.500    96880053.05947
  23101027.280   121396708.01308  23101025.960    94594828.42746
  22118959.640   116235909.13109  22118956.420    90573419.30148
 15 02 16 00 22 30.0000000  0  7G16G18G21G25G27G29G31
  22495526.500   118214783.95608  22495522.720    92115400.34144
  23159024.220   121701563.43608  23159021.600    94832408.04245
  20981768.440   110259943.01608  20981764.900    85916826.56448
  23984908.420   126041534.33908  23984909.900    98214179.60045
  23645768.000   124259360.75708  23645768.580    96825488.60447
  23114475.000   121467375.20309  23114472.820    94649893.75546
  22133528.640   116312469.24809  22133525.260    90633076.51948
 15 02 16 00 23  0.0000000  0  7G16G18G21G25G27G29G31
  22479871.520   118132516.96908  22479867.800    92051296.22045
  23145285.180   121629364.92108  23145282.520    94776149.49445
  20985301.440   110278509.49508  20985298.000    85931293.97148
  24002784.780   126135475.01908  24002785.940    98287380.12245
  23632461.340   124189433.01408  23632461.880    96770999.50147
  23127929.800   121538080.70608  23127927.720    94704988.88147
  22148160.680   116389360.66409  22148157.180    90692991.88448
 15 02 16 00 23 30.0000000  0  7G16G18G21G25G27G29G31
  22464246.600   118050407.81808  22464243.000    91987315.06846
  23131578.940   121557338.91608  23131576.340    94720025.38246
  20988910.920   110297477.51108  20988907.460    85946074.24848
  24020697.820   126229608.47708  24020699.060    98360730.79545
  23619172.760   124119600.18308  23619173.160    96716584.33447
  23141391.320   121608822.75108  23141390.160    94760112.49346
  22162854.840   116466578.81509  22162851.280    90753161.85548
 15 02 16 00 24  0.0000000  0  7G16G18G21G25G27G29G31
  22448651.660   117968456.32009  22448648.180    91923456.77047
  23117905.600   121485485.48208  23117903.060    94664035.74746
  20992596.080   110316843.12608  20992592.640    85961164.32948
  24038646.920   126323931.18208  24038648.340    98434228.95145
  23605901.760   124049859.91308  23605902.140    96662241.31947
  23154859.760   121679599.08209  23154857.940    94815262.90746
  22177610.180   116544118.72609  22177606.600    90813582.53048
 15 02 16 00 24 30.0000000  0  7G16G18G21G25G27G29G31
  22433087.440   117886666.37309  22433084.080    91859724.36047
  23104266.100   121413809.50708  23104263.620    94608184.37946
  20996357.080   110336607.30108  20996353.700    85976564.98748
  24056632.220   126418443.91008  24056633.480    98507875.17746
  23592648.500   123980214.11108  23592648.780    96607971.89146
  23168335.360   121750411.36808  23168333.540    94870441.30647
  22192426.660   116621979.93109  22192423.080    90874253.56948
 15 02 16 00 25  0.0000000  0  7G16G18G21G25G27G29G31
  22417555.060   117805043.73009  22417551.840    91796122.31147
  23090661.660   121342317.48208  23090659.140    94552476.35345
  21000194.400   110356772.44908  21000191.060    85992278.10148
  24074654.280   126513149.37808  24074655.340    98581671.61246
  23579413.780   123910666.62308  23579413.880    96553779.10645
  23181818.060   121821263.08808  23181816.680    94925650.32847
  22207304.480   116700163.42909  22207300.980    90935175.75348
 15 02 16 00 25 30.0000000  0  7G16G18G21G25G27G29G31
  22402053.940   117723585.16709  22402050.780    91732648.13147
  23077091.660   121271006.75608  23077089.100    94496909.59446
  21004106.840   110377332.31008  21004103.420    86008298.77048
  24092711.720   126608041.26408  24092712.580    98655613.29245
  23566196.840   123841212.23208  23566196.960    96499658.81746
  23195307.420   121892148.73708  23195305.400    94980885.88246
  22222242.140   116778661.27509  22222238.700    90996342.87148
 15 02 16 00 26  0.0000000  0  7G16G18G21G25G27G29G31
  22386584.000   117642290.53308  22386580.940    91669301.70647
  23063555.920   121199876.53508  23063553.300    94441483.48345
  21008093.560   110398282.76508  21008090.100    86024623.80048
  24110803.900   126703115.67308  24110804.680    98729697.22245
  23552997.420   123771848.27608  23552997.540    96445608.99147
  23208802.840   121963065.58308  23208799.860    95036145.78646
  22237238.680   116857468.24909  22237235.260    91057750.88148
 15 02 16 00 26 30.0000000  0  7G16G18G21G25G27G29G31
  22371146.920   117561168.43009  22371143.900    91606089.69546
  23050056.720   121128938.24908  23050054.080    94386206.91146
  21012155.720   110419629.52308  21012152.220    86041257.64048
  24128931.980   126798378.39908  24128932.600    98803927.83645
  23539816.440   123702581.58508  23539816.740    96391634.98147
  23222305.160   122034020.64308  23222302.100    95091435.38847
  22252294.880   116936588.47009  22252291.380    91119402.96448
 15 02 16 00 27  0.0000000  0  7G16G18G21G25G27G29G31
  22355742.880   117480219.89809  22355739.820    91543012.90147
  23036594.140   121058192.27108  23036591.520    94331080.22846
  21016292.800   110441369.97308  21016289.240    86058198.26048
  24147095.360   126893826.78808  24147096.120    98878303.15545
  23526653.720   123633410.75708  23526654.020    96337735.70447
  23235813.980   122105012.03908  23235811.980    95146753.30847
  22267409.740   117016017.61709  22267406.280    91181295.80348
 15 02 16 00 27 30.0000000  0  7G16G18G21G25G27G29G31
  22340371.860   117399444.76909  22340368.680    91480071.24047
  23023168.280   120987639.14408  23023165.740    94276103.80146
  21020504.180   110463500.45608  21020500.540    86075442.79148
  24165293.340   126989457.46708  24165294.160    98952820.51946
  23513508.640   123564333.59108  23513509.080    96283909.38446
  23249329.380   122176037.26408  23249328.260    95202097.59047
  22282582.400   117095750.86109  22282579.060    91243425.56048
 15 02 16 00 28  0.0000000  0  7G16G18G21G25G27G29G31
  22325033.900   117318842.80309  22325030.580    91417264.55447
  23009779.280   120917279.32708  23009776.760    94221278.01645
  21024789.040   110486017.52708  21024785.480    86092988.56448
  24183525.280   127085266.96908  24183526.040    99027477.23545
  23500381.120   123495347.83008  23500381.280    96230154.25746
  23262850.940   122247094.21708  23262849.600    95257466.63046
  22297811.880   117175783.28609  22297808.780    91305788.46948
 15 02 16 00 28 30.0000000  0  7G16G18G21G25G27G29G31
  22309730.400   117238421.77909  22309727.060    91354598.80147
  22996428.640   120847120.80209  22996425.940    94166609.07845
  21029148.080   110508924.93808  21029144.620    86110838.50748
  24201791.880   127181259.48808  24201792.780    99102276.53545
  23487272.040   123426458.76008  23487272.100    96176474.49446
  23276379.320   122318187.86608  23276378.180    95312864.23547
  22313098.740   117256117.50709  22313095.980    91368386.53548
 15 02 16 00 29  0.0000000  0  7G16G18G21G25G27G29G31
  22294460.360   117158177.81108  22294457.280    91292071.04847
  22983115.820   120777160.88809  22983112.760    94112094.89245
  21033580.200   110532216.44308  21033576.840    86128987.71548
  24220092.060   127277428.43608  24220093.360    99177213.31744
  23474180.100   123357660.98908  23474179.960    96122865.90046
  23289914.060   122389312.54808  23289912.860    95368286.02547
  22328441.440   117336744.92809  22328438.960    91431213.06648
 15 02 16 00 29 30.0000000  0  8G16G18G21G22G25G27G29G31
  22279225.420   117078118.18609  22279222.420    91229686.97247
  22969842.240   120707407.09709  22969838.920    94057741.31646
  21038086.080   110555895.38908  21038082.800    86147438.83648
  24548242.380   129001883.31008  24548243.460   100520952.41545
  24238426.620   127373777.31508  24238428.040    99252290.30245
  23461106.360   123288959.33608  23461106.400    96069332.16146
  23303455.740   122460473.33208  23303454.560    95423735.92346
  22343840.500   117417667.91509  22343838.160    91494269.91548
 15 02 16 00 30  0.0000000  0  8G16G18G21G22G25G27G29G31
  22264024.220   116998235.04409  22264021.100    91167440.36747
  22956606.300   120637851.76008  22956603.060    94003542.38346
  21042663.620   110579950.39208  21042660.320    86166183.01948
  24530560.060   128908962.78207  24530560.620   100448547.08445
  24256793.440   127470294.86208  24256794.700    99327498.74944
  23448049.220   123220343.71808  23448049.660    96015865.50247
  23317002.160   122531660.01608  23317000.880    95479206.05847
  22359293.500   117498873.73109  22359291.080    91557547.15848
 15 02 16 00 30 30.0000000  0  8G16G18G21G22G25G27G29G31
  22248859.840   116918545.13009  22248856.620    91105344.34547
  22943411.440   120568512.78908  22943408.380    93949512.04646
  21047315.320   110604394.68608  21047311.920    86185230.53348
  24512863.240   128815966.96308  24512864.100   100376083.26845
  24275194.760   127566994.55408  24275196.080    99402849.11845
  23435011.400   123151828.79408  23435011.880    95962477.28747
  23330556.360   122602886.81108  23330555.440    95534707.42047
  22374802.580   117580374.43409  22374800.140    91621054.16848
 15 02 16 00 31  0.0000000  0  8G16G18G21G22G25G27G29G31
  22233731.580   116839044.67509  22233728.080    91043395.94747
  22930256.940   120499386.20008  22930254.100    93895647.20946
  21052039.680   110629220.89008  21052036.140    86204575.62348
  24495151.400   128722892.15808  24495152.240   100303557.96345
  24293629.240   127663869.02807  24293630.860    99478335.63945
  23421991.460   123083408.35808  23421991.380    95909162.67445
  23344116.940   122674147.65709  23344116.040    95590235.29046
  22390365.960   117662160.73909  22390363.660    91684783.72648
 15 02 16 00 31 30.0000000  0  8G16G18G21G22G25G27G29G31
  22218639.100   116759733.77209  22218635.640    90981595.27447
  22917143.040   120430472.81108  22917140.300    93841948.50546
  21056835.880   110654424.89908  21056832.180    86224215.11948
  24477424.480   128629738.85107  24477425.360   100230971.59345
  24312096.340   127760915.01608  24312098.040    99553955.82845
  23408988.980   123015080.49008  23408988.620    95855920.22046
  23357683.660   122745439.90608  23357681.500    95645787.72146
  22405982.780   117744228.04509  22405980.600    91748732.25948
 15 02 16 00 32  0.0000000  0  8G16G18G21G22G25G27G29G31
  22203583.840   116680617.55309  22203580.420    90919946.28847
  22904071.000   120361778.74008  22904068.300    93788420.69046
  21061704.460   110680009.26608  21061700.720    86244150.98648
  24459683.460   128536511.54208  24459684.140   100158327.31645
  24330596.540   127858134.44408  24330598.440    99629711.14045
  23396004.760   122946848.34508  23396004.620    95802752.35846
  23371256.420   122816767.16708  23371254.760    95701367.28247
  22421653.200   117826576.36909  22421651.000    91812899.73548
 15 02 16 00 32 30.0000000  0  8G16G18G21G22G25G27G29G31
  22188564.180   116601688.61209  22188560.640    90858443.23247
  22891039.340   120293296.79408  22891036.540    93735058.15746
  21066643.380   110705963.50208  21066639.700    86264375.09548
  24441927.380   128443204.95808  24441927.940   100085621.52245
  24349127.900   127955516.41807  24349129.500    99705593.15145
  23383037.040   122878702.27208  23383037.000    95749651.54946
  23384834.760   122888119.90209  23384832.900    95756966.81846
  22437374.920   117909193.90009  22437372.620    91877277.00448
 15 02 16 00 33  0.0000000  0  8G16G18G21G22G25G27G29G31
  22173582.360   116522958.60909  22173578.840    90797095.17547
  22878050.280   120225038.92008  22878047.500    93681870.22246
  21071654.000   110732294.38508  21071650.320    86284892.66148
  24424158.260   128349830.19808  24424158.900   100012862.69945
  24367691.840   128053068.99708  24367692.980    99781608.08445
  23370087.680   122810651.56208  23370087.200    95696625.00746
  23398419.720   122959507.11808  23398417.280    95812593.23446
  22453149.040   117992086.86409  22453146.640    91941868.88748
 15 02 16 00 33 30.0000000  0  8G16G18G21G22G25G27G29G31
  22158639.280   116444432.81109  22158635.580    90735906.26447
  22865105.060   120157011.16209  22865102.320    93628861.62246
  21076736.700   110759004.10408  21076732.980    86305705.42748
  24406377.260   128256392.72208  24406377.820    99940054.92544
  24386288.500   128150794.07707  24386289.320    99857757.44446
  23357156.780   122742699.31808  23357156.240    95643675.23846
  23412011.060   123030931.72608  23412008.940    95868248.69946
  22468975.580   118075255.48609  22468973.180    92006675.59148
 15 02 16 00 34  0.0000000  0  8G16G18G21G22G25G27G29G31
  22143734.060   116366106.24409  22143730.660    90674872.60048
  22852202.760   120089208.72408  22852200.040    93576028.57446
  21081889.860   110786084.36908  21081886.120    86326806.93448
  24388583.380   128162887.47507  24388583.920    99867194.19745
  24404916.300   128248683.22307  24404916.920    99934034.62045
  23344243.000   122674838.47808  23344242.360    95590796.69646
  23425608.580   123102386.34108  23425606.620    95923927.59547
  22484852.640   118158689.93609  22484850.260    92071689.38947
 15 02 16 00 34 30.0000000  0  8G16G18G21G22G25G27G29G31
  22128867.540   116287982.33809  22128864.280    90613996.83447
  22839344.000   120021635.39508  22839341.240    93523374.06746
  21087113.500   110813534.83508  21087109.720    86348196.90948
  24370777.380   128069318.88308  24370777.860    99794284.17746
  24423575.280   128346736.35708  24423575.900   100010439.55745
  23331347.100   122607070.25608  23331346.280    95537990.30146
  23439211.760   123173872.12008  23439210.140    95979630.77747
  22500779.960   118242388.63609  22500777.620    92136909.12648
 15 02 16 00 35  0.0000000  0  8G16G18G21G22G25G27G29G31
  22114040.020   116210064.25909  22114036.980    90553281.51747
  22826529.420   119954295.04708  22826526.720    93470901.10246
  21092407.500   110841354.95809  21092403.660    86369874.91948
  24352960.000   127975689.95508  24352960.340    99721327.13745
  24442265.320   128444953.02208  24442266.160   100086971.95845
  23318468.920   122539395.47508  23318468.440    95485256.73247
  23452820.940   123245389.91008  23452819.500    96035358.91746
  22516757.200   118326349.54609  22516754.860    92202333.18447
 15 02 16 00 35 30.0000000  0  8G16G18G21G22G25G27G29G31
  22099251.880   116132351.51509  22099248.620    90492726.05247
  22813759.140   119887187.51109  22813756.460    93418609.54246
  21097771.000   110869540.67508  21097767.260    86391837.81348
  24335131.100   127882000.69708  24335131.340    99648323.07945
  24460985.700   128543329.42808  24460986.840   100163628.82845
  23305608.100   122471811.50708  23305607.860    95432593.91246
  23466435.800   123316937.22108  23466434.580    96091109.99947
  22532783.340   118410567.22009  22532781.000    92267957.32147
 15 02 16 00 36  0.0000000  0  8G16G18G21G22G25G27G29G31
  22084503.780   116054850.46209  22084500.660    90432335.67847
  22801034.560   119820319.77309  22801031.820    93366504.81746
  21103204.600   110898094.94808  21103200.940    86414087.91548
  24317292.160   127788258.38208  24317292.160    99575277.72745
  24479737.020   128641868.51307  24479738.500   100240412.46244
  23292765.360   122404322.82408  23292765.480    95380005.37147
  23480057.320   123388518.26908  23480056.600    96146887.39647
  22548858.640   118495043.20309  22548856.200    92333782.72547
 15 02 16 00 36 30.0000000  0  8G16G18G21G22G25G27G29G31
  22069795.740   115977559.61309  22069792.640    90372109.05747
  22788355.480   119753690.77408  22788352.660    93314586.14346
  21108707.240   110927012.00808  21108703.660    86436620.69048
  24299442.720   127694461.21208  24299442.640    99502189.60445
  24498518.360   128740565.08707  24498519.680   100317318.84845
  23279939.900   122336925.33608  23279940.180    95327487.92747
  23493684.620   123460128.99409  23493683.860    96202687.95146
  22564981.820   118579770.83609  22564979.280    92399804.21847
 15 02 16 00 37  0.0000000  0  8G16G18G21G22G25G27G29G31
  22055128.600   115900483.91909  22055125.760    90312050.09348
  22775722.720   119687305.52909  22775719.980    93262857.40746
  21114279.340   110956293.47808  21114275.720    86459437.41448
  24281583.800   127600614.38708  24281583.400    99429062.75945
  24517329.880   128839420.65407  24517331.320   100394349.06645
  23267132.600   122269621.99208  23267132.740    95275043.77247
  23507317.880   123531771.97808  23507316.420    96258513.63446
  22581152.780   118664749.79409  22581150.280    92466021.55948
 15 02 16 00 37 30.0000000  0  8G16G18G21G22G25G27G29G31
  22040502.480   115823623.72309  22040499.740    90252159.06047
  22763136.500   119621164.96709  22763133.920    93211319.34046
  21119920.180   110985936.00609  21119916.520    86482535.48448
  24263715.620   127506718.71408  24263714.820    99355897.80346
  24536171.060   128938431.97307  24536172.960   100471500.64945
  23254343.000   122202410.89008  23254342.940    95222671.53947
  23520957.020   123603445.63509  23520955.420    96314363.15346
  22597370.720   118749975.62309  22597368.340    92532431.27147
 15 02 16 00 38  0.0000000  0  8G16G18G21G22G25G27G29G31
  22025917.900   115746981.03009  22025915.100    90192437.50847
  22750597.300   119555271.28408  22750594.700    93159973.63346
  21125629.400   111015938.03308  21125625.720    86505913.70848
  24245838.700   127412776.72508  24245837.400    99282696.73745
  24555041.740   129037597.36207  24555043.640   100548772.30245
  23241570.420   122135291.69308  23241570.760    95170370.88747
  23534602.040   123675149.24908  23534600.080    96370236.06046
  22613635.120   118835445.20909  22613632.800    92599030.90448
 15 02 16 00 38 30.0000000  0  8G16G18G21G22G25G27G29G31
  22011376.040   115670562.80309  22011373.080    90132890.82147
  22738106.440   119489631.81809  22738103.780    93108826.00546
  21131407.520   111046302.59208  21131403.900    86529574.38948
  24227954.360   127318795.57908  24227952.960    99209465.16445
  24573942.400   129136920.24307  24573944.160   100626166.65346
  23228816.340   122068269.03608  23228817.020    95118145.49547
  23548253.460   123746887.61708  23548251.260    96426136.07946
  22629946.300   118921160.19509  22629943.940    92665821.77248
 15 02 16 00 39  0.0000000  0  8G16G18G21G22G25G27G29G31
  21996875.280   115594360.33809  21996872.320    90073512.27347
  22725662.420   119424238.37209  22725659.760    93057870.12346
  21137252.260   111077016.71108  21137248.560    86553507.48348
  24210060.960   127224766.74308  24210059.540    99136196.35545
  24592870.700   129236388.24307  24592872.600   100703674.08945
  23216078.800   122001332.05508  23216079.320    95065986.82347
  23561909.280   123818649.71709  23561907.460    96482054.50847
  22646301.480   119007106.49509  22646299.040    92732792.86347
 15 02 16 00 39 30.0000000  0  8G16G18G21G22G25G27G29G31
  21982418.220   115518388.27409  21982415.280    90014313.28147
  22713268.180   119359106.16709  22713265.600    93007117.77046
  21143165.880   111108092.61108  21143162.100    86577722.46348
  24192161.240   127130705.39708  24192159.760    99062902.27345
  24611828.780   129336012.78508  24611830.260   100781303.54544
  23203360.000   121934493.50609  23203359.880    95013904.83747
  23575572.200   123890448.15208  23575570.560    96538001.31446
  22662702.620   119093294.42909  22662699.980    92799952.25747
 15 02 16 00 40  0.0000000  0  8G16G18G21G22G25G27G29G31
  21968004.740   115442644.23509  21968001.780    89955291.94747
  22700923.300   119294232.69109  22700920.660    92956567.03646
  21149147.000   111139523.31908  21149143.260    86602213.94748
  24174254.940   127036609.51008  24174253.420    98989581.21445
  24630815.400   129435787.70008  24630816.860   100859050.10944
  23190658.800   121867748.47308  23190658.440    94961895.75547
  23589240.620   123962278.12008  23589238.680    96593972.71046
  22679148.060   119179716.05109  22679145.400    92867293.74247
 15 02 16 00 40 30.0000000  0  8G16G18G21G22G25G27G29G31
  21953634.240   115367126.04109  21953630.980    89896446.59347
  22688627.320   119229616.30509  22688624.480    92906216.61546
  21155194.580   111171303.30709  21155190.840    86626977.54948
  24156341.700   126942477.18208  24156340.460    98916231.79445
  24649829.640   129535707.13907  24649830.340   100936909.39044
  23177974.600   121801092.65408  23177974.200    94909956.19547
  23602914.340   124034134.89008  23602912.620    96649964.97146
  22695636.520   119266364.17709  22695633.960    92934811.72747
 15 02 16 00 41  0.0000000  0  8G16G18G21G22G25G27G29G31
  21939307.640   115291839.39208  21939304.460    89837781.71047
  22676381.360   119165263.20408  22676378.360    92856071.35846
  21161308.920   111203434.43508  21161305.120    86652014.78248
  24138422.720   126848314.47608  24138421.680    98842858.68945
  24668871.720   129635773.35408  24668872.440   101014882.93045
  23165308.140   121734529.57908  23165307.800    94858088.87447
  23616594.100   124106022.05608  23616592.620    96705980.86946
  22712168.300   119353239.47509  22712165.780    93002506.73647
 15 02 16 00 41 30.0000000  0  8G16G18G21G22G25G27G29G31
  21925025.560   115216786.70409  21925022.380    89779299.09947
  22664185.860   119101175.76009  22664182.900    92806133.11446
  21167489.640   111235914.84508  21167485.840    86677324.19448
  24120498.720   126754124.33508  24120497.380    98769464.11845
  24687941.500   129735984.95908  24687942.020   101092969.82044
  23152659.280   121668059.20308  23152659.020    94806293.81747
  23630279.520   124177940.11208  23630278.020    96762020.85146
  22728742.880   119440339.07009  22728740.300    93070376.51247
 15 02 16 00 42  0.0000000  0  8G16G18G21G22G25G27G29G31
  21910788.180   115141968.41509  21910784.620    89720999.10947
  22652041.060   119037355.05209  22652038.320    92756402.71146
  21173736.320   111268741.40409  21173732.480    86702903.33548
  24102569.640   126659907.50808  24102568.120    98696048.82045
  24707038.520   129836338.77408  24707039.360   101171167.50645
  23140027.480   121601679.89408  23140027.320    94754569.71747
  23643970.720   124249886.90508  23643968.780    96818083.29046
  22745359.340   119527658.29509  22745356.620    93138417.43447
 15 02 16 00 42 30.0000000  0  8G16G18G21G22G25G27G29G31
  21896596.500   115067391.17509  21896593.040    89662887.01047
  22639948.320   118973807.68109  22639945.720    92706885.30446
  21180049.380   111301916.52508  21180045.460    86728754.07248
  24084636.680   126565670.58308  24084635.040    98622617.78446
  24726162.940   129936837.64408  24726163.920   101249478.18044
  23127414.060   121535395.78008  23127414.040    94702919.77047
  23657667.960   124321866.55308  23657666.400    96874171.21646
  22762017.900   119615198.50809  22762014.980    93206630.53947
 15 02 16 00 43  0.0000000  0  8G16G18G21G22G25G27G29G31
  21882450.020   114993051.16209  21882446.780    89604959.76047
  22627907.080   118910530.37509  22627904.360    92657578.32846
  21186427.440   111335433.37709  21186423.540    86754871.12348
  24066699.280   126471410.33708  24066697.420    98549168.56545
  24745313.500   130037474.43707  24745314.900   101327896.32144
  23114817.740   121469201.17508  23114817.540    94651339.60147
  23671370.880   124393873.53709  23671369.160    96930280.50946
  22778716.780   119702951.09409  22778713.800    93275009.12947
 15 02 16 00 43 30.0000000  0  8G16G18G21G22G25G27G29G31
  21868349.960   114918955.21809  21868347.120    89547222.70147
  22615918.480   118847529.87809  22615915.700    92608487.05446
  21192871.140   111369295.20508  21192867.280    86781256.95848
  24048758.840   126377134.24708  24048756.820    98475707.03845
  24764490.900   130138252.17008  24764492.540   101406424.33744
  23102239.200   121403100.57208  23102238.800    94599832.68747
  23685079.740   124465912.07008  23685077.400    96986414.44746
  22795456.300   119790917.60509  22795453.340    93343554.41547
 15 02 16 00 44  0.0000000  0  8G16G18G21G22G25G27G29G31
  21854297.280   114845107.12109  21854294.220    89489678.70248
  22603983.500   118784810.74109  22603980.580    92559615.02246
  21199380.320   111403501.40308  21199376.480    86807911.13848
  24030816.180   126282845.99608  24030814.120    98402235.96345
  24783695.080   130239170.97707  24783697.040   101485062.21945
  23089678.780   121337095.54808  23089678.100    94548400.20947
  23698794.620   124537983.74908  23698792.380    97042574.07946
  22812236.160   119879096.54309  22812233.300    93412265.23547
 15 02 16 00 44 30.0000000  0  8G16G18G21G22G25G27G29G31
  21840291.180   114771503.65709  21840288.120    89432325.36548
  22592101.480   118722369.59709  22592098.500    92510959.60446
  21205953.720   111438044.88208  21205949.940    86834828.13348
  24012870.720   126188542.81108  24012868.480    98328753.26545
  24802924.860   130340223.80407  24802926.300   101563804.61844
  23077135.560   121271180.47708  23077134.860    94497037.79347
  23712514.440   124610082.95908  23712512.680    97098755.22246
  22829054.780   119967479.44509  22829052.100    93481134.99247
 15 02 16 00 45  0.0000000  0  7G16G18G21G22G27G29G31
  21826332.760   114698151.26309  21826329.460    89375167.66248
  22580273.580   118660213.53209  22580270.680    92462526.31646
  21212591.900   111472928.64808  21212588.180    86862010.29748
  23994923.820   126094231.86908  23994921.380    98255264.49746
  23064610.340   121205359.81008  23064609.920    94445749.01147
  23726240.460   124682213.57608  23726238.120    97154960.91646
  22845912.560   120056067.92909  22845909.940    93550164.93447
 15 02 16 00 45 30.0000000  0  7G16G18G21G22G27G29G31
  21812421.880   114625048.47009  21812418.380    89318204.43447
  22568499.380   118598340.64409  22568496.660    92414313.69946
  21219293.580   111508146.13508  21219289.840    86889452.47848
  23976975.160   125999911.70208  23976972.680    98181768.55046
  23052102.000   121139629.51608  23052101.840    94394530.66847
  23739971.940   124754372.34708  23739969.840    97211188.49746
  22862808.200   120144855.05609  22862805.520    93619349.66647
 15 02 16 00 46  0.0000000  0  7G16G18G21G22G27G29G31
  21798559.000   114552198.23909  21798555.300    89261438.03248
  22556779.740   118536754.43209  22556777.180    92366324.47446
  21226058.880   111543697.73509  21226055.160    86917155.02548
  23959025.280   125905585.45708  23959022.640    98108267.81445
  23039611.240   121073990.60208  23039610.700    94343383.43447
  23753708.680   124826560.15708  23753707.240    97267438.67946
  22879741.280   120233838.61709  22879738.400    93688687.46447
 15 02 16 00 46 30.0000000  0  7G16G18G21G22G27G29G31
  21784745.580   114479608.46309  21784741.880    89204874.59148
  22545116.340   118475463.25109  22545113.860    92318565.12846
  21232888.460   111579587.44909  21232884.740    86945121.02248
  23941075.760   125811261.64908  23941073.200    98034769.01445
  23027139.000   121008448.42008  23027138.240    94292311.61647
  23767451.640   124898782.14008  23767450.460    97323715.50046
  22896712.280   120323021.17209  22896709.220    93758180.31947
 15 02 16 00 47  0.0000000  0  7G16G18G21G22G27G29G31
  21770980.620   114407273.38109  21770977.060    89148509.59448
  22533508.060   118414461.39609  22533505.520    92271031.22646
  21239780.440   111615805.00408  21239776.700    86973342.52248
  23923125.740   125716935.11808  23923123.140    97961268.07145
  23014683.840   120942995.22209  23014683.260    94241309.13647
  23781199.860   124971030.28608  23781197.880    97380012.76045
  22913719.180   120412392.39909  22913716.000    93827820.17547
 15 02 16 00 47 30.0000000  0  7G16G18G21G22G27G29G31
  21757264.340   114335194.33209  21757260.920    89092344.13248
  22521955.000   118353749.98709  22521952.460    92223723.66346
  21246734.340   111652347.65608  21246730.460    87001817.30848
  23905175.540   125622607.22308  23905172.740    97887766.03946
  23002245.480   120877629.92708  23002245.080    94190375.16947
  23794953.280   125043303.45308  23794950.920    97436329.49446
  22930761.160   120501947.91409  22930757.840    93897603.64447
 15 02 16 00 48  0.0000000  0  7G16G18G21G22G27G29G31
  21743598.860   114263382.56909  21743595.660    89036386.94148
  22510459.440   118293340.72209  22510457.000    92176651.52646
  21253751.600   111689223.77708  21253747.700    87030551.93548
  23887227.440   125528289.87808  23887224.500    97814272.22345
  22989825.500   120812361.69808  22989824.860    94139516.79647
  23808713.040   125115611.19408  23808711.140    97492673.10446
  22947839.300   120591693.74709  22947836.040    93967535.41447
 15 02 16 00 48 30.0000000  0  7G16G18G21G22G27G29G31
  21729984.360   114191837.83109  21729981.320    88980637.79548
  22499021.380   118233233.28709  22499018.940    92129814.59146
  21260831.320   111726428.70808  21260827.520    87059542.79948
  23869281.300   125433982.82808  23869278.220    97740786.40645
  22977423.100   120747187.83708  22977422.260    94088731.96947
  23822478.600   125187950.37808  23822477.360    97549041.24846
  22964952.600   120681624.56109  22964949.480    94037611.33347
 15 02 16 00 49  0.0000000  0  7G16G18G21G22G27G29G31
  21716420.440   114120558.64009  21716417.140    88925095.55048
  22487640.680   118173426.81909  22487638.060    92083212.15446
  21267972.660   111763957.01008  21267969.000    87088785.65048
  23851336.820   125339685.11508  23851333.800    97667307.89046
  22965037.780   120682104.72908  22965037.240    94038017.89247
  23836249.800   125260317.81308  23836248.260    97605431.43045
  22982099.780   120771733.50809  22982096.840    94107826.03347
 15 02 16 00 49 30.0000000  0  7G16G18G21G22G27G29G31
  21702907.820   114049549.83409  21702904.620    88869764.02147
  22476318.160   118113926.23809  22476315.380    92036848.07647
  21275175.660   111801809.28308  21275172.080    87118280.91948
  23833395.120   125245402.01508  23833392.100    97593840.74845
  22952670.620   120617115.09409  22952670.320    93987376.61647
  23850026.620   125332715.80908  23850024.880    97661845.43746
  22999280.840   120862020.35909  22999277.980    94178179.36847
 15 02 16 00 50  0.0000000  0  7G16G18G21G22G27G29G31
  21689446.100   113978808.30009  21689442.960    88814640.74948
  22465053.200   118054728.35809  22465050.440    91990719.87046
  21282439.180   111839979.30709  21282435.620    87148023.78348
  23815455.800   125151131.03508  23815452.640    97520383.01446
  22940320.380   120552213.61108  22940320.260    93936804.06447
  23863808.440   125405139.18308  23863806.380    97718279.20445
  23016494.180   120952476.93509  23016491.380    94248664.96947
 15 02 16 00 50 30.0000000  0  7G16G18G21G22G27G29G31
  21676037.320   113908344.32809  21676033.980    88759733.72948
  22453847.640   117995843.24209  22453844.920    91944835.38447
  21289764.380   111878472.89409  21289760.720    87178018.77948
  23797520.700   125056882.01808  23797517.360    97446942.40445
  22927988.200   120487408.02208  22927988.320    93886306.22647
  23877596.340   125477594.85008  23877594.640    97774738.08446
  23033740.700   121043108.09109  23033738.000    94319286.60447
 15 02 16 00 51  0.0000000  0  7G16G18G21G22G27G29G31
  21662680.940   113838156.38209  21662677.820    88705041.85448
  22442701.500   117937270.17509  22442698.700    91899194.05246
  21297150.100   111917284.44209  21297146.260    87208261.55248
  23779589.660   124962654.57908  23779586.200    97373518.60146
  22915673.480   120422694.75908  22915673.600    93835880.32147
  23891390.140   125550080.74708  23891388.820    97831220.54147
  23051019.160   121133907.18409  23051016.600    94390039.08047
 15 02 16 00 51 30.0000000  0  7G16G18G21G22G27G29G31
  21649377.320   113768245.97309  21649374.340    88650566.28648
  22431615.040   117879010.40309  22431612.180    91853796.85046
  21304595.940   111956412.19009  21304592.040    87238750.70548
  23761663.080   124868450.47008  23761659.660    97300112.96946
  22903376.140   120358073.12808  22903376.720    93785525.83847
  23905189.560   125622595.73808  23905188.220    97887725.67046
  23068328.940   121224870.52109  23068326.360    94460919.55247
 15 02 16 00 52  0.0000000  0  7G16G18G21G22G27G29G31
  21636127.320   113698616.74209  21636124.260    88596309.67848
  22420588.880   117821067.71509  22420586.120    91808646.71747
  21312101.800   111995855.82408  21312098.060    87269486.00648
  23743741.720   124774273.89908  23743738.360    97226728.80546
  22891096.560   120293544.64008  22891097.520    93735243.93247
  23918994.800   125695141.09308  23918992.680    97944254.53646
  23085669.740   121315996.73009  23085667.120    94531926.93847
 15 02 16 00 52 30.0000000  0  7G16G18G21G22G27G29G31
  21622931.800   113629273.02309  21622928.300    88542275.58447
  22409623.820   117763446.21909  22409621.140    91763746.85946
  21319667.660   112035614.99208  21319664.060    87300467.18448
  23725826.400   124680128.99808  23725823.140    97153369.31046
  22878835.320   120229110.96608  22878836.000    93685035.91547
  23932805.420   125767718.35108  23932803.980    98000808.14146
  23103041.220   121407284.32709  23103038.620    94603060.07747
 15 02 16 00 53  0.0000000  0  7G16G18G21G22G27G29G31
  21609790.000   113560212.76909  21609786.760    88488462.45848
  22398719.600   117706144.01509  22398716.980    91719095.80047
  21327292.400   112075683.50208  21327288.940    87331689.37348
  23707916.820   124586014.07708  23707913.600    97080033.13446
  22866591.300   120164767.61008  22866591.400    93634898.23947
  23946621.380   125840322.85408  23946620.380    98057383.04646
  23120441.940   121498725.87209  23120439.500    94674313.18447
 15 02 16 00 53 30.0000000  0  7G16G18G21G22G27G29G31
  21596702.880   113491439.14509  21596699.600    88434872.59348
  22387876.780   117649164.38809  22387874.160    91674696.08546
  21334976.000   112116060.90308  21334972.480    87363152.28948
  23690013.740   124491933.13708  23690010.420    97006723.45346
  22854364.860   120100516.30908  22854364.840    93584832.28047
  23960443.000   125912956.34608  23960441.920    98113980.57046
  23137871.700   121590320.22308  23137869.520    94745685.34247
 15 02 16 00 54  0.0000000  0  7G16G18G21G22G27G29G31
  21583670.640   113422954.21409  21583667.400    88381507.72848
  22377095.620   117592509.48509  22377093.120    91630549.43047
  21342717.980   112156745.72409  21342714.560    87394854.71848
  23672117.580   124397888.75508  23672114.260    96933442.25946
  22842155.680   120036356.60908  22842155.680    93534837.76047
  23974270.280   125985618.18908  23974269.420    98170600.13547
  23155329.960   121682063.92809  23155328.020    94817173.88647
 15 02 16 00 54 30.0000000  0  7G16G18G21G22G27G29G31
  21570694.720   113354765.49609  21570691.580    88328373.67247
  22366377.720   117536187.07409  22366375.280    91586661.85547
  21350519.120   112197741.33109  21350515.640    87426799.35148
  23654229.800   124303888.66708  23654226.480    96860195.58046
  22829964.840   119972293.70708  22829964.980    93484918.63247
  23988103.660   126058314.03008  23988103.240    98227246.18345
  23172817.120   121773958.95909  23172815.220    94888780.33247
 15 02 16 00 55  0.0000000  0  7G16G18G21G22G27G29G31
  21557774.660   113286870.34909  21557771.540    88275468.36148
  22355722.700   117480194.48409  22355720.260    91543031.27647
  21358378.260   112239041.21908  21358374.780    87458981.09048
  23636350.080   124209930.76608  23636346.760    96786981.76546
  22817791.640   119908322.91508  22817791.340    93435071.26147
  24001942.480   126131038.97008  24001942.020    98283914.91346
