     2.11           OBSERVATION DATA    G                   RINEX VERSION / TYPE
SPIDER V4,0,0,3554                      2015 03 19 00:23    PGM / RUN BY / DATE 
CNGR                                                        MARKER NAME         
CNGR                                                        MARKER NUMBER       
                                                            OBSERVER / AGENCY   
496521              LEICA GRX1200+GNSS  8.10/4.007          REC # / TYPE / VERS 
10321004            LEIAR25         NONE                    ANT # / TYPE        
  5218738.7445   688113.1521  3590185.5476                  APPROX POSITION XYZ 
        0.0720        0.0000        0.0000                  ANTENNA: DELTA H/E/N
     1     1                                                WAVELENGTH FACT L1/2
     4    C1    L1    P2    L2                              # / TYPES OF OBSERV 
    30.000                                                  INTERVAL            
  2015    02    16    00    00    0.0000000     GPS         TIME OF FIRST OBS   
  2015    02    16    23    59   30.0000000     GPS         TIME OF LAST OBS    
    16                                                      LEAP SECONDS        
    30                                                      # OF SATELLITES     
   G 1   816   816   816   816                              PRN / # OF OBS      
   G 2   943   943   943   943                              PRN / # OF OBS      
   G 3   860   860   860   860                              PRN / # OF OBS      
   G 4   844   844   843   843                              PRN / # OF OBS      
   G 5   644   644   644   644                              PRN / # OF OBS      
   G 6   829   829   829   829                              PRN / # OF OBS      
   G 7   676   676   676   676                              PRN / # OF OBS      
   G 9   818   818   818   818                              PRN / # OF OBS      
   G10   759   759   759   759                              PRN / # OF OBS      
   G11   778   778   778   778                              PRN / # OF OBS      
   G12   841   841   841   841                              PRN / # OF OBS      
   G13   801   801   800   800                              PRN / # OF OBS      
   G14   943   943   943   943                              PRN / # OF OBS      
   G15   698   684   682   679                              PRN / # OF OBS      
   G16   668   667   667   667                              PRN / # OF OBS      
   G17   942   942   942   942                              PRN / # OF OBS      
   G18   904   901   901   901                              PRN / # OF OBS      
   G19   755   755   755   755                              PRN / # OF OBS      
   G20   798   798   798   798                              PRN / # OF OBS      
   G21   729   723   720   718                              PRN / # OF OBS      
   G22   662   661   661   661                              PRN / # OF OBS      
   G23   761   761   761   761                              PRN / # OF OBS      
   G24   827   827   827   827                              PRN / # OF OBS      
   G25   868   868   867   867                              PRN / # OF OBS      
   G27   810   810   809   809                              PRN / # OF OBS      
   G28   866   866   865   865                              PRN / # OF OBS      
   G29   780   780   780   780                              PRN / # OF OBS      
   G30   723   723   723   723                              PRN / # OF OBS      
   G31   863   863   863   863                              PRN / # OF OBS      
   G32   778   778   778   778                              PRN / # OF OBS      
BIT 2 OF LLI FLAGS DATA COLLECTED UNDER A/S CONDITION       COMMENT             
SNR is mapped to RINEX snr flag value [2-9]                 COMMENT             
Lx:     = 25dBHz -> 1; 26-27dBHz -> 2; 28-31dBHz -> 3       COMMENT             
       32-35dBHz -> 4; 36-38dBHz -> 5; 39-41dBHz -> 6       COMMENT             
       42-44dBHz -> 7; 45-48dBHz -> 8; >=49dBHz -> 9        COMMENT             
                                                            END OF HEADER       
 15 02 16 00 00  0.0000000  0  7G16G18G21G25G27G29G31
  23388174.540   122905697.43908  23388171.960    95770665.23846
  23653249.280   124298746.32308  23653248.520    96856192.94745
  20874895.660   109698321.39508  20874892.500    85479200.94448
  23056594.520   121163212.80908  23056595.880    94412893.84747
  24425547.180   128357112.70506  24425548.540   100018532.38644
  22438084.340   117912921.16609  22438082.500    91880189.31948
  21585844.920   113434374.41809  21585842.500    88390407.20648
 15 02 16 00 00 30.0000000  0  7G16G18G21G25G27G29G31
  23371226.100   122816632.59608  23371223.560    95701264.07446
  23638481.280   124221140.35608  23638480.400    96795720.91245
  20874939.060   109698548.94808  20874935.840    85479378.27148
  23072394.780   121246244.06708  23072396.380    94477593.49247
  24411578.280   128283705.89806  24411579.400    99961332.35745
  22450594.980   117978666.20008  22450593.400    91931419.18748
  21596804.400   113491966.60009  21596801.960    88435284.21948
 15 02 16 00 01  0.0000000  0  7G16G18G21G25G27G29G31
  23354290.000   122727632.87708  23354287.440    95631913.67446
  23623725.620   124143599.37508  23623724.620    96735299.51045
  20875065.820   109699214.82908  20875062.520    85479897.14648
  23088243.300   121329528.70708  23088244.740    94542490.58946
  24397625.600   128210383.80706  24397626.940    99904198.33143
  22463116.520   118044467.88009  22463114.920    91982693.20548
  21607847.760   113549999.58109  21607845.260    88480504.70748
 15 02 16 00 01 30.0000000  0  7G16G18G21G25G27G29G31
  23337367.000   122638701.83808  23337364.380    95562616.78146
  23608983.140   124066127.85608  23608982.160    96674932.24645
  20875276.220   109700320.21008  20875272.760    85480758.48448
  23104140.160   121413067.83208  23104141.580    94607585.98747
  24383689.340   128137148.41106  24383690.700    99847131.82844
  22475649.180   118110327.39309  22475647.520    92034012.27548
  21618974.920   113608472.85209  21618972.340    88526068.27948
 15 02 16 00 02  0.0000000  0  7G16G18G21G25G27G29G31
  23320456.940   122549838.83908  23320454.360    95493372.91246
  23594254.000   123988726.34608  23594252.960    96614619.51445
  20875569.620   109701861.96408  20875566.040    85481959.85048
  23120085.000   121496858.28208  23120086.220    94672877.22046
  24369769.100   128063997.25606  24369770.480    99790130.97744
  22488192.400   118176241.79109  22488190.580    92085374.14247
  21630184.960   113667381.63109  21630182.260    88571971.21248
 15 02 16 00 02 30.0000000  0  7G16G18G21G25G27G29G31
  23303560.260   122461046.36008  23303557.720    95424183.99846
  23579538.840   123911398.32308  23579537.760    96554364.03745
  20875946.040   109703839.88608  20875942.360    85483501.09248
  23136077.540   121580899.85008  23136078.660    94738364.13947
  24355864.940   127990930.90106  24355866.140    99733196.20244
  22500746.120   118242211.33909  22500744.060    92136778.97848
  21641477.660   113726724.74209  21641474.820    88618212.57848
 15 02 16 00 03  0.0000000  0  7G16G18G21G25G27G29G31
  23286677.560   122372326.73908  23286675.020    95355051.84846
  23564838.240   123834146.73508  23564837.200    96494168.13145
  20876405.360   109706253.77108  20876401.720    85485382.05848
  23152117.820   121665191.90108  23152118.900    94804046.22546
  24341976.940   127917949.61506  24341978.200    99676327.75744
  22513310.140   118308235.65709  22513307.740    92188226.47048
  21652852.680   113786500.23509  21652849.660    88664790.87248
 15 02 16 00 03 30.0000000  0  7G16G18G21G25G27G29G31
  23269808.480   122283678.94108  23269805.880    95285975.66946
  23550152.340   123756971.92808  23550151.220    96434032.03045
  20876947.080   109709100.66508  20876943.520    85487600.41948
  23168205.240   121749731.42508  23168206.140    94869921.16246
  24328104.600   127845051.03206  24328106.080    99619523.71044
  22525884.200   118374312.86509  22525881.700    92239715.17347
  21664309.160   113846703.80209  21664305.980    88711702.73048
 15 02 16 00 04  0.0000000  0  7G16G18G21G25G27G29G31
  23252953.600   122195106.29608  23252950.960    95216958.05446
  23535481.860   123679878.11108  23535480.760    96373959.03745
  20877571.180   109712380.80608  20877567.740    85490156.38548
  23184339.820   121834518.77108  23184340.620    94935989.18947
  24314248.320   127772236.39406  24314249.780    99562785.10044
  22538468.420   118440443.39809  22538466.220    92291245.41347
  21675846.740   113907333.75009  21675843.420    88758946.81948
 15 02 16 00 04 30.0000000  0  7G16G18G21G25G27G29G31
  23236113.340   122106610.82308  23236110.780    95148000.57046
  23520827.240   123602868.28808  23520826.240    96313951.51445
  20878277.600   109716093.87208  20878274.340    85493049.69448
  23200521.560   121919553.50608  23200522.180    95002250.00746
  24300408.140   127699506.10606  24300409.680    99506112.19644
  22551062.760   118506627.05109  22551060.800    92342817.08147
  21687465.120   113968388.57109  21687461.740    88806521.99148
 15 02 16 00 05  0.0000000  0  7G16G18G21G25G27G29G31
  23219288.220   122018195.28808  23219285.700    95079105.37246
  23506189.220   123525945.80408  23506188.140    96254012.02545
  20879066.480   109720239.95308  20879063.300    85496280.42148
  23216750.300   122004835.45608  23216750.980    95068703.44446
  24286584.080   127626860.78207  24286585.760    99449505.51244
  22563667.340   118572864.84509  22563665.460    92394430.92148
  21699164.060   114029866.93109  21699160.660    88854427.19348
 15 02 16 00 05 30.0000000  0  7G16G18G21G25G27G29G31
  23202478.600   121929861.18908  23202476.320    95010273.66446
  23491568.260   123449113.36808  23491567.000    96194142.70845
  20879937.520   109724817.52808  20879934.360    85499847.37848
  23233025.820   122090363.47808  23233026.320    95135348.64046
  24272776.180   127554300.11707  24272777.740    99392964.79945
  22576282.100   118639155.79309  22576280.180    92446086.18548
  21710943.060   114091766.17009  21710939.700    88902660.34848
 15 02 16 00 06  0.0000000  0  7G16G18G21G25G27G29G31
  23185684.320   121841607.04908  23185681.980    94941504.21446
  23476964.440   123372370.41208  23476963.100    96134343.10345
  20880890.060   109729823.08008  20880886.860    85503747.80548
  23249347.340   122176133.46008  23249347.560    95202182.36246
  24258983.860   127481820.82907  24258985.200    99336487.49745
  22588906.300   118705495.66009  22588904.120    92497779.58247
  21722801.100   114154080.75309  21722797.820    88951217.14148
 15 02 16 00 06 30.0000000  0  7G16G18G21G25G27G29G31
  23168905.940   121753435.95708  23168903.560    94872799.50046
  23462378.540   123295720.86108  23462377.200    96074616.27045
  20881924.100   109735256.87408  20881920.880    85507981.93248
  23265715.020   122262145.73208  23265715.240    95269204.88646
  24245207.240   127409424.11307  24245208.540    99280074.54345
  22601540.180   118771886.02809  22601537.640    92549512.30847
  21734737.900   114216809.34509  21734734.740    89000096.53548
 15 02 16 00 07  0.0000000  0  7G16G18G21G25G27G29G31
  23152144.100   121665351.63808  23152141.620    94804162.39146
  23447811.280   123219168.87808  23447809.780    96014965.47746
  20883039.780   109741119.72308  20883036.580    85512550.39948
  23282128.980   122348401.20108  23282129.220    95336416.91946
  24231446.620   127337111.75307  24231448.100    99223727.30945
  22614184.040   118838328.65508  22614181.340    92601285.76347
  21746753.420   114279951.66509  21746750.400    89049298.32448
 15 02 16 00 07 30.0000000  0  7G16G18G21G25G27G29G31
  23135399.020   121577354.92308  23135396.340    94735593.54746
  23433263.040   123142717.05108  23433261.580    95955392.73745
  20884236.720   109747409.33508  20884233.480    85517451.40448
  23298588.860   122434897.99208  23298589.160    95403816.98147
  24217701.860   127264882.68307  24217703.240    99167444.98745
  22626837.340   118904821.29208  22626834.580    92653098.18448
  21758847.080   114343504.56909  21758844.160    89098820.04548
 15 02 16 00 08  0.0000000  0  7G16G18G21G25G27G29G31
  23118671.100   121489448.42709  23118668.260    94667094.99746
  23418734.260   123066368.26408  23418732.840    95895900.26845
  20885514.960   109754126.56608  20885511.720    85522685.61648
  23315094.540   122521635.93608  23315095.000    95471404.94146
  24203973.140   127192737.59407  24203974.340    99111228.09445
  22639500.200   118971364.94109  22639497.620    92704950.34847
  21771018.540   114407466.27509  21771015.660    89148660.31148
 15 02 16 00 08 30.0000000  0  7G16G18G21G25G27G29G31
  23101960.700   121401634.27008  23101957.720    94598668.40446
  23404225.620   122990125.81608  23404224.320    95836490.67546
  20886874.340   109761270.34308  20886871.120    85528252.20248
  23331645.960   122608614.41608  23331646.480    95539180.35547
  24190260.340   127120676.79507  24190261.440    99055076.88645
  22652172.720   119037959.78009  22652170.240    92756842.42647
  21783267.400   114471834.70509  21783264.540    89198817.52348
 15 02 16 00 09  0.0000000  0  7G16G18G21G25G27G29G31
  23085268.100   121313913.52408  23085265.080    94530314.59846
  23389737.540   122913991.38008  23389736.280    95777165.24046
  20888314.480   109768838.61608  20888311.280    85534149.56848
  23348242.800   122695831.63308  23348243.400    95607141.78646
  24176563.400   127048699.36007  24176564.420    98998990.64445
  22664854.500   119104604.09309  22664852.120    92808773.02747
  21795593.040   114536606.56709  21795590.220    89249289.08748
 15 02 16 00 09 30.0000000  0  7G16G18G21G25G27G29G31
  23068593.100   121226285.91008  23068589.960    94462033.35046
  23375270.120   122837965.55208  23375268.940    95717924.43445
  20889834.840   109776828.38008  20889831.620    85540375.36848
  23364884.500   122783284.21208  23364885.040    95675286.63347
  24162881.960   126976802.80807  24162883.000    98942967.43245
  22677545.140   119171295.29109  22677543.260    92860740.17348
  21807994.580   114601777.11509  21807991.800    89300071.30448
 15 02 16 00 10  0.0000000  0  7G16G18G21G25G27G29G31
  23051936.620   121138755.93708  23051933.680    94393828.21446
  23360824.500   122762054.09808  23360823.220    95658772.72745
  20891435.920   109785241.95408  20891432.640    85546931.41048
  23381571.420   122870974.36908  23381571.940    95743616.59446
  24149216.460   126904990.25207  24149217.520    98887009.66045
  22690245.500   119238036.50309  22690243.720    92912746.31747
  21820472.160   114667347.18009  21820469.380    89351164.85148
 15 02 16 00 10 30.0000000  0  7G16G18G21G25G27G29G31
  23035298.960   121051324.78808  23035296.020    94325700.05646
  23346401.060   122686258.43509  23346399.420    95599711.26445
  20893117.060   109794076.27808  20893113.660    85553815.29348
  23398303.080   122958899.78608  23398303.520    95812129.86346
  24135566.640   126833260.27407  24135567.860    98831116.23445
  22702955.180   119304825.84409  22702953.360    92964789.94748
  21833025.060   114733312.87909  21833022.260    89402566.67548
 15 02 16 00 11  0.0000000  0  7G16G18G21G25G27G29G31
  23018680.080   120963992.62508  23018677.400    94257649.04646
  23331999.940   122610579.78409  23331998.000    95540740.95845
  20894877.940   109803329.65508  20894874.480    85561025.72248
  23415079.060   123047058.05908  23415079.400    95880824.59646
  24121932.300   126761611.43608  24121933.300    98775286.03645
  22715673.820   119371661.79809  22715671.700    93016869.87647
  21845652.520   114799670.46109  21845649.720    89454273.86248
 15 02 16 00 11 30.0000000  0  7G16G18G21G25G27G29G31
  23002080.740   120876762.94108  23002078.000    94189677.88246
  23317622.060   122535022.90208  23317619.800    95481865.53545
  20896718.740   109813003.11408  20896715.280    85568563.48948
  23431899.560   123135449.96508  23431899.800    95949701.37846
  24108313.700   126690045.39108  24108314.540    98719520.34245
  22728401.640   119438545.90009  22728399.360    93068987.32247
  21858354.360   114866419.09609  21858351.580    89506285.76748
 15 02 16 00 12  0.0000000  0  7G16G18G21G25G27G29G31
  22985501.280   120789637.54308  22985498.600    94121787.99446
  23303267.600   122459589.86908  23303265.320    95423086.63445
  20898639.160   109823095.04408  20898635.700    85576427.34148
  23448764.140   123224074.06008  23448764.460    96018759.09446
  24094710.800   126618561.64808  24094711.480    98663818.80245
  22741138.380   119505477.30609  22741136.060    93121141.66647
  21871130.080   114933556.15509  21871127.380    89558600.34448
 15 02 16 00 12 30.0000000  0  7G16G18G21G25G27G29G31
  22968942.440   120702620.53008  22968939.740    94053982.54646
  23288937.620   122384285.73608  23288935.360    95364408.15246
  20900639.400   109833606.41308  20900635.940    85584618.01648
  23465673.000   123312931.63808  23465673.420    96087998.72046
  24081123.920   126547162.43008  24081124.560    98608183.09545
  22753884.260   119572457.92509  22753882.060    93173334.33147
  21883979.640   115001081.30609  21883977.000    89611217.32448
 15 02 16 00 13  0.0000000  0  7G16G18G21G25G27G29G31
  22952404.100   120615710.84008  22952401.200    93986260.73146
  23274632.000   122309110.04908  23274629.720    95305829.76746
  20902718.720   109844533.19508  20902715.260    85593132.40048
  23482625.500   123402018.57808  23482626.020    96157417.09746
  24067552.520   126475844.59608  24067553.300    98552610.82245
  22766638.840   119639484.48609  22766636.960    93225562.77947
  21896902.000   115068988.94709  21896899.420    89664132.35348
 15 02 16 00 13 30.0000000  0  7G16G18G21G25G27G29G31
  22935886.740   120528911.29408  22935883.640    93918624.71646
  23260351.440   122234066.82108  23260349.500    95247354.61645
  20904877.100   109855875.45308  20904873.640    85601970.52148
  23499621.680   123491334.84508  23499622.660    96227014.14346
  24053996.780   126404608.97808  24053997.680    98497102.61045
  22779402.300   119706557.66709  22779400.800    93277827.59447
  21909896.920   115137277.63109  21909894.400    89717344.29848
 15 02 16 00 14  0.0000000  0  7G16G18G21G25G27G29G31
  22919390.160   120442221.01808  22919386.880    93851073.87246
  23246096.080   122159155.54408  23246094.280    95188982.25646
  20907113.720   109867629.08608  20907110.280    85611129.20048
  23516660.940   123580876.52708  23516662.020    96296786.84746
  24040456.160   126333452.80708  24040457.060    98441656.29245
  22792174.000   119773673.81309  22792172.600    93330125.86547
  21922963.380   115205941.93509  21922960.860    89770848.93448
 15 02 16 00 14 30.0000000  0  7G16G18G21G25G27G29G31
  22902915.140   120355643.95408  22902911.800    93783611.22746
  23231866.860   122084381.26908  23231865.120    95130716.65545
  20909428.800   109879794.93208  20909425.380    85620609.08448
  23533743.280   123670644.59608  23533744.360    96366735.96346
  24026931.040   126262377.88808  24026931.740    98386273.31245
  22804954.400   119840835.41609  22804953.020    93382459.56347
  21936101.200   115274981.25909  21936098.760    89824645.78548
 15 02 16 00 15  0.0000000  0  7G16G18G21G25G27G29G31
  22886462.320   120269183.42008  22886459.040    93716239.38946
  23217664.700   122009748.38808  23217663.020    95072561.22946
  20911822.540   109892374.01108  20911819.140    85630410.96748
  23550868.780   123760639.46708  23550869.900    96436861.81446
  24013421.640   126191385.66108  24013422.140    98330954.73945
  22817743.740   119908043.35509  22817742.020    93434829.37347
  21949310.160   115344394.48609  21949307.820    89878734.00448
 15 02 16 00 15 30.0000000  0  7G16G18G21G25G27G29G31
  22870031.800   120182840.29709  22870028.500    93648959.05047
  23203489.740   121935258.19708  23203487.940    95014516.98046
  20914294.420   109905363.57308  20914291.040    85640532.70448
  23568036.960   123850858.82008  23568037.940    96507162.57746
  23999927.700   126120474.78308  23999928.260    98275699.55045
  22830541.640   119975296.49409  22830539.760    93487234.36647
  21962589.560   115414178.08309  21962587.300    89933110.81348
 15 02 16 00 16  0.0000000  0  7G16G18G21G25G27G29G31
  22853623.880   120096616.21409  22853620.800    93581771.47346
  23189342.300   121860912.43909  23189340.520    94956585.30746
  20916844.160   109918762.35008  20916840.780    85650973.32048
  23585247.560   123941301.15708  23585248.620    96577637.08546
  23986449.160   126049644.79008  23986449.760    98220507.40146
  22843347.900   120042593.65609  22843345.840    93539673.67047
  21975938.740   115484328.72909  21975936.600    89987773.63148
 15 02 16 00 16 30.0000000  0  7G16G18G21G25G27G29G31
  22837239.000   120010513.33308  22837235.960    93514678.32346
  23175222.900   121786714.57808  23175221.140    94898768.85046
  20919471.460   109932568.88308  20919468.120    85661731.65848
  23602500.420   124031965.54008  23602501.620    96648284.61746
  23972986.060   125978895.73508  23972986.780    98165378.30845
  22856162.580   120109935.06508  22856160.780    93592147.46848
  21989357.340   115554844.29009  21989355.340    90042720.80048
 15 02 16 00 17  0.0000000  0  7G16G18G21G25G27G29G31
  22820877.440   119924533.04108  22820874.560    93447680.71147
  23161131.960   121712666.77708  23161130.420    94841069.32846
  20922176.040   109946781.50508  20922172.700    85672806.44048
  23619795.200   124122850.37708  23619796.200    96719103.94446
  23959538.260   125908227.04008  23959538.880    98110311.83146
  22868985.620   120177319.80109  22868983.420    93644655.06147
  22002844.800   115625721.60909  22002842.860    90097949.86048
 15 02 16 00 17 30.0000000  0  7G16G18G21G25G27G29G31
  22804539.920   119838679.37508  22804537.300    93380781.77747
  23147070.620   121638773.75508  23147069.000    94783490.39746
  20924958.160   109961401.60508  20924954.780    85684198.73848
  23637132.140   124213956.48808  23637133.260    96790095.68546
  23946106.060   125837640.58108  23946106.560    98055309.44346
  22881817.240   120244749.98309  22881815.040    93697198.04247
  22016401.020   115696960.01609  22016399.080    90153460.29348
 15 02 16 00 18  0.0000000  0  7G16G18G21G25G27G29G31
  22788226.720   119752953.39808  22788224.180    93313982.33547
  23133038.940   121565036.82308  23133037.100    94726033.13245
  20927817.440   109976427.07608  20927813.960    85695906.90148
  23654510.860   124305282.08108  23654512.080    96861258.45646
  23932689.380   125767135.54408  23932689.840    98000370.50646
  22894657.080   120312224.51509  22894655.420    93749775.55047
  22030025.340   115768556.28509  22030023.380    90209249.58148
 15 02 16 00 18 30.0000000  0  7G16G18G21G25G27G29G31
  22771937.900   119667355.32008  22771935.480    93247282.55746
  23119037.400   121491458.11308  23119035.380    94668699.12146
  20930753.320   109991854.81408  20930749.720    85707928.51648
  23671930.800   124396824.37608  23671932.100    96932590.06346
  23919287.860   125696710.26008  23919288.460    97945493.69646
  22907504.960   120379741.35308  22907503.660    93802386.04647
  22043716.920   115840505.86009  22043714.900    90265314.15948
 15 02 16 00 19  0.0000000  0  7G16G18G21G25G27G29G31
  22755674.440   119581890.20609  22755671.960    93180686.38446
  23105066.720   121418042.15908  23105064.440    94611491.94245
  20933766.100   110007686.65408  20933762.360    85720265.02348
  23689392.200   124488584.91508  23689393.760    97004091.72845
  23905902.020   125626367.09608  23905902.660    97890680.90546
  22920361.380   120447302.92909  22920360.240    93855031.42647
  22057475.780   115912808.90009  22057473.700    90321654.17148
 15 02 16 00 19 30.0000000  0  7G16G18G21G25G27G29G31
  22739435.680   119496554.82309  22739433.140    93114191.30346
  23091126.740   121344786.87609  23091124.380    94554409.95645
  20936854.500   110023916.28708  20936850.740    85732911.50248
  23706894.080   124580557.28508  23706895.440    97075758.49546
  23892530.860   125556101.08908  23892531.500    97835928.21546
  22933225.260   120514903.86309  22933224.520    93907707.39947
  22071300.460   115985457.77109  22071298.260    90378263.65448
 15 02 16 00 20  0.0000000  0  7G16G18G21G25G27G29G31
  22723222.900   119411355.88409  22723220.260    93047802.54446
  23077218.720   121271699.84208  23077216.380    94497459.06246
  20940019.160   110040546.79808  20940015.400    85745870.34648
  23724436.960   124672745.09208  23724438.120    97147593.11246
  23879175.200   125485916.63508  23879175.820    97781239.07346
  22946097.620   120582548.53208  22946097.000    93960417.52847
  22085191.280   116058454.21809  22085188.920    90435143.98248
 15 02 16 00 20 30.0000000  0  7G16G18G21G25G27G29G31
  22707036.120   119326293.55509  22707033.300    92981520.23046
  23063342.820   121198781.79308  23063340.720    94440639.86146
  20943259.540   110057575.40708  20943255.840    85759139.39248
  23742020.300   124765145.29008  23742021.520    97219593.23546
  23865834.620   125415811.87908  23865835.180    97726612.02847
  22958978.080   120650235.21208  22958977.280    94013160.36747
  22099147.420   116131794.07709  22099144.920    90492291.89948
 15 02 16 00 21  0.0000000  0  7G16G18G21G25G27G29G31
  22690876.200   119241372.39708  22690873.320    92915347.92047
  23049500.020   121126037.40608  23049497.960    94383955.96346
  20946575.900   110075002.95208  20946572.160    85772719.30948
  23759644.260   124857759.06608  23759645.360    97291759.76046
  23852509.660   125345789.03908  23852510.180    97672048.82246
  22971866.860   120717965.88808  22971866.100    94065937.49647
  22113168.720   116205476.47909  22113166.140    90549706.73248
 15 02 16 00 21 30.0000000  0  7G16G18G21G25G27G29G31
  22674742.660   119156590.09609  22674739.740    92849283.80447
  23035689.940   121053465.27409  23035687.980    94327406.31546
  20949967.160   110092824.27508  20949963.420    85786606.06748
  23777307.900   124950581.14308  23777308.840    97364088.62746
  23839199.500   125275843.92308  23839200.040    97617546.19446
  22984763.220   120785736.34109  22984762.180    94118745.61347
  22127253.980   116279495.23509  22127251.360    90607383.66048
 15 02 16 00 22  0.0000000  0  7G16G18G21G25G27G29G31
  22658636.440   119071951.63309  22658633.560    92783331.78146
  23021913.700   120981071.25408  23021911.820    94270995.43346
  20953433.640   110111041.07608  20953429.940    85800800.98148
  23795011.540   125043613.27208  23795012.640    97436581.15246
  23825904.660   125205979.42408  23825905.240    97563106.36646
  22997667.640   120853549.32109  22997666.500    94171586.86047
  22141403.260   116353850.48809  22141400.660    90665322.79148
 15 02 16 00 22 30.0000000  0  7G16G18G21G25G27G29G31
  22642557.960   118987458.68209  22642555.100    92717493.14947
  23008171.840   120908857.86808  23008170.100    94214725.31946
  20956975.060   110129651.82608  20956971.460    85815302.87448
  23812754.700   125136854.05708  23812755.880    97509236.26046
  23812625.020   125136195.22808  23812625.700    97508729.11546
  23010580.060   120921404.57809  23010578.620    94224461.04247
  22155615.980   116428539.21409  22155613.460    90723521.77448
 15 02 16 00 23  0.0000000  0  7G16G18G21G25G27G29G31
  22626507.020   118903110.35209  22626504.220    92651767.20847
  22994464.200   120836824.26108  22994462.480    94158595.28846
  20960590.620   110148652.04308  20960587.080    85830108.25248
  23830536.740   125230299.01408  23830537.760    97582050.49246
  23799360.000   125066487.92108  23799360.800    97454411.78847
  23023500.060   120989298.08808  23023498.380    94277365.06247
  22169891.020   116503555.31509  22169888.580    90781975.84648
 15 02 16 00 23 30.0000000  0  7G16G18G21G25G27G29G31
  22610484.880   118818913.50909  22610482.000    92586159.30747
  22980792.320   120764978.31208  22980790.420    94102611.47546
  20964280.980   110168045.40208  20964277.500    85845219.96948
  23848358.260   125323951.69708  23848359.520    97655026.53746
  23786110.600   124996862.24308  23786111.520    97400158.05646
  23036428.220   121057234.76408  23036426.160    94330302.70547
  22184228.760   116578900.75309  22184226.420    90840686.55648
 15 02 16 00 24  0.0000000  0  7G16G18G21G25G27G29G31
  22594491.260   118734866.79709  22594488.340    92520668.39146
  22967155.960   120693318.80408  22967154.120    94046772.94646
  20968045.200   110187826.72908  20968041.700    85860633.99848
  23866218.340   125417807.29508  23866219.720    97728160.73846
  23772876.120   124927314.58408  23772876.980    97345965.12047
  23049364.060   121125211.17009  23049361.660    94383271.31747
  22198628.080   116654569.25109  22198625.740    90899649.00048
 15 02 16 00 24 30.0000000  0  7G16G18G21G25G27G29G31
  22578527.220   118650975.71008  22578524.280    92455298.73246
  22953556.340   120621852.26908  22953554.280    93991084.76946
  20971883.700   110207998.52708  20971880.220    85876352.28948
  23884117.320   125511868.22608  23884118.880    97801454.91346
  23759657.200   124857848.34608  23759657.880    97291835.62146
  23062307.780   121193230.68609  23062305.520    94436273.48447
  22213089.140   116730561.94609  22213086.720    90958864.06648
 15 02 16 00 25  0.0000000  0  7G16G18G21G25G27G29G31
  22562592.760   118567240.14908  22562589.680    92390050.26746
  22939993.560   120550579.18209  22939991.540    93935547.35446
  20975795.880   110228557.16408  20975792.360    85892372.01248
  23902054.740   125606131.16608  23902056.400    97874906.51746
  23746453.360   124788461.42808  23746453.880    97237767.93247
  23075259.100   121261290.77309  23075256.800    94489307.29447
  22227610.960   116806873.88109  22227608.500    91018327.88648
 15 02 16 00 25 30.0000000  0  7G16G18G21G25G27G29G31
  22546687.740   118483659.26208  22546684.540    92324922.32146
  22926467.580   120479499.19109  22926465.200    93880160.38146
  20979780.960   110249498.69608  20979777.400    85908690.08648
  23920030.000   125700591.94408  23920031.800    97948512.25746
  23733263.980   124719150.90208  23733264.440    97183759.76947
  23088217.640   121329388.47608  23088215.500    94542370.39847
  22242192.460   116883499.42409  22242189.920    91078036.07448
 15 02 16 00 26  0.0000000  0  7G16G18G21G25G27G29G31
  22530813.340   118400239.31008  22530810.200    92259919.77447
  22912979.360   120408617.89609  22912976.820    93824928.24046
  20983839.340   110270825.28808  20983835.720    85925308.21448
  23938043.460   125795253.11308  23938045.240    98022274.17246
  23720089.800   124649920.37108  23720090.280    97129813.93147
  23101184.060   121397527.44408  23101181.980    94595465.67747
  22256833.800   116960439.67609  22256831.180    91137989.49448
 15 02 16 00 26 30.0000000  0  8G16G18G21G22G25G27G29G31
  22514969.920   118316982.13309  22514966.920    92195044.08247
  22899529.800   120337939.85509  22899527.220    93769854.49346
  20987970.780   110292535.84408  20987967.120    85942225.54348
  24554321.700                                                  
  23956094.920   125890113.53208  23956096.620    98096191.34746
  23706930.840   124580769.88808  23706931.460    97075930.48247
  23114158.300   121465707.91109  23114156.460    94648593.30247
  22271534.440   117037691.97109  22271531.840    91198186.07648
 15 02 16 00 27  0.0000000  0  8G16G18G21G22G25G27G29G31
  22499155.260   118233875.92008  22499152.300    92130286.01147
  22886116.560   120267452.70309  22886113.780    93714929.47846
  20992172.320   110314614.87008  20992168.640    85959429.98348
  24536532.880   128940340.90407  24536531.920   100472996.14144
  23974181.400   125985157.73308  23974183.020    98170251.72846
  23693784.440   124511685.21608  23693785.080    97022098.31147
  23127137.520   121533915.34208  23127135.600    94701741.90047
  22286291.160   117115239.18909  22286288.580    91258612.44948
 15 02 16 00 27 30.0000000  0  8G16G18G21G22G25G27G29G31
  22483375.140   118150950.84309  22483372.340    92065669.09847
  22872745.400   120197187.10908  22872742.720    93660177.11046
  20996449.060   110337088.93108  20996445.300    85976942.24248
  24518728.540   128846779.78707  24518728.320   100400091.03944
  23992307.960   126080412.54708  23992309.420    98244476.17545
  23680655.840   124442694.34308  23680656.420    96968339.23747
  23140127.380   121602177.54909  23140125.880    94754933.18647
  22301108.800   117193106.65009  22301106.240    91319288.36748
 15 02 16 00 28  0.0000000  0  8G16G18G21G22G25G27G29G31
  22467626.760   118068192.08009  22467623.980    92001181.76647
  22859413.620   120127128.91509  22859411.280    93605586.35146
  21000797.500   110359939.84309  21000793.680    85994748.15648
  24500908.120   128753134.30108  24500908.260   100327120.77847
  24010471.160   126175859.69108  24010472.340    98318850.54046
  23667541.820   124373780.30208  23667542.420    96914640.03747
  23153124.320   121670477.84108  23153122.560    94808154.17347
  22315983.660   117271274.81609  22315981.160    91380198.61548
 15 02 16 00 28 30.0000000  0  8G16G18G21G22G25G27G29G31
  22451910.040   117985599.69409  22451907.220    91936824.08847
  22846121.320   120057278.39808  22846119.260    93551157.41746
  21005216.880   110383163.61609  21005213.040    86012844.59848
  24483071.500   128659402.70908  24483071.820   100254082.76445
  24028670.240   126271495.67108  24028671.260    98393372.03245
  23654441.980   124304940.64608  23654442.680    96860998.77647
  23166128.400   121738813.39508  23166127.060    94861402.62647
  22330914.760   117349738.57609  22330912.380    91441339.17848
 15 02 16 00 29  0.0000000  0  8G16G18G21G22G25G27G29G31
  22436226.320   117903180.80809  22436223.420    91872601.59847
  22832869.980   119987643.74409  22832867.900    93496896.68946
  21009708.060   110406764.88408  21009704.220    86031235.19448
  24465220.400   128565594.72907  24465221.060   100180985.53144
  24046906.000   126367324.72208  24046906.980    98468043.96046
  23641357.420   124236180.92208  23641358.200    96807419.79647
  23179140.160   121807189.81409  23179138.480    94914682.93647
  22345902.560   117428500.24909  22345900.300    91502711.88148
 15 02 16 00 29 30.0000000  0  8G16G18G21G22G25G27G29G31
  22420575.560   117820935.11209  22420572.540    91808514.05547
  22819659.820   119918224.82808  22819657.980    93442804.05246
  21014270.180   110430739.32208  21014266.400    86049916.58148
  24447354.900   128471710.91908  24447355.740   100107830.01346
  24065177.640   126463342.63008  24065178.640    98542863.07145
  23628287.520   124167498.15708  23628288.360    96753900.79847
  23192159.240   121875604.39109  23192157.440    94967992.94947
  22360946.060   117507554.53009  22360943.880    91564312.58348
 15 02 16 00 30  0.0000000  0  8G16G18G21G22G25G27G29G31
  22404958.820   117738868.31109  22404955.780    91744565.91447
  22806491.820   119849027.52208  22806490.220    93388884.12246
  21018903.680   110455089.12308  21018900.020    86068890.45848
  24429475.520   128377755.34708  24429476.520   100034618.26045
  24083485.500   126559551.83608  24083486.660    98617831.25845
  23615232.900   124098895.95008  23615233.720    96700444.58447
  23205186.060   121944060.76309  23205184.380    95021335.49747
  22376045.440   117586902.29909  22376043.300    91626141.98548
 15 02 16 00 30 30.0000000  0  8G16G18G21G22G25G27G29G31
  22389375.700   117656978.42309  22389372.640    91680755.61847
  22793365.880   119780050.89409  22793364.140    93335136.12546
  21023607.560   110479808.62308  21023603.960    86088152.40648
  24411582.040   128283725.56208  24411583.020    99961348.16146
  24101828.740   126655946.77508  24101830.140    98692944.10346
  23602192.740   124030370.00108  23602193.540    96647047.77547
  23218220.140   122012554.17808  23218218.080    95074706.98747
  22391199.440   117666536.68909  22391197.260    91688194.72048
 15 02 16 00 31  0.0000000  0  8G16G18G21G22G25G27G29G31
  22373827.200   117575270.30209  22373824.040    91617086.96747
  22780282.880   119711299.58508  22780281.080    93281563.72146
  21028382.020   110504898.98708  21028378.440    86107703.34848
  24393675.780   128189628.43708  24393676.760    99888025.87146
  24120207.480   126752528.64308  24120209.000    98768202.63545
  23589167.560   123961922.83808  23589168.360    96593712.37147
  23231261.620   122081087.34208  23231259.300    95128109.40946
  22406407.860   117746457.06609  22406405.640    91750470.31148
 15 02 16 00 31 30.0000000  0  8G16G18G21G22G25G27G29G31
  22358312.920   117493742.31009  22358309.840    91553558.67447
  22767242.660   119642772.52509  22767240.760    93228166.04346
  21033225.940   110530354.25608  21033222.360    86127538.62448
  24375756.440   128095462.71807  24375757.640    99814650.47544
  24138620.880   126849292.29708  24138622.260    98843602.82745
  23576156.700   123893550.52508  23576157.500    96540435.28347
  23244309.800   122149655.89608  23244307.500    95181539.43547
  22421669.480   117826656.94409  22421667.220    91812963.69548
 15 02 16 00 32  0.0000000  0  8G16G18G21G22G25G27G29G31
  22342834.260   117412401.44709  22342831.180    91490176.20447
  22754246.780   119574477.77409  22754244.580    93174949.37046
  21038140.180   110556178.89808  21038136.620    86147661.72148
  24357825.220   128001235.57608  24357826.380    99741227.75845
  24157069.780   126946241.49708  24157070.960    98919147.62645
  23563161.120   123825258.12608  23563161.960    96487220.45947
  23257365.700   122218265.32409  23257363.560    95235001.28646
  22436984.600   117907138.26209  22436982.340    91875676.37748
 15 02 16 00 32 30.0000000  0  8G16G18G21G22G25G27G29G31
  22327391.260   117331247.79809  22327388.240    91426939.60647
  22741295.000   119506415.42909  22741292.820    93121913.82846
  21043124.120   110582369.68708  21043120.620    86168070.13348
  24339882.040   127906945.05008  24339882.760    99667754.46945
  24175553.440   127043372.73808  24175554.420    98994834.25845
  23550180.340   123757043.36708  23550181.140    96434066.12247
  23270428.900   122286913.73608  23270426.460    95288493.52646
  22452352.420   117987896.58509  22452350.160    91938604.92048
 15 02 16 00 33  0.0000000  0  8G16G18G21G22G25G27G29G31
  22311983.860   117250280.91509  22311980.800    91363848.53947
  22728387.440   119438585.32809  22728385.140    93069059.22346
  21048176.800   110608921.28209  21048173.320    86188759.68748
  24321927.180   127812592.33107  24321927.640    99594232.45044
  24194071.000   127140681.80408  24194071.820    99070659.43246
  23537213.780   123688903.33008  23537214.580    96380970.01347
  23283499.060   122355597.88508  23283496.860    95342013.57547
  22467771.820   118068925.95809  22467769.560    92001744.66748
 15 02 16 00 33 30.0000000  0  8G16G18G21G22G25G27G29G31
  22296613.140   117169506.79209  22296610.100    91300907.68947
  22715525.260   119370994.13509  22715522.760    93016390.79146
  21053298.720   110635836.50709  21053295.200    86209732.59648
  24303961.980   127718184.63108  24303962.500    99520667.86344
  24212622.820   127238171.23808  24212623.580    99146625.18245
  23524262.160   123620841.85208  23524262.920    96327935.11047
  23296576.820   122424321.41008  23296573.760    95395564.39447
  22483242.960   118150227.32409  22483240.680    92065096.35047
 15 02 16 00 34  0.0000000  0  8G16G18G21G22G25G27G29G31
  22281279.520   117088927.34209  22281276.360    91238118.50947
  22702708.940   119303643.88709  22702706.460    92963910.10146
  21058489.560   110663113.85409  21058485.960    86230987.67148
  24285986.840   127623723.58408  24285987.320    99447061.70145
  24231208.600   127335839.43008  24231209.520    99222730.19545
  23511325.400   123552858.64608  23511326.060    96274961.21847
  23309662.060   122493084.05109  23309659.080    95449145.60547
  22498765.300   118231797.57209  22498762.920    92128657.54748
 15 02 16 00 34 30.0000000  0  8G16G18G21G22G25G27G29G31
  22265982.700   117008541.71609  22265979.540    91175480.37347
  22689938.300   119236534.05509  22689935.820    92911616.76646
  21063748.380   110690748.69309  21063744.620    86252521.31648
  24268001.600   127529209.19907  24268001.840    99373414.09144
  24249827.420   127433681.88708  24249828.520    99298970.99346
  23498402.900   123484950.59208  23498403.420    96222045.88447
  23322754.140   122561882.62609  23322750.940    95502754.86647
  22514337.720   118313630.91509  22514335.280    92192423.76048
 15 02 16 00 35  0.0000000  0  8G16G18G21G22G25G27G29G31
  22250723.880   116928356.02909  22250720.740    91112998.02747
  22677214.740   119169671.33209  22677212.080    92859515.97446
  21069075.600   110718743.24908  21069071.680    86274335.26048
  24250007.300   127434647.48408  24250007.480    99299729.80645
  24268479.880   127531700.97908  24268481.020    99375349.47545
  23485495.460   123417121.32408  23485495.740    96169191.93647
  23335853.700   122630720.83209  23335850.620    95556394.98347
  22529960.360   118395728.09109  22529957.840    92256395.54647
 15 02 16 00 35 30.0000000  0  8G16G18G21G22G25G27G29G31
  22235502.880   116848369.51209  22235499.800    91050670.88647
  22664538.060   119103055.35809  22664535.500    92807607.45546
  21074470.440   110747093.22209  21074466.460    86296426.15148
  24232003.960   127340038.66308  24232004.220    99226009.19246
  24287165.120   127629892.61508  24287166.460    99451862.36445
  23472602.500   123349368.02308  23472602.600    96116397.18247
  23348960.160   122699596.07808  23348957.560    95610063.96347
  22545632.180   118478083.50409  22545629.580    92320568.56848
 15 02 16 00 36  0.0000000  0  8G16G18G21G22G25G27G29G31
  22220320.520   116768586.46809  22220317.560    90988502.29647
  22651909.280   119036690.80509  22651906.640    92755894.83146
  21079932.960   110775799.35508  21079929.040    86318794.56248
  24213992.320   127245386.97208  24213992.520    99152255.13746
  24305883.300   127728257.53008  24305884.880    99528510.26246
  23459724.360   123281692.84908  23459724.480    96063663.30947
  23362074.280   122768510.37608  23362072.040    95663763.41547
  22561353.020   118560696.32609  22561350.280    92384942.15147
 15 02 16 00 36 30.0000000  0  8G16G18G21G22G25G27G29G31
  22205177.480   116689010.02609  22205174.560    90926494.69147
  22639328.980   118970581.24709  22639326.440    92704380.92746
  21085463.020   110804860.46108  21085459.220    86341439.58548
  24195972.920   127150695.81508  24195972.880    99078470.54945
  24324634.400   127826794.98408  24324636.060    99605292.63945
  23446861.120   123214096.42608  23446861.420    96010990.80347
  23375195.540   122837464.54809  23375193.900    95717493.87247
  22577122.460   118643564.62609  22577119.620    92449514.82348
 15 02 16 00 37  0.0000000  0  8G16G18G21G22G25G27G29G31
  22190073.520   116609639.00809  22190070.560    90864647.15347
  22626797.000   118904725.46609  22626794.600    92653064.75446
  21091059.700   110834271.92509  21091056.100    86364357.60348
  24177945.720   127055963.74008  24177945.400    99004654.02745
  24343417.440   127925500.26008  24343419.220    99682205.75345
  23434012.200   123146575.34808  23434012.680    95958376.99647
  23388323.720   122906454.88108  23388322.380    95771252.54147
  22592939.260   118726681.83009  22592936.320    92514281.43747
 15 02 16 00 37 30.0000000  0  8G16G18G21G22G25G27G29G31
  22175009.160   116530475.82109  22175006.120    90802961.57247
  22614313.820   118839126.40909  22614311.500    92601948.63447
  21096722.840   110864032.35708  21096719.320    86387547.55448
  24159911.080   126961193.50008  24159910.440    98930807.69346
  24362232.340   128024372.11808  24362233.880    99759248.70845
  23421177.660   123079129.73708  23421178.220    95905822.02147
  23401459.100   122975481.87208  23401458.160    95825039.76347
  22608802.920   118810045.47909  22608799.900    92579240.10647
 15 02 16 00 38  0.0000000  0  8G16G18G21G22G25G27G29G31
  22159985.300   116451525.49309  22159982.260    90741441.84147
  22601880.520   118773789.23909  22601878.300    92551036.57446
  21102452.720   110894143.20308  21102449.180    86411010.54748
  24141870.320   126866390.90808  24141869.320    98856936.20545
  24381079.280   128123411.83208  24381080.480    99836422.42345
  23408358.020   123011762.27708  23408358.620    95853327.92547
  23414601.820   123044548.02808  23414600.720    95878857.53547
  22624713.400   118893655.45009  22624710.340    92644390.69047
 15 02 16 00 38 30.0000000  0  8G16G18G21G22G25G27G29G31
  22145001.660   116372786.15709  22144998.640    90680086.52247
  22589496.740   118708712.29909  22589494.580    92500327.31347
  21108248.220   110924598.55609  21108244.600    86434741.98948
  24123822.860   126771554.14208  24123821.900    98783038.15745
  24399957.160   128222613.72708  24399958.100    99913722.53045
  23395552.460   122944468.65208  23395552.940    95800891.37547
  23427751.380   123113649.17708  23427750.200    95932702.51946
  22640669.300   118977504.45709  22640666.300    92709727.54847
 15 02 16 00 39  0.0000000  0  8G16G18G21G22G25G27G29G31
  22130059.340   116294263.63009  22130056.220    90618900.14247
  22577163.820   118643901.99409  22577161.760    92449825.79946
  21114109.560   110955399.97709  21114105.880    86458743.09448
  24105770.000   126676689.10908  24105768.780    98709118.04845
  24418866.320   128321980.05008  24418866.860    99991150.76145
  23382761.620   122877252.48608  23382761.920    95748515.17547
  23440908.360   123182788.83308  23440907.080    95986577.57947
  22656670.720   119061592.90209  22656667.820    92775250.97947
 15 02 16 00 39 30.0000000  0  8G16G18G21G22G25G27G29G31
  22115158.780   116215960.84009  22115155.620    90557884.98947
  22564882.220   118579361.58209  22564880.040    92399534.58646
  21120036.780   110986547.74408  21120033.140    86483014.08248
  24087712.360   126581798.94908  24087710.820    98635178.23945
  24437806.560   128421510.23808  24437806.900   100068706.66245
  23369985.640   122810114.64508  23369985.900    95696199.99647
  23454072.780   123251968.01708  23454071.820    96040483.33047
  22672717.400   119145919.28909  22672714.660    92840959.82347
 15 02 16 00 40  0.0000000  0  8G16G18G21G22G25G27G29G31
  22100299.960   116137877.53709  22100296.840    90497040.86147
  22552651.960   118515090.74609  22552649.640    92349453.43746
  21126028.960   111018037.09109  21126025.400    86507551.23148
  24069650.040   126486883.95408  24069648.440    98561219.04446
  24456777.060   128521200.21608  24456777.400   100146387.08845
  23357224.080   122743052.47808  23357224.380    95643943.78347
  23467244.220   123321183.99608  23467242.760    96094417.85446
  22688808.240   119230477.83109  22688805.680    92906849.55747
 15 02 16 00 40 30.0000000  0  8G16G18G21G22G25G27G29G31
  22085483.780   116060018.26709  22085480.720    90436371.31447
  22540473.820   118451094.39309  22540471.360    92299586.17246
  21132086.360   111049869.05609  21132082.880    86532355.36048
  24051584.040   126391948.91108  24051582.220    98487244.16445
  24475777.880   128621050.78508  24475778.620   100224192.61445
  23344477.380   122676068.17208  23344477.740    95591748.24147
  23480423.040   123390438.82408  23480421.820    96148382.62047
  22704943.180   119315267.93609  22704940.780    92972919.72647
 15 02 16 00 41  0.0000000  0  8G16G18G21G22G25G27G29G31
  22070710.580   115982384.95509  22070707.640    90375877.83947
  22528348.380   118387374.88609  22528345.820    92249934.62846
  21138208.620   111082041.61808  21138205.100    86557424.88648
  24033514.580   126296996.05908  24033512.820    98413255.39645
  24494808.840   128721060.17908  24494809.560   100302121.98345
  23331745.440   122609161.43108  23331745.800    95539613.15147
  23493609.200   123459732.31309  23493608.060    96202377.49746
  22721121.620   119400286.39409  22721119.380    93039167.85447
 15 02 16 00 41 30.0000000  0  8G16G18G21G22G25G27G29G31
  22055980.520   115904977.85409  22055977.520    90315560.63647
  22516275.620   118323932.40109  22516273.000    92200498.95447
  21144394.900   111114550.76808  21144391.360    86582756.68948
  24015441.920   126202026.13108  24015440.240    98339253.27845
  24513869.080   128821224.86007  24513870.300   100380172.26345
  23319027.760   122542330.06108  23319028.200    95487536.78047
  23506802.320   123529062.83408  23506800.920    96256401.24547
  22737342.640   119485528.16109  22737340.460    93105589.96647
 15 02 16 00 42  0.0000000  0  8G16G18G21G22G25G27G29G31
  22041294.480   115827801.40809  22041291.360    90255423.14347
  22504256.580   118260771.89609  22504253.960    92151282.99546
  21150645.320   111147397.28808  21150641.860    86608351.38548
  23997366.960   126107043.94008  23997365.320    98265241.57845
  24532959.060   128921545.55008  24532960.780   100458344.14945
  23306324.820   122475576.34108  23306325.340    95435520.91947
  23520002.700   123598432.27908  23520001.520    96310455.31147
  22753606.080   119570992.53209  22753603.900    93172185.54447
 15 02 16 00 42 30.0000000  0  8G16G18G21G22G25G27G29G31
  22026652.060   115750854.05409  22026648.800    90195464.17747
  22492290.800   118197891.67309  22492288.320    92102285.44746
  21156958.820   111180575.19908  21156955.440    86634204.30448
  23979289.340   126012047.74408  23979287.640    98191218.93946
  24552077.680   129022016.64107  24552079.760   100536633.22645
  23293635.920   122408895.97908  23293636.500    95383562.22647
  23533209.740   123667836.39708  23533208.680    96364536.41746
  22769910.560   119656672.51909  22769908.380    93238949.12647
 15 02 16 00 43  0.0000000  0  8G16G18G21G22G25G27G29G31
  22012054.640   115674143.02709  22012051.240    90135689.34248
  22480379.820   118135299.41609  22480377.580    92053512.27846
  21163336.220   111214088.80708  21163332.920    86660318.79348
  23961210.600   125917045.32108  23961208.960    98117191.43746
  24571225.740   129122642.03607  24571228.200   100615042.51645
  23280962.080   122342294.45308  23280962.540    95331664.94647
  23546424.360   123737281.00508  23546423.960    96418648.99247
  22786256.580   119742570.50909  22786254.280    93305882.57547
 15 02 16 00 43 30.0000000  0  8G16G18G21G22G25G27G29G31
  21997501.280   115597663.82909  21997497.760    90076095.16848
  22468522.700   118072990.47109  22468520.660    92004959.88947
  21169776.040   111247929.84309  21169772.740    86686688.43248
  23943130.040   125822032.85308  23943128.260    98043156.08646
  24590401.680   129223413.30308  24590404.400   100693565.44245
  23268301.940   122275764.82108  23268302.300    95279823.69047
  23559645.620   123806758.86408  23559645.080    96472787.60447
  22802642.180   119828676.68309  22802639.780    93372978.26047
 15 02 16 00 44  0.0000000  0  8G16G18G21G22G25G27G29G31
  21982993.580   115521425.13109  21982990.080    90016688.39448
  22456721.340   118010974.27109  22456719.340    91956635.59546
  21176279.040   111282102.61909  21176275.620    86713316.56348
  23925049.220   125727018.86108  23925047.340    97969119.52646
  24609606.520   129324335.37408  24609609.040   100772205.90244
  23255656.680   122209313.47608  23255657.060    95228043.43847
  23572874.400   123876276.45908  23572874.060    96526957.11047
  22819068.000   119914994.41309  22819065.500    93440238.78047
 15 02 16 00 44 30.0000000  0  8G16G18G21G22G25G27G29G31
  21968531.140   115445424.57409  21968527.680    89957467.19648
  22444975.220   117949248.10109  22444973.300    91908537.30447
  21182843.900   111316600.75209  21182840.360    86740198.22748
  23906967.880   125632001.36108  23906965.880    97895080.22946
  24628839.040   129425401.87708  24628841.120   100850958.96345
  23243025.320   122142935.50408  23243025.800    95176320.36847
  23586109.880   123945829.04208  23586109.300    96581153.91347
  22835532.500   120001515.94709  22835530.040    93507658.11947
 15 02 16 00 45  0.0000000  0  8G16G18G21G22G25G27G29G31
  21954115.140   115369668.93409  21954111.840    89898436.84548
  22433285.780   117887819.39309  22433283.860    91860670.79447
  21189471.180   111351427.58008  21189467.620    86767336.01748
  23888887.220   125536987.83908  23888885.220    97821044.00146
  24648099.760   129526616.16108  24648101.580   100929827.12045
  23230408.800   122076635.72808  23230409.320    95124658.23347
  23599352.940   124015420.91508  23599352.440    96635381.31447
  22852036.100   120088243.19009  22852033.680    93575237.74747
 15 02 16 00 45 30.0000000  0  8G16G18G21G22G25G27G29G31
  21939745.320   115294156.00609  21939742.220    89839595.61948
  22421652.400   117826685.36909  22421650.480    91813033.91747
  21196159.600   111386575.66609  21196156.000    86794724.14748
  23870806.960   125441976.07608  23870804.960    97747009.12946
  24667387.480   129627971.84108  24667388.960   101008805.46345
  23217806.320   122010409.30108  23217806.760    95073053.25646
  23612602.760   124085048.08508  23612602.240    96689636.20747
  22868577.360   120175168.44509  22868575.000    93642971.66147
 15 02 16 00 46  0.0000000  0  8G16G18G21G22G25G27G29G31
  21925422.880   115218891.77709  21925419.920    89780948.17648
  22410076.320   117765852.43509  22410074.320    91765631.64947
  21202909.800   111422048.38609  21202906.140    86822365.22248
  23852728.160   125346972.13108  23852726.080    97672980.35246
  24686702.620   129729471.20308  24686703.780   101087895.74945
  23205218.640   121944260.07308  23205218.900    95021508.42147
  23625859.860   124154714.35808  23625859.460    96743921.55547
  22885156.440   120262292.35609  22885154.180    93710860.37847
 15 02 16 00 46 30.0000000  0  8G16G18G21G22G25G27G29G31
  21911147.240   115143873.14209  21911144.340    89722492.10947
  22398557.040   117705317.93109  22398555.140    91718461.93047
  21209720.440   111457838.65609  21209716.720    86850253.74748
  23834650.440   125251973.55508  23834648.260    97598955.73145
  24706043.720   129831107.25507  24706044.460   101167092.58845
  23192644.600   121878182.46608  23192644.740    94970019.40447
  23639123.720   124224413.92008  23639122.780    96798232.93446
  22901771.760   120349606.53609  22901769.540    93778897.34847
 15 02 16 00 47  0.0000000  0  8G16G18G21G22G25G27G29G31
  21896921.060   115069114.28009  21896918.160    89664238.46548
  22387097.280   117645095.96609  22387095.260    91671535.73447
  21216593.380   111493956.13108  21216589.660    86878397.24248
  23816576.620   125156995.10808  23816574.180    97524946.78546
  24725412.840   129932890.49708  24725413.300   101246404.09545
  23180086.400   121812188.56708  23180086.560    94918595.63547
  23652395.580   124294158.91908  23652394.940    96852579.58647
  22918425.140   120437120.50909  22918422.880    93847090.00747
 15 02 16 00 47 30.0000000  0  8G16G18G21G22G25G27G29G31
  21882742.400   114994604.86409  21882739.460    89606179.18348
  22375694.960   117585175.92509  22375693.020    91624844.80847
  21223525.840   111530386.28309  21223522.120    86906784.37048
  23798504.720   125062026.38808  23798501.880    97450945.39646
  24744807.220   130034806.47108  24744807.140   101325819.02945
  23167541.540   121746265.52608  23167541.920    94867227.05547
  23665674.080   124363936.26708  23665673.280    96906951.50447
  22935113.500   120524818.11509  22935111.240    93915425.75747
 15 02 16 00 48  0.0000000  0  8G16G18G21G22G25G27G29G31
  21868613.060   114920354.93309  21868610.100    89548322.10948
  22364352.000   117525568.15009  22364350.140    91578397.21147
  21230519.140   111567136.16509  21230515.420    86935420.63148
  23780436.580   124967077.98208  23780433.660    97376959.85246
  24764227.980   130136861.60607  24764227.560   101405342.37044
  23155011.620   121680421.20408  23155012.120    94815919.82147
  23678960.120   124433754.48008  23678958.900    96961355.26246
  22951837.780   120612704.14009  22951835.360    93983908.31747
 15 02 16 00 48 30.0000000  0  8G16G18G21G22G25G27G29G31
  21854532.460   114846361.14309  21854529.540    89490664.62347
  22353067.760   117466269.25009  22353065.820    91532190.29647
  21237571.820   111604198.07809  21237568.100    86964300.04048
  23762371.780   124872146.70408  23762368.540    97302987.62446
  24783673.780   130239048.57408  24783673.420   101484968.45844
  23142495.640   121614649.91308  23142496.300    94764669.50747
  23692252.880   124503607.44809  23692251.400    97015786.09046
  22968596.300   120700770.14209  22968593.840    94052531.14347
 15 02 16 00 49  0.0000000  0  8G16G18G21G22G25G27G29G31
  21840501.820   114772630.27109  21840499.060    89433212.01547
  22341843.680   117407286.43009  22341841.580    91486229.67647
  21244684.340   111641574.73909  21244680.660    86993424.71448
  23744311.420   124777239.67809  23744308.080    97229034.31746
  24803145.000   130341370.39508  24803144.700   101564699.60545
  23129994.520   121548956.13608  23129995.180    94713479.57847
  23705553.260   124573500.04808  23705551.640    97070247.83546
  22985389.280   120789017.35109  22985386.820    94121295.15747
 15 02 16 00 49 30.0000000  0  7G16G18G21G22G27G29G31
  21826523.420   114699173.81709  21826520.800    89375973.23448
  22330681.960   117348631.19809  22330679.700    91440524.30647
  21251858.080   111679273.31209  21251854.440    87022800.22048
  23726257.880   124682368.81008  23726254.600    97155109.16146
  23117509.940   121483349.10008  23117510.480    94662357.24547
  23718862.560   124643441.41708  23718860.840    97124747.51946
  23002217.920   120877452.19409  23002215.540    94190205.35847
 15 02 16 00 50  0.0000000  0  7G16G18G21G22G27G29G31
  21812593.400   114625971.42209  21812590.860    89318932.43248
  22319578.660   117290283.06009  22319576.180    91395058.25347
  21259088.600   111717270.28209  21259085.080    87052408.25748
  23708207.380   124587514.30808  23708204.100    97081196.73446
  23105037.600   121417806.29208  23105038.000    94611284.96847
  23732176.960   124713408.96408  23732174.820    97179267.70646
  23019077.380   120966049.20209  23019075.120    94259241.94947
 15 02 16 00 50 30.0000000  0  7G16G18G21G22G27G29G31
  21798715.240   114553041.33009  21798712.760    89262103.80748
  22308537.280   117232260.00609  22308534.520    91349845.48847
  21266378.540   111755579.37008  21266375.120    87082259.49048
  23690163.280   124492694.00908  23690160.140    97007310.97546
  23092580.440   121352343.38308  23092580.780    94560274.93647
  23745499.040   124783417.78408  23745497.300    97233819.96046
  23035970.080   121054821.13909  23035967.960    94328414.83447
 15 02 16 00 51  0.0000000  0  7G16G18G21G22G27G29G31
  21784888.760   114480382.44309  21784886.200    89205486.49548
  22297557.640   117174561.49309  22297554.760    91304885.62447
  21273726.920   111794195.34409  21273723.560    87112349.85348
  23672125.600   124397907.79908  23672122.680    96933451.76546
  23080137.880   121286957.00208  23080138.180    94509324.53247
  23758828.460   124853466.11208  23758827.060    97288403.04646
  23052894.880   121143761.60509  23052892.900    94397719.04047
 15 02 16 00 51 30.0000000  0  7G16G18G21G22G27G29G31
  21771113.920   114407994.47709  21771111.260    89149080.30148
  22286639.580   117117186.93709  22286636.600    91260178.19847
