     2.11           OBSERVATION DATA    G                   RINEX VERSION / TYPE
SPIDER V4,0,0,3554                      2015 03 31 00:31    PGM / RUN BY / DATE 
EADB                                                        MARKER NAME         
EADB                                                        MARKER NUMBER       
                                                            OBSERVER / AGENCY   
462408              LEICA GRX1200PRO    3.00/2.127          REC # / TYPE / VERS 
103310              LEIAT504                                ANT # / TYPE        
  5238464.6656   142765.3090  3625629.6523                  APPROX POSITION XYZ 
        0.0770        0.0000        0.0000                  ANTENNA: DELTA H/E/N
     1     1                                                WAVELENGTH FACT L1/2
     4    C1    L1    P2    L2                              # / TYPES OF OBSERV 
    30.000                                                  INTERVAL            
  2015    02    16    00    00    0.0000000     GPS         TIME OF FIRST OBS   
  2015    02    16    23    59   30.0000000     GPS         TIME OF LAST OBS    
    16                                                      LEAP SECONDS        
    30                                                      # OF SATELLITES     
   G 1   835   835   835   835                              PRN / # OF OBS      
   G 2   926   926   926   926                              PRN / # OF OBS      
   G 3   845   845   845   845                              PRN / # OF OBS      
   G 4   850   850   850   850                              PRN / # OF OBS      
   G 5   674   674   674   674                              PRN / # OF OBS      
   G 6   727   727   727   727                              PRN / # OF OBS      
   G 7   667   667   667   667                              PRN / # OF OBS      
   G 9   789   789   789   789                              PRN / # OF OBS      
   G10   783   783   783   783                              PRN / # OF OBS      
   G11   800   800   800   800                              PRN / # OF OBS      
   G12   817   817   817   817                              PRN / # OF OBS      
   G13   821   821   821   821                              PRN / # OF OBS      
   G14   928   928   928   928                              PRN / # OF OBS      
   G15   724   724   724   724                              PRN / # OF OBS      
   G16   691   691   691   691                              PRN / # OF OBS      
   G17   930   930   930   930                              PRN / # OF OBS      
   G18   938   938   938   938                              PRN / # OF OBS      
   G19   779   779   779   779                              PRN / # OF OBS      
   G20   823   823   823   823                              PRN / # OF OBS      
   G21   704   704   704   704                              PRN / # OF OBS      
   G22   778   778   778   778                              PRN / # OF OBS      
   G23   732   732   732   732                              PRN / # OF OBS      
   G24   845   845   845   845                              PRN / # OF OBS      
   G25   858   858   858   858                              PRN / # OF OBS      
   G27   833   833   833   833                              PRN / # OF OBS      
   G28   907   907   907   907                              PRN / # OF OBS      
   G29   744   744   744   744                              PRN / # OF OBS      
   G30   695   695   695   695                              PRN / # OF OBS      
   G31   781   781   781   781                              PRN / # OF OBS      
   G32   746   746   746   746                              PRN / # OF OBS      
BIT 2 OF LLI FLAGS DATA COLLECTED UNDER A/S CONDITION       COMMENT             
SNR is mapped to RINEX snr flag value [2-9]                 COMMENT             
Lx:     = 25dBHz -> 1; 26-27dBHz -> 2; 28-31dBHz -> 3       COMMENT             
       32-35dBHz -> 4; 36-38dBHz -> 5; 39-41dBHz -> 6       COMMENT             
       42-44dBHz -> 7; 45-48dBHz -> 8; >=49dBHz -> 9        COMMENT             
                                                            END OF HEADER       
 15 02 16 00 00  0.0000000  0  7G16G18G21G25G27G29G31
  23003857.401   120886103.62108  23003856.484    94196948.30846
  23973121.844   125979667.83107  23973123.548    98165986.15544
  20971700.214   110207036.89609  20971698.849    85875611.28549
  23502429.462   123506090.26607  23502431.908    96238518.35346
  23898947.286   125589823.18206  23898950.266    97862217.74646
  22808694.069   119860488.23308  22808694.036    93397779.02047
  21373051.297   112316135.44809  21373050.370    87519059.13848
 15 02 16 00 00 30.0000000  0  7G16G18G21G25G27G29G31
  22988024.081   120802898.68008  22988023.054    94132113.31046
  23959106.258   125906014.33507  23959106.958    98108593.99944
  20972108.900   110209184.02509  20972107.413    85877284.37849
  23518223.815   123589089.77207  23518226.478    96303193.26146
  23885141.814   125517276.74806  23885145.156    97805688.13045
  22822665.368   119933907.68608  22822665.165    93454988.95747
  21384340.051   112375458.50109  21384339.020    87565284.86648
 15 02 16 00 01  0.0000000  0  7G16G18G21G25G27G29G31
  22972205.912   120719773.11108  22972204.829    94067340.16546
  23945097.942   125832401.35806  23945098.652    98051233.45444
  20972604.968   110211791.85009  20972603.651    85879316.45249
  23534060.317   123672310.15407  23534063.162    96368040.27146
  23871361.861   125444862.16906  23871364.962    97749261.22745
  22836643.965   120007365.79908  22836644.050    93512229.03147
  21395715.045   112435234.49809  21395714.176    87611863.54248
 15 02 16 00 01 30.0000000  0  7G16G18G21G25G27G29G31
  22956402.553   120636726.21008  22956401.517    94002628.30945
  23931097.065   125758829.19306  23931098.557    97993904.75045
  20973188.424   110214857.55509  20973187.045    85881705.32549
  23549937.969   123755748.65207  23549941.165    96433057.22846
  23857606.489   125372577.23307  23857609.329    97692935.36446
  22850629.374   120080859.46508  22850629.195    93569496.80047
  21407175.408   112495458.95609  21407174.459    87658791.67148
 15 02 16 00 02  0.0000000  0  7G16G18G21G25G27G29G31
  22940613.707   120553755.26108  22940612.597    93937975.63146
  23917103.833   125685296.50907  23917105.829    97936606.80445
  20973858.053   110218376.13809  20973856.651    85884447.09049
  23565856.368   123839400.34307  23565859.442    96498240.31846
  23843874.782   125300417.72106  23843877.777    97636707.23346
  22864620.491   120154383.65808  22864620.455    93626788.35947
  21418719.919   112556125.30509  21418719.058    87706064.12748
 15 02 16 00 02 30.0000000  0  7G16G18G21G25G27G29G31
  22924840.089   120470864.87208  22924839.108    93873385.74046
  23903119.895   125611809.10507  23903121.558    97879344.08544
  20974614.113   110222349.88309  20974612.733    85887543.52949
  23581815.646   123923267.57107  23581818.238    96563591.38945
  23830167.769   125228386.65907  23830170.545    97580579.19345
  22878617.966   120227940.75708  22878617.903    93684105.56647
  21430348.627   112617234.82509  21430347.625    87753681.91448
 15 02 16 00 03  0.0000000  0  7G16G18G21G25G27G29G31
  22909082.187   120388056.88008  22909081.444    93808860.05046
  23889144.856   125538369.53106  23889145.443    97822118.57344
  20975456.962   110226778.27509  20975455.514    85890994.23149
  23597815.875   124007349.55907  23597818.463    96629109.79245
  23816485.005   125156483.84306  23816487.938    97524551.08145
  22892621.493   120301529.85008  22892621.550    93741447.69247
  21442061.349   112678785.34409  21442060.415    87801643.33248
 15 02 16 00 03 30.0000000  0  7G16G18G21G25G27G29G31
  22893340.561   120305333.76608  22893339.550    93744400.50046
  23875178.961   125464981.69706  23875179.746    97764933.43944
  20976386.402   110231662.10709  20976384.749    85894799.82549
  23613857.367   124091647.10607  23613860.229    96694796.17346
  23802826.947   125084710.76606  23802830.075    97468624.07145
  22906631.557   120375152.51508  22906631.495    93798815.98147
  21453857.906   112740776.32509  21453856.817    87849947.97048
 15 02 16 00 04  0.0000000  0  7G16G18G21G25G27G29G31
  22877615.063   120222695.43608  22877614.057    93680007.01846
  23861223.442   125391646.57506  23861224.524    97707789.39044
  20977401.869   110236998.48309  20977400.405    85898958.04649
  23629939.091   124176157.57207  23629942.406    96760648.43446
  23789193.369   125013065.48306  23789196.272    97412796.64446
  22920647.319   120448805.78008  22920647.507    93856208.11247
  21465737.235   112803202.93509  21465736.445    87898592.05848
 15 02 16 00 04 30.0000000  0  7G16G18G21G25G27G29G31
  22861905.514   120140141.50908  22861904.479    93615679.29746
  23847278.668   125318365.01107  23847279.749    97650687.08545
  20978502.944   110242784.89009  20978501.334    85903466.95049
  23646060.738   124260878.46307  23646064.430    96826664.64746
  23775583.663   124941546.15206  23775586.507    97357067.33645
  22934668.534   120522487.04108  22934668.617    93913622.05947
  21477698.953   112866061.56509  21477697.932    87947572.78748
 15 02 16 00 05  0.0000000  0  7G16G18G21G25G27G29G31
  22846213.107   120057677.60808  22846211.911    93551421.73046
  23833345.107   125245143.27706  23833345.972    97593631.34945
  20979690.370   110249024.60909  20979688.899    85908329.08149
  23662223.058   124345812.84307  23662226.644    96892847.24345
  23761998.692   124870156.52607  23762001.526    97301439.11146
  22948695.546   120596200.17908  22948695.510    93971060.84147
  21489743.148   112929354.07909  21489742.129    87996891.60448
 15 02 16 00 05 30.0000000  0  7G16G18G21G25G27G29G31
  22830537.624   119975302.69808  22830536.499    93487233.50546
  23819422.548   125171981.70807  23819423.493    97536622.52944
  20980963.254   110255713.75109  20980961.673    85913541.40649
  23678425.975   124430957.36807  23678429.027    96959193.60745
  23748437.740   124798893.93006  23748440.427    97245909.86746
  22962728.018   120669941.59708  22962727.962    94028521.66647
  21501868.857   112993075.48509  21501867.965    88046544.62348
 15 02 16 00 06  0.0000000  0  7G16G18G21G25G27G29G31
  22814879.303   119893017.63508  22814878.383    93423115.29446
  23805511.931   125098882.20107  23805512.700    97479662.03544
  20982321.567   110262851.45109  20982319.919    85919103.25949
  23694668.230   124516310.74507  23694671.155    97025702.71945
  23734900.867   124727757.74207  23734903.789    97190479.12946
  22976765.775   120743709.47408  22976765.558    94086003.12047
  21514075.675   113057222.96309  21514074.826    88096529.64748
 15 02 16 00 06 30.0000000  0  7G16G18G21G25G27G29G31
  22799238.727   119810825.73008  22799237.730    93359069.68446
  23791614.119   125025849.04907  23791614.642    97422753.21444
  20983765.293   110270438.37909  20983763.673    85925015.16149
  23710950.181   124601873.78807  23710953.477    97092375.16646
  23721388.536   124656749.49807  23721391.328    97135148.07846
  22990808.785   120817505.49308  22990808.426    94143506.50447
  21526363.569   113121795.59609  21526362.492    88146845.96248
 15 02 16 00 07  0.0000000  0  7G16G18G21G25G27G29G31
  22783617.104   119728733.51708  22783616.005    93295101.74046
  23777730.289   124952889.43807  23777731.177    97365901.74945
  20985295.247   110278478.46609  20985293.667    85931280.16749
  23727272.944   124687650.64207  23727276.731    97159214.22546
  23707901.489   124585874.05407  23707904.008    97079920.50646
  23004857.976   120891334.30108  23004857.792    94201035.43447
  21538732.892   113186796.26709  21538731.802    88197495.81448
 15 02 16 00 07 30.0000000  0  7G16G18G21G25G27G29G31
  22768012.626   119646731.93008  22768011.651    93231204.42446
  23763859.439   124879996.19307  23763859.956    97309101.97945
  20986909.096   110286959.74009  20986907.418    85937888.95649
  23743634.519   124773629.89207  23743637.925    97226210.98746
  23694437.479   124515120.70507  23694440.075    97024788.07646
  23018910.980   120965183.74308  23018911.057    94258580.42447
  21551181.116   113252212.21409  21551180.236    88248469.25648
 15 02 16 00 08  0.0000000  0  7G16G18G21G25G27G29G31
  22752427.147   119564829.71508  22752426.136    93167384.53446
  23750002.312   124807178.37507  23750003.020    97252360.98745
  20988608.352   110295889.42209  20988606.872    85944847.15749
  23760035.785   124859817.81807  23760039.040    97293370.37246
  23680998.044   124444496.43507  23681000.714    96969756.23346
  23032969.210   121039060.89308  23032969.566    94316147.01447
  21563709.335   113318048.04509  21563708.303    88299769.87748
 15 02 16 00 08 30.0000000  0  7G16G18G21G25G27G29G31
  22736860.498   119483026.58008  22736859.463    93103641.85846
  23736159.784   124734437.11707  23736160.691    97195679.61944
  20990392.331   110305264.32209  20990390.827    85952152.27949
  23776476.047   124946211.91407  23776478.980    97360690.42944
  23667582.947   124373999.37207  23667585.518    96914823.49846
  23047032.545   121112963.56308  23047032.542    94373733.48747
  21576316.455   113384299.59409  21576315.669    88351394.43548
 15 02 16 00 09  0.0000000  0  7G16G18G21G25G27G29G31
  22721313.271   119401325.72608  22721312.313    93039978.87846
  23722332.809   124661776.40407  23722333.454    97139061.02144
  20992260.972   110315084.75509  20992259.557    85959804.57349
  23792955.494   125032812.80407  23792958.405    97428171.60745
  23654192.205   124303630.95507  23654194.849    96859991.01246
  23061100.851   121186892.13508  23061100.703    94431340.15847
  21589002.561   113450965.97209  21589001.793    88403342.24048
 15 02 16 00 09 30.0000000  0  7G16G18G21G25G27G29G31
  22705785.521   119319726.41108  22705784.638    92976395.01946
  23708521.202   124589196.47807  23708521.861    97082505.35544
  20994213.926   110325347.40909  20994212.515    85967801.45249
  23809473.932   125119617.00307  23809477.170    97495811.18946
  23640825.694   124233388.43307  23640827.904    96805256.63546
  23075173.237   121260843.55308  23075172.994    94488964.62046
  21601766.950   113518042.19509  21601765.922    88455609.40448
 15 02 16 00 10  0.0000000  0  7G16G18G21G25G27G29G31
  22690277.922   119238233.17808  22690276.720    92912893.81546
  23694726.293   124516703.30507  23694727.075    97026017.29345
  20996251.431   110336054.94409  20996249.947    85976144.98849
  23826031.445   125206627.13107  23826034.810    97563611.23746
  23627483.554   124163275.14007  23627485.598    96750622.93546
  23089250.562   121334820.95708  23089250.642    94546609.33047
  21614609.347   113585529.47609  21614608.356    88508196.86948
 15 02 16 00 10 30.0000000  0  7G16G18G21G25G27G29G31
  22674790.171   119156844.09108  22674788.830    92849473.77346
  23680947.177   124444295.31607  23680948.401    96969595.64645
  20998372.597   110347201.43409  20998371.148    85984830.57649
  23842627.143   125293838.20907  23842630.630    97631567.84545
  23614164.979   124093286.77407  23614167.338    96696086.60546
  23103331.950   121408819.40408  23103332.120    94604270.43947
  21627528.766   113653421.07609  21627527.905    88561099.38748
 15 02 16 00 11  0.0000000  0  7G16G18G21G25G27G29G31
  22659323.082   119075564.33108  22659321.795    92786138.91346
  23667185.333   124371978.92807  23667186.900    96913245.35044
  21000577.930   110358790.41309  21000576.367    85993860.95449
  23859261.669   125381253.19807  23859264.931    97699683.40145
  23600871.055   124023427.13707  23600873.598    96641650.58846
  23117418.002   121482842.32208  23117418.227    94661950.60147
  21640525.312   113721718.57209  21640524.496    88614318.19248
 15 02 16 00 11 30.0000000  0  7G16G18G21G25G27G29G31
  22643876.730   118994393.36508  22643875.548    92722888.83446
  23653441.682   124299755.05707  23653442.918    96856967.13644
  21002866.964   110370819.08809  21002865.319    86003233.95549
  23875934.197   125468869.20507  23875937.334    97767955.57545
  23587601.348   123953694.04407  23587603.813    96587313.16146
  23131508.372   121556887.25108  23131508.434    94719647.92547
  21653598.283   113790417.34209  21653597.309    88667849.67548
 15 02 16 00 12  0.0000000  0  7G16G18G21G25G27G29G31
  22628451.328   118913332.17008  22628450.189    92659724.28446
  23639715.675   124227625.12207  23639716.386    96800762.09545
  21005239.159   110383285.30709  21005237.539    86012947.89649
  23892644.958   125556684.40907  23892647.834    97836382.96545
  23574355.333   123884086.39107  23574357.753    96533073.47846
  23145602.491   121630952.53308  23145602.569    94777361.11147
  21666747.007   113859514.26109  21666746.101    88721691.40448
 15 02 16 00 12 30.0000000  0  7G16G18G21G25G27G29G31
  22613047.601   118832385.97708  22613046.615    92596649.35246
  23626008.734   124155595.41007  23626009.672    96744635.14045
  21007695.096   110396191.37509  21007693.553    86023004.58049
  23909394.123   125644701.55407  23909397.347    97904967.70446
  23561133.834   123814607.72707  23561136.422    96478934.31046
  23159701.116   121705041.18108  23159700.894    94835092.49247
  21679971.796   113929010.37109  21679970.955    88775844.19048
 15 02 16 00 13  0.0000000  0  7G16G18G21G25G27G29G31
  22597665.669   118751553.37908  22597664.459    92533662.93246
  23612320.637   124083665.28407  23612321.646    96688585.80845
  21010234.047   110409533.15309  21010232.373    86033400.78049
  23926181.006   125732916.56507  23926184.211    97973706.60446
  23547936.365   123745254.74707  23547938.956    96424893.07946
  23173803.433   121779149.63908  23173803.208    94892839.32946
  21693271.479   113998900.02109  21693270.439    88830303.63448
 15 02 16 00 13 30.0000000  0  7G16G18G21G25G27G29G31
  22582305.714   118670836.89408  22582304.559    92470766.98946
  23598652.131   124011838.71007  23598653.746    96632617.16545
  21012855.777   110423310.65309  21012854.183    86044136.49849
  23943005.475   125821329.52406  23943008.623    98042599.75945
  23534762.963   123676028.30507  23534765.406    96370950.43646
  23187909.734   121853278.28108  23187909.440    94950601.89546
  21706645.432   114069181.77509  21706644.575    88885068.61248
 15 02 16 00 14  0.0000000  0  7G16G18G21G25G27G29G31
  22566968.025   118590236.01408  22566966.949    92407961.13346
  23585003.977   123940115.64307  23585005.298    96576729.17645
  21015559.907   110437520.33009  21015558.045    86055208.98449
  23959867.118   125909937.30707  23959869.906    98111644.73945
  23521613.175   123606926.01307  23521615.612    96317104.54146
  23202019.143   121927423.75808  23202019.030    95008377.55847
  21720093.245   114139850.82109  21720092.668    88940135.36548
 15 02 16 00 14 30.0000000  0  7G16G18G21G25G27G29G31
  22551652.935   118509755.64308  22551652.050    92345249.18346
  23571376.832   123868502.29307  23571377.536    96520926.64445
  21018346.601   110452164.28309  21018344.712    86066619.85849
  23976766.275   125998742.19407  23976769.034    98180843.31145
  23508487.700   123537951.02007  23508490.028    96263357.84546
  23216132.629   122001589.56308  23216132.504    95066169.06147
  21733615.033   114210907.82909  21733614.353    88995504.43848
 15 02 16 00 15  0.0000000  0  7G16G18G21G25G27G29G31
  22536361.243   118429397.76008  22536360.321    92282632.67046
  23557770.371   123797001.79807  23557771.264    96465212.05044
  21021215.877   110467242.33609  21021214.187    86078369.00249
  23993702.666   126087743.65707  23993705.402    98250195.06344
  23495386.345   123469103.46307  23495388.793    96209710.44446
  23230249.705   122075775.30008  23230249.552    95123976.10746
  21747210.217   114282350.59609  21747209.476    89051174.09848
 15 02 16 00 15 30.0000000  0  7G16G18G21G25G27G29G31
  22521092.809   118349161.72308  22521091.969    92220111.10547
  23544185.727   123725614.19907  23544186.356    96409585.46645
  21024166.917   110482750.50009  21024165.232    86090453.29049
  24010675.906   126176938.19806  24010678.927    98319697.24745
  23482309.003   123400380.78707  23482311.216    96156160.33046
  23244370.040   122149978.22208  23244369.810    95181796.54947
  21760877.873   114354174.36409  21760876.887    89107140.64548
 15 02 16 00 16  0.0000000  0  7G16G18G21G25G27G29G31
  22505848.656   118269052.09208  22505847.702    92157688.03446
  23530623.651   123654344.32207  23530624.015    96354050.56945
  21027200.172   110498690.61509  21027198.575    86102874.16749
  24027685.926   126266327.70707  24027689.278    98389351.32346
  23469255.721   123331785.57907  23469257.873    96102709.57146
  23258493.982   122224200.10008  23258493.825    95239631.74846
  21774617.828   114426378.99909  21774616.897    89163403.96848
 15 02 16 00 16 30.0000000  0  7G16G18G21G25G27G29G31
  22490627.943   118189066.20508  22490626.768    92095361.38647
  23517083.630   123583190.90407  23517084.111    96298606.45745
  21030314.540   110515056.66409  21030312.795    86115626.93849
  24044732.428   126355906.80207  24044735.726    98459153.17845
  23456225.897   123263313.30007  23456227.902    96049354.58146
  23272620.651   122298436.43808  23272620.691    95297478.21546
  21788429.168   114498957.83509  21788428.275    89219958.88048
 15 02 16 00 17  0.0000000  0  7G16G18G21G25G27G29G31
  22475432.040   118109211.60508  22475430.993    92033137.04146
  23503567.299   123512162.54207  23503567.678    96243259.76945
  21033510.868   110531853.32609  21033509.240    86128715.25349
  24061816.041   126445680.39007  24061818.928    98529106.56644
  23443220.519   123194969.76007  23443222.577    95996099.91746
  23286751.165   122372692.44508  23286751.181    95355340.02046
  21802312.445   114571914.16409  21802311.433    89276807.93248
 15 02 16 00 17 30.0000000  0  7G16G18G21G25G27G29G31
  22460260.866   118029486.20308  22460259.651    91971013.36847
  23490074.549   123441257.91507  23490074.879    96188009.48245
  21036788.280   110549076.08509  21036786.539    86142135.59049
  24078935.435   126535643.59906  24078938.253    98599207.74645
  23430238.814   123126750.81507  23430241.124    95942942.34946
  23300884.624   122446964.08308  23300884.428    95413213.99346
  21816266.226   114645241.43309  21816265.455    89333946.04048
 15 02 16 00 18  0.0000000  0  7G16G18G21G25G27G29G31
  22445115.223   117949895.12408  22445113.907    91908994.35847
  23476606.338   123370482.61107  23476606.713    96132859.99945
  21040147.141   110566727.14609  21040145.396    86155889.67249
  24096091.230   126625799.13107  24096094.269    98669458.73345
  23417281.388   123058659.95707  23417283.752    95889884.57946
  23315021.476   122521254.30507  23315021.610    95471102.45046
  21830290.615   114718940.78409  21830289.968    89391374.07748
 15 02 16 00 18 30.0000000  0  7G16G18G21G25G27G29G31
  22429994.485   117870435.23708  22429993.127    91847077.57447
  23463162.570   123299835.60207  23463162.570    96077810.44845
  21043586.322   110584800.25609  21043584.628    86169972.62649
  24113282.622   126716141.19207  24113286.321    98739855.06445
  23404347.573   122990692.33507  23404349.863    95836922.84146
  23329160.943   122595557.83008  23329161.226    95529001.28346
  21844384.531   114793004.59309  21844383.850    89449086.10648
 15 02 16 00 19  0.0000000  0  7G16G18G21G25G27G29G31
  22414899.610   117791111.82108  22414898.448    91785267.13647
  23449744.217   123229321.83908  23449744.242    96022864.73445
  21047106.149   110603297.66709  21047104.676    86184386.19749
  24130510.228   126806671.90207  24130513.803    98810398.40845
  23391437.617   122922850.77407  23391440.154    95784059.33246
  23343303.720   122669877.28408  23343303.936    95586912.50446
  21858547.973   114867433.48209  21858547.120    89507082.61048
 15 02 16 00 19 30.0000000  0  7G16G18G21G25G27G29G31
  22399830.520   117711923.78008  22399829.446    91723562.18746
  23436351.486   123158941.47107  23436351.272    95968022.94645
  21050706.080   110622215.46309  21050704.553    86199127.34349
  24147772.886   126897387.50307  24147776.075    98881085.84044
  23378551.289   122855132.56907  23378553.612    95731291.94246
  23357448.651   122744209.39908  23357448.834    95644833.62146
  21872779.921   114942222.25209  21872778.845    89565359.54948
 15 02 16 00 20  0.0000000  0  7G16G18G21G25G27G29G31
  22384788.483   117632877.09308  22384787.295    91661967.37647
  23422984.871   123088701.56007  23422985.117    95913290.65345
  21054386.534   110641556.16009  21054385.021    86214198.02549
  24165071.227   126988291.18106  24165074.618    98951919.82345
  23365689.098   122787541.58407  23365691.482    95678623.69946
  23371596.615   122818557.92007  23371596.841    95702767.50347
  21887080.472   115017372.18509  21887079.349    89623917.91048
 15 02 16 00 20 30.0000000  0  7G16G18G21G25G27G29G31
  22369772.961   117553970.64608  22369771.719    91600481.84946
  23409645.171   123018601.71107  23409645.540    95858667.47045
  21058146.528   110661315.90809  21058145.125    86229595.24149
  24182404.770   127079379.03407  24182408.065    99022897.29745
  23352850.553   122720074.82507  23352852.951    95626052.24946
  23385747.222   122892919.76708  23385747.316    95760711.77046
  21901448.727   115092878.09209  21901447.880    89682753.64148
 15 02 16 00 21  0.0000000  0  7G16G18G21G25G27G29G31
  22354784.687   117475206.39008  22354783.597    91539107.12147
  23396332.876   122948644.25407  23396332.779    95804155.22144
  21061986.282   110681493.20009  21061984.608    86245317.81249
  24199773.441   127170650.01506  24199776.600    99094017.51546
  23340035.733   122652732.20707  23340038.089    95573577.53346
  23399900.245   122967294.43607  23399900.515    95818666.03646
  21915884.089   115168736.80409  21915883.450    89741864.29548
 15 02 16 00 21 30.0000000  0  7G16G18G21G25G27G29G31
  22339824.191   117396588.83208  22339823.069    91477846.69847
  23383048.350   122878834.65907  23383048.330    95749758.18645
  21065905.567   110702089.80709  21065904.166    86261367.12249
  24217176.957   127262106.04306  24217180.302    99165281.85746
  23327244.944   122585516.41007  23327247.291    95521201.63446
  23414056.197   123041684.43407  23414056.518    95876632.21846
  21930386.994   115244949.15008  21930386.010    89801250.51248
 15 02 16 00 22  0.0000000  0  7G16G18G21G25G27G29G31
  22324891.296   117318115.56108  22324889.954    91416698.71547
  23369791.866   122809171.71107  23369791.820    95695475.43245
  21069903.801   110723100.32309  21069902.099    86277738.95949
  24234614.380   127353741.91306  24234618.083    99236686.34545
  23314477.607   122518423.13007  23314479.868    95468921.20146
  23428214.355   123116085.18408  23428214.483    95934606.81146
  21944955.804   115321508.19909  21944954.737    89860906.88548
 15 02 16 00 22 30.0000000  0  7G16G18G21G25G27G29G31
  22309986.655   117239791.49008  22309985.323    91355666.99047
  23356564.444   122739661.23407  23356564.540    95641311.49245
  21073981.035   110744526.64509  21073979.425    86294434.80149
  24252086.682   127445559.88906  24252089.973    99308232.75344
  23301734.012   122451455.49507  23301736.224    95416738.67447
  23442374.977   123190499.68908  23442375.434    95992592.10246
  21959590.485   115398414.43908  21959589.596    89920833.78348
 15 02 16 00 23  0.0000000  0  7G16G18G21G25G27G29G31
  22295110.979   117161619.22208  22295109.785    91294753.55447
  23343366.502   122670306.11007  23343366.676    95587268.60245
  21078137.268   110766367.98609  21078135.886    86311454.03449
  24269594.028   127537559.30006  24269596.839    99379920.56444
  23289014.422   122384613.78507  23289016.751    95364654.27646
  23456538.096   123264927.51007  23456538.339    96050587.76746
  21974290.937   115475665.52309  21974290.066    89981029.40648
 15 02 16 00 23 30.0000000  0  7G16G18G21G25G27G29G31
  22280262.962   117083592.70908  22280261.845    91233953.69147
  23330197.240   122601101.45207  23330197.528    95533342.95745
  21082370.949   110788615.28709  21082369.224    86328789.59649
  24287134.016   127629731.24807  24287136.658    99451742.78545
  23276317.301   122317889.96307  23276319.533    95312661.72846
  23470702.185   123339360.57807  23470702.226    96108587.54946
  21989054.871   115553250.76708  21989054.033    90041485.41348
 15 02 16 00 24  0.0000000  0  7G16G18G21G25G27G29G31
  22265445.743   117005727.91608  22265444.680    91173279.84747
  23317059.629   122532063.58907  23317059.890    95479547.27244
  21086683.994   110811280.93009  21086682.461    86346451.14249
  24304709.061   127722088.60706  24304711.964    99523709.50945
  23263645.254   122251297.87507  23263647.376    95260771.83246
  23484869.892   123413812.88108  23484869.939    96166602.31046
  22003884.619   115631181.49508  22003883.771    90102210.62048
 15 02 16 00 24 30.0000000  0  7G16G18G21G25G27G29G31
  22250657.821   116928016.83008  22250656.734    91112725.77347
  23303952.472   122463185.64407  23303952.160    95425876.18445
  21091074.784   110834354.05909  21091073.102    86364430.20849
  24322317.044   127814620.71206  24322320.594    99595812.33945
  23250996.420   122184827.61607  23250998.386    95208976.86546
  23499039.644   123488274.18108  23499039.591    96224624.07346
  22018777.838   115709445.57608  22018777.083    90163195.58348
 15 02 16 00 25  0.0000000  0  7G16G18G21G25G27G29G31
  22235899.779   116850462.23108  22235898.527    91052293.63347
  23290876.652   122394471.27807  23290876.301    95372332.57145
  21095542.857   110857834.16009  21095541.164    86382726.39249
  24339958.626   127907327.47906  24339962.404    99668051.26244
  23238370.863   122118480.17807  23238372.974    95157277.60146
  23513210.984   123562744.94908  23513211.167    96282653.21246
  22033734.154   115788041.23408  22033733.247    90224438.91848
 15 02 16 00 25 30.0000000  0  7G16G18G21G25G27G29G31
  22221171.798   116773066.48208  22221170.647    90991985.27247
  23277832.346   122325923.51507  23277832.301    95318918.79045
  21100088.175   110881720.68509  21100086.664    86401339.27149
  24357633.715   128000208.41606  24357636.598    99740426.00544
  23225768.531   122052255.94607  23225770.904    95105674.35446
  23527384.347   123637225.47407  23527384.268    96340689.94446
  22048753.115   115866966.28208  22048752.132    90285938.93248
 15 02 16 00 26  0.0000000  0  7G16G18G21G25G27G29G31
  22206474.800   116695833.39208  22206473.631    90931803.66547
  23264820.533   122257545.63507  23264820.596    95265637.37745
  21104711.004   110906013.53709  21104709.311    86420268.76849
  24375341.587   128093263.90807  24375344.189    99812936.72344
  23213190.349   121986156.24707  23213192.559    95054168.13446
  23541559.552   123711716.93107  23541559.742    96398735.20246
  22063834.346   115946219.65608  22063833.715    90347694.77248
 15 02 16 00 26 30.0000000  0  7G16G18G21G25G27G29G31
  22191809.014   116618764.13508  22191807.837    90871749.72447
  23251841.665   122189341.78707  23251841.719    95212491.57945
  21109410.896   110930711.16709  21109409.114    86439513.67549
  24393082.737   128186492.69206  24393085.264    99885582.45944
  23200635.454   121920180.70607  23200637.643    95002758.66446
  23555736.614   123786218.98707  23555736.592    96456788.71946
  22078977.786   116025798.28109  22078977.281    90409704.05148
 15 02 16 00 27  0.0000000  0  7G16G18G21G25G27G29G31
  22177174.653   116541860.17508  22177173.472    90811824.56747
  23238896.319   122121313.00208  23238896.322    95159482.18545
  21114187.260   110955811.53509  21114185.633    86459072.40749
  24410856.016   128279892.96206  24410859.269    99958361.75844
  23188104.314   121854328.43207  23188106.487    94951445.23846
  23569915.663   123860730.33207  23569915.585    96514849.48146
  22094182.334   116105698.53108  22094181.564    90471963.95348
 15 02 16 00 27 30.0000000  0  7G16G18G21G25G27G29G31
  22162572.295   116465124.29808  22162571.018    90752030.39847
  23225984.734   122053462.85308  23225984.448    95106611.97145
  21119040.126   110981313.98509  21119038.587    86478944.44549
  24428662.183   128373464.47006  24428665.828   100031274.48544
  23175596.597   121788600.21807  23175598.702    94900228.48246
  23584096.802   123935251.46808  23584096.440    96572917.86846
  22109447.652   116185918.69708  22109446.947    90534473.14448
 15 02 16 00 28  0.0000000  0  7G16G18G21G25G27G29G31
  22148001.871   116388556.51608  22148000.719    90692367.20847
  23213107.529   121985792.14908  23213107.209    95053881.60945
  21123969.099   111007215.38209  21123967.483    86499127.35449
  24446500.614   128467204.21507  24446503.573   100104318.38244
  23163112.139   121722994.07007  23163114.016    94849106.84246
  23598279.389   124009780.53008  23598279.229    96630992.42546
  22124773.189   116266454.27808  22124772.489    90597228.11448
 15 02 16 00 28 30.0000000  0  7G16G18G21G25G27G29G31
  22133463.966   116312159.58908  22133462.901    90632837.14847
  23200265.049   121918304.05508  23200264.556    95001293.53245
  21128973.623   111033514.61709  21128972.076    86519620.26449
  24464370.806   128561111.76806  24464373.392   100177493.05243
  23150650.984   121657510.44607  23150652.851    94798080.67146
  23612463.203   124084317.53607  23612463.180    96689073.17946
  22140158.203   116347303.10708  22140157.839    90660227.14748
 15 02 16 00 29  0.0000000  0  7G16G18G21G25G27G29G31
  22118959.420   116235937.59508  22118958.241    90573443.39647
  23187458.103   121851003.94308  23187457.844    94948851.93645
  21134054.252   111060213.46809  21134052.630    86540424.56749
  24482272.606   128655188.83505  24482275.541   100250799.76644
  23138213.466   121592151.97507  23138215.634    94747152.03746
  23626648.989   124158864.94207  23626649.291    96747162.02546
  22155602.680   116428464.75508  22155602.126    90723469.95247
 15 02 16 00 29 30.0000000  0  7G16G18G21G25G27G29G31
  22104488.128   116159890.81308  22104487.030    90514186.17747
  23174687.273   121783892.40308  23174687.040    94896557.28545
  21139210.247   111087308.40609  21139208.602    86561537.50349
  24500206.529   128749432.17106  24500209.947   100324236.00445
  23125799.558   121526916.44607  23125801.707    94696319.20447
  23640836.447   124233420.75507  23640836.875    96805257.40246
  22171105.983   116509934.72508  22171105.439    90786953.02147
 15 02 16 00 30  0.0000000  0  8G16G18G21G22G25G27G29G31
  22090050.173   116084018.31808  22090048.848    90455064.76747
  23161951.970   121716968.93508  23161951.666    94844409.18145
  21144440.823   111114795.08409  21144439.069    86582955.70249
  24553273.270   129028320.68516  24553277.177   100541565.75455
  24518171.486   128843837.78507  24518175.085   100397798.71045
  23113408.456   121461800.92207  23113410.466    94645579.86146
  23655024.870   124307981.88907  23655025.079    96863356.94446
  22186666.727   116591707.55108  22186666.282    90850672.06948
 15 02 16 00 30 30.0000000  0  8G16G18G21G22G25G27G29G31
  22075645.869   116008323.06408  22075644.653    90396081.46647
  23149253.528   121650237.73508  23149252.813    94792410.87445
  21149745.797   111142673.03209  21149744.013    86604678.77949
  24536241.368   128938824.87205  24536246.136   100471829.64446
  24536167.289   128938405.61606  24536170.819   100471487.85844
  23101040.377   121396806.26107  23101042.456    94594934.71346
  23669214.826   124382548.73807  23669214.502    96921460.97946
  22202284.954   116673781.54308  22202284.336    90914625.79648
 15 02 16 00 31  0.0000000  0  8G16G18G21G22G25G27G29G31
  22061276.627   115932812.34409  22061275.269    90337241.95847
  23136593.110   121583706.07308  23136592.464    94740568.05045
  21155125.946   111170946.00309  21155124.158    86626709.66949
  24519193.191   128849242.31606  24519197.877   100402025.99744
  24554194.353   129033139.75606  24554198.205   100545306.52144
  23088696.196   121331937.52807  23088698.301    94544387.67947
  23683406.670   124457126.38207  23683406.330    96979573.39346
  22217960.846   116756158.78708  22217960.354    90978815.81347
 15 02 16 00 31 30.0000000  0  8G16G18G21G22G25G27G29G31
  22046942.328   115857485.87309  22046941.304    90278546.01647
  23123970.401   121517374.38108  23123970.151    94688881.07246
  21160580.338   111199609.58709  21160578.543    86649044.93349
  24502129.229   128759573.34007  24502133.355   100332154.88344
  24572252.719   129128036.67306  24572256.523   100619252.09644
  23076375.600   121267192.26508  23076377.565    94493936.85746
  23697599.572   124531711.86307  23697599.657    97037691.91146
  22233693.505   116838834.37208  22233693.168    91043238.30748
 15 02 16 00 32  0.0000000  0  8G16G18G21G22G25G27G29G31
  22032643.075   115782342.10509  22032641.816    90219992.44147
  23111385.767   121451242.46508  23111385.580    94637349.76245
  21166108.351   111228659.86809  21166106.721    86671681.52149
  24485048.345   128669816.47006  24485052.292   100262215.19144
  24590341.520   129223092.12206  24590344.847   100693321.16644
  23064077.880   121202567.21708  23064079.897    94443579.70947
  23711793.779   124606302.14407  23711794.028    97095814.17446
  22249481.715   116921801.94508  22249481.402    91107888.32948
 15 02 16 00 32 30.0000000  0  8G16G18G21G22G25G27G29G31
  22018378.640   115707382.80509  22018377.446    90161582.60447
  23098839.664   121385312.24708  23098839.436    94585975.61946
  21171709.838   111258095.47409  21171708.184    86694618.35649
  24467951.520   128579974.67705  24467955.184   100192209.33044
  24608460.132   129318304.56906  24608463.433   100767512.55945
  23051802.758   121138061.88708  23051805.056    94393315.85346
  23725988.701   124680897.05707  23725989.142    97153940.01146
  22265325.058   117005059.02508  22265324.544    91172763.93947
 15 02 16 00 33  0.0000000  0  8G16G18G21G22G25G27G29G31
  22004151.351   115632617.61809  22004150.235    90103324.02447
  23086333.944   121319593.90508  23086333.412    94534766.53945
  21177385.524   111287921.34309  21177383.859    86717859.29849
  24450840.472   128490057.45006  24450844.587   100122144.79645
  24626609.789   129413680.31606  24626613.259   100841831.21645
  23039551.964   121073683.62407  23039554.394    94343151.00247
  23740185.929   124755503.52607  23740186.170    97212074.90646
  22281224.299   117088610.03608  22281223.732    91237868.58547
 15 02 16 00 33 30.0000000  0  8G16G18G21G22G25G27G29G31
  21989959.681   115558039.35509  21989958.474    90045211.10447
  23073867.479   121254081.05908  23073866.679    94483717.60245
  21183133.530   111318127.25309  21183131.801    86741396.37749
  24433714.201   128400058.28607  24433718.410   100052016.33945
  24644787.931   129509209.22205  24644792.366   100916269.18444
  23027323.773   121009423.17608  23027325.622    94293077.94346
  23754383.674   124830112.02208  23754383.736    97270211.34646
  22297177.128   117172442.90408  22297176.624    91303192.85447
 15 02 16 00 34  0.0000000  0  8G16G18G21G22G25G27G29G31
  21975805.480   115483658.74809  21975804.233    89987252.19547
  23061441.784   121188784.81108  23061441.234    94432837.45345
  21188955.187   111348720.70509  21188953.542    86765235.43649
  24416574.062   128309988.18406  24416578.103    99981832.55345
  24662997.124   129604898.80306  24663001.378   100990832.35945
  23015119.467   120945289.20508  23015121.344    94243103.43447
  23768583.185   124904731.14107  23768583.348    97328356.04346
  22313184.906   117256563.63008  22313184.569    91368741.42847
 15 02 16 00 34 30.0000000  0  8G16G18G21G22G25G27G29G31
  21961687.793   115409469.48909  21961686.389    89929442.39247
  23049056.468   121123699.38108  23049056.183    94382121.58246
  21194848.752   111379691.75409  21194847.085    86789368.72649
  24399418.458   128219841.50305  24399422.921    99911589.04442
  24681235.400   129700739.46606  24681238.830   101065513.33144
  23002937.664   120881273.27508  23002939.501    94193220.91646
  23782783.252   124979352.22007  23782783.053    97386502.33645
  22329245.389   117340961.22608  22329244.720    91434505.75347
 15 02 16 00 35  0.0000000  0  8G16G18G21G22G25G27G29G31
  21947608.274   115335481.33809  21947606.929    89871789.29547
  23036713.268   121058835.33308  23036713.320    94331578.21646
  21200815.378   111411046.46109  21200813.642    86813800.96849
  24382249.986   128129627.94706  24382254.682    99841293.44244
  24699503.467   129796737.74306  24699507.216   101140317.09745
  22990779.553   120817382.84607  22990781.747    94143436.19746
  23796984.607   125053982.77907  23796984.803    97444655.97046
  22345359.329   117425640.30108  22345358.946    91500489.40747
 15 02 16 00 35 30.0000000  0  8G16G18G21G22G25G27G29G31
  21933566.307   115261690.17409  21933564.848    89814289.69647
  23024411.486   120994189.09808  23024411.240    94281204.56945
  21206853.579   111442777.33109  21206851.979    86838526.32349
  24365069.292   128039344.26107  24365073.701    99770943.13646
  24717799.652   129892886.53205  24717804.062   101215238.03045
  22978644.253   120753611.85007  22978646.449    94093744.55547
  23811187.047   125128616.79307  23811187.332    97502812.32846
  22361525.021   117510592.18108  22361524.736    91566685.61647
 15 02 16 00 36  0.0000000  0  8G16G18G21G22G25G27G29G31
  21919562.227   115188098.83209  21919560.845    89756945.80047
  23012151.892   120929764.11808  23012151.097    94231003.30045
  21212963.167   111474883.77409  21212961.632    86863544.33149
  24347876.225   127948994.05506  24347879.666    99700540.99945
  24736124.691   129989185.51306  24736129.301   101290276.07144
  22966532.026   120689961.13907  22966534.075    94044146.62847
  23825390.467   125203255.05207  23825390.745    97560971.96046
  22377742.579   117595814.77008  22377741.898    91633092.80947
 15 02 16 00 36 30.0000000  0  8G16G18G21G22G25G27G29G31
  21905596.753   115114709.36509  21905595.463    89699759.20947
  22999934.728   120865563.14308  22999933.845    94180976.60244
  21219143.930   111507363.74509  21219142.359    86888853.40649
  24330670.531   127858579.39306  24330673.505    99630088.64845
  24754478.417   130085633.30806  24754482.793   101365430.01944
  22954442.518   120626430.34207  22954444.666    93994642.14047
  23839594.377   125277897.10207  23839594.880    97619134.54946
  22394010.806   117681305.38208  22394010.404    91699708.80647
 15 02 16 00 37  0.0000000  0  8G16G18G21G22G25G27G29G31
  21891670.443   115041526.45509  21891669.128    89642733.56947
  22987761.230   120801591.01108  22987760.372    94131128.20145
  21225396.034   111540218.58609  21225394.405    86914454.58149
  24313453.757   127768105.32407  24313455.953    99559589.89844
  24772860.735   130182231.28706  24772864.255   101440701.13044
  22942376.301   120563022.06807  22942378.519    93945233.13147
  23853799.315   125352545.27307  23853799.995    97677301.90246
  22410330.077   117767063.47708  22410329.686    91766533.25847
 15 02 16 00 37 30.0000000  0  8G16G18G21G22G25G27G29G31
  21877783.211   114968548.84309  21877781.876    89585867.90747
  22975631.124   120737847.18808  22975630.536    94081457.73746
  21231718.549   111573443.43909  21231717.020    86940344.07449
  24296225.707   127677571.18607  24296227.314    99489044.31545
  24791270.439   130278975.21705  24791274.412   101516085.89544
  22930332.669   120499732.91908  22930334.768    93895916.95147
  23868005.074   125427196.38507  23868005.493    97735471.60646
  22426699.149   117853083.22108  22426698.793    91833561.57847
 15 02 16 00 38  0.0000000  0  8G16G18G21G22G25G27G29G31
  21863936.470   114895783.88109  21863935.175    89529167.95047
  22963545.941   120674339.33908  22963545.595    94031971.14246
  21238112.257   111607042.22909  21238110.415    86966524.95549
  24278987.305   127586984.99207  24278989.197    99418458.20145
  24809708.409   130375869.00005  24809713.002   101591587.33645
  22918312.728   120436567.98707  22918314.895    93846697.55147
  23882212.086   125501855.35907  23882212.505    97793647.38145
  22443118.522   117939367.01308  22443118.109    91900795.65047
 15 02 16 00 38 30.0000000  0  7G16G18G21G22G27G29G31
  21850129.535   114823227.51009  21850128.236    89472630.52847
  22951504.875   120611063.92608  22951504.487    93982665.66546
  21244575.380   111641006.98109  21244573.707    86992990.99549
  24261737.922   127496342.84306  24261740.339    99347828.51145
  22906315.246   120373520.94508  22906317.533    93797570.01547
  23896419.435   125576515.85707  23896419.984    97851824.38346
  22459586.181   118025905.64608  22459585.809    91968228.31547
 15 02 16 00 39  0.0000000  0  7G16G18G21G22G27G29G31
  21836364.073   114750889.33109  21836362.777    89416263.12047
  22939510.264   120548031.28708  22939509.729    93933549.35245
  21251109.461   111675343.21309  21251107.813    87019746.50549
  24244480.003   127405654.77207  24244482.591    99277162.97945
  22894341.769   120310599.27708  22894343.883    93748540.17147
  23910628.773   125651185.24607  23910629.667    97910008.25245
  22476103.352   118112703.52908  22476102.839    92035862.98047
 15 02 16 00 39 30.0000000  0  7G16G18G21G22G27G29G31
  21822638.734   114678762.66009  21822637.400    89360060.52847
  22927560.397   120485235.28008  22927559.844    93884617.41845
  21257712.250   111710041.73109  21257710.775    87046784.30949
  24227212.313   127314914.76107  24227214.530    99206456.84344
  22882390.347   120247794.38208  22882392.403    93699601.32547
  23924837.849   125725854.88307  23924838.794    97968192.34746
  22492667.778   118199749.82908  22492667.553    92103691.21547
 15 02 16 00 40  0.0000000  0  7G16G18G21G22G27G29G31
  21808954.922   114606853.36409  21808953.564    89304027.31948
  22915656.652   120422681.93008  22915656.316    93835874.58446
  21264384.491   111745104.06009  21264382.877    87074105.60649
  24209935.962   127224129.14306  24209938.432    99135715.17345
  22870461.788   120185109.81608  22870463.906    93650756.25047
  23939048.045   125800528.31307  23939048.570    98026379.40946
  22509279.724   118287045.03908  22509279.298    92171713.40747
 15 02 16 00 40 30.0000000  0  7G16G18G21G22G27G29G31
  21795313.153   114535165.91909  21795311.784    89248166.97848
  22903800.450   120360376.32308  22903799.918    93787324.77146
  21271126.040   111780531.26509  21271124.587    87101711.22249
  24192651.206   127133302.63705  24192654.265    99064941.77546
  22858556.692   120122547.83308  22858558.540    93602006.67347
  23953258.841   125875207.57707  23953259.225    98084570.97945
  22525938.503   118374588.79708  22525938.533    92239929.25447
 15 02 16 00 41  0.0000000  0  7G16G18G21G22G27G29G31
  21781713.275   114463697.29609  21781711.996    89192477.14948
  22891990.823   120298316.03108  22891990.642    93738966.13746
  21277935.708   111816316.53009  21277934.159    87129595.84349
  24175359.371   127042432.86707  24175362.087    98994134.60146
  22846673.886   120060103.23408  22846675.666    93553348.57046
  23967470.239   125949887.47907  23967470.740    98142763.07146
  22542643.612   118462373.14208  22542643.046    92308332.59947
 15 02 16 00 41 30.0000000  0  7G16G18G21G22G27G29G31
  21768155.530   114392451.49109  21768154.107    89136960.95848
  22880228.407   120236505.18508  22880228.324    93690801.87846
  21284813.505   111852459.75309  21284812.084    87157759.38949
  24158060.540   126951524.48907  24158062.083    98923297.29044
  22834813.655   119997777.77008  22834815.554    93504783.30247
  23981681.896   126024570.27007  23981682.046    98200957.42945
  22559394.146   118550397.04108  22559393.268    92376922.61347
 15 02 16 00 42  0.0000000  0  7G16G18G21G22G27G29G31
  21754641.216   114321433.13509  21754639.713    89081621.99248
  22868514.731   120174949.24608  22868514.709    93642836.24046
  21291759.797   111888962.04909  21291758.148    87186202.73749
  24140754.533   126860582.49706  24140755.083    98852433.77143
  22822976.774   119935574.00708  22822978.409    93456312.86047
  23995894.383   126099258.11407  23995894.638    98259155.71145
  22576189.996   118638660.17308  22576189.499    92445699.02747
 15 02 16 00 42 30.0000000  0  7G16G18G21G22G27G29G31
  21741170.150   114250642.20309  21741168.864    89026460.24048
  22856849.437   120113648.21208  22856849.334    93595069.22846
  21298773.492   111925819.10809  21298771.889    87214922.51849
  24123442.034   126769606.88507  24123442.665    98781544.06145
  22811162.454   119873489.30608  22811164.181    93407935.19447
  24010107.468   126173948.31807  24010107.836    98317355.81846
  22593030.414   118727157.32508  22593029.993    92514657.78747
 15 02 16 00 43  0.0000000  0  7G16G18G21G22G27G29G31
  21727742.995   114180082.68609  21727741.702    88971478.81848
  22845233.610   120052606.75408  22845233.269    93547504.47645
  21305854.915   111963032.14209  21305853.241    87243919.69149
  24106124.384   126678602.43107  24106125.057    98710631.88445
  22799370.993   119811525.95008  22799372.869    93359652.08947
  24024321.319   126248643.45307  24024321.909    98375559.75946
  22609915.151   118815887.93308  22609915.092    92583798.44547
 15 02 16 00 43 30.0000000  0  7G16G18G21G22G27G29G31
  21714359.613   114109752.85209  21714358.496    88916676.36048
  22833667.182   119991823.23308  22833666.284    93500140.70446
  21313002.966   112000595.77709  21313001.477    87273190.05549
  24088800.863   126587568.21207  24088801.751    98639696.49846
  22787602.101   119749679.91008  22787603.903    93311460.38847
  24038535.682   126323339.21807  24038536.364    98433764.20245
  22626843.485   118904845.12008  22626842.732    92653115.70447
 15 02 16 00 44  0.0000000  0  7G16G18G21G22G27G29G31
  21701021.367   114039659.86109  21701020.184    88862058.45348
  22822150.949   119931305.73608  22822150.454    93452984.24046
  21320218.322   112038512.95109  21320216.640    87302735.90749
  24071472.655   126496511.33506  24071473.952    98568743.46445
  22775856.523   119687956.13608  22775858.151    93263363.96547
  24052750.837   126398040.54507  24052751.317    98491972.99645
  22643814.960   118994030.97908  22643814.371    92722611.13747
 15 02 16 00 44 30.0000000  0  7G16G18G21G22G27G29G31
  21687728.216   113969803.35109  21687726.805    88807624.81848
  22810685.307   119871053.82208  22810684.773    93406034.72446
  21327500.316   112076779.39609  21327498.487    87332553.91749
  24054140.387   126405431.96006  24054141.026    98497772.80844
  22764133.436   119626351.83608  22764135.264    93215360.64047
  24066966.668   126472744.77507  24066967.306    98550184.03045
  22660828.903   119083440.00508  22660828.484    92792280.43047
 15 02 16 00 45  0.0000000  0  7G16G18G21G22G27G29G31
  21674480.162   113900184.01309  21674478.650    88753375.99348
  22799270.872   119811069.02908  22799270.202    93359293.34146
  21334848.102   112115392.49409  21334846.545    87362642.05049
  24036804.610   126314331.74407  24036805.027    98426785.91945
  22752433.120   119564865.85608  22752434.835    93167449.49947
  24081182.891   126547450.18607  24081182.842    98608396.02446
  22677884.695   119173068.20508  22677884.251    92862120.53847
 15 02 16 00 45 30.0000000  0  7G16G18G21G22G27G29G31
  21661277.362   113830803.11409  21661275.906    88699312.96648
  22787906.965   119751352.29208  22787906.462    93312760.85046
  21342261.202   112154348.43809  21342259.554    87392997.33149
  24019465.326   126223212.06607  24019465.745    98355783.92445
  22740755.001   119503496.92308  22740756.736    93119629.57147
  24095398.849   126622156.29707  24095398.971    98666608.51145
  22694981.243   119262911.60808  22694980.830    92932128.32747
 15 02 16 00 46  0.0000000  0  7G16G18G21G22G27G29G31
  21648121.240   113761667.50709  21648119.999    88645441.06948
  22776595.675   119691911.09308  22776595.275    93266443.05446
  21349740.296   112193651.59409  21349738.727    87423623.16949
  24002123.207   126132079.96307  24002124.067    98284772.21645
  22729100.079   119442249.86308  22729101.822    93071904.61847
  24109615.966   126696867.94107  24109616.272    98724825.32445
  22712119.033   119352971.96208  22712119.110    93002305.15547
 15 02 16 00 46 30.0000000  0  7G16G18G21G22G27G29G31
  21635011.514   113692775.77709  21635010.273    88591759.21248
  22765336.625   119632744.73308  22765335.843    93220339.40546
  21357284.427   112233296.67609  21357282.851    87454515.44248
  23984778.239   126040934.75906  23984779.037    98213750.34245
  22717467.506   119381120.84208  22717469.325    93024271.64247
  24123833.373   126771580.98007  24123834.001    98783043.20546
  22729297.096   119443242.75708  22729296.753    93072645.98346
 15 02 16 00 47  0.0000000  0  7G16G18G21G22G27G29G31
  21621948.604   113624129.03109  21621947.240    88538268.24648
  22754130.234   119573854.46808  22754129.204    93174450.90546
  21364893.049   112273280.41209  21364891.457    87485671.60048
  23967431.987   125949778.49408  23967431.866    98142719.70044
  22705857.459   119320109.00808  22705859.060    92976729.98347
  24138051.273   126846294.36507  24138051.501    98841261.42646
  22746514.526   119533720.71608  22746514.240    93143148.24547
 15 02 16 00 47 30.0000000  0  7G16G18G21G22G27G29G31
  21608933.659   113555735.72209  21608932.314    88484974.76948
  22742977.840   119515248.67908  22742977.148    93128784.07146
  21372566.991   112313607.18809  21372565.511    87517095.06548
  23950084.975   125858619.61407  23950085.146    98071687.03145
  22694270.625   119259220.34808  22694272.483    92929284.29447
  24152269.739   126921014.28307  24152270.293    98899484.65945
  22763772.033   119624408.65108  22763771.877    93213814.10247
 15 02 16 00 48  0.0000000  0  7G16G18G21G22G27G29G31
  21595966.671   113487593.08409  21595965.240    88431876.61348
  22731879.249   119456925.12908  22731878.598    93083337.17446
  21380305.075   112354271.34109  21380303.603    87548781.41548
  23932736.747   125767456.02706  23932737.168    98000650.80846
  22682706.327   119198450.05508  22682708.164    92881930.84247
  24166488.699   126995736.14007  24166489.538    98957709.43545
  22781067.783   119715298.77408  22781067.824    93284637.48947
 15 02 16 00 48 30.0000000  0  7G16G18G21G22G27G29G31
  21583048.076   113419705.15909  21583046.499    88378976.93148
  22720835.138   119398888.05908  22720834.646    93038113.50646
  21388107.311   112395272.67909  21388105.898    87580730.50848
  23915388.413   125676292.04307  23915389.010    97929614.24945
  22671164.892   119137799.87108  22671166.755    92834670.98447
  24180708.268   127070461.44707  24180708.684    99015936.95946
  22798402.051   119806390.21908  22798401.670    93355617.78546
 15 02 16 00 49  0.0000000  0  7G16G18G21G22G27G29G31
  21570176.989   113352067.98609  21570175.665    88326272.64348
  22709844.851   119341134.14608  22709844.370    92993110.47746
  21395972.365   112436603.31709  21395970.941    87612936.20149
  23898039.781   125585124.40008  23898039.667    97858574.74445
  22659645.317   119077263.62508  22659647.004    92787499.90247
  24194927.906   127145184.36907  24194928.561    99074162.57245
  22815772.795   119897673.68808  22815772.303    93426747.71547
 15 02 16 00 49 30.0000000  0  7G16G18G21G22G27G29G31
  21557355.558   113284690.22209  21557354.166    88273770.49848
  22698910.097   119283672.31208  22698909.661    92948335.04546
  21403900.819   112478267.69009  21403899.201    87645401.94548
  23880692.432   125493962.24407  23880691.998    97787539.47245
  22648148.601   119016847.82308  22648150.349    92740422.68047
  24209147.969   127219911.21107  24209148.270    99132391.24946
  22833180.886   119989153.04108  22833180.615    93498030.25147
 15 02 16 00 50  0.0000000  0  7G16G18G21G22G27G29G31
  21544583.596   113217573.54609  21544582.227    88221471.79348
  22688031.404   119226504.30108  22688030.640    92903788.55346
  21411892.673   112520264.41509  21411890.951    87678126.67048
  23863345.253   125402807.76406  23863346.002    97716510.36146
  22636674.750   118956552.04608  22636676.350    92693438.97847
  24223368.545   127294641.55906  24223369.467    99190622.61146
  22850625.378   120080825.02908  22850625.173    93569462.89346
 15 02 16 00 50 30.0000000  0  7G16G18G21G22G27G29G31
  21531861.284   113150717.90709  21531860.075    88169376.49048
  22677208.637   119169630.05708  22677207.638    92859470.98146
  21419946.901   112562589.04409  21419945.015    87711106.90148
  23846000.922   125311661.03308  23846001.340    97645487.15146
  22625222.975   118896373.71608  22625224.831    92646546.79747
  24237589.764   127369372.16607  24237590.141    99248854.23845
  22868105.732   120172684.28408  22868105.666    93641041.46547
 15 02 16 00 51  0.0000000  0  7G16G18G21G22G27G29G31
  21519189.493   113084126.75809  21519188.232    88117487.28448
  22666442.427   119113053.86708  22666441.617    92815385.64746
  21428063.325   112605241.04409  21428061.551    87744342.22848
  23828658.616   125220526.47907  23828658.720    97574473.43045
  22613794.087   118836314.16408  22613796.037    92599747.17147
  24251810.802   127444106.06406  24251811.684    99307088.38946
  22885621.463   120264729.26008  22885621.085    93712764.77147
 15 02 16 00 51 30.0000000  0  7G16G18G21G22G27G29G31
  21506567.465   113017797.43109  21506566.212    88065802.10148
  22655732.476   119056772.94408  22655731.920    92771530.41546
  21436240.812   112648214.37209  21436238.882    87777827.94048
  23811317.515   125129401.62507  23811317.768    97503467.28545
  22602386.765   118776368.56308  22602388.660    92553036.33847
  24266032.010   127518837.73807  24266031.962    99365320.86545
  22903170.781   120356952.23208  22903170.503    93784626.76646
 15 02 16 00 52  0.0000000  0  7G16G18G21G22G27G29G31
  21493997.814   112951743.96809  21493996.512    88014331.87348
  22645081.536   119000801.75308  22645080.964    92727916.52746
  21444481.431   112691519.33709  21444479.771    87811572.06548
  23793981.588   125038301.58808  23793981.321    97432480.40146
  22591003.447   118716548.97908  22591005.255    92506423.69847
  24280254.787   127593579.40306  24280255.172    99423561.06545
  22920755.957   120449362.48808  22920755.799    93856634.67547
 15 02 16 00 52 30.0000000  0  7G16G18G21G22G27G29G31
  21481478.527   112885954.70309  21481477.355    87963067.51848
  22634487.310   118945128.44108  22634486.558    92684534.73846
  21452781.964   112735139.58709  21452780.208    87845561.87148
  23776648.534   124947214.46607  23776648.112    97361503.65346
  22579641.383   118656840.96108  22579643.118    92459897.98847
  24294477.121   127668316.18207  24294477.549    99481797.44645
  22938373.362   120541942.57808  22938373.283    93928774.92147
 15 02 16 00 53  0.0000000  0  7G16G18G21G22G27G29G31
  21469012.009   112820442.73909  21469010.867    87912019.24148
  22623952.156   118889766.33308  22623951.621    92641395.46446
  21461144.171   112779083.97309  21461142.699    87879804.24848
  23759319.745   124856153.62407  23759319.754    97290547.42445
  22568302.766   118597255.16008  22568304.460    92413467.51747
  24308700.024   127743059.04107  24308700.648    99540038.59445
  22956024.638   120634700.34908  22956024.589    94001053.63146
 15 02 16 00 53 30.0000000  0  7G16G18G21G22G27G29G31
  21456597.641   112755204.42209  21456596.468    87861184.19348
