     2.11           OBSERVATION DATA    G                   RINEX VERSION / TYPE
SPIDER V4,0,0,3554                      2015 03 18 00:28    PGM / RUN BY / DATE 
EASA                                                        MARKER NAME         
EASA                                                        MARKER NUMBER       
                                                            OBSERVER / AGENCY   
496549              LEICA GRX1200+GNSS  8.20/4.007          REC # / TYPE / VERS 
10321008            LEIAR25         NONE                    ANT # / TYPE        
  5282957.1227   142380.7781  3561159.3736                  APPROX POSITION XYZ 
        0.0000        0.0000        0.0000                  ANTENNA: DELTA H/E/N
     1     1                                                WAVELENGTH FACT L1/2
     4    C1    L1    P2    L2                              # / TYPES OF OBSERV 
    30.000                                                  INTERVAL            
  2015    02    16    00    00    0.0000000     GPS         TIME OF FIRST OBS   
  2015    02    16    23    59   30.0000000     GPS         TIME OF LAST OBS    
    16                                                      LEAP SECONDS        
    30                                                      # OF SATELLITES     
   G 1   838   838   838   838                              PRN / # OF OBS      
   G 2   926   925   925   925                              PRN / # OF OBS      
   G 3   849   849   849   849                              PRN / # OF OBS      
   G 4   854   854   854   854                              PRN / # OF OBS      
   G 5   676   675   675   675                              PRN / # OF OBS      
   G 6   714   714   714   714                              PRN / # OF OBS      
   G 7   649   649   649   649                              PRN / # OF OBS      
   G 9   792   792   791   791                              PRN / # OF OBS      
   G10   788   788   788   788                              PRN / # OF OBS      
   G11   805   804   804   804                              PRN / # OF OBS      
   G12   821   821   821   821                              PRN / # OF OBS      
   G13   828   828   828   828                              PRN / # OF OBS      
   G14   933   933   933   933                              PRN / # OF OBS      
   G15   728   719   718   718                              PRN / # OF OBS      
   G16   695   695   695   695                              PRN / # OF OBS      
   G17   931   931   930   930                              PRN / # OF OBS      
   G18   938   937   937   937                              PRN / # OF OBS      
   G19   786   786   786   786                              PRN / # OF OBS      
   G20   827   827   827   827                              PRN / # OF OBS      
   G21   716   715   715   715                              PRN / # OF OBS      
   G22   770   770   770   770                              PRN / # OF OBS      
   G23   733   733   733   733                              PRN / # OF OBS      
   G24   850   850   849   849                              PRN / # OF OBS      
   G25   873   873   873   873                              PRN / # OF OBS      
   G27   837   837   837   837                              PRN / # OF OBS      
   G28   907   907   906   906                              PRN / # OF OBS      
   G29   760   760   760   760                              PRN / # OF OBS      
   G30   696   696   696   696                              PRN / # OF OBS      
   G31   785   785   785   785                              PRN / # OF OBS      
   G32   748   748   748   748                              PRN / # OF OBS      
BIT 2 OF LLI FLAGS DATA COLLECTED UNDER A/S CONDITION       COMMENT             
SNR is mapped to RINEX snr flag value [2-9]                 COMMENT             
Lx:     = 25dBHz -> 1; 26-27dBHz -> 2; 28-31dBHz -> 3       COMMENT             
       32-35dBHz -> 4; 36-38dBHz -> 5; 39-41dBHz -> 6       COMMENT             
       42-44dBHz -> 7; 45-48dBHz -> 8; >=49dBHz -> 9        COMMENT             
                                                            END OF HEADER       
 15 02 16 00 00  0.0000000  0  7G16G18G21G25G27G29G31
  23050984.980   121133749.73508  23050982.520    94389936.48246
  23913451.980   125666105.73708  23913452.560    97921644.49745
  20965010.180   110171880.41408  20965006.880    85848209.57148
  23470830.820   123340034.10508  23470831.760    96109116.69946
  23893386.500   125560616.02408  23893387.960    97839462.26147
  22848709.080   120070766.75209  22848706.900    93561624.87148
  21333716.580   112109429.55109  21333713.920    87357981.92048
 15 02 16 00 00 30.0000000  0  7G16G18G21G25G27G29G31
  23035169.380   121050638.21208  23035166.900    94325174.30046
  23899606.380   125593348.31308  23899607.060    97864950.70145
  20965740.340   110175717.55608  20965737.040    85851199.56148
  23486388.540   123421790.67308  23486389.500    96172823.07846
  23879826.180   125489356.11908  23879827.620    97783935.12647
  22862583.300   120143676.50409  22862581.180    93618437.64448
  21344709.520   112167197.78809  21344706.880    87402996.11048
 15 02 16 00 01  0.0000000  0  7G16G18G21G25G27G29G31
  23019367.220   120967597.16408  23019364.560    94260466.99246
  23885769.280   125520635.29908  23885769.700    97808291.45945
  20966557.680   110180013.00908  20966554.420    85854546.66348
  23501988.900   123503771.13408  23501989.880    96236703.91146
  23866290.780   125418227.33008  23866292.300    97728510.15746
  22876463.440   120216617.21909  22876461.380    93675274.53848
  21355789.380   112225422.87109  21355786.800    87448366.27648
 15 02 16 00 01 30.0000000  0  7G16G18G21G25G27G29G31
  23003578.360   120884626.06608  23003575.600    94195814.19646
  23871940.620   125447967.23108  23871941.060    97751667.22745
  20967461.720   110184764.14708  20967458.520    85858248.85948
  23517631.400   123585973.01808  23517632.480    96300757.29146
  23852779.960   125347227.75708  23852781.440    97673185.89047
  22890348.920   120289586.07709  22890346.920    93732133.37248
  21366955.360   112284100.55509  21366952.860    87494089.12348
 15 02 16 00 02  0.0000000  0  7G16G18G21G25G27G29G31
  22987802.880   120801725.96908  22987800.260    94131216.76346
  23858121.160   125375346.54308  23858121.600    97695079.93944
  20968452.240   110189969.73308  20968449.100    85862305.16948
  23533315.900   123668395.27008  23533316.900    96364982.37746
  23839293.600   125276356.88308  23839295.080    97617961.90146
  22904239.500   120362581.91409  22904237.560    93789013.22147
  21378206.960   112343228.14409  21378204.540    87540162.54248
 15 02 16 00 02 30.0000000  0  7G16G18G21G25G27G29G31
  22972041.020   120718896.93508  22972038.280    94066674.66746
  23844311.000   125302774.39308  23844310.920    97638530.40044
  20969528.800   110195627.36408  20969525.700    85866713.72248
  23549041.920   123751035.60008  23549042.960    96429377.39546
  23825831.480   125205613.08508  23825832.840    97562836.92646
  22918134.840   120435602.47709  22918132.920    93845912.33847
  21389543.580   112402802.32409  21389541.160    87586583.95448
 15 02 16 00 03  0.0000000  0  7G16G18G21G25G27G29G31
  22956293.660   120636144.24208  22956290.820    94002192.06346
  23830511.240   125230256.93908  23830511.300    97582023.53344
  20970691.980   110201740.03508  20970688.900    85871476.85448
  23564809.940   123833896.85008  23564810.960    96493944.56746
  23812394.140   125134999.69708  23812395.500    97507813.57846
  22932035.400   120508650.42809  22932033.500    93902832.79948
  21400965.460   112462824.49309  21400963.020    87633354.44948
 15 02 16 00 03 30.0000000  0  7G16G18G21G25G27G29G31
  22940559.980   120553463.47908  22940557.240    93937765.52346
  23816721.480   125157791.23008  23816721.080    97525556.94345
  20971940.660   110208301.58808  20971937.560    85876589.76248
  23580618.820   123916972.96708  23580619.840    96558679.17646
  23798980.560   125064511.23208  23798981.960    97452887.56946
  22945940.160   120581720.54309  22945938.320    93959770.52448
  21412471.220   112523287.27009  21412468.680    87680468.27748
 15 02 16 00 04  0.0000000  0  7G16G18G21G25G27G29G31
  22924841.360   120470861.67108  22924838.540    93873400.49646
  23802943.000   125085385.31208  23802942.640    97469136.98945
  20973275.560   110215316.16108  20973272.380    85882055.66648
  23596469.440   124000268.43208  23596470.560    96623584.68046
  23785591.720   124994152.81808  23785593.100    97398062.90046
  22959849.980   120654816.93609  22959848.120    94016728.73647
  21424061.260   112584192.95809  21424058.620    87727927.22548
 15 02 16 00 04 30.0000000  0  7G16G18G21G25G27G29G31
  22909137.480   120388337.82908  22909134.600    93809096.22646
  23789176.020   125013039.41808  23789175.480    97412763.76644
  20974696.120   110222780.63708  20974692.780    85887872.15748
  23612361.180   124083780.20308  23612362.240    96688658.74646
  23772227.200   124923922.01408  23772228.500    97343337.66446
  22973764.160   120727936.46609  22973762.360    94073704.96648
  21435734.780   112645537.41709  21435732.080    87775728.08648
 15 02 16 00 05  0.0000000  0  7G16G18G21G25G27G29G31
  22893449.180   120305895.36108  22893446.360    93744855.36446
  23775421.100   124940757.64508  23775420.520    97356440.52345
  20976202.460   110230696.01908  20976198.980    85894040.00348
  23628294.200   124167509.20108  23628295.360    96753902.08246
  23758887.280   124853820.30608  23758888.520    97288713.00846
  22987683.140   120801080.81309  22987681.260    94130700.55447
  21447491.740   112707320.31509  21447489.020    87823870.58848
 15 02 16 00 05 30.0000000  0  7G16G18G21G25G27G29G31
  22877776.200   120223533.28708  22877773.380    93680677.13746
  23761678.580   124868540.44908  23761677.920    97300167.55845
  20977793.880   110239058.46709  20977790.300    85900556.20048
  23644268.040   124251452.18608  23644269.180    96819312.14946
  23745571.420   124783845.08708  23745572.660    97234186.91646
  23001606.140   120874246.55109  23001604.240    94187712.79248
  21459331.160   112769536.80809  21459328.500    87872350.94348
 15 02 16 00 06  0.0000000  0  7G16G18G21G25G27G29G31
  22862119.000   120141253.76509  22862116.040    93616563.23846
  23747948.840   124796391.04508  23747948.220    97243947.43845
  20979470.400   110247868.35809  20979466.740    85907421.05748
  23660282.600   124335609.20608  23660283.660    96884889.00546
  23732279.760   124713996.99008  23732281.000    97179759.88546
  23015533.100   120947433.14909  23015531.240    94244741.29247
  21471252.760   112832185.40709  21471250.180    87921168.00348
 15 02 16 00 06 30.0000000  0  7G16G18G21G25G27G29G31
  22846478.080   120059059.47109  22846475.100    93552515.75547
  23734232.740   124724313.03908  23734231.900    97187782.95445
  20981232.000   110257125.72008  20981228.340    85914634.59648
  23676337.980   124419980.49808  23676339.000    96950632.83046
  23719012.440   124644276.89908  23719013.680    97125432.61846
  23029464.180   121020641.76309  23029462.380    94301786.94447
  21483256.300   112895264.63509  21483253.840    87970320.62448
 15 02 16 00 07  0.0000000  0  7G16G18G21G25G27G29G31
  22830853.540   119976952.19108  22830850.660    93488536.09346
  23720530.680   124652308.91408  23720529.940    97131676.05645
  20983078.500   110266829.69508  20983074.900    85922196.14548
  23692434.060   124504565.52808  23692435.100    97016543.20046
  23705769.500   124574684.90408  23705770.720    97071205.15446
  23043399.460   121093872.29809  23043397.720    94358849.68148
  21495341.520   112958772.68509  21495339.060    88019807.38949
 15 02 16 00 07 30.0000000  0  7G16G18G21G25G27G29G31
  22815245.560   119894931.88608  22815242.700    93424624.17846
  23706843.020   124580380.54208  23706842.180    97075628.14245
  20985009.420   110276977.25308  20985005.900    85930103.33748
  23708570.360   124589361.95208  23708571.400    97082618.29246
  23692550.620   124505219.26808  23692551.780    97017076.14247
  23057338.400   121167121.65409  23057336.620    94415927.08047
  21507507.620   113022705.79109  21507505.200    88069625.37548
 15 02 16 00 08  0.0000000  0  7G16G18G21G25G27G29G31
  22799655.080   119813004.30708  22799652.480    93360784.54247
  23693170.960   124508534.13608  23693170.100    97019644.09445
  20987025.640   110287572.64708  20987022.120    85938359.49448
  23724747.480   124674373.13708  23724748.620    97148860.71446
  23679356.580   124435883.99608  23679357.660    96963048.71546
  23071281.700   121240394.00609  23071279.880    94473022.39547
  21519754.980   113087065.70009  21519752.500    88119775.92748
 15 02 16 00 08 30.0000000  0  7G16G18G21G25G27G29G31
  22784081.420   119731164.67008  22784078.940    93297013.42146
  23679513.920   124436766.21708  23679513.060    96963721.22446
  20989125.600   110298608.10809  20989122.080    85946958.56448
  23740964.080   124759592.00308  23740965.300    97215264.96846
  23666186.080   124366672.65408  23666187.120    96909117.86746
  23085228.160   121313682.68609  23085226.320    94530130.43147
  21532081.880   113151843.75709  21532079.380    88170252.31148
 15 02 16 00 09  0.0000000  0  7G16G18G21G25G27G29G31
  22768525.600   119649418.74708  22768523.140    93233315.31146
  23665872.980   124365083.31608  23665872.040    96907864.58845
  20991309.900   110310086.50609  20991306.300    85955902.77848
  23757220.820   124845021.89008  23757222.220    97281833.66046
  23653039.880   124297589.21708  23653040.900    96855286.67646
  23099178.240   121386990.69909  23099176.400    94587253.52347
  21544488.680   113217041.68209  21544486.100    88221055.86648
 15 02 16 00 09 30.0000000  0  7G16G18G21G25G27G29G31
  22752987.940   119567768.19709  22752985.620    93169691.53747
  23652248.800   124293488.21308  23652247.860    96852076.34846
  20993578.280   110322006.92108  20993574.640    85965191.41548
  23773517.580   124930661.77108  23773518.820    97348566.00646
  23639917.860   124228633.36408  23639918.900    96801554.89846
  23113131.900   121460317.45609  23113129.980    94644391.23948
  21556974.860   113282657.00309  21556972.320    88272184.65948
 15 02 16 00 10  0.0000000  0  7G16G18G21G25G27G29G31
  22737468.660   119486213.65908  22737466.320    93106142.57347
  23638641.680   124221982.92508  23638640.660    96796358.11945
  20995930.500   110334368.05208  20995926.840    85974823.46948
  23789854.080   125016510.42708  23789855.300    97415461.02646
  23626820.020   124159804.45908  23626821.100    96747922.04146
  23127088.980   121533662.24109  23127087.100    94701542.99747
  21569539.820   113348687.02809  21569537.440    88323636.58648
 15 02 16 00 10 30.0000000  0  7G16G18G21G25G27G29G31
  22721967.820   119404756.41909  22721965.420    93042669.41947
  23625051.900   124150569.17108  23625050.700    96740711.18645
  20998366.000   110347167.11408  20998362.380    85984796.78748
  23806229.940   125102566.07508  23806231.140    97482517.32546
  23613746.140   124091101.43708  23613747.280    96694387.28647
  23141049.160   121607023.30909  23141047.340    94758707.43547
  21582183.060   113415128.26809  21582180.840    88375408.95548
 15 02 16 00 11  0.0000000  0  7G16G18G21G25G27G29G31
  22706485.820   119323397.62809  22706483.400    92979272.97247
  23611479.900   124079249.28208  23611479.060    96685137.41745
  21000884.700   110360403.62308  21000881.180    85995110.95448
  23822645.000   125188827.72208  23822646.160    97549734.14946
  23600696.280   124022524.00208  23600697.420    96640950.37747
  23155012.340   121680400.17809  23155010.500    94815884.20247
  21594904.160   113481978.31009  21594902.000    88427499.87148
 15 02 16 00 11 30.0000000  0  7G16G18G21G25G27G29G31
  22691023.140   119242140.41009  22691020.580    92915955.69246
  23597926.740   124008027.88408  23597925.640    96629640.34645
  21003486.900   110374078.41909  21003483.380    86005766.64948
  23839099.420   125275296.21908  23839100.700    97617112.12346
  23587670.620   123954073.61008  23587671.640    96587612.47447
  23168978.700   121753794.09809  23168976.920    94873074.24247
  21607702.940   113549236.30809  21607700.780    88479908.67048
 15 02 16 00 12  0.0000000  0  7G16G18G21G25G27G29G31
  22675579.960   119160985.16109  22675577.000    92852717.83347
  23584392.520   123936905.84508  23584391.540    96574220.70445
  21006171.960   110388188.69608  21006168.500    86016761.67648
  23855592.760   125361969.13508  23855594.160    97684649.39546
  23574668.840   123885748.53708  23574669.760    96534372.20947
  23182947.900   121827202.79709  23182946.180    94930275.80447
  21620578.660   113616898.49709  21620576.480    88532632.41748
 15 02 16 00 12 30.0000000  0  7G16G18G21G25G27G29G31
  22660156.560   119079934.10809  22660153.460    92789561.17547
  23570877.840   123865886.40808  23570876.780    96518881.00045
  21008939.740   110402733.69308  21008936.320    86028095.44248
  23872125.020   125448846.28308  23872126.520    97752345.81046
  23561690.980   123817549.30708  23561691.840    96481230.00347
  23196919.940   121900626.39408  23196918.200    94987488.96447
  21633530.980   113684963.02009  21633528.740    88585669.67248
 15 02 16 00 13  0.0000000  0  7G16G18G21G25G27G29G31
  22644753.580   118998990.62609  22644750.400    92726488.35047
  23557383.520   123794973.82708  23557382.400    96463624.57645
  21011790.360   110417714.05508  21011787.000    86039768.47048
  23888696.280   125535928.41908  23888697.740    97820201.96346
  23548737.320   123749477.38008  23548738.160    96428186.99647
  23210895.040   121974066.11109  23210893.260    95044714.70147
  21646559.700   113753429.01409  21646557.440    88639019.76948
 15 02 16 00 13 30.0000000  0  7G16G18G21G25G27G29G31
  22629370.940   118918154.19409  22629367.660    92663498.93347
  23543909.760   123724168.96408  23543908.700    96408452.09146
  21014723.300   110433126.73508  21014719.920    86051778.35448
  23905306.020   125623212.68208  23905307.560    97888215.60446
  23535807.400   123681530.50208  23535808.260    96375241.43447
  23224872.760   122047519.40209  23224870.960    95101951.01547
  21659664.000   113822292.10509  21659661.680    88692679.29248
 15 02 16 00 14  0.0000000  0  7G16G18G21G25G27G29G31
  22614009.140   118837427.99509  22614006.060    92600595.43147
  23530457.160   123653475.45408  23530455.920    96353366.34845
  21017738.580   110448971.82308  21017735.120    86064125.18748
  23921954.320   125710699.57708  23921955.780    97956387.14546
  23522901.500   123613710.00708  23522902.400    96322394.34947
  23238853.100   122120986.61409  23238851.360    95159198.16247
  21672843.660   113891551.13709  21672841.260    88746647.34248
 15 02 16 00 14 30.0000000  0  7G16G18G21G25G27G29G31
  22598668.680   118756813.54609  22598665.700    92537778.99047
  23517026.300   123582896.17108  23517025.060    96298369.62745
  21020835.840   110465247.95808  21020832.340    86076807.89348
  23938640.980   125798388.13908  23938642.420    98024715.81346
  23510019.660   123546015.56808  23510020.560    96269645.48447
  23252836.160   122194467.88509  23252834.440    95216456.26347
  21686098.140   113961203.46309  21686095.700    88800921.84948
 15 02 16 00 15  0.0000000  0  7G16G18G21G25G27G29G31
  22583349.180   118676309.34309  22583346.200    92475048.46947
  23503617.200   123512430.88608  23503615.800    96243461.71445
  21024014.480   110481951.50608  21024010.920    86089823.65548
  23955365.240   125886274.32708  23955366.520    98093198.49746
  23497161.260   123478443.88108  23497161.960    96216992.26547
  23266821.140   122267959.39309  23266819.400    95273722.35547
  21699426.320   114031243.45609  21699423.900    88855498.43648
 15 02 16 00 15 30.0000000  0  7G16G18G21G25G27G29G31
  22568051.400   118595918.80309  22568048.460    92412406.50247
  23490230.540   123442083.54708  23490228.880    96188645.69845
  21027274.440   110499082.42508  21027270.860    86103172.43148
  23972127.260   125974358.76908  23972128.540    98161835.67246
  23484326.500   123410996.31508  23484326.920    96164435.75347
  23280808.340   122341462.47009  23280806.600    95330997.44947
  21712828.140   114101670.39309  21712825.740    88910376.54248
 15 02 16 00 16  0.0000000  0  7G16G18G21G25G27G29G31
  22552776.400   118515648.24709  22552773.460    92349858.04547
  23476867.540   123371860.81008  23476865.840    96133926.75845
  21030616.380   110516644.35408  21030612.820    86116857.04948
  23988927.680   126062645.15608  23988928.820    98230630.20045
  23471516.140   123343677.30108  23471516.420    96111979.41146
  23294798.400   122414980.75809  23294796.740    95388284.40447
  21726303.900   114172486.00809  21726301.500    88965557.51448
 15 02 16 00 16 30.0000000  0  7G16G18G21G25G27G29G31
  22537523.680   118435494.71009  22537520.680    92287400.75047
  23463527.900   123301761.15408  23463526.140    96079303.75245
  21034039.060   110534630.89808  21034035.560    86130872.54448
  24005765.480   126151127.82308  24005766.520    98299577.66545
  23458729.240   123276481.90308  23458729.560    96059619.40347
  23308790.480   122488509.41909  23308788.760    95445579.44047
  21739852.360   114243683.34909  21739849.980    89021035.92948
 15 02 16 00 17  0.0000000  0  7G16G18G21G25G27G29G31
  22522293.920   118355461.74109  22522290.940    92225037.42447
  23450212.420   123231789.12708  23450211.100    96024780.22846
  21037542.640   110553042.71408  21037539.260    86145219.41848
  24022640.820   126239807.78408  24022641.680    98368678.88046
  23445966.180   123209411.90408  23445966.580    96007357.10947
  23322784.820   122562049.74909  23322783.060    95502883.56347
  21753473.360   114315261.73809  21753470.940    89076811.26648
 15 02 16 00 17 30.0000000  0  7G16G18G21G25G27G29G31
  22507087.320   118275550.49009  22507084.340    92162768.92747
  23436921.620   123161946.70008  23436920.420    95970357.66246
  21041126.920   110571878.47908  21041123.620    86159896.63848
  24039553.320   126328683.40308  24039554.300    98437932.54346
  23433226.860   123142466.39908  23433227.280    95955191.81647
  23336781.200   122635600.98409  23336779.440    95560196.18647
  21767166.240   114387217.89309  21767163.740    89132880.96748
 15 02 16 00 18  0.0000000  0  7G16G18G21G25G27G29G31
  22491904.060   118195762.07509  22491901.160    92100596.15947
  23423655.880   123092235.53308  23423654.800    95916037.37846
  21044791.540   110591136.34508  21044788.280    86174902.77948
  24056502.700   126417753.41408  24056503.880    98507337.67945
  23420511.100   123075644.86308  23420511.540    95903123.13146
  23350779.500   122709162.17609  23350777.760    95617516.57347
  21780930.460   114459549.01509  21780927.900    89189242.85648
 15 02 16 00 18 30.0000000  0  7G16G18G21G25G27G29G31
  22476744.500   118116098.08709  22476741.660    92038520.35447
  23410415.900   123022659.22808  23410414.800    95861822.17746
  21048536.200   110610814.76108  21048532.940    86190236.62448
  24073488.880   126507016.80208  24073490.220    98576893.52145
  23407818.900   123008947.08808  23407819.280    95851150.87846
  23364779.540   122782732.74609  23364777.820    95674844.27047
  21794765.400   114532252.20309  21794762.900    89245894.66148
 15 02 16 00 19  0.0000000  0  7G16G18G21G25G27G29G31
  22461609.560   118036563.62909  22461606.680    91976545.47147
  23397202.600   122953222.59008  23397201.320    95807715.78346
  21052361.340   110630915.76508  21052357.980    86205899.74648
  24090512.200   126596475.56508  24090513.680    98646601.58645
  23395150.720   122942375.65008  23395151.020    95799277.06347
  23378781.820   122856315.21109  23378780.160    95732181.22147
  21808671.240   114605327.93509  21808668.720    89302836.75448
 15 02 16 00 19 30.0000000  0  7G16G18G21G25G27G29G31
  22446498.880   117957156.82509  22446496.060    91914670.06347
  23384015.700   122883925.01008  23384014.260    95753717.76346
  21056266.020   110651434.61608  21056262.600    86221888.46748
  24107571.960   126686125.19007  24107573.660    98716458.35545
  23382505.980   122875927.14008  23382506.180    95747499.04447
  23392785.560   122929905.54808  23392783.880    95789524.29947
  21822646.860   114678770.30309  21822644.380    89360064.54048
 15 02 16 00 20  0.0000000  0  7G16G18G21G25G27G29G31
  22431412.960   117877879.92209  22431410.100    91852895.87247
  23370855.900   122814769.82608  23370854.300    95699830.68846
  21060249.960   110672370.07308  21060246.480    86238201.82148
  24124667.960   126775965.11608  24124669.540    98786463.42945
  23369884.560   122809601.60908  23369884.900    95695816.85947
  23406790.800   123003503.82508  23406789.160    95846873.57647
  21836691.820   114752576.84509  21836689.300    89417576.09948
 15 02 16 00 20 30.0000000  0  7G16G18G21G25G27G29G31
  22416352.380   117798736.00009  22416349.420    91791225.30447
  23357723.940   122745760.85508  23357722.340    95646057.56846
  21064313.180   110693722.44908  21064309.700    86254840.04448
  24141800.260   126865995.69008  24141801.900    98856617.04745
  23357286.600   122743400.19308  23357287.240    95644231.41047
  23420797.820   123077111.21508  23420796.200    95904229.97147
  21850805.860   114826746.64209  21850803.300    89475370.71348
 15 02 16 00 21  0.0000000  0  7G16G18G21G25G27G29G31
  22401317.420   117719726.44209  22401314.400    91729659.43547
  23344620.140   122676899.82608  23344618.460    95592399.72346
  21068455.240   110715489.55208  21068451.800    86271801.43148
  24158968.540   126956215.37607  24158970.240    98926918.01546
  23344712.240   122677322.20808  23344712.880    95592742.12047
  23434806.360   123150726.61808  23434804.780    95961592.59847
  21864988.340   114901275.93609  21864985.740    89533445.45448
 15 02 16 00 21 30.0000000  0  7G16G18G21G25G27G29G31
  22386308.020   117640851.19509  22386304.880    91668198.21847
  23331544.760   122608187.74709  23331542.920    95538857.91246
  21072675.720   110737668.68108  21072672.340    86289083.87848
  24176172.320   127046621.58007  24176174.040    98997364.32046
  23332161.180   122611365.82408  23332161.780    95541347.57047
  23448816.080   123224348.11208  23448814.500    96018959.96147
  21879238.540   114976161.06309  21879235.940    89591797.46548
 15 02 16 00 22  0.0000000  0  7G16G18G21G25G27G29G31
  22371325.160   117562115.54209  22371322.000    91606845.78047
  23318498.880   122539631.00108  23318496.980    95485437.14746
  21076975.060   110760262.01308  21076971.720    86306689.07348
  24193412.100   127137216.77008  24193413.940    99067957.88446
  23319633.860   122545534.33708  23319634.500    95490050.35547
  23462827.560   123297978.85508  23462825.960    96076334.54047
  21893556.600   115051402.82109  21893554.040    89650427.36348
 15 02 16 00 22 30.0000000  0  7G16G18G21G25G27G29G31
  22356368.940   117483519.92309  22356365.720    91545602.45947
  23305482.700   122471230.97808  23305480.660    95432138.51445
  21081352.800   110783266.93709  21081349.380    86324614.99648
  24210687.440   127227998.78508  24210689.280    99138697.00646
  23307129.940   122479826.32208  23307130.740    95438849.35947
  23476840.540   123371617.34409  23476838.960    96133715.15447
  21907941.760   115126997.21109  21907939.180    89709332.04548
 15 02 16 00 23  0.0000000  0  7G16G18G21G25G27G29G31
  22341439.400   117405064.74009  22341436.160    91484468.56447
  23292496.360   122402988.36508  23292494.360    95378962.53145
  21085808.320   110806680.46108  21085804.720    86342859.30348
  24227997.840   127318964.83308  24227999.640    99209579.55846
  23294649.240   122414239.93508  23294649.920    95387743.13147
  23490854.500   123445261.06209  23490852.900    96191099.84047
  21922393.140   115202939.78009  21922390.620    89768508.03548
 15 02 16 00 23 30.0000000  0  7G16G18G21G25G27G29G31
  22326537.460   117326754.55109  22326534.140    91423447.66047
  23279541.100   122334908.93908  23279539.080    95325913.70045
  21090341.840   110830504.05608  21090338.120    86361423.13948
  24245343.580   127410116.57108  24245345.200    99280606.80446
  23282192.200   122348777.63708  23282192.760    95336733.57147
  23504869.900   123518912.51008  23504868.260    96248490.54247
  21936910.780   115279230.39909  21936908.280    89827955.23348
 15 02 16 00 24  0.0000000  0  7G16G18G21G25G27G29G31
  22311662.800   117248587.87209  22311659.440    91362538.57747
  23266616.780   122266991.56809  23266614.840    95272991.14946
  21094952.360   110854732.65508  21094948.620    86380302.57948
  24262723.820   127501449.58408  24262725.440    99351775.30446
  23269758.060   122283435.82708  23269758.600    95285817.92647
  23518886.160   123592568.32708  23518884.500    96305884.66347
  21951493.520   115355863.05509  21951491.020    89887668.96248
 15 02 16 00 24 30.0000000  0  7G16G18G21G25G27G29G31
  22296816.400   117170569.73609  22296813.100    91301745.24447
  23253724.540   122199242.39008  23253722.500    95220199.63446
  21099640.320   110879368.37408  21099636.560    86399499.24748
  24280138.960   127592966.11408  24280140.420    99423086.81546
  23257347.400   122218217.57908  23257348.000    95234998.56747
  23532903.820   123666231.37508  23532902.040    96363284.41047
  21966141.480   115432838.61509  21966139.000    89947649.88148
 15 02 16 00 25  0.0000000  0  7G16G18G21G25G27G29G31
  22281997.980   117092699.02609  22281994.740    91241066.78247
  23240864.220   122131661.12008  23240862.220    95167538.97246
  21104404.880   110904406.78408  21104401.220    86419009.69748
  24297588.280   127684662.34408  24297589.820    99494538.33346
  23244959.720   122153119.97608  23244960.320    95184273.18647
  23546922.220   123739898.23608  23546920.360    96420687.12047
  21980853.640   115510151.47709  21980851.180    90007893.62748
 15 02 16 00 25 30.0000000  0  7G16G18G21G25G27G29G31
  22267208.760   117014981.48709  22267205.600    91180507.66947
  23228037.060   122064254.26508  23228035.080    95115014.21846
  21109246.620   110929850.68108  21109243.060    86438836.11048
  24315072.320   127776541.20308  24315073.880    99566132.15346
  23232595.720   122088146.75908  23232596.240    95133644.74547
  23560942.080   123813572.63808  23560940.140    96478095.71446
  21995630.220   115587802.84709  21995627.760    90068401.15648
 15 02 16 00 26  0.0000000  0  7G16G18G21G25G27G29G31
  22252448.420   116937415.66009  22252445.340    91120066.78447
  23215242.720   121997019.80708  23215240.880    95062623.80046
  21114164.520   110955694.65308  21114161.040    86458974.27848
  24332590.120   127868597.82908  24332591.820    99637864.48946
  23220254.580   122023293.92008  23220255.140    95083110.11647
  23574962.600   123887250.51608  23574960.620    96535506.99247
  22010470.000   115665786.41509  22010467.580    90129167.53148
 15 02 16 00 26 30.0000000  0  7G16G18G21G25G27G29G31
  22237717.460   116860003.75409  22237714.280    91059745.82447
  23202482.180   121929962.94308  23202480.220    95010371.74346
  21119158.500   110981938.15308  21119155.040    86479423.75948
  24350141.680   127960831.98608  24350143.360    99709735.15245
  23207936.460   121958562.10108  23207937.080    95032669.77747
  23588983.920   123960932.61908  23588981.940    96592921.59147
  22025372.600   115744100.18309  22025370.200    90190191.20548
 15 02 16 00 27  0.0000000  0  7G16G18G21G25G27G29G31
  22223016.480   116782749.46909  22223013.280    90999547.69947
  23189756.040   121863086.88008  23189754.020    94958260.57746
  21124228.560   111008581.32008  21124225.140    86500184.67248
  24367727.220   128053244.00308  24367728.880    99781744.44645
  23195641.700   121893952.63108  23195642.300    94982324.76947
  23603006.200   124034619.92108  23603004.260    96650340.24047
  22040337.800   115822742.76309  22040335.420    90251471.10348
 15 02 16 00 27 30.0000000  0  7G16G18G21G25G27G29G31
  22208345.780   116705654.47609  22208342.580    90939473.69447
  23177064.780   121796394.10808  23177062.760    94906292.24746
  21129374.360   111035622.35808  21129370.960    86521255.61948
  24385346.360   128145832.72708  24385347.920    99853891.38945
  23183370.180   121829465.09208  23183370.680    94932074.78347
  23617029.340   124108311.84308  23617027.500    96707762.48246
  22055365.020   115901711.30609  22055362.680    90313005.00048
 15 02 16 00 28  0.0000000  0  8G16G18G21G22G25G27G29G31
  22193705.480   116628719.64009  22193702.360    90879524.48347
  23164408.780   121729886.35308  23164406.680    94854468.06746
  21134595.460   111063058.99808  21134592.020    86542634.81548
  24545740.480   128988739.83807  24545743.400   100510720.06946
  24402998.720   128238596.10108  24402999.960    99926174.44545
  23171121.580   121765098.37008  23171122.040    94881918.93647
  23631053.200   124182007.40709  23631051.440    96765187.54546
  22070453.540   115981002.29209  22070451.300    90374790.13948
 15 02 16 00 28 30.0000000  0  8G16G18G21G22G25G27G29G31
  22179095.360   116551943.23509  22179092.360    90819698.73447
  23151787.680   121663562.24108  23151785.620    94802786.99246
  21139890.740   111090885.53608  21139887.240    86564317.83348
  24528852.540   128899997.17408  24528856.460   100441570.99146
  24420683.440   128331529.05407  24420684.640    99998589.70145
  23158895.240   121700848.37308  23158895.600    94831854.04847
  23645076.940   124255702.20108  23645075.160    96822612.02347
  22085602.180   116060609.00409  22085600.020    90436821.29748
 15 02 16 00 29  0.0000000  0  8G16G18G21G22G25G27G29G31
  22164517.080   116475333.98009  22164514.000    90760003.21947
  23139203.340   121597431.77108  23139201.400    94751256.81546
  21145261.400   111119108.38408  21145257.880    86586309.65748
  24511947.420   128811162.96508  24511951.580   100372350.49246
  24438401.500   128424638.05107  24438403.120   100071142.06844
  23146692.480   121636722.34908  23146692.820    94781885.75547
  23659101.840   124329403.35608  23659100.020    96880041.45846
  22100811.740   116140535.71509  22100809.620    90499101.80548
 15 02 16 00 29 30.0000000  0  8G16G18G21G22G25G27G29G31
  22149971.240   116398894.97509  22149968.060    90700440.36847
  23126656.480   121531498.36708  23126654.680    94699880.18846
  21150707.300   111147726.75808  21150703.780    86608609.69748
  24495025.440   128722240.22108  24495029.300   100303060.97046
  24456152.760   128517922.68407  24456154.760   100143831.24945
  23134513.420   121572720.85208  23134513.660    94732014.50147
  23673128.060   124403111.70008  23673126.200    96937476.48646
  22116081.860   116220780.74309  22116079.760    90561630.35748
 15 02 16 00 30  0.0000000  0  8G16G18G21G22G25G27G29G31
  22135456.780   116322620.60309  22135453.460    90641005.80647
  23114146.120   121465756.85408  23114144.420    94648653.08646
  21156226.740   111176731.65608  21156223.200    86631210.91248
  24478085.600   128633224.16908  24478089.320   100233698.70746
  24473935.960   128611374.33307  24473938.180   100216650.60945
  23122356.540   121508836.22708  23122356.780    94682234.31347
  23687154.240   124476819.57408  23687152.320    96994911.16846
  22131410.680   116301333.98109  22131408.560    90624399.07548
 15 02 16 00 30 30.0000000  0  8G16G18G21G22G25G27G29G31
  22120975.040   116246517.98809  22120971.560    90581705.06647
  23101673.860   121400215.55008  23101672.340    94597581.99946
  21161820.420   111206126.66408  21161816.840    86654116.11748
  24461129.360   128544122.01808  24461133.220   100164269.32846
  24491751.840   128704997.06208  24491754.180   100289603.23646
  23110222.780   121445073.42908  23110223.160    94632549.06547
  23701181.100   124550531.51508  23701179.280    97052349.00646
  22146798.640   116382197.88609  22146796.400    90687409.86948
 15 02 16 00 31  0.0000000  0  8G16G18G21G22G25G27G29G31
  22106526.240   116170588.91609  22106522.800    90522539.57247
  23089240.120   121334876.28108  23089238.620    94546668.33046
  21167488.000   111235910.06108  21167484.380    86677323.96148
  24444157.180   128454936.11608  24444160.760   100094774.65245
  24509600.160   128798789.44008  24509602.400   100362688.09146
  23098112.100   121381432.02708  23098112.560    94582958.42047
  23715208.660   124624247.19508  23715207.000    97109789.74846
  22162245.080   116463369.11809  22162242.800    90750660.13548
 15 02 16 00 31 30.0000000  0  8G16G18G21G22G25G27G29G31
  22092110.200   116094832.37509  22092106.820    90463508.51347
  23076844.840   121269738.71608  23076843.260    94495911.82946
  21173228.420   111266076.59708  21173224.820    86700830.36348
  24427168.840   128365665.82708  24427171.820   100025214.18145
  24527479.960   128892747.35108  24527482.100   100435901.92546
  23086023.940   121317908.79608  23086024.460    94533459.84747
  23729236.280   124697962.88808  23729234.660    97167230.51346
  22177748.920   116544841.97709  22177746.560    90814145.44348
 15 02 16 00 32  0.0000000  0  8G16G18G21G22G25G27G29G31
  22077727.880   116019253.29109  22077724.680    90404615.74447
  23064489.180   121204809.11908  23064487.460    94445317.37946
  21179042.260   111296628.84509  21179038.680    86724637.31148
  24410165.480   128276316.33508  24410168.400    99955591.98644
  24545391.660   128986872.99208  24545393.760   100509246.46646
  23073958.920   121254506.90108  23073959.340    94484055.80647
  23743264.580   124771682.13908  23743262.980    97224674.05546
  22193310.200   116626616.67409  22193307.760    90877865.94548
 15 02 16 00 32 30.0000000  0  8G16G18G21G22G25G27G29G31
  22063379.200   115943851.06009  22063376.060    90345860.77147
  23052173.020   121140087.06108  23052171.160    94394884.66246
  21184928.820   111327563.00308  21184925.200    86748741.84848
  24393147.120   128186888.23308  24393150.240    99885908.53744
  24563334.580   129081162.48808  24563336.780   100582718.68146
  23061916.480   121191223.44608  23061916.840    94434744.07047
  23757293.060   124845402.41208  23757291.540    97282118.38846
  22208928.000   116708688.31509  22208925.540    90941817.83048
 15 02 16 00 33  0.0000000  0  8G16G18G21G22G25G27G29G31
  22049064.880   115868629.06309  22049061.800    90287246.24947
  23039897.120   121075576.42208  23039895.180    94344616.68046
  21190887.840   111358877.72008  21190884.200    86773142.93648
  24376114.560   128097385.01308  24376117.700    99816166.54444
  24581308.600   129175615.97008  24581310.640   100656318.67046
  23049896.780   121128059.46508  23049897.120    94385525.42047
  23771321.880   124919124.41908  23771320.360    97339564.07146
  22224601.900   116791055.07909  22224599.520    91005999.68748
 15 02 16 00 33 30.0000000  0  8G16G18G21G22G25G27G29G31
  22034785.260   115793589.10109  22034782.140    90228773.55947
  23027661.980   121011279.84908  23027659.880    94294515.49646
  21196919.080   111390571.70609  21196915.340    86797839.55548
  24359068.240   128007808.78708  24359070.900    99746367.60944
  24599313.540   129270232.14008  24599315.740   100730045.40546
  23037899.780   121065014.63408  23037900.140    94336399.60247
  23785350.960   124992847.65308  23785349.520    97397010.69646
  22240331.380   116873713.92309  22240329.020    91070409.13348
 15 02 16 00 34  0.0000000  0  8G16G18G21G22G25G27G29G31
  22020540.980   115718734.83609  22020537.820    90170445.57547
  23015468.280   120947201.32108  23015466.020    94244584.21846
  21203022.540   111422645.37108  21203018.740    86822832.02548
  24342008.780   127918163.67608  24342011.380    99676515.01445
  24617349.500   129365011.58207  24617351.560   100803899.37745
  23025925.640   121002090.53708  23025926.100    94287367.86947
  23799380.560   125066573.70708  23799379.140    97454459.53046
  22256116.220   116956663.80709  22256113.960    91135045.35748
 15 02 16 00 34 30.0000000  0  8G16G18G21G22G25G27G29G31
  22006331.980   115644066.11309  22006328.860    90112262.17347
  23003316.120   120883341.24709  23003313.820    94194823.16946
  21209197.480   111455094.91009  21209193.720    86848117.38948
  24324936.440   127828450.27808  24324938.840    99606609.20546
  24635415.840   129459950.97107  24635418.120   100877877.97345
  23013973.980   120939284.86708  23013974.500    94238428.41547
  23813410.220   125140300.12808  23813408.860    97511908.65346
  22271955.480   117039899.89009  22271953.320    91199904.59348
 15 02 16 00 35  0.0000000  0  8G16G18G21G22G25G27G29G31
  21992159.080   115569587.31009  21992155.980    90054226.75247
  22991206.460   120819704.75909  22991204.160    94145236.33446
  21215444.080   111487920.93009  21215440.340    86873696.10248
  24307851.800   127738672.88907  24307853.920    99536653.55646
  24653512.660   129555051.42106  24653515.080   100951982.02944
  23002045.260   120876599.63008  23002045.900    94189582.80648
  23827440.380   125214029.00108  23827439.060    97569359.69046
  22287849.060   117123421.41109  22287846.940    91264986.24948
 15 02 16 00 35 30.0000000  0  8G16G18G21G22G25G27G29G31
  21978021.880   115495296.28509  21978018.920    89996337.65847
  22979139.000   120756290.30408  22979136.700    94095822.52646
  21221761.240   111521117.87008  21221757.560    86899563.85148
  24290754.700   127648830.16807  24290756.640    99466646.97146
  24671639.240   129650307.72306  24671641.940   101026207.55144
  22990138.760   120814030.75008  22990139.460    94140827.86647
  23841470.300   125287756.40508  23841469.000    97626809.58846
  22303795.700   117207221.65909  22303793.660    91330285.09048
 15 02 16 00 36  0.0000000  0  8G16G18G21G22G25G27G29G31
  21963921.500   115421198.57709  21963918.560    89938599.19547
  22967114.860   120693103.99408  22967112.720    94046586.48246
  21228149.400   111554687.84309  21228145.740    86925722.26348
  24273646.420   127558928.50508  24273648.220    99396594.43846
  24689796.100   129745722.31707  24689798.440   101100556.47043
  22978255.040   120751581.67208  22978255.760    94092166.28747
  23855500.540   125361485.78508  23855499.360    97684261.00846
  22319795.540   117291301.31509  22319793.500    91395801.66048
 15 02 16 00 36 30.0000000  0  8G16G18G21G22G25G27G29G31
  21949857.600   115347292.36009  21949854.660    89881009.94948
  22955133.980   120630144.71008  22955131.900    93997527.33846
  21234607.360   111588624.84108  21234603.740    86952166.67948
  24256526.680   127468966.19208  24256528.080    99326494.57146
  24707982.300   129841289.99008  24707984.560   101175024.67044
  22966393.280   120689248.13808  22966394.060    94043594.74347
  23869530.400   125435212.90308  23869529.220    97741710.67746
  22335847.320   117375653.73309  22335845.320    91461530.76248
 15 02 16 00 37  0.0000000  0  8G16G18G21G22G25G27G29G31
  21935831.380   115273583.86609  21935828.380    89823574.78048
  22943197.600   120567418.80908  22943195.480    93948650.06246
  21241135.740   111622931.76208  21241132.140    86978899.34748
  24239396.700   127378949.76208  24239397.780    99256352.51946
  24726198.300   129937013.77108  24726200.320   101249614.54044
  22954554.360   120627034.26708  22954555.120    93995116.43348
  23883560.560   125508941.66508  23883559.320    97799161.64147
  22351951.300   117460280.02309  22351949.180    91527473.27448
 15 02 16 00 37 30.0000000  0  8G16G18G21G22G25G27G29G31
  21921842.820   115200073.32709  21921839.780    89766293.85248
  22931305.820   120504927.24408  22931303.620    93899955.38746
  21247733.840   111657605.16908  21247730.220    87005917.59748
  24222256.580   127288879.99208  24222257.660    99186168.87046
  24744443.320   130032890.77408  24744445.360   101324323.74645
  22942737.900   120564938.13008  22942738.560    93946729.87248
  23897590.760   125582670.43308  23897589.420    97856612.60247
  22368106.560   117545175.79409  22368104.380    91593625.78048
 15 02 16 00 38  0.0000000  0  8G16G18G21G22G25G27G29G31
  21907892.580   115126764.41509  21907889.540    89709170.03847
  22919459.480   120442674.02009  22919457.100    93851446.40846
  21254401.720   111692645.31508  21254398.100    87033221.60248
  24205107.120   127198761.28308  24205108.160    99115947.05946
  24762717.520   130128921.19008  24762719.760   101399152.51445
  22930944.160   120502961.07508  22930944.720    93898436.09748
  23911621.180   125656400.44108  23911619.820    97914064.51946
  22384312.880   117630339.81309  22384310.560    91659987.29648
 15 02 16 00 38 30.0000000  0  8G16G18G21G22G25G27G29G31
  21893980.680   115053657.04009  21893977.620    89652203.26247
  22907658.620   120380659.57309  22907656.120    93803123.49746
  21261138.580   111728048.13908  21261135.060    87060808.21748
  24187948.440   127108593.81308  24187949.140    99045687.24546
  24781020.260   130225101.71808  24781022.420   101474098.24346
  22919172.600   120441100.71008  22919173.060    93850233.23848
  23925651.340   125730129.41608  23925650.040    97971515.61846
  22400569.220   117715766.85709  22400566.720    91726553.77948
 15 02 16 00 39  0.0000000  0  8G16G18G21G22G25G27G29G31
  21880107.540   114980753.55709  21880104.520    89595395.36947
  22895903.780   120318886.89409  22895901.180    93754988.97446
  21267944.100   111763811.83008  21267940.720    87088676.03148
  24170780.960   127018380.22008  24170781.640    98975391.48246
  24799351.320   130321431.43708  24799353.740   101549160.18146
  22907423.180   120379357.23108  22907423.600    93802121.47148
  23939681.340   125803857.46408  23939679.980    98028966.00346
  22416875.020   117801454.06509  22416872.600    91793322.97248
 15 02 16 00 39 30.0000000  0  7G16G18G21G22G27G29G31
  21866274.800   114908062.27509  21866271.780    89538752.81847
  22884196.540   120257364.88009  22884193.960    93707049.79646
  21274819.400   111799942.18208  21274816.160    87116829.55548
  24153606.360   126928129.49008  24153607.060    98905066.73446
  22895697.180   120317736.96608  22895697.620    93754105.70847
  23953712.400   125877591.04008  23953710.980    98086420.70946
  22433231.120   117887405.59809  22433228.680    91860298.13847
 15 02 16 00 40  0.0000000  0  7G16G18G21G22G27G29G31
  21852481.340   114835577.26709  21852478.380    89482270.99548
  22872535.760   120196087.72909  22872533.180    93659301.39146
  21281762.560   111836428.86308  21281759.360    87145260.73548
  24136423.720   126837836.23008  24136424.040    98834708.81345
  22883993.020   120256231.64408  22883993.560    93706179.52348
  23967742.960   125951321.87008  23967741.460    98143873.25746
  22449635.340   117973610.18609  22449632.900    91927470.48648
 15 02 16 00 40 30.0000000  0  7G16G18G21G22G27G29G31
  21838727.260   114763299.01509  21838724.240    89425950.29047
  22860921.800   120135056.52509  22860919.240    93611744.64646
  21288772.980   111873268.95008  21288769.780    87173967.30248
  24119233.200   126747501.31108  24119233.360    98764318.42045
  22872310.460   120194839.51408  22872311.020    93658341.53047
  23981772.640   126025048.05008  23981771.120    98201322.19246
  22466086.860   118060063.45709  22466084.400    91994836.61648
 15 02 16 00 41  0.0000000  0  7G16G18G21G22G27G29G31
  21825014.400   114691237.39109  21825011.380    89369798.37348
  22849356.640   120074281.73509  22849354.180    93564387.70146
  21295851.800   111910468.47408  21295848.620    87202953.94248
  24102036.600   126657135.05908  24102037.020    98693903.61545
  22860650.880   120133568.22808  22860651.440    93610597.70048
  23995802.900   126098777.31408  23995801.500    98258773.53446
  22482586.600   118146770.37509  22482584.240    92062400.38548
 15 02 16 00 41 30.0000000  0  7G16G18G21G22G27G29G31
  21811342.100   114619388.98309  21811339.040    89313812.61348
  22837839.680   120013760.13009  22837837.360    93517228.03246
  21302997.620   111948019.90408  21302994.420    87232214.79748
  24084833.600   126566734.79408  24084833.800    98623462.30445
  22849013.160   120072412.04608  22849013.700    93562943.56248
  24009832.780   126172504.57108  24009831.380    98316223.30546
  22499133.060   118233722.49109  22499130.760    92130155.22448
 15 02 16 00 42  0.0000000  0  7G16G18G21G22G27G29G31
  21797711.200   114547758.13309  21797708.120    89257996.36647
  22826371.940   119953496.73709  22826369.700    93470269.57246
  21310210.540   111985923.98609  21310207.340    87261750.43948
  24067625.080   126476305.37108  24067624.860    98552998.23046
  22837397.780   120011373.22208  22837398.360    93515380.86547
  24023862.640   126246231.67308  24023861.200    98373672.95046
  22515726.080   118320919.20809  22515723.780    92198100.65648
 15 02 16 00 42 30.0000000  0  7G16G18G21G22G27G29G31
  21784121.500   114476343.76709  21784118.380    89202348.80948
  22814953.160   119893490.57709  22814950.960    93423511.55846
  21317489.540   112024175.35209  21317486.360    87291556.69448
  24050410.860   126385845.64808  24050410.560    98482510.51945
  22825804.120   119950448.03008  22825804.680    93467906.72048
  24037891.820   126319954.99108  24037890.260    98431119.64446
  22532364.460   118408354.27209  22532362.120    92266231.81548
 15 02 16 00 43  0.0000000  0  7G16G18G21G22G27G29G31
  21770574.060   114405151.54709  21770570.960    89146874.37248
  22803584.480   119833747.95709  22803582.360    93376958.91146
  21324835.140   112062776.84908  21324831.960    87321635.78948
  24033192.160   126295362.01108  24033191.780    98412004.18545
  22814232.780   119889640.40208  22814233.380    93420524.18148
  24051921.060   126393678.74608  24051919.480    98488566.68746
  22549048.380   118496028.75309  22549046.060    92334549.53147
 15 02 16 00 43 30.0000000  0  7G16G18G21G22G27G29G31
  21757069.800   114334186.16609  21757066.700    89091576.68548
  22792266.840   119774273.64409  22792264.720    93330615.32346
  21332247.600   112101729.46309  21332244.400    87351988.47948
  24015969.900   126204860.04008  24015969.280    98341483.52745
  22802684.260   119828952.64308  22802684.740    93373235.04347
  24065950.740   126467405.09308  24065949.240    98546015.74446
  22565777.840   118583942.22809  22565775.540    92403053.48648
 15 02 16 00 44  0.0000000  0  7G16G18G21G22G27G29G31
  21743607.700   114263442.10909  21743604.580    89036451.45348
  22780999.400   119715063.02609  22780997.200    93284477.20346
  21339725.000   112141023.41808  21339721.780    87382607.15348
  23998743.200   126114334.22408  23998742.580    98270944.28246
  22791157.100   119768377.03208  22791157.480    93326033.28547
  24079979.460   126541126.33308  24079978.000    98603460.83146
  22582550.780   118672084.12909  22582548.480    92471735.42347
 15 02 16 00 44 30.0000000  0  7G16G18G21G22G27G29G31
  21730189.140   114192926.81409  21730186.000    88981504.47848
  22769783.560   119656123.44409  22769781.240    93238550.27546
  21347268.000   112180662.23208  21347264.760    87413494.54348
  23981513.460   126023792.49808  23981512.940    98200392.64846
  22779652.220   119707918.49508  22779652.600    93278922.74947
  24094008.120   126614847.62608  24094006.740    98660905.94546
  22599367.620   118760456.69909  22599365.260    92540597.11547
 15 02 16 00 45  0.0000000  0  7G16G18G21G22G27G29G31
  21716814.540   114122642.39309  21716811.300    88926737.39348
  22758619.840   119597457.82609  22758617.520    93192836.84146
  21354876.400   112220644.67208  21354873.180    87444649.68948
  23964281.220   125933237.87708  23964280.580    98129830.96046
  22768169.680   119647577.25408  22768170.080    93231903.61447
  24108036.780   126688568.70508  24108035.440    98718350.88546
  22616227.840   118849057.43309  22616225.540    92609636.57047
 15 02 16 00 45 30.0000000  0  7G16G18G21G22G27G29G31
  21703483.740   114052588.35909  21703480.480    88872149.84848
  22747508.160   119539065.40309  22747505.860    93147336.28346
  21362549.100   112260965.11708  21362545.920    87476068.22048
  23947046.580   125842670.05208  23947045.700    98059258.96546
  22756708.880   119587350.27208  22756709.180    93184973.51747
  24122065.040   126762287.39908  24122063.720    98775793.98046
  22633130.420   118937880.55909  22633128.100    92678849.34747
 15 02 16 00 46  0.0000000  0  7G16G18G21G22G27G29G31
  21690197.600   113982769.24609  21690194.340    88817745.34948
  22736449.360   119480951.23509  22736447.100    93102052.54646
  21370286.520   112301625.56008  21370283.360    87507751.67848
  23929810.260   125752093.77008  23929809.420    97988680.33446
  22745270.260   119527239.94208  22745270.460    93138134.31747
  24136093.280   126836006.14308  24136092.000    98833237.10646
  22650075.160   119026925.51909  22650072.900    92748234.95748
 15 02 16 00 46 30.0000000  0  7G16G18G21G22G27G29G31
  21676956.240   113913185.57909  21676953.040    88763524.32048
  22725443.800   119423116.57509  22725441.480    93056986.59747
  21378088.020   112342622.67408  21378084.880    87539697.48148
  23912572.660   125661510.39008  23912571.680    97918096.19346
  22733853.440   119467244.41308  22733853.640    93091384.57748
  24150121.200   126909722.95008  24150119.880    98890678.73546
  22667061.260   119116187.74609  22667059.100    92817789.87748
 15 02 16 00 47  0.0000000  0  7G16G18G21G22G27G29G31
  21663759.780   113843838.06809  21663756.660    88709487.30748
  22714491.600   119365562.26209  22714489.260    93012139.09947
  21385952.860   112383952.72208  21385949.760    87571902.70748
  23895333.920   125570921.34508  23895332.800    97847507.66146
  22722458.220   119407362.35408  22722458.500    93044723.25247
  24164148.480   126983436.42008  24164147.200    98948117.77446
  22684087.980   119205663.54809  22684085.840    92887511.21048
 15 02 16 00 47 30.0000000  0  7G16G18G21G22G27G29G31
  21650609.660   113774734.07109  21650606.640    88655640.04848
  22703594.020   119308295.52609  22703591.680    92967515.69746
  21393881.660   112425618.91808  21393878.600    87604369.87348
  23878095.380   125480334.09608  23878094.400    97776920.49746
  22711085.520   119347598.57208  22711085.840    92998154.09447
  24178176.080   127057151.42308  24178174.700    99005558.00546
  22701155.740   119295354.61809  22701153.620    92957400.29348
 15 02 16 00 48  0.0000000  0  7G16G18G21G22G27G29G31
  21637505.520   113705871.68709  21637502.500    88601981.06448
  22692750.940   119251315.01109  22692748.520    92923115.32146
  21401873.540   112467616.49108  21401870.480    87637095.25748
  23860857.040   125389747.49508  23860856.020    97706333.81546
  22699734.520   119287949.11408  22699734.920    92951674.03248
  24192203.240   127130864.40408  24192201.800    99062996.66946
  22718263.060   119385254.05509  22718260.980    93027451.73748
 15 02 16 00 48 30.0000000  0  7G16G18G21G22G27G29G31
  21624447.960   113637253.82209  21624444.900    88548512.60048
  22681962.920   119194623.78609  22681960.520    92878940.36046
  21409928.240   112509944.05208  21409925.140    87670077.76348
  23843619.360   125299164.70408  23843618.240    97635750.11746
  22688405.460   119228414.54909  22688405.860    92905283.48048
  24206230.020   127204575.80108  24206228.600    99120434.09346
  22735409.640   119475359.88309  22735407.640    93097663.98748
 15 02 16 00 49  0.0000000  0  7G16G18G21G22G27G29G31
  21611437.540   113568883.39609  21611434.400    88495236.95048
  22671230.700   119138225.40509  22671228.300    92834993.59547
  21418045.520   112552600.54108  21418042.360    87703316.58248
  23826383.080   125208589.20908  23826381.900    97565172.09046
  22677098.440   119168995.51608  22677098.820    92858982.95848
  24220256.700   127278286.70208  24220255.480    99177871.12146
  22752595.020   119565669.66909  22752593.080    93168035.17148
 15 02 16 00 49 30.0000000  0  7G16G18G21G22G27G29G31
  21598474.700   113500762.71809  21598471.460    88442155.91048
  22660554.660   119082122.37809  22660552.240    92791276.96746
  21426225.020   112595584.01508  21426221.820    87736810.19548
  23809148.900   125118023.87308  23809147.720    97494601.99546
  22665813.380   119109692.13108  22665813.740    92812772.55248
  24234283.220   127351996.96108  24234282.080    99235307.66046
  22769818.720   119656180.86109  22769816.820    93238563.29448
 15 02 16 00 50  0.0000000  0  7G16G18G21G22G27G29G31
  21585559.180   113432890.58509  21585555.800    88389268.53348
  22649934.520   119026313.58609  22649932.160    92747789.62347
  21434465.920   112638890.17609  21434462.680    87770555.25448
  23791916.480   125027468.21608  23791915.080    97424039.40846
  22654549.660   119050501.03009  22654549.940    92766649.63947
  24248309.020   127425703.44308  24248307.840    99292741.24746
  22787079.600   119746887.34509  22787077.760    93309243.59447
 15 02 16 00 50 30.0000000  0  7G16G18G21G22G27G29G31
  21572692.320   113365274.45809  21572688.880    88336580.64748
  22639371.800   118970806.43309  22639369.480    92704537.31946
  21442768.820   112682522.06008  21442765.540    87804554.12148
  23774687.320   124936929.50408  23774685.680    97353490.01846
  22643308.280   118991427.15808  22643308.480    92720618.06748
  24262334.980   127499410.40508  24262333.780    99350175.21346
  22804378.080   119837791.32109  22804376.260    93380077.78147
 15 02 16 00 51  0.0000000  0  7G16G18G21G22G27G29G31
  21559873.360   113297910.46409  21559869.920    88284089.23148
  22628865.920   118915597.87409  22628863.580    92661517.67846
  21451132.200   112726471.75309  21451128.880    87838800.63348
  23757460.880   124846405.00208  23757459.300    97282951.70546
  22632088.020   118932464.41508  22632088.240    92674673.09948
  24276360.200   127573113.55408  24276359.180    99407606.19546
  22821712.460   119928883.85009  22821710.660    93451058.88947
 15 02 16 00 51 30.0000000  0  7G16G18G21G22G27G29G31
  21547104.020   113230807.41309  21547100.660    88231801.14748
  22618418.560   118860696.55109  22618416.100    92618737.43746
  21459557.120   112770744.65208  21459553.720    87873298.99148
  23740238.920   124755903.84308  23740237.320    97212431.55946
  22620890.160   118873619.41608  22620890.420    92628819.88148
  24290385.880   127646818.98108  24290385.000    99465038.95946
  22839083.440   120020168.64309  22839081.640    93522189.82147
 15 02 16 00 52  0.0000000  0  7G16G18G21G22G27G29G31
  21534383.440   113163960.78909  21534380.180    88179712.87148
  22608028.880   118806098.34809  22608026.360    92576193.40347
  21468041.940   112815332.47709  21468038.460    87908042.75348
  23723020.840   124665422.37109  23723018.840    97141926.74646
  22609713.540   118814885.63409  22609713.660    92583053.31948
  24304410.800   127720520.25008  24304410.000    99522468.48246
  22856489.240   120111636.48709  22856487.420    93593463.37947
 15 02 16 00 52 30.0000000  0  7G16G18G21G22G27G29G31
  21521712.320   113097374.37709  21521709.180    88127827.35948
  22597697.500   118751806.82909  22597695.040    92533888.35047
  21476586.480   112860234.30409  21476583.000    87943031.19648
  23705807.180   124574964.19008  23705804.960    97071440.04846
  22598558.240   118756264.00909  22598558.240    92537374.15448
  24318435.140   127794218.10208  24318434.320    99579895.32946
  22873929.500   120203285.34909  22873927.740    93664877.98747
 15 02 16 00 53  0.0000000  0  7G16G18G21G22G27G29G31
  21509092.340   113031056.47309  21509089.300    88076151.08148
  22587426.120   118697830.50009  22587423.700    92491828.89746
  21485191.500   112905454.12309  21485188.000    87978267.42148
