     2.11           OBSERVATION DATA    G                   RINEX VERSION / TYPE
SPIDER V4,0,0,3554                      2015 03 12 00:00    PGM / RUN BY / DATE 
EECH                                                        MARKER NAME         
EECH                                                        MARKER NUMBER       
                                                            OBSERVER / AGENCY   
462240              LEICA GRX1200PRO    8.20/2.127          REC # / TYPE / VERS 
103299              LEIAT504                                ANT # / TYPE        
  5154282.7593   121017.3605  3742656.9418                  APPROX POSITION XYZ 
        0.0590        0.0000        0.0000                  ANTENNA: DELTA H/E/N
     1     1                                                WAVELENGTH FACT L1/2
     4    C1    L1    P2    L2                              # / TYPES OF OBSERV 
    30.000                                                  INTERVAL            
  2015    02    16    07    04    0.0000000     GPS         TIME OF FIRST OBS   
  2015    02    16    12    49   30.0000000     GPS         TIME OF LAST OBS    
    16                                                      LEAP SECONDS        
    19                                                      # OF SATELLITES     
   G 1   366   366   366   366                              PRN / # OF OBS      
   G 2   362   362   362   362                              PRN / # OF OBS      
   G 3   469   469   469   469                              PRN / # OF OBS      
   G 4   227   227   227   227                              PRN / # OF OBS      
   G 5   189   189   189   189                              PRN / # OF OBS      
   G 6   574   574   574   574                              PRN / # OF OBS      
   G 7   450   450   449   449                              PRN / # OF OBS      
   G 9   680   680   680   680                              PRN / # OF OBS      
   G10   513   513   513   513                              PRN / # OF OBS      
   G11   266   266   266   266                              PRN / # OF OBS      
   G13   117   117   117   117                              PRN / # OF OBS      
   G17   427   427   427   427                              PRN / # OF OBS      
   G19    53    53    53    53                              PRN / # OF OBS      
   G20   661   661   661   661                              PRN / # OF OBS      
   G23   573   573   573   573                              PRN / # OF OBS      
   G28    93    93    93    93                              PRN / # OF OBS      
   G30   337   337   337   337                              PRN / # OF OBS      
   G31    62    62    61    61                              PRN / # OF OBS      
   G32   242   242   242   242                              PRN / # OF OBS      
BIT 2 OF LLI FLAGS DATA COLLECTED UNDER A/S CONDITION       COMMENT             
SNR is mapped to RINEX snr flag value [2-9]                 COMMENT             
Lx:     = 25dBHz -> 1; 26-27dBHz -> 2; 28-31dBHz -> 3       COMMENT             
       32-35dBHz -> 4; 36-38dBHz -> 5; 39-41dBHz -> 6       COMMENT             
       42-44dBHz -> 7; 45-48dBHz -> 8; >=49dBHz -> 9        COMMENT             
                                                            END OF HEADER       
 15 02 16 07 04  0.0000000  0  9G01G03G04G11G17G19G23G28G32
  20463476.720   107536289.58909  20463480.400    83794524.37349
  20485213.820   107650520.49709  20485216.840    83883535.64049
  21301084.980   111937949.56609  21301086.860    87224378.89648
  20549779.220   107989810.55909  20549779.520    84147902.65749
  23195957.300   121895575.98208  23195957.880    94983567.41447
  24059546.340   126433748.84607  24059545.880    98519796.97046
  22588951.400   118705733.40608  22588949.940    92497971.79147
  24088514.360   126585990.52606  24088516.920    98638430.59344
  21358149.320   112237825.24909  21358150.620    87458047.41348
 15 02 16 07 04 30.0000000  0  9G01G03G04G11G17G19G23G28G32
  20463394.360   107535856.59009  20463397.980    83794186.93649
  20482866.620   107638185.71709  20482869.580    83873924.10149
  21311260.100   111991419.82009  21311261.900    87266043.98448
  20558225.880   108034198.30909  20558226.220    84182490.46549
  23180059.500   121812032.71608  23180060.040    94918468.73847
  24080050.900   126541501.53007  24080050.820    98603759.96746
  22571444.780   118613735.47608  22571443.520    92426285.09147
  24097253.320   126631919.27806  24097254.900    98674224.63744
  21371020.720   112305464.74709  21371022.040    87510753.46248
 15 02 16 07 05  0.0000000  0  9G01G03G04G11G17G19G23G28G32
  20463369.040   107535723.40909  20463372.640    83794083.12649
  20480580.160   107626170.29709  20480583.140    83864561.41749
  21321488.860   112045172.01209  21321490.560    87307928.76448
  20566753.700   108079012.20009  20566754.060    84217410.33349
  23164222.540   121728809.33908  23164223.040    94853619.31947
  24100576.740   126649366.26407  24100577.200    98687810.31546
  22553984.560   118521981.57408  22553983.640    92354788.53347
  24106051.040   126678151.07806  24106051.240    98710249.34044
  21383929.160   112373298.94409  21383930.500    87563611.22348
 15 02 16 07 05 30.0000000  0  9G01G03G04G11G17G19G23G28G32
  20463401.760   107535895.12209  20463405.360    83794216.88449
  20478355.140   107614477.66709  20478358.160    83855450.25749
  21331772.000   112099210.08809  21331773.640    87350036.31048
  20575363.380   108124256.13809  20575363.780    84252665.31049
  23148447.960   121645913.29608  23148448.340    94789024.97747
  24121124.280   126757345.12807  24121125.080    98771949.52145
  22536571.980   118430478.20808  22536571.480    92283487.20347
  24114907.560   126724689.52506  24114907.600    98746512.98544
  21396875.040   112441330.28609  21396876.440    87616622.60748
 15 02 16 07 06  0.0000000  0  9G01G03G04G11G17G19G23G28G32
  20463492.220   107536370.15909  20463495.740    83794587.00849
  20476190.920   107603104.56109  20476194.000    83846588.08049
  21342109.100   112153531.75509  21342110.680    87392364.83148
  20584054.300   108169927.18609  20584054.780    84288253.08749
  23132735.740   121563344.17908  23132735.840    94724685.37347
  24141692.680   126865433.25107  24141693.720    98856173.92546
  22519207.060   118339225.21608  22519206.960    92212380.97847
  24123821.540   126771529.41406  24123822.240    98783011.49144
  21409857.620   112509554.31209  21409859.060    87669784.13348
 15 02 16 07 06 30.0000000  0  9G01G03G04G11G17G19G23G28G32
  20463641.040   107537152.19809  20463644.580    83795196.35449
  20474087.880   107592052.91209  20474091.020    83837976.38749
  21352500.640   112208139.57409  21352502.240    87434916.33148
  20592826.920   108216027.66509  20592827.480    84324175.49549
  23117086.780   121481107.85308  23117086.800    94660605.09446
  24162282.220   126973631.43307  24162283.380    98940484.07446
  22501890.700   118248227.58508  22501890.980    92141473.73347
  24132792.660   126818671.26506  24132793.500    98819745.35244
  21422877.080   112577971.85509  21422878.500    87723096.44948
 15 02 16 07 07  0.0000000  0  9G01G03G04G11G17G19G23G28G32
  20463848.720   107538243.32409  20463852.240    83796046.54749
  20472046.100   107581323.16209  20472049.300    83829615.51449
  21362946.840   112263034.48209  21362948.460    87477691.53648
  20601681.400   108262558.28709  20601682.000    84360433.07849
  23101501.820   121399207.78908  23101501.780    94596786.81847
  24182892.580   127081938.50507  24182893.800    99024879.07246
  22484623.640   118157489.01908  22484624.220    92070768.36347
  24141820.560   126866113.67306  24141821.160    98856713.39944
  21435933.320   112646582.39409  21435934.640    87776559.14948
 15 02 16 07 07 30.0000000  0  9G01G03G04G11G17G19G23G28G32
  20464115.060   107539642.69609  20464118.600    83797136.93049
  20470065.100   107570912.81809  20470068.280    83821503.53649
  21373447.400   112318214.82909  21373449.000    87520689.15948
  20610617.360   108309516.92709  20610617.900    84397024.18049
  23085980.900   121317644.94308  23085981.000    94533231.32346
  24203522.880   127190350.34707  24203524.080    99109355.67846
  22467405.960   118067009.83108  22467406.640    92000265.09547
  24150904.740   126913852.39906  24150905.280    98893912.35344
  21449025.600   112715382.23309  21449026.840    87830169.35848
 15 02 16 07 08  0.0000000  0  9G01G03G04G11G17G19G23G28G32
  20464439.940   107541349.72609  20464443.540    83798467.04449
  20468144.440   107560819.50609  20468147.580    83813638.58849
  21384001.920   112373678.75409  21384003.520    87563907.75648
  20619634.460   108356901.76809  20619634.980    84433947.39249
  23070524.280   121236420.18808  23070524.540    94469939.27946
  24224172.400   127298863.37906  24224173.580    99193911.14245
  22450237.900   117976791.36908  22450238.480    91929964.99747
  24160044.720   126961883.31806  24160044.820    98931338.98944
  21462153.240   112784367.96109  21462154.440    87883924.42148
 15 02 16 07 08 30.0000000  0  9G01G03G04G11G17G19G23G28G32
  20464824.320   107543369.50609  20464827.920    83800040.86949
  20466284.760   107551046.72209  20466287.840    83806023.41149
  21394611.140   112429430.38509  21394612.820    87607350.53048
  20628733.360   108404716.35009  20628733.840    84471205.46449
  23055133.360   121155540.64908  23055133.680    94406916.23347
  24244841.300   127407479.68906  24244842.860    99278547.11746
  22433120.580   117886839.64708  22433120.940    91859872.74047
  24169240.680   127010208.17806  24169240.860    98968994.63244
  21475316.780   112853542.05309  21475317.920    87937826.26448
 15 02 16 07 09  0.0000000  0  9G01G03G04G11G17G19G23G28G32
  20465267.380   107545698.05709  20465271.040    83801855.29149
  20464484.960   107541588.73509  20464488.000    83798653.52949
  21405274.120   112485464.67809  21405275.880    87651013.56348
  20637913.020   108452955.27709  20637913.420    84508794.18649
  23039807.640   121075003.62808  23039807.920    94344160.08247
  24265528.640   127516192.11907  24265530.380    99363257.95646
  22416053.640   117797152.31408  22416053.640    91789986.50447
  24178491.060   127058819.34506  24178491.380    99006873.40445
  21488514.860   112922897.64609  21488516.020    87991869.53648
 15 02 16 07 09 30.0000000  0  9G01G03G04G11G17G19G23G28G32
  20465769.560   107548337.42309  20465773.400    83803911.89849
  20462745.080   107532445.88309  20462748.200    83791529.20649
  21415991.080   112541782.83309  21415992.920    87694897.78848
  20647173.500   108501619.03909  20647173.860    84546713.95449
  23024547.840   120994812.74308  23024548.160    94281673.62147
  24286234.260   127624999.62506  24286235.940    99448042.88546
  22399037.640   117707732.67208  22399037.280    91720308.86847
  24187795.680   127107715.61306  24187796.600    99044974.29845
  21501747.240   112992434.18509  21501748.500    88046053.80348
 15 02 16 07 10  0.0000000  0 10G01G03G04G09G11G17G19G23G28G32
  20466331.820   107551292.27609  20466335.760    83806214.34549
  20461065.780   107523621.15909  20461068.980    83784652.77849
  21426762.800   112598388.25109  21426764.620    87739005.86548
  24712117.900   129863053.77705  24712122.080   101191997.35545
  20656515.540   108550711.14409  20656515.900    84584967.49749
  23009355.180   120914974.68208  23009355.620    94219462.10547
  24306958.100   127733903.45606  24306959.600    99532902.85944
  22382073.860   117618587.05508  22382073.180    91650844.74447
  24197154.880   127156898.24406  24197156.360    99083298.35744
  21515014.340   113062153.51809  21515015.680    88100380.51248
 15 02 16 07 10 30.0000000  0 10G01G03G04G09G11G17G19G23G28G32
  20466952.580   107554554.52609  20466956.600    83808756.32149
  20459445.200   107515104.79609  20459448.440    83778016.63049
  21437587.420   112655271.82909  21437589.240    87783330.66448
  24690524.160   129749576.90605  24690528.140   101103573.76644
  20665937.200   108600222.01309  20665937.580    84623547.35649
  22994228.420   120835483.01108  22994229.060    94157520.51347
  24327698.140   127842892.94706  24327699.440    99617829.57746
  22365160.980   117529708.68208  22365160.120    91581588.86147
  24206566.560   127206355.49306  24206567.640    99121836.39944
  21528314.180   113132044.92509  21528315.560    88154841.31148
 15 02 16 07 11  0.0000000  0 10G01G03G04G09G11G17G19G23G28G32
  20467633.920   107558135.04509  20467637.980    83811546.30149
  20457885.100   107506905.94809  20457888.280    83771627.89449
  21448466.920   112712443.53309  21448468.700    87827879.98848
  24668937.500   129636136.70805  24668941.340   101015178.74345
  20675440.260   108650160.75909  20675440.660    84662460.61649
  22979169.840   120756349.77308  22979170.720    94095858.22347
  24348455.900   127951975.41206  24348457.020    99702828.75446
  22348301.220   117441109.83208  22348300.420    91512550.79847
  24216031.820   127256094.87606  24216032.320    99160594.27444
  21541648.340   113202116.53009  21541649.740    88209442.51448
 15 02 16 07 11 30.0000000  0 10G01G03G04G09G11G17G19G23G28G32
  20468375.500   107562031.82209  20468379.460    83814582.71549
  20456384.620   107499020.88009  20456387.820    83765483.67149
  21459400.660   112769900.17309  21459402.360    87872651.34048
  24647357.480   129522732.69306  24647361.460   100926811.89645
  20685024.100   108700524.05009  20685024.480    84701704.69748
  22964179.600   120677575.36708  22964180.560    94034475.53847
  24369230.360   128061146.11206  24369231.560    99787896.67246
  22331494.520   117352789.90408  22331493.840    91443730.07547
  24225549.620   127306110.95306  24225550.100    99199567.71843
  21555015.920   113272363.66308  21555017.360    88264180.48548
 15 02 16 07 12  0.0000000  0 10G01G03G04G09G11G17G19G23G28G32
  20469177.280   107566244.77809  20469181.120    83817865.50649
  20454943.500   107491447.84109  20454946.700    83759582.57749
  21470388.360   112827640.83708  21470390.080    87917644.00448
  24625784.500   129409366.29906  24625788.620   100838474.37344
  20694688.480   108751310.61209  20694688.840    84741278.60549
  22949257.960   120599161.17308  22949258.840    93973373.53647
  24390020.800   128170401.53406  24390022.280    99873030.61445
  22314741.040   117264749.98308  22314740.540    91375127.54147
  24235119.260   127356400.04506  24235119.900    99238753.96644
  21568416.420   113342783.52909  21568417.820    88319053.05548
 15 02 16 07 12 30.0000000  0 10G01G03G04G09G11G17G19G23G28G32
  20470039.100   107570773.15309  20470042.840    83821394.07349
  20453561.300   107484184.35209  20453564.480    83753922.69949
  21481429.700   112885663.56709  21481431.440    87962856.46248
  24604218.740   129296038.27405  24604223.020   100750166.79544
  20704432.980   108802518.20809  20704433.380    84781180.58548
  22934404.980   120521107.62908  22934405.660    93912552.55447
  24410826.900   128279737.73706  24410828.600    99958227.49946
  22298040.940   117176991.07408  22298040.740    91306743.96847
  24244740.000   127406958.15305  24244740.780    99278149.78744
  21581849.180   113413372.71309  21581850.480    88374057.57348
 15 02 16 07 13  0.0000000  0 10G01G03G04G09G11G17G19G23G28G32
  20470961.220   107575618.57709  20470964.940    83825169.70549
  20452238.040   107477230.38409  20452241.180    83748504.00549
  21492524.900   112943969.09509  21492526.660    88008289.28548
  24582660.860   129182751.80705  24582665.440   100661891.55344
  20714257.660   108854147.13909  20714258.040    84821410.88448
  22919621.420   120443418.61208  22919621.820    93852015.63347
  24431648.380   128389153.41606  24431649.900   100043486.30246
  22281394.880   117089516.02708  22281394.900    91238581.57747
  24254411.420   127457783.03305  24254412.440    99317753.53444
  21595313.900   113484130.15809  21595315.160    88429193.20348
 15 02 16 07 13 30.0000000  0 10G01G03G04G09G11G17G19G23G28G32
  20471943.920   107580782.23509  20471947.580    83829193.30049
  20450973.600   107470585.35009  20450976.680    83743326.04249
  21503673.880   113002557.23609  21503675.680    88053942.32948
  24561111.500   129069509.60506  24561116.300   100573650.80744
  20724162.380   108906196.75009  20724162.840    84861968.97548
  22904907.720   120366096.63208  22904907.860    93791764.70547
  24452484.680   128498646.56006  24452485.800   100128805.45946
  22264803.360   117002327.42708  22264803.560    91170642.40047
  24264133.280   127508872.58206  24264134.400    99357563.48745
  21608810.300   113555054.46009  21608811.680    88484458.85048
 15 02 16 07 14  0.0000000  0 10G01G03G04G09G11G17G19G23G28G32
  20472987.600   107586266.35309  20472991.200    83833466.60449
  20449768.060   107464249.84509  20449771.140    83738389.27049
  21514876.860   113061429.25109  21514878.720    88099816.56548
  24539571.240   128956315.40806  24539576.320   100485447.49445
  20734147.320   108958668.01609  20734147.820    84902855.63348
  22890264.580   120289145.83408  22890264.700    93731803.02947
  24473335.560   128608216.61106  24473336.240   100214184.53345
  22248267.160   116915429.11208  22248267.400    91102929.42747
  24273905.680   127560225.37406  24273906.680    99397578.54644
  21622338.320   113626145.16809  21622339.920    88539854.16648
 15 02 16 07 14 30.0000000  0 10G01G03G04G09G11G17G19G23G28G32
  20474092.340   107592071.55109  20474095.900    83837990.09249
  20448621.120   107458222.76109  20448624.260    83733692.82249
  21526133.800   113120584.82809  21526135.700    88145911.75648
  24518040.540   128843171.36005  24518045.860   100397283.20844
  20744212.300   109011559.91709  20744212.820    84944070.06048
  22875692.420   120212568.36908  22875692.640    93672132.24147
  24494200.320   128717860.85106  24494201.040   100299621.45745
  22231786.600   116828822.76908  22231786.720    91035443.97447
  24283727.720   127611838.81905  24283728.860    99437796.72445
  21635897.740   113697400.34109  21635899.480    88595377.63448
 15 02 16 07 15  0.0000000  0 10G01G03G04G09G11G17G19G23G28G32
  20475257.880   107598196.61809  20475261.460    83842762.85149
  20447532.300   107452501.18609  20447535.520    83729234.44049
  21537444.400   113180021.72309  21537446.160    88192226.15448
  24496519.620   128730077.88605  24496525.080   100309158.38245
  20754356.840   109064869.71309  20754357.300    84985610.12248
  22861191.240   120136364.46408  22861191.660    93612752.55047
  24515078.340   128827575.22106  24515079.200   100385113.01146
  22215361.720   116742508.70408  22215361.560    90968186.26047
  24293598.180   127663707.91906  24293599.300    99478214.09244
  21649487.840   113768816.11509  21649489.580    88651026.24548
 15 02 16 07 15 30.0000000  0 10G01G03G04G09G11G17G19G23G28G32
  20476485.160   107604646.10209  20476488.780    83847788.38649
  20446502.220   107447087.95809  20446505.460    83725016.32049
  21548809.180   113239743.20909  21548810.800    88238762.32248
  24475009.480   128617041.00106  24475015.020   100221077.64845
  20764581.500   109118600.28609  20764581.900    85027478.05648
  22846762.240   120060540.45808  22846762.900    93553668.87747
  24535969.900   128937360.88606  24535970.980   100470660.10445
  22198993.540   116656492.71008  22198993.020    90901160.80847
  24303517.460   127715833.81906  24303518.060    99518831.51543
  21663108.840   113840394.36508  21663110.580    88706801.44948
 15 02 16 07 16  0.0000000  0 10G01G03G04G09G11G17G19G23G28G32
  20477773.760   107611417.80409  20477777.420    83853065.01049
  20445530.140   107441979.21209  20445533.300    83721035.46349
  21560227.440   113299746.12909  21560229.000    88285517.79748
  24453509.960   128504060.14506  24453515.500   100133040.59545
  20774885.580   109172748.19809  20774885.960    85069671.18948
  22832405.440   119985095.88508  22832406.320    93494880.87147
  24556874.060   129047212.68406  24556875.260   100556258.73246
  22182681.860   116570774.17708  22182681.120    90834367.14647
  24313484.500   127768210.87106  24313484.680    99559644.70144
  21676759.740   113912130.40508  21676761.560    88762699.60048
 15 02 16 07 16 30.0000000  0 10G01G03G04G09G11G17G19G23G28G32
  20479123.560   107618511.10909  20479127.260    83858592.23849
  20444615.500   107437172.62309  20444618.620    83717290.05249
  21571698.880   113360028.72408  21571700.380    88332491.18948
  24432021.460   128391140.12906  24432025.760   100045059.84244
  20785268.620   109227311.23909  20785268.980    85112187.80548
  22818121.020   119910031.65208  22818122.060    93436389.23847
  24577790.080   129157126.86606  24577791.480   100641905.96045
  22166426.860   116485353.79608  22166426.060    90767805.80247
  24323498.580   127820834.83306  24323498.540    99600650.29443
  21690440.080   113984021.01908  21690441.920    88818718.19748
 15 02 16 07 17  0.0000000  0 11G01G03G04G09G11G17G19G23G28G31G32
  20480536.200   107625934.72409  20480539.940    83864376.83749
  20443759.640   107432675.19509  20443762.740    83713785.54549
  21583225.000   113420598.73909  21583226.480    88379688.54348
  24410545.560   128278283.32406  24410550.200    99957119.45344
  20795731.980   109282296.52209  20795732.340    85155033.43848
  22803911.040   119835358.17108  22803912.060    93378202.07747
  24598719.080   129267109.26506  24598720.680   100727606.36046
  22150230.500   116400241.54908  22150229.780    90701484.56147
  24333560.880   127873711.15006  24333560.920    99641852.53343
  24485123.740   128670202.34006  24485128.980   100262517.10843
  21704151.060   114056072.29008  21704152.820    88874861.98348
 15 02 16 07 17 30.0000000  0 11G01G03G04G09G11G17G19G23G28G31G32
  20482013.220   107633696.66909  20482017.040    83870425.08349
  20442963.820   107428493.31209  20442966.880    83710526.92249
  21594807.120   113481463.05609  21594808.680    88427115.22548
  24389084.840   128165513.29806  24389089.340    99869246.91045
  20806276.960   109337710.76109  20806277.380    85198213.31548
  22789777.340   119761085.31808  22789778.240    93320327.08847
  24619661.980   129377164.64006  24619663.860   100813363.61746
  22134094.640   116315446.81708  22134094.080    90635410.74447
  24343671.960   127926843.73806  24343672.320    99683254.45045
  24478528.060   128635541.70505  24478533.540   100235508.91645
  21717893.680   114128289.83309  21717895.340    88931135.33648
 15 02 16 07 18  0.0000000  0 11G01G03G04G09G11G17G19G23G28G31G32
  20483548.020   107641761.74009  20483551.840    83876709.52149
  20442221.020   107424590.00009  20442224.100    83707485.36249
  21606438.320   113542585.27209  21606439.940    88474742.86048
  24367631.500   128052776.40706  24367636.080    99781399.98045
  20816896.500   109393516.68609  20816896.960    85241698.40848
  22775713.400   119687178.96208  22775714.280    93262737.69547
  24640611.640   129487254.76106  24640613.600   100899147.94546
  22118012.920   116230936.13009  22118012.440    90569558.25647
  24353824.360   127980194.41906  24353825.180    99724826.34944
  24472005.560   128601264.48606  24472010.820   100208799.43345
  21731660.720   114200635.71209  21731662.300    88987508.68348
 15 02 16 07 18 30.0000000  0 11G01G03G04G09G11G17G19G23G28G31G32
  20485145.640   107650156.77509  20485149.340    83883251.08049
  20441536.080   107420990.48509  20441539.200    83704680.52849
  21618123.580   113603991.48108  21618125.240    88522591.80347
  24346191.720   127940110.98706  24346196.480    99693608.76744
  20827595.520   109449739.93709  20827595.940    85285508.69348
  22761724.940   119613668.07308  22761725.640    93205456.45247
  24661572.260   129597403.42306  24661574.340   100984977.89146
  22101990.480   116146737.15409  22101990.060    90503948.67647
  24364022.600   128033786.28306  24364023.820    99766586.14944
  24465562.240   128567397.03306  24465565.640   100182403.81144
  21745456.820   114273134.40409  21745458.380    89044001.11548
 15 02 16 07 19  0.0000000  0 11G01G03G04G09G11G17G19G23G28G31G32
  20486805.020   107658876.62109  20486808.680    83890045.74549
  20440907.620   107417687.85009  20440910.860    83702107.03349
  21629861.580   113665675.13208  21629863.360    88570656.93448
  24324765.000   127827513.63105  24324770.060    99605870.56945
  20838372.680   109506373.67309  20838373.060    85329638.83848
  22747811.120   119540548.95008  22747811.640    93148480.47947
  24682542.360   129707602.52106  24682544.500   101070847.14445
  22086026.580   116062846.18009  22086026.220    90438579.09047
  24374265.000   128087610.55806  24374266.520    99808527.01544
  24459196.320   128533936.42506  24459199.060   100156324.98344
  21759280.500   114345778.08609  21759282.100    89100606.53248
 15 02 16 07 19 30.0000000  0 12G01G03G04G09G11G17G19G20G23G28G31G32
  20488525.820   107667919.67509  20488529.540    83897092.25049
  20440335.040   107414678.85409  20440338.360    83699762.34649
  21641651.900   113727633.57208  21641653.740    88618936.17247
  24303351.280   127714984.23506  24303356.380    99518185.34645
  20849227.320   109563414.55009  20849227.620    85374086.22348
  22733971.700   119467821.61808  22733972.260    93091809.78847
  24703521.320   129817847.33406  24703523.360   101156752.01346
  24524177.520   128875416.09205  24524175.860   100422390.60644
  22070121.160   115979262.95708  22070120.860    90373449.31047
  24384550.660   128141662.20206  24384552.380    99850645.09843
  24452906.320   128500886.09605  24452909.940   100130571.48244
  21773131.020   114418562.76609  21773132.660    89157321.80448
 15 02 16 07 20  0.0000000  0 12G01G03G04G09G11G17G19G20G23G28G31G32
  20490310.420   107677297.96909  20490314.240    83904399.98349
  20439820.280   107411973.84209  20439823.640    83697654.53249
  21653496.620   113789877.97708  21653498.580    88667438.25547
  24281953.060   127602536.42706  24281958.060    99430563.70245
  20860161.380   109620873.29709  20860161.700    85418859.23048
  22720209.320   119395499.66808  22720209.920    93035455.00047
  24724510.820   129928146.87606  24724512.860   101242699.51845
  24507877.800   128789758.74805  24507876.420   100355644.56344
  22054276.880   115896001.11908  22054276.600    90308569.96447
  24394881.240   128195949.82506  24394883.000    99892947.02744
  24446697.540   128468263.78906  24446699.060   100105148.08844
  21787010.180   114491497.96009  21787011.820    89214154.37548
 15 02 16 07 20 30.0000000  0 12G01G03G04G09G11G17G19G20G23G28G31G32
  20492159.560   107687015.10509  20492163.380    83911971.75049
  20439363.700   107409574.76609  20439367.080    83695785.10649
  21665396.220   113852410.73708  21665398.280    88716165.02948
  24260571.280   127490175.42106  24260576.320    99343009.69645
  20871175.280   109678751.78709  20871175.640    85463959.30548
  22706525.060   119323588.41808  22706525.640    92979420.23247
  24745510.820   130038501.85106  24745512.920   101328690.23045
  24491600.860   128704220.90205  24491600.280   100288991.61944
  22038494.640   115813065.38908  22038494.340    90243944.72747
  24405256.680   128250473.56905  24405258.620    99935432.99843
  24440568.740   128436060.60405  24440571.540   100080054.67245
  21800918.280   114564584.90408  21800919.820    89271105.19848
 15 02 16 07 21  0.0000000  0 11G01G03G04G09G11G17G19G20G23G28G32
  20494068.280   107697045.47009  20494072.120    83919787.59249
  20438960.160   107407454.26509  20438963.500    83694132.74749
  21677345.700   113915205.21809  21677347.780    88765095.73348
  24239201.460   127377877.23906  24239206.500    99255504.67045
  20882263.900   109737022.86509  20882264.320    85509365.29948
  22692914.420   119252063.98208  22692914.880    92923686.87547
  24766515.840   130148883.33306  24766518.080   101414701.56745
  24475341.300   128618776.44705  24475341.680   100222411.40044
  22022769.880   115730431.51508  22022769.500    90179554.70147
  24415671.660   128305204.04806  24415673.580    99978080.01044
  21814849.800   114637795.29708  21814851.320    89328152.20448
 15 02 16 07 21 30.0000000  0 11G01G03G04G09G11G17G19G20G23G28G32
  20496043.040   107707422.99009  20496046.920    83927873.93949
  20438615.860   107405644.66709  20438619.120    83692722.65449
  21689351.180   113978294.15208  21689353.320    88814255.87148
  24217850.540   127265677.30506  24217855.460    99168076.20145
  20893433.400   109795718.98409  20893433.900    85555102.48948
  22679384.100   119180961.99108  22679384.600    92868282.70847
  24787531.800   130259322.22506  24787534.140   101500757.63044
  24459105.300   128533458.81604  24459106.760   100155930.04741
  22007109.300   115648134.84008  22007108.820    90115427.43247
  24426131.720   128360171.55605  24426133.600   100020911.76544
  21828810.800   114711160.78108  21828812.420    89385320.06348
 15 02 16 07 22  0.0000000  0 11G01G03G04G09G11G17G19G20G23G28G32
  20498083.160   107718143.69609  20498087.060    83936227.70349
  20438329.660   107404140.31609  20438332.880    83691550.41249
  21701411.600   114041672.28908  21701413.840    88863641.36748
  24196517.900   127153573.39106  24196522.860    99080722.55945
  20904682.580   109854834.37309  20904683.220    85601166.38248
  22665933.720   119110279.68308  22665934.280    92813205.55447
  24808557.400   130369811.66406  24808559.620   101586853.07545
  24442892.380   128448263.76005  24442894.720   100089544.18144
  21991512.400   115566172.43309  21991511.780    90051560.62747
  24436635.380   128415368.78305  24436637.080   100063922.48443
  21842800.040   114784674.83108  21842801.860    89442603.67448
 15 02 16 07 22 30.0000000  0 11G01G03G04G09G11G17G19G20G23G28G32
  20500182.660   107729176.37809  20500186.560    83944824.56549
  20438095.220   107402908.30709  20438098.440    83690590.38349
  21713521.000   114105307.76308  21713523.240    88913227.40447
  24175197.940   127041535.81406  24175202.920    98993420.61945
  20916005.280   109914336.06809  20916006.020    85647531.29448
  22652557.500   119039987.37308  22652558.240    92758432.29847
  24829586.120   130480317.35806  24829588.260   101672961.20345
  24426697.260   128363159.65105  24426700.000   100023229.18644
  21975973.520   115484514.82309  21975972.840    89987931.33147
  24447176.200   128470760.81105  24447177.940   100107084.99144
  21856811.240   114858303.87608  21856813.120    89499976.91548
 15 02 16 07 23  0.0000000  0 11G01G03G04G09G11G17G19G20G23G28G32
  20502347.380   107740551.70109  20502351.260    83953688.41749
  20437918.100   107401977.66109  20437921.360    83689865.17849
  21725685.020   114169229.91708  21725687.160    88963036.82147
  24153896.920   126929596.90606  24153901.740    98906195.56944
  20927407.200   109974253.50909  20927407.980    85694220.17248
  22639261.720   118970117.66108  22639262.540    92703988.34547
  24850623.180   130590867.07206  24850625.360   101759103.63744
  24410525.640   128278176.57106  24410528.000    99957008.53044
  21960498.760   115403193.89309  21960498.060    89924564.36847
  24457759.460   128526374.99405  24457760.860   100150420.56641
  21870849.700   114932076.11908  21870851.660    89557461.73548
 15 02 16 07 23 30.0000000  0 11G01G03G04G09G11G17G19G20G23G28G32
  20504576.080   107752263.36209  20504579.940    83962814.35649
  20437796.860   107401340.38109  20437800.100    83689368.57349
  21737902.200   114233431.34508  21737904.260    89013063.85047
  24132613.620   126817752.00506  24132618.320    98819043.77845
  20938886.680   110034578.20309  20938887.440    85741226.38648
  22626045.480   118900666.01408  22626046.360    92649870.14147
  24871666.900   130701451.46806  24871669.080   101845273.06345
  24394375.980   128193307.76606  24394377.860    99890876.94944
  21945087.080   115322204.61009  21945086.480    89861455.84547
  24468383.280   128582201.39305  24468384.140   100193921.56644
  21884913.740   115005982.81408  21884915.700    89615051.31648
 15 02 16 07 24  0.0000000  0 10G01G03G04G09G11G17G19G20G23G32
  20506868.180   107764308.34209  20506872.000    83972200.02849
  20437730.600   107400991.87709  20437733.820    83689096.98749
  21750171.780   114297907.92608  21750173.740    89063305.28947
  24111347.880   126705999.66306  24111352.440    98731964.08345
  20950442.860   110095305.78709  20950443.540    85788546.53848
  22612908.560   118831630.89208  22612909.380    92596076.51147
  24892715.960   130812064.59205  24892718.180   101931464.89045
  24378247.320   128108550.00306  24378248.840    99824831.86044
  21929738.120   115241545.19409  21929737.680    89798604.35248
  21899002.320   115080018.72608  21899004.320    89672741.58448
 15 02 16 07 24 30.0000000  0 10G01G03G04G09G11G17G19G20G23G32
  20509224.860   107776692.62409  20509228.660    83981850.08349
  20437720.120   107400936.38709  20437723.300    83689053.71749
  21762494.660   114362664.60908  21762496.620    89113765.00147
  24090101.080   126594347.50406  24090105.900    98644962.47645
  20962076.500   110156440.62309  20962077.180    85836184.03648
  22599852.400   118763019.69308  22599853.060    92542613.20248
  24913770.960   130922709.16105  24913773.320   102017681.19444
  24362140.660   128023908.60306  24362142.080    99758877.41144
  21914453.260   115161222.89209  21914453.000    89736015.55747
  21913116.160   115154187.36908  21913118.140    89730535.27048
 15 02 16 07 25  0.0000000  0 11G01G03G04G09G11G17G19G20G23G28G32
  20511645.580   107789413.65409  20511649.400    83991762.53749
  20437764.600   107401169.77309  20437767.740    83689235.55449
  21774870.100   114427697.70208  21774872.100    89164440.08148
  24068873.240   126482794.68306  24068878.160    98558038.24545
  20973786.760   110217978.24409  20973787.440    85884135.39348
  22586876.720   118694831.32208  22586877.320    92489479.38647
  24934831.080   131033379.78505  24934833.300   102103917.80244
  24346055.480   127939380.65606  24346057.000    99693011.40644
  21899232.360   115081236.60109  21899232.120    89673688.58148
  24500488.440   128750927.64405  24500490.420   100325411.85944
  21927254.280   115228483.75108  21927256.280    89788428.51248
 15 02 16 07 25 30.0000000  0 11G01G03G04G09G11G17G19G20G23G28G32
  20514129.740   107802468.20509  20514133.600    84001934.88249
  20437863.060   107401687.14709  20437866.220    83689638.68449
  21787297.300   114493002.80508  21787299.340    89215327.11348
  24047663.840   126371339.51106  24047668.900    98471190.12345
  20985572.800   110279914.01309  20985573.460    85932396.99248
  22573981.140   118627064.42408  22573981.900    92436673.98947
  24955894.960   131144070.25705  24955897.220   102190169.90144
  24329991.300   127854962.58106  24329992.780    99627230.98645
  21884075.020   115001584.13109  21884074.600    89611621.72847
  24511267.080   128807565.09706  24511268.860   100369544.86243
  21941415.660   115302902.44508  21941417.720    89846417.04948
 15 02 16 07 26  0.0000000  0 11G01G03G04G09G11G17G19G20G23G28G32
  20516678.560   107815862.25809  20516682.440    84012371.77549
  20438016.320   107402492.83609  20438019.520    83690266.47749
  21799777.200   114558585.02808  21799779.340    89266430.08048
  24026474.420   126259989.76606  24026479.680    98384424.14045
  20997435.420   110342252.22109  20997436.080    85980972.17848
  22561167.160   118559726.62808  22561168.020    92384202.95447
  24976963.280   131254783.83605  24976965.740   102276439.97344
  24313949.080   127770659.80705  24313950.480    99561540.46245
  21868982.580   114922272.90009  21868981.980    89549820.76848
  24522083.380   128864400.25806  24522084.780   100413831.90043
  21955601.040   115377447.09608  21955603.060    89904503.74148
 15 02 16 07 26 30.0000000  0 11G01G03G04G09G11G17G19G20G23G28G32
  20519292.380   107829597.62009  20519296.240    84023074.61849
  20438224.520   107403587.03409  20438227.740    83691119.08149
  21812309.940   114624444.90508  21812312.100    89317749.41648
  24005305.720   126148748.78606  24005311.200    98297742.91345
  21009374.600   110404992.92809  21009375.280    86029861.00148
  22548435.480   118492821.13508  22548436.240    92332068.77347
  24998035.660   131365519.07305  24998038.280   102362726.92943
  24297929.120   127686473.81005  24297930.260    99495940.93744
  21853955.620   114843306.06009  21853954.980    89488288.18247
  24532936.300   128921431.29705  24532937.280   100458271.54644
  21969810.320   115452117.13308  21969812.280    89962688.12448
 15 02 16 07 27  0.0000000  0 11G01G03G04G09G11G17G19G20G23G28G32
  20521971.220   107843674.82809  20521975.060    84034043.83349
  20438487.460   107404968.63609  20438490.660    83692195.63549
  21824895.440   114690581.87008  21824897.580    89369284.66047
  23984158.240   126037618.85706  23984163.960    98211148.21046
  21021390.160   110468135.03809  21021390.900    86079062.60448
  22535786.500   118426350.17008  22535787.040    92280273.17747
  25019111.740   131476273.75905  25019114.540   102449029.04644
  24281931.260   127602404.85605  24281932.180    99430432.68543
  21838994.460   114764685.35909  21838993.940    89427025.31547
  24543825.160   128978655.22005  24543826.480   100502861.50944
  21984043.180   115526910.81508  21984045.080    90020968.85448
 15 02 16 07 27 30.0000000  0 10G01G03G04G09G11G17G19G20G23G32
  20524714.680   107858091.47609  20524718.480    84045277.56149
  20438804.300   107406633.66209  20438807.520    83693493.05849
  21837533.040   114756992.55208  21837535.140    89421033.20247
  23963031.880   125926599.23006  23963037.560    98124639.45946
  21033481.300   110531674.26509  21033482.100    86128573.66448
  22523219.960   118360312.65108  22523220.520    92228815.36648
  25040190.520   131587042.31105  25040193.480   102535341.93343
  24265955.140   127518449.94505  24265956.040    99365013.27043
  21824098.960   114686409.62209  21824098.560    89366031.26248
  21998298.720   115601823.47108  21998300.600    90079342.30748
 15 02 16 07 28  0.0000000  0 10G01G03G04G09G11G17G19G20G23G32
  20527523.300   107872850.58209  20527527.140    84056778.12849
  20439175.300   107408583.43309  20439178.580    83695012.35649
  21850223.080   114823678.64708  21850225.080    89472996.34847
  23941927.400   125815694.53906  23941933.040    98038220.26846
  21045648.280   110595611.85409  21045649.100    86178395.13348
  22510736.760   118294713.51008  22510737.480    92177699.13247
  25061272.100   131697825.01204  25061275.220   102621665.87844
  24250001.180   127434611.79205  24250002.420    99299684.85745
  21809270.040   114608483.35309  21809269.740    89305309.51048
  22012577.040   115676855.76608  22012578.880    90137808.98847
 15 02 16 07 28 30.0000000  0 10G01G03G04G09G11G17G19G20G23G32
  20530396.940   107887951.63609  20530400.900    84068545.15349
  20439600.120   107410815.85909  20439603.460    83696751.90049
  21862965.320   114890638.84509  21862967.200    89525173.07747
  23920845.080   125704906.04706  23920850.640    97951891.59646
  21057890.720   110659945.81609  21057891.520    86228525.46748
  22498337.140   118229553.62208  22498338.040    92126925.17248
  25082355.580   131808618.43004  25082358.840   102707998.10945
  24234069.380   127350889.38906  24234071.120    99234446.57644
  21794507.800   114530907.25509  21794507.520    89244860.61448
  22026877.500   115752005.02508  22026879.420    90196366.78647
 15 02 16 07 29  0.0000000  0 10G01G03G04G09G11G17G19G20G23G32
  20533336.040   107903396.69009  20533340.020    84080580.22549
  20440078.840   107413331.33609  20440082.200    83698712.00349
  21875759.840   114957873.80008  21875761.660    89577563.90048
  23899785.540   125594237.41806  23899791.080    97865656.34746
  21070208.640   110724676.73309  21070209.400    86278965.09748
  22486021.840   118164836.23408  22486022.880    92076496.00648
  25103440.620   131919421.43304  25103444.060   102794337.84345
  24218160.060   127267284.33106  24218162.440    99169299.74345
  21779812.800   114453684.48309  21779812.540    89184687.03148
  22041200.060   115827270.92508  22041202.120    90255015.47647
 15 02 16 07 29 30.0000000  0 10G01G03G04G09G11G17G19G20G23G32
  20536340.500   107919184.95009  20536344.440    84092882.74049
  20440611.040   107416127.55909  20440614.340    83700890.86949
  21888606.200   115025381.79108  21888608.160    89630167.46347
  23878749.000   125483689.61406  23878754.480    97779515.22046
  21082601.540   110789801.51609  21082602.240    86329711.65248
  22473791.000   118100562.43908  22473792.140    92026412.51948
  25124526.780   132030230.54104  25124530.480   102880682.33445
  24202272.820   127183795.45206  24202274.740    99104243.45543
  21765185.200   114376815.66009  21765184.840    89124789.26448
  22055544.260   115902650.64108  22055546.400    90313752.86047
 15 02 16 07 30  0.0000000  0 10G01G03G04G09G11G17G19G20G23G32
  20539411.700   107935324.02009  20539415.680    84105458.60549
  20441197.800   107419210.43109  20441200.980    83703293.09549
  21901505.680   115093169.30708  21901507.880    89682988.83547
  23857737.080   125373271.85006  23857742.780    97693475.43445
  21095070.540   110855326.37209  21095071.260    86380769.95748
  22461646.360   118036741.72208  22461647.600    91976682.07248
  25145613.500   132141082.20104  25145619.800   102967107.01844
  24186408.780   127100429.92705  24186410.480    99039283.29544
  21750626.700   114300309.37309  21750626.160    89065173.99148
  22069911.180   115978149.40408  22069913.320    90372583.00847
 15 02 16 07 30 30.0000000  0  9G01G03G04G09G11G17G20G23G32
  20542544.740   107951788.08609  20542548.740    84118287.71649
  20441833.840   107422552.63109  20441836.980    83705897.38849
  21914453.240   115161209.30208  21914455.600    89736006.94747
  23836745.340   125262960.11806  23836751.280    97607518.25345
  21107610.400   110921223.78109  21107611.160    86432118.54948
  22449583.200   117973349.43108  22449584.480    91927285.45948
  24170562.840   127017161.48005  24170564.620    98974398.71243
  21736132.520   114224141.40109  21736131.880    89005822.34348
  22084295.400   116053739.21708  22084297.580    90431484.10347
 15 02 16 07 31  0.0000000  0 10G01G03G04G09G11G17G20G23G31G32
  20545746.640   107968614.15009  20545750.660    84131398.89849
  20442525.840   107426189.53609  20442529.020    83708731.32349
  21927455.700   115229537.71408  21927458.140    89789249.78647
  23815781.220   125152793.03706  23815787.200    97521673.79546
  21120227.780   110987528.95909  21120228.660    86483784.87548
  22437608.980   117910424.15708  22437610.220    91878252.76048
  24154742.620   126934026.87406  24154744.480    98909618.48943
  21721709.820   114148349.83809  21721709.240    88946763.99648
  24330892.620   127859703.43215                                
  22098703.580   116129454.97408  22098705.820    90490483.32047
 15 02 16 07 31 30.0000000  0 10G01G03G04G09G11G17G20G23G31G32
  20549013.580   107985782.05909  20549017.600    84144776.46349
  20443269.760   107430099.39509  20443273.040    83711777.94749
  21940509.020   115298133.34808  21940511.420    89842700.86347
  23794841.240   125042752.21306  23794847.100    97435927.68445
  21132918.620   111054220.20709  21132919.640    86535752.03648
  22425720.100   117847947.17108  22425721.200    91829569.39048
  24138944.360   126851005.78505  24138946.240    98844926.68645
  21707355.140   114072915.96609  21707354.700    88887984.37348
  24326607.920   127837184.01005  24326605.740    99613411.69141
  22113131.500   116205274.27908  22113133.840    90549563.24147
 15 02 16 07 32  0.0000000  0 10G01G03G04G09G11G17G20G23G31G32
  20552346.420   108003296.09909  20552350.380    84158423.73649
  20444066.200   107434284.95509  20444069.580    83715039.39949
  21953613.880   115366999.48608  21953616.180    89896362.72047
  23773926.520   124932843.61207  23773932.080    97350284.62046
  21145683.420   111121299.62909  21145684.500    86588021.68048
  22413917.640   117785924.47308  22413918.580    91781239.98948
  24123168.500   126768101.73906  24123170.400    98780326.13143
  21693069.540   113997845.00209  21693069.200    88829487.53048
  24322408.060   127815116.33705  24322412.020    99596208.34243
  22127579.620   116281199.34608  22127581.960    90608725.56647
 15 02 16 07 32 30.0000000  0 10G01G03G04G09G11G17G20G23G31G32
  20555747.260   108021167.54409  20555751.200    84172349.50549
  20444917.040   107438755.89709  20444920.400    83718523.23049
  21966772.180   115436146.10508  21966774.420    89950243.12847
  23753039.400   124823080.30107  23753044.740    97264754.78445
  21158524.020   111188777.12509  21158525.100    86640601.49848
  22402204.020   117724368.75108  22402204.840    91733274.47647
  24107416.880   126685325.61506  24107418.740    98715825.19645
  21678855.520   113923149.51509  21678855.120    88771283.25448
  24318300.860   127793532.79505  24318305.480    99579388.73643
  22142049.660   116357239.29208  22142051.900    90667977.40247
 15 02 16 07 33  0.0000000  0  9G01G03G04G09G11G17G20G23G32
  20559211.320   108039371.50209  20559215.340    84186534.37849
  20445817.220   107443485.81009  20445820.500    83722208.85449
  21979978.900   115505547.33808  21979981.120    90004321.93147
  23732175.420   124713439.06206  23732180.600    97179320.06346
  21171435.320   111256626.16709  21171436.360    86693470.83448
  22390574.760   117663256.50108  22390575.580    91685654.52147
  24091684.780   126602652.51206  24091686.700    98651404.54344
  21664708.460   113848805.97909  21664708.020    88713353.23948
  22156536.520   116433367.04608  22156538.560    90727297.66047
 15 02 16 07 33 30.0000000  0 10G01G03G04G09G11G17G20G23G31G32
  20562743.340   108057932.40109  20562747.440    84200997.38949
  20446770.980   107448497.53409  20446774.260    83726114.06949
  21993238.500   115575226.40208  21993240.660    90058617.23447
  23711339.660   124603946.06607  23711344.600    97094000.83446
  21184421.580   111324869.04609  21184422.500    86746647.05848
  22379034.860   117602613.83808  22379035.720    91638400.48247
  24075976.860   126520106.16006  24075978.640    98587082.66144
  21650633.180   113774839.93109  21650632.760    88655717.37348
  24310345.660   127751728.92005  24310347.640    99546810.38644
  22171044.360   116509604.99108  22171046.200    90786703.77947
 15 02 16 07 34  0.0000000  0 10G01G03G04G09G11G17G20G23G31G32
  20566342.460   108076845.83609  20566346.600    84215735.10649
  20447777.180   107453785.11409  20447780.500    83730234.23249
  22006549.980   115645178.00508  22006552.160    90113124.90347
  23690531.580   124494598.64606  23690536.320    97008795.08045
  21197481.620   111393499.44909  21197482.400    86800125.25648
  22367583.780   117542437.72608  22367584.560    91591509.98647
  24060292.200   126437681.78206  24060294.120    98522855.83244
  21636629.080   113701248.18309  21636628.720    88598373.16448
  24306504.240   127731537.77804  24306506.140    99531077.08844
  22185571.840   116585946.56708  22185573.580    90846190.66047
 15 02 16 07 34 30.0000000  0 10G01G03G04G09G11G17G20G23G31G32
  20570007.940   108096107.95309  20570012.140    84230744.52449
  20448834.780   107459343.18109  20448838.140    83734565.16749
  22019912.200   115715396.82708  22019914.480    90167840.80947
  23669750.760   124385394.72106  23669755.320    96923701.10045
  21210614.340   111462512.13009  21210615.080    86853901.32248
  22356221.060   117482725.93208  22356221.700    91544981.29948
  24044629.820   126355375.14206  24044631.960    98458720.73445
  21622695.720   113628028.18209  21622695.380    88541318.62248
  24302751.720   127711814.97105  24302753.260    99515708.62143
  22200117.820   116662385.85108  22200119.540    90905753.66947
 15 02 16 07 35  0.0000000  0 10G01G03G04G09G11G17G20G23G31G32
  20573739.760   108115718.63909  20573744.000    84246025.55549
  20449943.580   107465170.10409  20449946.920    83739105.60249
  22033325.000   115785881.92108  22033327.420    90222764.18147
  23648997.580   124276335.89607  23649001.920    96838720.18946
  21223819.400   111531905.13609  21223820.200    86907973.75148
  22344946.900   117423479.70608  22344947.520    91498815.38848
  24028989.740   126273185.84306  24028991.800    98394677.09245
  21608833.380   113555181.16109  21608833.020    88484554.71248
  24299088.260   127692561.40905  24299090.300    99500705.86643
  22214681.960   116738920.80208  22214683.740    90965391.23047
 15 02 16 07 35 30.0000000  0 10G01G03G04G09G11G17G20G23G31G32
  20577539.000   108135683.41409  20577543.220    84261582.49949
  20451104.360   107471269.83409  20451107.620    83743858.61849
  22046789.340   115856637.60008  22046791.860    90277898.40947
  23628273.500   124167429.47407  23628277.580    96753858.02946
  21237097.520   111601682.30609  21237098.440    86962345.52748
  22333762.640   117364706.17508  22333763.360    91453017.81948
  24013373.060   126191119.26506  24013374.820    98330729.09744
  21595043.260   113482713.58109  21595042.900    88428086.47848
  24295514.180   127673783.57205  24295517.160    99486092.76544
  22229264.840   116815554.76708  22229266.800    91025105.93147
 15 02 16 07 36  0.0000000  0 10G01G03G04G09G11G17G20G23G31G32
  20581404.740   108155997.91509  20581408.980    84277411.96049
  20452315.980   107477636.53309  20452319.140    83748819.66149
  22060304.240   115927658.39808  22060306.760    90333239.23147
  23607577.920   124058672.79707  23607581.820    96669112.57346
  21250447.540   111671837.32609  21250448.580    87017011.72348
  22322667.780   117306402.48208  22322668.740    91407586.35548
  23997778.740   126109170.36306  23997780.380    98266872.79844
  21581324.680   113410622.23309  21581324.320    88371911.41748
  24292031.340   127655478.27905  24292033.820    99471828.96441
  22243865.440   116892281.39508  22243867.500    91084892.84747
 15 02 16 07 36 30.0000000  0 10G01G03G04G09G11G17G20G23G31G32
  20585338.420   108176669.58809  20585342.720    84293519.72849
  20453579.480   107484276.14709  20453582.660    83753993.36849
  22073870.780   115998950.84508  22073873.360    90388791.72647
  23586912.620   123950075.19807  23586916.520    96584491.07546
  21263870.620   111742376.01709  21263871.740    87071976.89648
  22311664.000   117248577.36708  22311665.140    91362527.80848
  23982208.040   126027346.33706  23982209.800    98203113.77144
  21567679.400   113338915.96009  21567679.080    88316036.41448
  24288639.300   127637653.98905  24288641.860    99457939.93043
  22258484.780   116969106.20408  22258486.920    91144756.26347
 15 02 16 07 37  0.0000000  0 10G01G03G04G09G11G17G20G23G31G32
  20589339.060   108197692.86709  20589343.360    84309901.47549
  20454893.560   107491181.58909  20454896.800    83759374.20949
  22087487.760   116070508.16308  22087490.400    90444550.61047
  23566276.760   123841632.79007  23566280.760    96499990.50046
  21277365.320   111813290.88709  21277366.480    87127235.19148
  22300750.520   117191226.72908  22300751.780    91317838.98948
  23966659.940   125945641.46606  23966661.780    98139447.61144
  21554106.560   113267590.22009  21554106.220    88260457.92248
  24285337.940   127620305.70105  24285340.880    99444421.79743
  22273121.320   117046021.52508  22273123.520    91204690.20847
 15 02 16 07 37 30.0000000  0 10G01G03G04G09G11G17G20G23G31G32
  20593406.600   108219067.73409  20593410.860    84326557.19349
  20456257.940   107498351.33309  20456261.200    83764960.99749
  22101154.960   116142329.08808  22101157.600    90500514.89747
  23545670.700   123733347.31907  23545674.960    96415612.22146
  21290931.280   111884580.24109  21290932.500    87182785.28548
  22289927.720   117134352.17908  22289928.960    91273521.15448
  23951134.420   125864054.93306  23951136.140    98075873.66344
  21540606.340   113196646.24809  21540605.980    88205176.90548
  24282127.640   127603434.43105  24282130.620    99431275.42244
  22287774.720   117123025.41508  22287776.980    91264693.17147
 15 02 16 07 38  0.0000000  0 10G01G03G04G09G11G17G20G23G31G32
  20597541.920   108240798.48809  20597546.080    84343490.22249
  20457673.160   107505788.19409  20457676.400    83770755.93049
  22114872.920   116214416.97308  22114875.580    90556687.20647
  23525095.680   123625224.88607  23525100.120    96331361.00146
  21304568.980   111956246.76409  21304570.260    87238629.27948
  22279196.600   117077959.39208  22279197.740    91229578.71448
  23935632.460   125782591.19706  23935633.900    98012395.44144
  21527179.820   113126089.63809  21527179.480    88150197.74048
  24279009.100   127587045.48905  24279011.920    99418504.79644
  22302445.320   117200120.15708  22302447.700    91324766.93047
 15 02 16 07 38 30.0000000  0 10G01G03G04G09G11G17G20G23G31G32
  20601744.900   108262885.08209  20601749.020    84360700.52449
  20459138.940   107513490.68109  20459142.160    83776757.85449
  22128641.380   116286770.59808  22128644.040    90613066.58847
  23504551.960   123517267.27107  23504556.640    96247238.20546
  21318278.000   112028288.38409  21318279.320    87294765.55148
  22268557.420   117022049.76708  22268558.440    91186012.74648
  23920154.060   125701254.79606  23920155.860    97949040.52244
  21513827.220   113055921.46909  21513826.880    88095521.25748
  24275982.500   127571139.76505  24275984.980    99406110.78543
  22317132.900   117277303.90808  22317135.340    91384910.03547
 15 02 16 07 39  0.0000000  0 10G01G03G04G09G11G17G20G23G31G32
  20606015.360   108285326.48809  20606019.520    84378187.30449
  20460654.760   107521456.23509  20460657.960    83782964.76049
  22142460.080   116359388.09108  22142462.680    90669651.58247
  23484039.600   123409475.25307  23484044.520    96163244.49446
  21332057.920   112100702.32909  21332059.260    87351191.94648
  22258010.220   116966623.64408  22258011.160    91142823.54148
  23904697.940   125620034.28206  23904700.220    97885751.80944
  21500548.640   112986141.83409  21500548.280    88041147.51848
  24273047.920   127555716.96904  24273049.780    99394093.05544
  22331836.860   117354573.52108  22331839.340    91445120.05047
 15 02 16 07 39 30.0000000  0 10G01G03G04G09G11G17G20G23G31G32
  20610354.080   108308126.53909  20610358.260    84395953.54549
  20462221.040   107529687.28609  20462224.320    83789378.54849
  22156329.480   116432272.02608  22156332.080    90726444.19047
  23463559.760   123301854.39706  23463564.900    96079384.12146
  21345909.060   112173490.41409  21345910.420    87407909.87348
  22247555.960   116911686.24708  22247556.920    91100015.16948
  23889265.600   125538938.10706  23889268.300    97822559.94145
  21487345.020   112916755.82009  21487344.580    87987080.49848
  24270206.020   127540781.64304  24270210.400    99382442.08243
  22346557.560   117431931.04008  22346560.020    91505398.55547
 15 02 16 07 40  0.0000000  0 10G01G03G04G09G11G17G20G23G31G32
  20614760.340   108331281.33709  20614764.520    84413996.20849
  20463836.820   107538178.46209  20463840.220    83795995.02649
  22170248.560   116505417.14008  22170251.220    90783440.32247
  23443112.220   123194402.62707  23443117.380    95995655.50846
  21359830.360   112246646.90609  21359831.700    87464914.87848
  22237194.180   116857235.20108  22237195.160    91057585.76148
  23873856.200   125457961.82206  23873858.900    97759461.51845
  21474215.760   112847760.54709  21474215.220    87933317.95548
  24267456.360   127526330.82904  24267455.880    99371180.70044
  22361293.920   117509370.69408  22361296.300    91565741.08247
 15 02 16 07 40 30.0000000  0  9G01G03G04G09G11G17G20G23G32
  20619234.360   108354792.67309  20619238.620    84432316.70549
  20465502.200   107546930.17109  20465505.660    83802814.52849
  22184217.540   116578824.41008  22184220.220    90840640.72147
  23422697.600   123087123.60207  23422702.640    95912061.53146
  21373821.840   112320172.17009  21373823.140    87522207.23848
  22226925.560   116803273.60408  22226926.420    91015537.75047
  23858470.260   125377107.52606  23858472.480    97696458.14544
  21461161.400   112779158.99409  21461160.800    87879862.20848
  22376045.840   117586892.33308  22376048.260    91626147.47947
 15 02 16 07 41  0.0000000  0  9G01G03G04G09G11G17G20G23G32
  20623776.340   108378660.95409  20623780.600    84450915.32549
  20467217.000   107555941.32009  20467220.440    83809836.18249
  22198236.240   116652493.14208  22198238.960    90898044.85747
  23402316.380   122980019.41107  23402321.300    95828603.78146
  21387883.260   112394064.78109  21387884.440    87579785.83748
  22216750.540   116749803.34208  22216751.260    90973872.59748
  23843107.640   125296374.89207  23843109.260    97633549.57744
  21448182.220   112710952.81109  21448181.580    87826714.53748
  22390813.140   117664494.42708  22390815.500    91686616.57747
 15 02 16 07 41 30.0000000  0  9G01G03G04G09G11G17G20G23G32
  20628387.320   108402891.66309  20628391.580    84469796.36049
  20468981.980   107565215.97609  20468985.380    83817063.16949
  22212305.480   116726427.57808  22212308.260    90955656.02747
  23381969.860   122873097.44007  23381974.700    95745288.03546
  21402015.240   112468328.19409  21402016.260    87637653.36848
  22206670.340   116696831.11608  22206670.980    90932595.52348
  23827769.160   125215769.26106  23827770.280    97570739.98244
  21435279.480   112643148.39409  21435278.800    87773879.92548
  22405596.460   117742180.74108  22405598.820    91747151.29847
 15 02 16 07 42  0.0000000  0  9G01G03G04G09G11G17G20G23G32
  20633066.600   108427481.28009  20633070.880    84488957.06649
  20470796.120   107574749.22809  20470799.520    83824491.66849
  22226424.480   116800623.33508  22226427.320    91013470.83247
  23361657.640   122766355.94107  23361662.420    95662112.92746
  21416216.780   112542957.23109  21416217.740    87695805.80748
  22196684.540   116644355.02808  22196685.140    90891705.05548
  23812453.860   125135286.87706  23812455.000    97508026.39145
  21422452.780   112575743.56009  21422452.060    87721356.68348
  22420394.740   117819945.90908  22420397.180    91807747.45147
 15 02 16 07 42 30.0000000  0  9G01G03G04G09G11G17G20G23G32
  20637814.200   108452429.81309  20637818.460    84508397.44649
  20472659.140   107584539.66109  20472662.520    83832120.55349
  22240592.980   116875079.06008  22240595.860    91071488.22047
  23341380.060   122659796.78307  23341384.960    95579079.87646
  21430487.540   112617950.20209  21430488.540    87754241.82548
  22186793.400   116592376.64508  22186794.040    90851202.40648
  23797161.840   125054927.34806  23797163.380    97445408.57844
  21409702.300   112508739.49009  21409701.600    87669145.72648
  22435207.720   117897788.20308  22435210.240    91868403.70047
 15 02 16 07 43  0.0000000  0  9G01G03G04G09G11G17G20G23G32
  20642630.100   108477737.25409  20642634.320    84528117.49249
  20474570.800   107594585.83409  20474574.200    83839948.72249
  22254810.740   116949793.89308  22254813.760    91129707.50047
  23321137.460   122553421.75407  23321142.440    95496190.30946
  21444827.140   112693304.97209  21444828.160    87812959.77148
  22176997.180   116540897.20808  22176997.880    90811088.56248
  23781893.240   124974690.33706  23781895.240    97382886.19744
  21397028.180   112442137.23109  21397027.600    87617247.87448
  22450035.120   117975705.69908  22450037.580    91929118.56847
 15 02 16 07 43 30.0000000  0  9G01G03G04G09G11G17G20G23G32
  20647514.400   108503404.30309  20647518.680    84548117.75349
  20476531.060   107604887.15609  20476534.480    83847975.71149
