     2.11           OBSERVATION DATA    G                   RINEX VERSION / TYPE
SPIDER V4,0,0,3554                      2015 03 17 00:00    PGM / RUN BY / DATE 
ABZH                                                        MARKER NAME         
ABZH                                                        MARKER NUMBER       
                                                            OBSERVER / AGENCY   
462405              LEICA GRX1200PRO    8.20/2.127          REC # / TYPE / VERS 
103261              LEIAT504                                ANT # / TYPE        
  5106694.6829   270584.9059  3799508.1083                  APPROX POSITION XYZ 
        0.0770        0.0000        0.0000                  ANTENNA: DELTA H/E/N
     1     1                                                WAVELENGTH FACT L1/2
     4    C1    L1    P2    L2                              # / TYPES OF OBSERV 
    30.000                                                  INTERVAL            
  2015    02    25    00    00    0.0000000     GPS         TIME OF FIRST OBS   
  2015    02    25    23    59   30.0000000     GPS         TIME OF LAST OBS    
    16                                                      LEAP SECONDS        
    30                                                      # OF SATELLITES     
   G 1   818   818   818   818                              PRN / # OF OBS      
   G 2   917   917   911   911                              PRN / # OF OBS      
   G 3   834   834   833   833                              PRN / # OF OBS      
   G 4   834   834   834   834                              PRN / # OF OBS      
   G 5   662   662   662   662                              PRN / # OF OBS      
   G 6   783   783   783   783                              PRN / # OF OBS      
   G 7   660   660   660   660                              PRN / # OF OBS      
   G 9   786   786   786   786                              PRN / # OF OBS      
   G10   769   769   769   769                              PRN / # OF OBS      
   G11   784   784   784   784                              PRN / # OF OBS      
   G12   803   803   803   803                              PRN / # OF OBS      
   G13   806   806   806   806                              PRN / # OF OBS      
   G14   917   917   913   913                              PRN / # OF OBS      
   G15   720   720   720   720                              PRN / # OF OBS      
   G16   676   676   676   676                              PRN / # OF OBS      
   G17   924   924   920   920                              PRN / # OF OBS      
   G18   911   911   911   911                              PRN / # OF OBS      
   G19   768   768   768   768                              PRN / # OF OBS      
   G20   792   792   792   792                              PRN / # OF OBS      
   G21   699   699   698   698                              PRN / # OF OBS      
   G22   760   760   757   757                              PRN / # OF OBS      
   G23   733   733   733   733                              PRN / # OF OBS      
   G24   824   824   824   824                              PRN / # OF OBS      
   G25   832   832   832   832                              PRN / # OF OBS      
   G27   816   816   816   816                              PRN / # OF OBS      
   G28   879   879   877   877                              PRN / # OF OBS      
   G29   744   744   744   744                              PRN / # OF OBS      
   G30   697   697   697   697                              PRN / # OF OBS      
   G31   820   820   819   819                              PRN / # OF OBS      
   G32   746   746   746   746                              PRN / # OF OBS      
BIT 2 OF LLI FLAGS DATA COLLECTED UNDER A/S CONDITION       COMMENT             
SNR is mapped to RINEX snr flag value [2-9]                 COMMENT             
Lx:     = 25dBHz -> 1; 26-27dBHz -> 2; 28-31dBHz -> 3       COMMENT             
       32-35dBHz -> 4; 36-38dBHz -> 5; 39-41dBHz -> 6       COMMENT             
       42-44dBHz -> 7; 45-48dBHz -> 8; >=49dBHz -> 9        COMMENT             
                                                            END OF HEADER       
 15 02 25 00 00  0.0000000  0  8G16G18G21G22G25G27G29G31
  21865728.100   114905182.00108  21865727.140    89536514.08546
  23041599.360   121084464.10607  23041598.940    94351541.44844
  21159503.260   111193945.62308  21159501.620    86644628.59248
  24501036.040   128753819.37906  24501037.840   100327646.17044
  24779537.040   130217325.63705  24779541.120   101468050.03441
  23030223.060   121024652.33007  23030225.120    94304936.90946
  23701847.340   124554039.06206  23701848.600    97055088.87044
  22599508.760   118761211.36708  22599508.060    92541195.31546
 15 02 25 00 00 30.0000000  0  8G16G18G21G22G25G27G29G31
  21851756.400   114831759.94808  21851755.340    89479302.09846
  23028643.200   121016379.42007  23028642.720    94298488.47744
  21164963.640   111222640.02108  21164961.960    86666987.86147
  24483379.500   128661037.63206  24483381.720   100255349.23943
  24798478.660   130316863.53705  24798482.660   101545611.95643
  23017341.740   120956960.76007  23017343.920    94252190.29446
  23716351.380   124630258.34606  23716352.820    97114480.46345
  22616287.840   118849385.12108  22616287.140    92609902.11446
 15 02 25 00 01  0.0000000  0  8G16G18G21G22G25G27G29G31
  21837829.240   114758571.57208  21837828.020    89422272.20346
  23015729.960   120948519.62507  23015729.200    94245610.73144
  21170496.440   111251715.19208  21170494.800    86689643.83647
  24465710.580   128568191.04506  24465713.260   100183001.74444
  24817446.620   130416539.73305  24817450.520   101623281.58441
  23004483.480   120889389.88507  23004485.480    94199537.68945
  23730860.280   124706502.73906  23730861.740    97173891.62744
  22633113.500   118937803.51808  22633112.760    92678799.54846
 15 02 25 00 01 30.0000000  0  7G16G18G21G22G27G29G31
  21823946.840   114685618.61808  21823945.460    89365425.73546
  23002860.100   120880886.80108  23002858.940    94192909.85644
  21176101.220   111281168.69908  21176099.600    86712594.62148
  24448029.680   128475281.50306  24448032.600   100110605.20644
  22991648.000   120821939.12907  22991650.000    94146978.69345
  23745373.840   124782771.58306  23745375.160    97233321.86044
  22649985.000   119026463.16008  22649984.260    92747884.94546
 15 02 25 00 02  0.0000000  0  7G16G18G21G22G27G29G31
  21810108.900   114612899.76108  21810107.500    89308761.69446
  22990033.280   120813480.45607  22990031.960    94140385.45244
  21181777.120   111310995.89708  21181775.500    86735836.59547
  24430336.700   128382308.05406  24430339.580   100038158.82042
  22978834.760   120754605.06207  22978836.840    94094510.61845
  23759891.440   124859061.15307  23759892.260    97292768.23445
  22666901.040   119115357.34808  22666900.280    92817153.13345
 15 02 25 00 02 30.0000000  0  7G16G18G21G22G27G29G31
  21796316.200   114540418.80108  21796314.880    89252283.02246
  22977250.340   120746304.79408  22977248.860    94088040.80044
  21187524.200   111341197.02908  21187522.660    86759369.94648
  24412632.580   128289275.27906  24412635.320    99965666.20944
  22966044.140   120687389.58707  22966046.160    94042134.94445
  23774413.180   124935372.97107  23774413.840    97352231.97144
  22683861.420   119204485.08308  22683860.660    92886603.28946
 15 02 25 00 03  0.0000000  0  7G16G18G21G22G27G29G31
  21782568.560   114468174.87208  21782567.380    89195989.07046
  22964511.180   120679359.57808  22964509.680    94035875.71543
  21193341.600   111371767.87508  21193340.140    86783191.38647
  24394917.160   128196182.41006  24394919.640    99893126.75143
  22953275.540   120620289.81007  22953277.500    93989849.45245
  23788938.720   125011703.91407  23788939.240    97411710.56944
  22700865.180   119293840.80208  22700864.360    92956231.10845
 15 02 25 00 03 30.0000000  0  7G16G18G21G22G27G29G31
  21768867.100   114396173.13009  21768865.920    89139883.81546
  22951816.600   120612649.77707  22951815.280    93983894.08544
  21199229.580   111402709.44008  21199228.140    86807301.68848
  24377191.520   128103034.88006  24377193.780    99820544.66044
  22940529.480   120553308.57907  22940531.360    93937656.31245
  23803468.380   125088056.34207  23803468.740    97471205.93944
  22717912.320   119383424.27508  22717911.460    93026036.39546
 15 02 25 00 04  0.0000000  0  7G16G18G21G22G27G29G31
  21755212.000   114324415.08508  21755210.760    89083968.44846
  22939167.180   120546177.67707  22939166.240    93932097.67744
  21205187.800   111434020.05808  21205186.340    86831699.57847
  24359455.960   128009835.12406  24359457.880    99747921.85343
  22927805.860   120486445.54108  22927807.760    93885555.27245
  23818002.120   125164429.86607  23818002.160    97530717.73744
  22735002.300   119473232.35508  22735001.320    93096016.69745
 15 02 25 00 04 30.0000000  0  7G16G18G21G22G27G29G31
  21741603.840   114252904.09208  21741602.600    89028245.59946
  22926563.820   120479947.40407  22926563.080    93880489.66544
  21211216.240   111465699.68208  21211214.800    86856384.99947
  24341711.100   127916586.37206  24341712.440    99675260.84744
  22915104.960   120419701.72708  22915106.820    93833547.12845
  23832540.020   125240825.78007  23832539.800    97590246.97344
  22752134.760   119563263.32608  22752133.720    93166170.66745
 15 02 25 00 05  0.0000000  0  7G16G18G21G22G27G29G31
  21728043.260   114181642.98609  21728042.020    88972717.46946
  22914006.980   120413961.73107  22914006.440    93829072.29744
  21217314.600   111497746.89308  21217313.160    86881356.84847
  24323957.540   127823291.73806  24323958.400    99602564.11244
  22902426.820   120353078.01708  22902428.720    93781632.56945
  23847082.180   125317244.26906  23847082.020    97649793.78344
  22769309.180   119653514.70508  22769308.040    93236496.39345
 15 02 25 00 05 30.0000000  0  7G16G18G21G22G27G29G31
  21714530.260   114110631.63908  21714529.040    88917383.96446
  22901496.900   120348221.20607  22901496.620    93777845.93044
  21223482.200   111530157.93608  21223480.800    86906612.20347
  24306195.360   127729951.78206  24306196.100    99529832.00943
  22889771.140   120286572.02808  22889773.040    93729809.74345
  23861628.080   125393682.77307  23861627.820    97709356.16943
  22786524.440   119743981.25508  22786523.320    93306989.77746
 15 02 25 00 06  0.0000000  0  7G16G18G21G22G27G29G31
  21701065.560   114039874.30508  21701064.380    88862248.37746
  22889034.460   120282730.58907  22889034.300    93726814.32344
  21229719.260   111562933.78208  21229717.780    86932151.82047
  24288425.360   127636571.28906  24288425.920    99457068.35543
  22877138.360   120220186.22908  22877140.240    93678080.56546
  23876178.100   125470143.47006  23876177.800    97768935.88844
  22803780.480   119834662.63608  22803779.380    93377650.56345
 15 02 25 00 06 30.0000000  0  7G16G18G21G22G27G29G31
  21687649.240   113969371.37808  21687648.180    88807311.02946
  22876619.720   120217490.34807  22876619.560    93675977.80544
  21236025.020   111596070.68508  21236023.460    86957972.78847
  24270647.660   127543150.91806  24270648.280    99384273.59443
  22864528.020   120153918.42708  22864529.800    93626443.33545
  23890732.040   125546624.22107  23890731.580    97828531.21544
  22821076.320   119925553.78708  22821075.360    93448474.82245
 15 02 25 00 07  0.0000000  0  7G16G18G21G22G27G29G31
  21674281.720   113899124.68108  21674280.720    88752573.36146
  22864253.160   120152503.51108  22864252.840    93625338.72744
  21242399.340   111629567.87608  21242397.780    86984074.49547
  24252862.960   127449693.21806  24252863.500    99311449.75843
  22851940.220   120087769.08308  22851941.980    93574898.39845
  23905289.780   125623125.08607  23905289.280    97888142.25844
  22838411.600   120016652.06308  22838410.820    93519460.46746
 15 02 25 00 07 30.0000000  0  7G16G18G21G22G27G29G31
  21660964.080   113829139.55609  21660963.000    88698039.50146
  22851935.640   120087774.70907  22851935.300    93574900.70444
  21248842.260   111663425.77308  21248840.720    87010457.27047
  24235072.220   127356203.39106  24235072.660    99238600.84844
  22839375.360   120021740.72708  22839377.200    93523447.75545
  23919851.660   125699648.60506  23919851.220    97947770.92944
  22855786.320   120107957.05308  22855785.520    93590607.19945
 15 02 25 00 08  0.0000000  0  7G16G18G21G22G27G29G31
  21647695.900   113759414.76709  21647694.760    88643708.50446
  22839667.100   120023303.46607  22839666.680    93524663.38844
  21255352.960   111697639.97608  21255351.480    87037117.68847
  24217275.120   127262680.69706  24217275.500    99165726.28543
  22826832.960   119955830.36408  22826834.780    93472089.06245
  23934417.120   125776191.39407  23934416.880    98007414.59343
  22873199.320   120199463.01508  22873198.560    93661910.49645
 15 02 25 00 08 30.0000000  0  7G16G18G21G22G27G29G31
  21634477.740   113689952.92009  21634476.600    88589582.39846
  22827448.180   119959092.68208  22827447.720    93474629.03944
  21261931.240   111732209.22308  21261929.760    87064054.76647
  24199472.440   127169128.52506  24199472.120    99092828.77144
  22814313.220   119890038.54408  22814314.980    93420822.71346
  23948986.320   125852753.55407  23948986.120    98067073.35343
  22890650.060   120291167.24108  22890649.400    93733368.31845
 15 02 25 00 09  0.0000000  0  7G16G18G21G22G27G29G31
  21621310.180   113620757.00409  21621309.080    88535663.50446
  22815279.480   119895145.79008  22815278.980    93424800.30944
  21268576.920   111767132.57108  21268575.460    87091267.76047
  24181664.660   127075549.70106  24181663.900    99019910.51844
  22801816.160   119824365.73807  22801817.900    93369649.10845
  23963559.300   125929335.59507  23963559.200    98126747.65544
  22908138.060   120383067.29108  22908137.540    93804978.71645
 15 02 25 00 09 30.0000000  0  7G16G18G21G22G27G29G31
  21608194.120   113551831.49209  21608192.960    88481955.31046
  22803161.920   119831467.63507  22803161.440    93375180.98744
  21275290.260   111802411.17908  21275288.760    87118757.58747
  24163852.860   126981949.32906  24163852.280    98946975.40144
  22789341.940   119758814.63607  22789343.960    93318570.31945
  23978136.520   126005940.08106  23978136.520    98186439.44444
  22925663.280   120475162.99308  22925662.900    93876741.57945
 15 02 25 00 10  0.0000000  0  7G16G18G21G22G27G29G31
  21595129.100   113483173.91209  21595127.840    88428455.90146
  22791095.180   119768056.58508  22791094.680    93325769.80144
  21282069.980   111838038.66408  21282068.420    87146519.25947
  24146036.600   126888325.68906  24146036.260    98874022.17343
  22776890.120   119693380.66307  22776892.340    93267582.83646
  23992717.180   126082562.36406  23992717.300    98246145.06344
  22943224.320   120567446.82108  22943224.020    93948651.02246
 15 02 25 00 10 30.0000000  0  7G16G18G21G22G27G29G31
  21582115.540   113414786.70909  21582114.120    88375167.17246
  22779079.760   119704915.16608  22779079.260    93276568.73444
  21288915.860   111874013.71208  21288914.200    87174551.76647
  24128216.500   126794681.49506  24128216.180    98801052.88743
  22764460.700   119628064.15307  22764462.980    93216686.86345
  24007301.300   126159202.05306  24007301.240    98305864.23044
  22960820.780   120659916.31708  22960820.420    94020705.14445
 15 02 25 00 11  0.0000000  0  7G16G18G21G22G27G29G31
  21569154.500   113346675.79509  21569153.000    88322093.73946
  22767116.800   119642049.19508  22767116.160    93227582.26743
  21295828.280   111910338.47008  21295826.580    87202856.76447
  24110393.700   126701023.08206  24110393.260    98728072.52643
  22752054.340   119562868.87207  22752056.620    93165885.35545
  24021889.320   126235863.18806  24021889.160    98365600.16544
  22978452.720   120752571.99908  22978452.220    94092904.34444
 15 02 25 00 11 30.0000000  0  7G16G18G21G22G27G29G31
  21556245.700   113278839.68209  21556244.160    88269234.43246
  22755206.020   119579457.71608  22755205.380    93178809.69844
  21302806.200   111947007.79708  21302804.540    87231430.26247
  24092568.060   126607349.46006  24092567.320    98655080.31943
  22739670.380   119497791.37507  22739672.680    93115175.66645
  24036480.720   126312542.10706  24036480.600    98425349.94343
  22996118.920   120845407.46908  22996118.160    94165243.63244
 15 02 25 00 12  0.0000000  0  7G16G18G21G22G27G29G31
  21543389.820   113211282.11009  21543388.380    88216592.17246
  22743348.320   119517145.09808  22743347.820    93130254.43444
  21309849.720   111984021.80208  21309848.100    87260272.34147
  24074740.200   126513664.24806  24074739.240    98582079.04143
  22727309.100   119432833.12707  22727311.340    93064558.86844
  24051075.900   126389240.21106  24051075.820    98485114.62644
  23013818.980   120938421.39908  23013817.980    94237721.98744
 15 02 25 00 12 30.0000000  0  7G16G18G21G22G27G29G31
  21530587.240   113144004.36909  21530585.880    88164167.96246
  22731544.000   119455112.69908  22731543.480    93081917.52644
  21316958.220   112021377.49008  21316956.600    87289380.67247
  24056910.620   126419970.07206  24056909.460    98509070.82143
  22714970.480   119367993.27307  22714972.640    93014034.33145
  24065674.480   126465956.23506  24065674.420    98544893.32444
  23031552.080   121031609.51608  23031551.040    94310336.07944
 15 02 25 00 13  0.0000000  0  7G16G18G21G22G27G29G31
  21517838.480   113077009.15709  21517837.080    88111963.89946
  22719793.580   119393363.45708  22719793.120    93033801.25044
  21324131.640   112059074.10108  21324129.980    87318754.65847
  24039079.880   126326269.66806  24039078.480    98436057.66344
  22702654.660   119303272.51407  22702656.720    92963602.58145
  24080276.600   126542690.68906  24080276.700    98604686.32143
  23049317.920   121124969.94808  23049316.880    94383084.43544
 15 02 25 00 13 30.0000000  0  7G16G18G21G22G27G29G31
  21505144.140   113010300.33109  21505142.820    88059983.00646
  22708097.840   119331901.32408  22708097.140    92985908.68544
  21331369.900   112097111.44008  21331368.200    87348394.14147
  24021248.680   126232566.98306  24021247.080    98363042.80544
  22690361.820   119238672.46308  22690363.640    92913264.90545
  24094882.420   126619444.59106  24094882.560    98664494.53844
  23067116.360   121218501.26608  23067115.420    94455965.95944
 15 02 25 00 14  0.0000000  0  7G16G18G21G22G27G29G31
  21492503.960   112943875.87309  21492502.640    88008223.68646
  22696456.420   119270724.78408  22696455.440    92938238.68344
  21338671.960   112135483.86708  21338670.200    87378294.72747
  24003416.840   126138860.74606  24003415.180    98290025.13043
  22678091.300   119174189.11008  22678092.840    92863018.14145
  24109491.440   126696214.63006  24109491.520    98724315.28544
  23084945.960   121312196.23908  23084945.040    94528974.98744
 15 02 25 00 14 30.0000000  0  7G16G18G21G22G27G29G31
  21479919.340   112877743.01209  21479917.940    87956691.58146
  22684870.720   119209841.48608  22684869.580    92890797.16444
  21346038.420   112174194.96708  21346036.600    87408459.22747
  23985585.720   126045158.96806  23985584.300    98217010.93444
  22665843.800   119109827.67408  22665845.240    92812866.37945
  24124104.380   126773005.15206  24124104.460    98784152.00544
  23102807.260   121406057.08708  23102806.280    94602113.27044
 15 02 25 00 15  0.0000000  0  7G16G18G21G22G27G29G31
  21467389.940   112811900.11609  21467388.400    87905385.42446
  22673340.440   119149249.60208  22673339.260    92843582.72144
  21353468.180   112213238.83508  21353466.420    87438883.01447
  23967755.220   125951459.97506  23967753.880    98143998.85843
  22653618.800   119045584.24008  22653620.120    92762806.56745
  24138720.520   126849812.44806  24138720.640    98844001.80144
  23120698.900   121500077.11808  23120697.780    94675375.59045
 15 02 25 00 15 30.0000000  0  7G16G18G21G22G27G29G31
  21454916.320   112746350.72709  21454914.680    87854307.97246
  22661866.400   119088953.26208  22661865.160    92796598.57944
  21360961.240   112252615.52508  21360959.580    87469566.14747
  23949926.140   125857767.77206  23949924.860    98070992.11643
  22641416.520   118981460.33708  22641417.820    92712839.90745
  24153340.100   126926637.82106  24153340.060    98903865.68143
  23138620.560   121594255.00708  23138619.220    94748760.91844
 15 02 25 00 16  0.0000000  0  7G16G18G21G22G27G29G31
  21442499.260   112681098.89709  21442497.660    87803462.38946
  22650449.400   119028956.80108  22650448.240    92749848.08744
  21368517.740   112292325.34008  21368516.160    87500508.86047
  23932099.260   125764087.14506  23932098.040    97997994.40043
  22629237.200   118917457.76508  22629238.600    92662967.79845
  24167963.460   127003483.00106  24167963.420    98963744.99144
  23156571.840   121688589.25807  23156570.380    94822268.07545
 15 02 25 00 16 30.0000000  0  7G16G18G21G22G27G29G31
  21430139.120   112616146.25909  21430137.700    87752849.95746
  22639089.800   118969262.00208  22639088.840    92703332.67044
  21376137.200   112332365.69108  21376135.600    87531709.12847
  23914274.980   125670420.18406  23914273.640    97925007.30744
  22617080.900   118853576.31108  22617082.360    92613190.05045
  24182590.420   127080347.30706  24182590.420    99023639.25143
  23174552.000   121783076.63708  23174550.680    94895894.57644
 15 02 25 00 17  0.0000000  0  7G16G18G21G22G27G29G31
  21417835.960   112551493.27609  21417834.740    87702471.01546
  22627787.740   118909869.46808  22627786.900    92657052.80244
  21383818.960   112372733.37608  21383817.340    87563164.46747
  23896453.460   125576767.77506  23896452.000    97852031.53444
  22604947.380   118789814.27808  22604948.840    92563505.36745
  24197220.520   127157228.97006  24197220.740    99083546.98144
  23192560.400   121877712.60807  23192559.400    94969636.85444
 15 02 25 00 17 30.0000000  0  7G16G18G21G22G27G29G31
  21405590.640   112487143.88309  21405589.520    87652328.62446
  22616543.940   118850783.16508  22616543.180    92611011.53744
  21391563.080   112413428.76208  21391561.480    87594875.15547
  23878635.640   125483134.19407  23878633.900    97779070.44643
  22592836.800   118726173.35508  22592838.420    92513915.03345
  24211854.220   127234129.53506  24211854.300    99143469.47443
  23210596.860   121972495.76207  23210596.040    95043493.82744
 15 02 25 00 18  0.0000000  0  7G16G18G21G22G27G29G31
  21393403.240   112423098.93609  21393402.160    87602423.48046
  22605358.620   118792004.01508  22605357.780    92565209.61244
  21399368.920   112454448.45008  21399367.300    87626838.54247
  23860821.580   125389520.47207  23860819.520    97706124.80343
  22580749.080   118662652.12608  22580750.760    92464417.99245
  24226491.160   127311047.34206  24226491.060    99203405.38743
  23228660.500   122067421.74307  23228659.860    95117462.07644
 15 02 25 00 18 30.0000000  0  7G16G18G21G22G27G29G31
  21381274.360   112359361.04509  21381273.220    87552757.58846
  22594232.280   118733534.90008  22594231.200    92519649.27344
  21407236.300   112495791.67408  21407234.720    87659054.03947
  23843011.720   125295930.05607  23843009.500    97633197.33943
  22568684.280   118599251.37608  22568686.020    92415014.81745
  24241131.540   127387983.18206  24241131.220    99263355.38444
  23246751.080   122162488.15707  23246750.340    95191539.77244
 15 02 25 00 19  0.0000000  0  7G16G18G21G22G27G29G31
  21369204.200   112295931.53709  21369202.980    87503331.99446
  22583165.360   118675378.22108  22583164.280    92474332.40344
  21415164.760   112537456.03908  21415163.200    87691519.77847
  23825206.820   125202365.07707  23825204.400    97560289.69443
  22556642.320   118535970.72208  22556644.020    92365705.20845
  24255775.200   127464936.47806  24255774.780    99323318.94744
  23264867.820   122257691.81108  23264867.060    95265724.38044
 15 02 25 00 19 30.0000000  0  7G16G18G21G22G27G29G31
  21357193.420   112232814.16509  21357192.120    87454149.62446
  22572158.500   118617537.24208  22572157.540    92429261.52444
  21423154.240   112579441.17108  21423152.660    87724235.46347
  23807407.380   125108829.35806  23807404.960    97487404.87644
  22544623.400   118472811.35008  22544624.980    92316490.10845
  24270422.320   127541908.36806  24270421.680    99383297.00543
  23283010.320   122353030.63208  23283009.460    95340014.31044
 15 02 25 00 20  0.0000000  0  7G16G18G21G22G27G29G31
  21345241.680   112170006.99809  21345240.340    87405208.97446
  22561211.360   118560010.07708  22561210.420    92384435.18044
  21431203.520   112621740.56208  21431201.940    87757196.02447
  23789613.320   125015321.64807  23789610.800    97414541.83643
  22532626.900   118409769.48008  22532628.320    92267366.58445
  24285072.260   127618894.22006  24285071.460    99443285.96842
  23301177.400   122448498.09208  23301176.280    95414404.49144
 15 02 25 00 20 30.0000000  0  7G16G18G21G22G27G29G31
  21333350.260   112107516.98609  21333348.940    87356515.46646
  22550325.340   118502804.04208  22550324.480    92339859.07444
  21439313.380   112664358.16108  21439311.780    87790404.54146
  23771826.100   124921849.37307  23771823.420    97341706.40843
  22520653.700   118346849.85208  22520655.080    92218338.31545
  24299725.840   127695899.29706  24299725.380    99503289.88443
  23319369.120   122544095.90207  23319367.820    95488896.25544
 15 02 25 00 21  0.0000000  0  7G16G18G21G22G27G29G31
  21321519.580   112045346.19309  21321518.260    87308070.69746
  22539500.920   118445921.08908  22539500.020    92295534.69144
  21447483.380   112707291.80108  21447481.780    87823859.32347
  23754045.980   124828414.84007  23754043.180    97268900.39543
  22508703.660   118284052.42008  22508705.240    92169405.25745
  24314383.120   127772923.44206  24314382.520    99563308.70741
  23337584.920   122639820.75307  23337583.640    95563486.99044
 15 02 25 00 21 30.0000000  0  7G16G18G21G22G27G29G31
  21309749.820   111983495.21109  21309748.440    87259875.13046
  22528738.140   118389361.95408  22528737.140    92251462.65244
  21455712.860   112750538.22108  21455711.340    87857557.83446
  23736273.400   124735019.68007  23736270.560    97196125.04643
  22496776.600   118221375.79108  22496778.380    92120566.33545
  24329043.620   127849964.83206  24329043.000    99623340.89943
  23355823.900   122735668.32807  23355822.900    95638173.37743
 15 02 25 00 22  0.0000000  0  7G16G18G21G22G27G29G31
  21298041.420   111921967.30109  21298040.080    87211931.30846
  22518037.600   118333130.29508  22518036.600    92207645.77744
  21464001.720   112794096.70808  21464000.300    87891499.50846
  23718508.860   124641667.13607  23718506.280    97123382.92944
  22484872.700   118158820.93908  22484874.580    92071822.30945
  24343707.340   127927024.29106  24343706.960    99683387.19643
  23374086.020   122831636.61607  23374085.280    95712953.80244
 15 02 25 00 22 30.0000000  0  7G16G18G21G22G27G29G31
  21286394.340   111860761.69009  21286393.000    87164238.62946
  22507399.200   118277225.45408  22507398.280    92164083.58844
  21472349.200   112837963.03508  21472347.800    87925681.06846
  23700752.500   124548357.29107  23700750.120    97050674.07443
  22472991.540   118096385.48208  22472993.560    92023171.32045
  24358374.040   128004099.09506  24358374.040    99743445.49344
  23392370.120   122927720.26307  23392369.520    95787824.11044
 15 02 25 00 23  0.0000000  0  7G16G18G21G22G27G29G31
  21274809.440   111799882.87109  21274808.080    87116800.58646
  22496823.860   118221652.01908  22496822.980    92120779.62544
  21480755.320   112882137.69308  21480754.020    87960102.87346
  23683005.060   124455094.86106  23683002.940    96978002.16043
  22461133.640   118034071.60508  22461135.680    91974615.07745
  24373044.080   128081191.76105  24373044.320    99803517.67343
  23410676.120   123023918.18507  23410675.440    95862783.49244
 15 02 25 00 23 30.0000000  0  7G16G18G21G22G27G29G31
  21263286.660   111739330.68209  21263285.340    87069617.06446
  22486311.680   118166409.79108  22486310.720    92077733.73944
  21489219.240   112926616.11708  21489218.020    87994761.38346
  23665266.720   124361880.32406  23665264.760    96905367.58344
  22449298.480   117971876.98808  22449300.380    91926151.74145
  24387717.100   128158299.43705  24387717.520    99863601.53043
  23429003.060   123120225.12307  23429002.060    95937827.78444
 15 02 25 00 24  0.0000000  0  7G16G18G21G22G27G29G31
  21251827.460   111679112.13209  21251826.120    87022693.52746
  22475863.880   118111505.70308  22475862.800    92034951.34744
  21497741.680   112971401.75208  21497740.380    88029659.27846
  23647539.060   124268720.92407  23647536.980    96832775.91044
  22437486.940   117909806.46708  22437488.780    91877785.13245
  24402393.860   128235426.98106  24402394.560    99923700.89644
  23447351.020   123216642.82707  23447349.680    96012958.39644
 15 02 25 00 24 30.0000000  0  7G16G18G21G22G27G29G31
  21240431.040   111619223.69109  21240429.680    86976027.21946
  22465479.760   118056936.24608  22465478.680    91992429.70844
  21506321.220   113016487.58108  21506319.880    88064791.09146
  23629821.520   124175613.96307  23629819.160    96760225.15044
  22425698.060   117847854.79608  22425699.740    91829511.09645
  24417073.440   128312568.78606  24417074.460    99983811.33443
  23465718.420   123313163.21508  23465716.840    96088169.03744
 15 02 25 00 25  0.0000000  0  7G16G18G21G22G27G29G31
  21229098.500   111559671.10109  21229097.120    86929622.60646
  22455160.500   118002707.79808  22455159.480    91950173.77144
  21514958.220   113061875.00908  21514956.740    88100157.91246
  23612115.220   124082565.74007  23612112.380    96687720.11244
  22413932.440   117786025.48008  22413934.040    91781332.41745
  24431756.500   128389728.47706  24431757.760   100043935.70843
  23484105.340   123409786.72907  23484103.700    96163460.02644
 15 02 25 00 25 30.0000000  0  7G16G18G21G22G27G29G31
  21217830.560   111500457.98709  21217829.220    86883482.52346
  22444906.700   117948823.71008  22444905.840    91908186.20144
  21523652.620   113107563.88508  21523650.980    88135759.63446
  23594420.920   123989580.65707  23594417.980    96615264.28743
  22402190.460   117724320.28108  22402191.920    91733250.44846
  24446443.140   128466907.28105  24446444.400   100104075.06043
  23502511.340   123506512.16607  23502510.040    96238830.45044
 15 02 25 00 26  0.0000000  0  7G16G18G21G22G27G29G31
  21206626.840   111441582.08009  21206625.520    86837605.19546
  22434717.900   117895281.50408  22434717.160    91866465.01145
  21532403.180   113153548.12008  21532401.440    88171591.49547
  23576738.200   123896656.71607  23576735.200    96542856.10744
  22390471.180   117662734.81008  22390472.620    91685261.78746
  24461132.760   128544100.80906  24461133.720   100164225.81243
  23520935.280   123603331.88007  23520934.380    96314274.29944
 15 02 25 00 26 30.0000000  0  7G16G18G21G22G27G29G31
  21195488.300   111383048.51809  21195487.000    86791994.63446
  22424595.160   117842086.71908  22424594.480    91825014.55444
  21541210.160   113199828.81308  21541208.320    88207654.37346
  23559068.020   123803799.48807  23559064.960    96470499.91544
  22378775.180   117601272.17308  22378776.640    91637368.82745
  24475825.680   128621312.01205  24475826.440   100224390.37443
  23539377.320   123700246.09007  23539376.740    96389791.80644
 15 02 25 00 27  0.0000000  0  7G16G18G21G22G27G29G31
  21184415.500   111324860.30909  21184414.160    86746653.17446
  22414539.160   117789242.27408  22414538.320    91783837.06144
  21550073.400   113246405.19408  21550071.480    88243947.65646
  23541411.220   123711012.68507  23541408.100    96398198.58243
  22367102.740   117539933.25208  22367104.240    91589572.26845
  24490521.980   128698541.68505  24490523.060   100284569.32743
  23557837.100   123797252.57107  23557836.700    96465381.23944
 15 02 25 00 27 30.0000000  0  7G16G18G21G22G27G29G31
  21173407.820   111267014.53409  21173406.560    86701578.55046
  22404549.220   117736745.20008  22404548.380    91742930.25844
  21558991.540   113293270.01208  21558989.460    88280465.69346
  23523767.220   123618293.63307  23523764.080    96325950.04243
  22355452.960   117478713.09308  22355454.400    91541868.24145
  24505220.900   128775784.76306  24505222.220   100344758.66743
  23576313.120   123894343.24707  23576312.580    96541036.22444
 15 02 25 00 28  0.0000000  0  7G16G18G21G22G27G29G31
  21162466.700   111209518.57909  21162465.440    86656776.51346
  22394626.940   117684603.14608  22394626.040    91702300.10644
  21567965.400   113340427.40308  21567963.180    88317211.70746
  23506137.560   123525650.02707  23506134.640    96253760.28243
  22343826.840   117417617.34108  22343828.200    91494261.17245
  24519923.380   128853046.46506  24519924.560   100404962.58644
  23594805.700   123991520.75607  23594805.020    96616758.88044
 15 02 25 00 28 30.0000000  0  7G16G18G21G22G27G29G31
  21151592.520   111152374.08609  21151591.140    86612248.32946
  22384772.620   117632817.76708  22384771.620    91661947.87144
  21576994.440   113387874.90509  21576992.140    88354183.78146
  23488522.940   123433085.40207  23488520.240    96181632.07743
  22332224.320   117356645.49708  22332225.520    91446750.65546
  24534629.320   128930326.25906  24534630.260   100465180.58143
  23613314.040   124088781.29707  23613313.280    96692546.21644
 15 02 25 00 29  0.0000000  0  7G16G18G21G22G27G29G31
  21140785.620   111095583.69509  21140784.240    86567996.08646
  22374986.560   117581391.40108  22374985.580    91621875.37844
  21586078.400   113435611.15308  21586076.100    88391380.85546
  23470923.860   123340602.26707  23470921.380    96109567.37844
  22320645.360   117295798.17508  22320646.580    91399337.16346
  24549338.660   129007624.71805  24549339.600   100525413.14644
  23631837.580   124186122.80707  23631836.820    96768396.66844
 15 02 25 00 29 30.0000000  0  7G16G18G19G21G22G27G31
  21130041.060   111039120.33809  21130039.540    86523998.66246
  22365263.580   117530296.97808  22365262.640    91582061.55244
  24546834.800   128994483.51606  24546833.380   100515177.94143
  21595211.360   113483605.32908  21595209.160    88428778.90246
  23453335.040   123248173.93607  23453332.900    96037545.39244
  22309084.640   117235046.33908  22309086.020    91351998.08146
  23650370.240   124283513.18907  23650369.400    96844285.19744
 15 02 25 00 30  0.0000000  0  7G16G18G19G21G22G27G31
  21119371.600   110983051.96109  21119370.120    86480309.02347
  22355616.700   117479602.75208  22355615.900    91542559.57844
  24531379.740   128913269.72806  24531379.100   100451894.52643
  21604405.400   113531920.64308  21604403.320    88466427.19846
  23435769.820   123155868.94907  23435767.860    95965619.48244
  22297554.720   117174455.96608  22297556.160    91304784.80746
  23668924.040   124381015.30407  23668923.380    96920260.82844
 15 02 25 00 30 30.0000000  0  7G16G18G19G21G22G27G31
  21108768.980   110927334.60109  21108767.540    86436892.90147
  22346037.560   117429264.55908  22346036.860    91503335.02344
  24515938.200   128832125.16506  24515938.200   100388665.02043
  21613651.800   113580510.69809  21613649.760    88504289.57346
  23418219.860   123063643.87807  23418217.920    95893755.85544
  22286046.820   117113981.09708  22286048.200    91257661.54546
  23687489.740   124478580.15507  23687489.660    96996285.30644
 15 02 25 00 31  0.0000000  0  7G16G18G19G21G22G27G31
  21098233.860   110871972.29309  21098232.480    86393753.45247
  22336526.900   117379286.39708  22336526.340    91464391.01144
  24500510.540   128751052.12806  24500510.420   100325491.29744
  21622950.460   113629375.50708  21622948.500    88542366.03946
  23400686.180   122971503.61507  23400684.260    95821958.32244
  22274561.240   117053623.87008  22274562.620    91210629.94746
  23706067.320   124576206.71707  23706067.640    97072357.83744
 15 02 25 00 31 30.0000000  0  7G16G18G19G21G22G27G31
  21087768.020   110816973.87209  21087766.520    86350897.53147
  22327086.480   117329676.89508  22327086.020    91425734.26844
  24485097.680   128670057.33306  24485097.500   100262378.46143
  21632302.100   113678519.23508  21632300.280    88580659.85746
  23383170.500   122879457.37307  23383168.520    95750234.02644
  22263099.280   116993390.97608  22263100.640    91163695.22145
  23724657.440   124673898.78807  23724657.900    97148481.44144
 15 02 25 00 32  0.0000000  0  7G16G18G19G21G22G27G31
  21077371.160   110762338.01709  21077369.660    86308324.14447
  22317716.140   117280435.08408  22317715.560    91387364.05644
  24469699.240   128589137.28006  24469698.740   100199323.94544
  21641705.900   113727936.99208  21641704.220    88619167.19046
  23365672.580   122787504.52307  23365670.460    95678582.51845
  22251660.340   116933279.23208  22251661.720    91116854.91145
  23743259.020   124771650.08107  23743259.520    97224651.17944
 15 02 25 00 32 30.0000000  0  7G16G18G19G21G22G27G31
  21067044.700   110708072.01709  21067043.200    86266038.95547
  22308417.100   117231567.88608  22308416.380    91349285.73344
  24454316.120   128508297.74306  24454315.300   100136332.13243
  21651162.520   113777632.18608  21651160.900    88657890.71646
  23348193.860   122695653.07507  23348191.660    95607010.02344
  22240245.480   116873294.07708  22240246.840    91070113.24045
  23761872.500   124869462.92307  23761872.940    97300868.87443
 15 02 25 00 33  0.0000000  0  7G16G18G19G21G22G27G31
  21056788.460   110654174.88309  21056786.940    86224041.18947
  22299189.080   117183074.49808  22299188.280    91311498.69544
  24438947.640   128427535.19906  24438946.580   100073400.30044
  21660670.960   113827599.85108  21660669.400    88696826.55946
  23330734.260   122603902.58307  23330732.040    95535516.19044
  22228854.200   116813432.63608  22228855.520    91023467.96645
  23780496.520   124967331.43707  23780496.760    97377129.95743
 15 02 25 00 33 30.0000000  0  7G16G18G19G21G22G27G31
  21046603.160   110600650.73609  21046601.720    86182334.06747
  22290033.000   117134958.67608  22290032.040    91274005.84144
  24423594.160   128346851.79706  24423593.260   100010530.12543
  21670231.300   113877840.21608  21670229.780    88735974.88946
  23313294.820   122512258.03307  23313292.520    95464104.90044
  22217486.900   116753696.97408  22217488.200    90976920.70545
  23799130.860   125065254.70107  23799130.900    97453433.71944
 15 02 25 00 34  0.0000000  0  7G16G18G19G21G22G27G31
  21036488.580   110547498.25709  21036487.140    86140916.55547
  22280948.380   117087218.65708  22280947.380    91236805.85544
  24408255.260   128266244.45306  24408254.340    99947719.27343
  21679842.580   113928348.14608  21679841.140    88775331.71346
  23295875.340   122420718.37707  23295873.160    95392775.36144
  22206142.940   116694083.81808  22206144.160    90930468.89045
  23817774.340   125163226.20307  23817774.120    97529775.03743
 15 02 25 00 34 30.0000000  0  7G16G18G19G21G22G27G31
  21026446.020   110494724.34809  21026444.620    86099794.02647
  22271936.680   117039861.91208  22271935.660    91199904.50344
  24392931.660   128185718.11806  24392930.540    99884971.48243
  21689505.460   113979127.21208  21689504.020    88814899.80846
  23278477.260   122329291.09907  23278475.240    95321533.37944
  22194823.120   116634598.19008  22194824.320    90884116.46445
  23836427.520   125261248.15407  23836426.940    97606155.63843
 15 02 25 00 35  0.0000000  0  7G16G18G19G21G22G27G31
  21016476.160   110442332.53809  21016474.840    86058969.24347
  22262998.500   116992891.52708  22262997.460    91163304.20745
  24377623.680   128105274.37206  24377622.700    99822288.09644
  21699219.820   114030176.56608  21699218.380    88854678.52146
  23261101.300   122237980.40607  23261099.420    95250382.24644
  22183527.880   116575241.61408  22183529.060    90837864.59645
  23855090.180   125359318.86607  23855089.240    97682574.25044
 15 02 25 00 35 30.0000000  0  7G16G18G19G21G22G27G31
  21006578.460   110390320.08809  21006577.220    86018440.06447
  22254133.320   116946304.94108  22254132.240    91127002.97444
  24362330.280   128024907.81906  24362329.340    99759664.81044
  21708984.220   114081489.08608  21708982.840    88894662.29346
  23243747.140   122146784.50307  23243745.340    95179320.54544
  22172256.340   116516009.48108  22172257.520    90791709.70445
  23873760.620   125457430.63807  23873759.360    97759024.85544
 15 02 25 00 36  0.0000000  0  7G16G18G19G21G22G27G31
  20996752.240   110338683.17209  20996751.100    85978203.51247
  22245340.360   116900098.05008  22245339.320    91090997.61544
  24347050.780   127944613.06806  24347049.580    99697097.57543
  21718797.440   114133058.22108  21718796.120    88934846.02646
  23226414.260   122055699.92707  23226412.420    95108345.60244
  22161007.360   116456896.21008  22161008.540    90745647.42945
  23892437.000   125555574.89207  23892435.600    97835500.73943
 15 02 25 00 36 30.0000000  0  7G16G18G19G21G22G27G31
  20986999.180   110287431.04209  20986998.160    85938266.78747
  22236621.420   116854279.74808  22236620.340    91055295.05244
  24331786.380   127864397.82106  24331785.120    99634592.24543
  21728660.460   114184888.90608  21728659.140    88975233.56546
  23209104.480   121964736.70807  23209102.540    95037465.22944
  22149782.500   116397909.23308  22149783.700    90699683.56745
  23911120.180   125653755.98307  23911118.920    97912005.36543
 15 02 25 00 37  0.0000000  0  7G16G18G19G21G22G27G31
  20977320.120   110236567.58309  20977319.140    85898632.92747
  22227977.240   116808854.11808  22227976.120    91019898.47944
  24316537.280   127784263.60606  24316536.220    99572149.99744
  21738573.040   114236980.04908  21738571.840    89015824.06346
  23191818.740   121873899.38407  23191816.660    94966682.94844
  22138581.980   116339050.40508  22138583.280    90653819.55846
  23929809.960   125751972.68607  23929809.260    97988537.71944
 15 02 25 00 37 30.0000000  0  7G16G18G19G21G22G27G31
  20967715.180   110186093.38509  20967714.160    85859302.38347
  22219407.740   116763821.23908  22219406.620    90984807.93044
  24301303.320   127704208.79005  24301302.400    99509769.64643
  21748534.880   114289329.79608  21748533.700    89056616.06946
  23174557.160   121783188.95807  23174554.960    94895999.52444
  22127405.580   116280318.26108  22127406.980    90608054.26745
  23948505.700   125850220.51107  23948505.340    98065094.33144
 15 02 25 00 38  0.0000000  0  7G16G18G19G21G22G27G31
  20958185.060   110136012.29509  20958183.980    85820278.15547
  22210913.740   116719185.07808  22210912.680    90950026.50844
  24286084.940   127624235.84205  24286084.080    99447453.12644
  21758545.980   114341938.18708  21758544.760    89097609.61646
  23157320.460   121692610.24307  23157318.260    94825418.76843
  22116253.840   116221715.07508  22116255.300    90562389.45946
  23967207.480   125948498.57607  23967207.280    98141674.52343
 15 02 25 00 38 30.0000000  0  7G16G18G19G21G22G27G31
  20948729.900   110086325.19109  20948728.780    85781560.93447
  22202495.200   116674945.85308  22202494.300    90915554.40644
  24270881.840   127544343.39305  24270880.820    99385199.27244
  21768605.660   114394801.56608  21768604.400    89138801.84746
  23140109.180   121602164.88107  23140106.920    94754941.88044
  22105126.500   116163239.92808  22105127.800    90516824.39946
  23985914.360   126046803.10607  23985914.220    98218275.28943
 15 02 25 00 39  0.0000000  0  7G16G18G19G21G22G27G31
  20939349.580   110037031.00409  20939348.400    85743149.87447
  22194152.100   116631102.79608  22194151.200    90881390.99445
  24255693.440   127464528.38805  24255692.140    99323005.81944
  21778713.060   114447915.83608  21778711.720    89180189.58646
  23122923.240   121511852.35207  23122920.920    94684568.51544
  22094022.880   116104889.78708  22094024.100    90471356.76746
  24004625.160   126145127.98007  24004625.100    98294891.89443
 15 02 25 00 39 30.0000000  0  7G16G18G19G21G22G27G31
  20930044.140   109988130.39509  20930042.940    85705045.50447
  22185884.560   116587656.60908  22185883.640    90847536.82445
  24240519.720   127384789.92806  24240518.140    99260871.98041
  21788867.540   114501277.47308  21788866.060    89221770.08146
  23105762.860   121421674.10907  23105760.600    94614299.78944
  22082942.900   116046663.54508  22082944.060    90425985.67846
  24023338.920   126243468.89306  24023339.000    98371521.02543
 15 02 25 00 40  0.0000000  0  7G16G18G19G21G22G27G31
  20920814.740   109939629.48109  20920813.540    85667252.58847
  22177693.640   116544613.17008  22177692.840    90813996.49744
  24225361.320   127305131.51705  24225359.500    99198800.53944
  21799069.480   114554888.53608  21799067.900    89263544.93046
  23088629.340   121331636.79607  23088627.080    94544140.86844
  22071887.280   115988565.53608  22071888.500    90380714.51446
  24042055.920   126341827.15307  24042056.200    98448163.63343
 15 02 25 00 40 30.0000000  0  7G16G18G19G21G22G27G31
  20911662.560   109891534.00409  20911661.240    85629775.58747
  22169580.360   116501977.30408  22169579.560    90780773.74544
  24210218.740   127225557.03205  24210216.600    99136794.46344
  21809319.280   114608751.05508  21809317.660    89305515.71446
  23071523.780   121241746.41607  23071521.560    94474096.44744
  22060856.680   115930599.42108  22060857.960    90335546.12146
  24060776.300   126440203.28006  24060776.760    98524820.19544
 15 02 25 00 41  0.0000000  0  7G16G18G19G21G22G27G31
  20902586.680   109843839.64109  20902585.200    85592611.14647
  22161543.920   116459745.06208  22161543.080    90747865.53445
  24195090.960   127146060.75306  24195089.020    99074849.34743
  21819615.380   114662857.17008  21819613.720    89347676.32246
  23054445.600   121152000.26308  23054443.500    94404164.41744
  22049850.040   115872759.37608  22049851.400    90290475.96746
  24079498.420   126538588.55607  24079498.960    98601483.89143
 15 02 25 00 41 30.0000000  0  7G16G18G19G21G22G27G31
  20893587.320   109796547.28509  20893585.700    85555759.95247
  22153584.360   116417917.00808  22153583.380    90715272.26044
  24179978.140   127066641.93006  24179976.220    99012964.57643
  21829957.180   114717203.52508  21829955.440    89390024.12746
  23037395.180   121062399.52308  23037393.060    94334345.70544
  22038867.220   115815044.58608  22038868.640    90245503.41746
  24098221.620   126636979.15506  24098222.400    98678151.69843
 15 02 25 00 42  0.0000000  0  7G16G18G19G21G22G27G31
  20884665.980   109749665.27509  20884664.380    85519228.51747
  22145703.140   116376500.77808  22145702.140    90682999.87745
  24164881.080   126987306.07906  24164879.060    98951144.45943
  21840345.580   114771795.02308  21840343.860    89432562.95446
  23020374.080   120972953.02808  23020371.920    94264647.16544
  22027909.440   115757461.34908  22027910.900    90200633.37346
  24116946.580   126735378.51207  24116947.300    98754826.32543
 15 02 25 00 42 30.0000000  0  7G16G18G19G21G22G27G31
  20875822.560   109703192.69409  20875821.020    85483016.11747
  22137900.180   116335496.30708  22137899.260    90651048.34945
  24149799.480   126908051.26606  24149797.340    98889387.54044
  21850779.780   114826627.23408  21850778.080    89475289.35046
  23003382.300   120883660.85808  23003380.200    94195068.88144
  22016976.240   115700007.20108  22016977.720    90155863.92746
  24135672.120   126833780.52207  24135672.660    98831503.03043
 15 02 25 00 43  0.0000000  0  7G16G18G19G21G22G27G31
  20867057.540   109657132.15609  20867056.040    85447124.79447
  22130175.960   116294905.23308  22130174.940    90619418.96245
  24134733.160   126828877.57706  24134731.220    98827693.76543
  21861259.520   114881698.51608  21861257.840    89518202.03646
  22986420.560   120794526.72808  22986418.460    94125613.75244
  22006067.820   115642682.95908  22006069.260    90111195.69946
  24154397.820   126932183.32907  24154398.020    98908180.30444
 15 02 25 00 43 30.0000000  0  7G16G18G19G21G22G27G31
  20858370.380   109611480.95609  20858368.880    85411552.42447
  22122529.880   116254724.63308  22122528.820    90588109.40945
  24119681.600   126749780.69307  24119679.700    98766059.86244
  21871783.540   114937002.51208  21871781.900    89561296.05246
  22969488.460   120705548.37007  22969486.460    94056279.99744
  21995183.220   115585484.21808  21995184.800    90066625.25946
  24173122.220   127030579.30207  24173122.020    98984852.25343
 15 02 25 00 44  0.0000000  0  7G16G18G19G21G22G27G31
  20849762.960   109566248.94509  20849761.520    85376306.70447
  22114963.700   116214964.25408  22114962.720    90557127.31844
  24104646.080   126670768.51506  24104644.220    98704491.96444
  21882353.060   114992545.71708  21882351.500    89604576.46246
  22952588.000   120616736.32108  22952586.060    93987075.82844
  21984324.000   115528419.09908  21984325.720    90022158.95646
  24191846.280   127128973.50607  24191845.640    99061522.85544
 15 02 25 00 44 30.0000000  0  7G16G18G19G21G22G27G31
  20841234.700   109521433.00709  20841233.380    85341385.19947
  22107476.880   116175620.64408  22107475.880    90526469.96445
  24089625.720   126591836.47407  24089623.780    98642986.48844
  21892966.840   115048321.38708  21892965.260    89648038.02246
  22935718.740   120528088.09808  22935716.820    93917999.31444
  21973489.320   115471482.80808  21973491.060    89977793.01846
  24210568.600   127227358.39807  24210567.820    99138186.15144
 15 02 25 00 45  0.0000000  0  7G16G18G19G21G22G27G31
  20832785.900   109477034.39709  20832784.640    85306788.87647
  22100069.600   116136695.02008  22100068.600    90496138.33145
  24074620.600   126512983.44307  24074618.560    98581542.62644
  21903624.180   115104326.24208  21903622.560    89691678.16146
  22918881.100   120439605.91008  22918879.240    93849052.19445
  21962679.020   115414674.81308  21962680.740    89933527.05446
  24229288.460   127325730.09507  24229287.880    99214839.15143
 15 02 25 00 45 30.0000000  0  7G16G18G19G21G22G27G31
  20824417.940   109433060.57809  20824416.700    85272523.55947
  22092743.080   116098194.51008  22092742.260    90466137.93845
  24059631.520   126434215.40307  24059629.640    98520164.92744
  21914325.980   115160564.58008  21914324.280    89735500.23646
  22902076.700   120351298.38608  22902074.900    93780241.16144
  21951894.340   115358001.16008  21951896.000    89889365.76146
  24248006.320   127424091.53406  24248005.840    99291484.19144
 15 02 25 00 46  0.0000000  0  7G16G18G19G21G22G27G31
  20816130.200   109389508.14809  20816128.920    85238586.59347
  22085496.740   116060115.05608  22085496.040    90436465.64945
  24044657.660   126355526.98107  24044655.620    98458849.26543
  21925070.840   115217029.14508  21925069.160    89779498.59546
  22885304.980   120263162.19007  22885303.120    93711563.63045
  21941134.180   115301456.51608  21941135.840    89845305.01946
  24266720.640   127522434.53807  24266720.220    99368114.84144
 15 02 25 00 46 30.0000000  0  7G16G18G19G21G22G27G31
  20807923.680   109346382.29209  20807922.320    85204982.02847
  22078331.500   116022461.72908  22078330.760    90407125.40245
  24029699.480   126276921.47907  24029697.440    98397598.25844
  21935859.060   115273721.59308  21935857.460    89823674.52846
  22868567.080   120175203.65608  22868565.120    93643024.54844
  21930399.280   115245044.48808  21930400.940    89801347.61346
  24285431.400   127620759.38706  24285431.460    99444731.31543
 15 02 25 00 47  0.0000000  0  7G16G18G19G21G22G27G31
  20799798.400   109303683.48109  20799796.980    85171710.22447
  22071247.320   115985234.67108  22071246.520    90378117.31544
  24014756.860   126198397.76507  24014754.760    98336410.93443
  21946690.000   115330638.69508  21946688.480    89868025.51146
  22851863.160   120087424.16908  22851861.120    93574624.98644
  21919689.380   115188763.87008  21919691.080    89757492.60546
  24304137.720   127719062.18006  24304138.420    99521330.58343
 15 02 25 00 47 30.0000000  0  7G16G18G19G21G22G27G31
  20791754.080   109261410.30709  20791752.720    85138770.09047
  22064244.060   115948432.14508  22064243.160    90349440.03445
  23999829.240   126119952.48706  23999827.000    98275284.74344
  21957562.580   115387774.80708  21957561.160    89912547.15046
  22835193.120   119999822.61208  22835190.920    93506364.04545
  21909003.960   115132611.49908  21909005.680    89713737.52546
  24322838.620   127817336.11206  24322839.520    99597907.40143
 15 02 25 00 48  0.0000000  0  7G16G18G19G21G22G27G31
  20783792.560   109219572.34209  20783791.280    85106169.07747
  22057323.300   115912063.34208  22057322.440    90321100.71645
  23984917.940   126041593.26906  23984915.760    98214225.63843
  21968478.180   115445136.62208  21968476.760    89957244.66046
  22818559.000   119912409.71608  22818556.660    93438250.11745
  21898344.480   115076595.38308  21898346.220    89670088.62346
  24341535.060   127915586.64106  24341536.360    99674465.90444
 15 02 25 00 48 30.0000000  0  7G16G18G19G21G22G27G31
  20775913.620   109178168.41509  20775912.360    85073906.27847
  22050484.700   115876126.97408  22050483.940    90293098.36744
  23970022.400   125963317.33206  23970020.440    98153231.43342
  21979435.700   115502719.02008  21979434.360    90002114.05546
  22801960.680   119825185.20308  22801958.240    93370282.98844
  21887710.440   115020712.99408  21887712.140    89626543.91746
  24360226.140   128013808.27506  24360227.400    99751001.90343
 15 02 25 00 49  0.0000000  0  7G16G18G19G21G22G27G31
  20768117.940   109137201.94509  20768116.680    85041984.34547
  22043729.120   115840626.15908  22043728.400    90265435.40745
  23955142.800   125885126.30405  23955141.140    98092303.40843
  21990435.120   115560521.60108  21990433.720    90047155.01946
  22785399.020   119738153.19708  22785396.540    93302465.87344
  21877102.100   114964965.92508  21877103.800    89583104.65346
  24378911.600   128111999.51406  24378912.560    99827514.20243
 15 02 25 00 49 30.0000000  0  7G16G18G19G21G22G27G31
  20760404.980   109096670.04809  20760403.740    85010401.04547
  22037055.780   115805557.67508  22037055.120    90238109.32245
  23940278.520   125807015.58005  23940277.120    98031437.96043
  22001475.020   115618537.33208  22001473.680    90092362.07246
  22768873.660   119651311.67408  22768871.020    93234797.17244
  21866518.660   114909349.76208  21866520.340    89539767.39346
  24397589.880   128210152.47806  24397590.760    99903996.67744
 15 02 25 00 50  0.0000000  0  7G16G18G19G21G22G27G31
  20752775.120   109056575.05009  20752773.900    84979158.19147
  22030465.100   115770923.33908  22030464.420    90211121.53445
  23925429.680   125728985.71505  23925428.920    97970635.48043
  22012555.580   115676766.36508  22012554.280    90137735.33646
  22752385.200   119564663.85308  22752382.420    93167279.41445
  21855960.380   114853865.38708  21855962.020    89496532.82346
  24416260.540   128308265.23006  24416261.300    99980447.75542
 15 02 25 00 50 30.0000000  0  7G16G18G19G21G22G27G31
  20745228.880   109016919.37009  20745227.760    84948257.65947
  22023957.520   115736725.22608  22023956.620    90184473.65145
  23910596.540   125651037.74306  23910595.920    97909896.87643
  22023676.460   115735206.92608  22023675.100    90183273.43345
  22735934.180   119478213.01808  22735931.200    93099915.15444
  21845427.380   114798513.67208  21845428.980    89453401.61546
  24434923.020   128406335.69206  24434923.580   100056865.89644
 15 02 25 00 51  0.0000000  0  7G16G18G19G21G22G27G31
  20737766.780   108977705.98509  20737765.660    84917701.77947
  22017533.440   115702966.01208  22017532.480    90158167.79645
  23895779.160   125573172.36405  23895778.660    97849222.58542
  22034837.440   115793858.08808  22034835.980    90228975.64246
  22719521.320   119391963.00308  22719518.280    93032707.36944
  21834919.820   114743295.99008  21834921.460    89410374.85646
  24453576.920   128504362.08106  24453577.460   100133249.68743
 15 02 25 00 51 30.0000000  0  7G16G18G19G21G22G27G31
  20730389.820   108938939.65909  20730388.640    84887494.25347
  22011193.700   115669650.06408  22011192.660    90132207.33845
  23880978.100   125495393.06705  23880977.800    97788615.35244
  22046038.620   115852720.61508  22046037.120    90274842.53246
  22703147.700   119305919.26808  22703144.760    92965660.33344
  21824438.460   114688215.54908  21824440.060    89367455.03846
  24472222.440   128602344.46406  24472223.320   100209599.15444
 15 02 25 00 52  0.0000000  0  7G16G18G19G21G22G27G31
  20723097.060   108900616.21509  20723095.840    84857631.82847
  22004937.420   115636772.72808  22004936.240    90106588.63744
  23866192.420   125417693.75506  23866192.300    97728070.45143
  22057278.680   115911787.21608  22057277.100    90320868.45546
  22686812.720   119220078.63908  22686809.920    92898771.55644
  21813982.100   114633266.71708  21813983.600    89324637.78746
  24490858.000   128700274.28106  24490859.300   100285907.60243
 15 02 25 00 52 30.0000000  0  7G16G18G19G21G22G27G31
  20715890.060   108862743.20009  20715888.820    84828120.38947
  21998765.980   115604341.32408  21998764.740    90081317.42545
  23851423.140   125340080.23406  23851422.620    97667592.42044
  22068558.340   115971062.16908  22068556.800    90367056.72446
  22670518.000   119134449.49608  22670515.220    92832047.56944
  21803551.900   114578455.54408  21803553.260    89281927.78446
  24509484.240   128798154.60506  24509485.700   100362177.53943
 15 02 25 00 53  0.0000000  0  7G16G18G19G21G22G27G31
  20708768.140   108825317.43709  20708766.960    84798957.46047
  21992678.700   115572352.30208  21992677.460    90056390.92945
  23836669.320   125262547.59507  23836668.520    97607177.42444
  22079876.260   116030538.63708  22079874.800    90413402.00345
  22654263.060   119049029.56508  22654260.340    92765486.61444
  21793147.000   114523777.33109  21793148.240    89239321.39646
  24528099.820   128895977.53206  24528101.120   100438402.66242
 15 02 25 00 53 30.0000000  0  7G16G18G19G21G22G27G31
  20701732.740   108788345.90809  20701731.520    84770148.47247
  21986676.900   115540812.16508  21986675.580    90031814.20145
  23821931.980   125185101.49407  23821931.220    97546829.82944
  22091233.300   116090219.90908  22091231.680    90459906.89445
  22638049.520   118963826.69808  22638046.840    92699094.79844
  21782768.480   114469237.66408  21782769.680    89196822.96946
  24546705.060   128993745.68506  24546706.260   100514585.02644
 15 02 25 00 54  0.0000000  0  7G16G18G19G21G22G27G31
  20694783.640   108751828.03609  20694782.420    84741692.98847
  21980760.200   115509719.99108  21980758.920    90007586.55545
  23807210.600   125107739.70507  23807209.740    97486547.94844
  22102628.640   116150102.23908  22102626.880    90506568.44445
  22621877.440   118878841.46008  22621874.720    92632872.55644
  21772415.940   114414834.62009  21772417.160    89154430.98546
  24565298.940   129091453.90506  24565300.140   100590720.71841
 15 02 25 00 54 30.0000000  0  7G16G18G19G21G22G27G31
