     2.11           OBSERVATION DATA    G                   RINEX VERSION / TYPE
SPIDER V4,0,0,3554                      2015 03 16 01:01    PGM / RUN BY / DATE 
AKET                                                        MARKER NAME         
AKET                                                        MARKER NUMBER       
                                                            OBSERVER / AGENCY   
496661              LEICA GRX1200+GNSS  8.20/4.007          REC # / TYPE / VERS 
10271023            LEIAR25         NONE                    ANT # / TYPE        
  5151584.4739   350346.6892  3733756.9574                  APPROX POSITION XYZ 
        0.0480        0.0000        0.0000                  ANTENNA: DELTA H/E/N
     1     1                                                WAVELENGTH FACT L1/2
     4    C1    L1    P2    L2                              # / TYPES OF OBSERV 
    30.000                                                  INTERVAL            
  2015    02    25    00    00    0.0000000     GPS         TIME OF FIRST OBS   
  2015    02    25    23    59   30.0000000     GPS         TIME OF LAST OBS    
    16                                                      LEAP SECONDS        
    39                                                      # OF SATELLITES     
   G 1    58    58    58    58                              PRN / # OF OBS      
   G 2   859   859   859   859                              PRN / # OF OBS      
   G 3   256   256   256   256                              PRN / # OF OBS      
   G 4    25    25    25    25                              PRN / # OF OBS      
   G 5   594   594   590   590                              PRN / # OF OBS      
   G 6   601   601   600   600                              PRN / # OF OBS      
   G 7   572   572   572   572                              PRN / # OF OBS      
   G 9   554   554   554   554                              PRN / # OF OBS      
   G10   626   626   626   626                              PRN / # OF OBS      
   G12   780   780   780   780                              PRN / # OF OBS      
   G13   761   761   752   752                              PRN / # OF OBS      
   G14   468   468   468   468                              PRN / # OF OBS      
   G15   651   650   647   647                              PRN / # OF OBS      
   G16   372   372   372   372                              PRN / # OF OBS      
   G17   515   515   515   515                              PRN / # OF OBS      
   G18   597   597   597   597                              PRN / # OF OBS      
   G19   139   139   139   139                              PRN / # OF OBS      
   G20   564   564   563   563                              PRN / # OF OBS      
   G21   469   469   469   469                              PRN / # OF OBS      
   G22   220   220   219   219                              PRN / # OF OBS      
   G23   369   369   369   369                              PRN / # OF OBS      
   G24   773   773   771   771                              PRN / # OF OBS      
   G25   756   755   755   755                              PRN / # OF OBS      
   G27   320   320   320   320                              PRN / # OF OBS      
   G28   520   520   520   520                              PRN / # OF OBS      
   G29   657   657   657   657                              PRN / # OF OBS      
   G30   625   625   625   625                              PRN / # OF OBS      
   G31   519   519   519   519                              PRN / # OF OBS      
   G32     7     7     7     7                              PRN / # OF OBS      
   R 2   165   165   165   165                              PRN / # OF OBS      
   R 3   165   165   165   165                              PRN / # OF OBS      
   R 4    26    26    26    26                              PRN / # OF OBS      
   R 9   167   167   167   167                              PRN / # OF OBS      
   R10    39    39    39    38                              PRN / # OF OBS      
   R15    21    21    19    17                              PRN / # OF OBS      
   R16   167   167   167   167                              PRN / # OF OBS      
   R17   104   104   104   104                              PRN / # OF OBS      
   R18   167   167   167   167                              PRN / # OF OBS      
   R19   172   172   172   172                              PRN / # OF OBS      
BIT 2 OF LLI FLAGS DATA COLLECTED UNDER A/S CONDITION       COMMENT             
SNR is mapped to RINEX snr flag value [2-9]                 COMMENT             
Lx:     = 25dBHz -> 1; 26-27dBHz -> 2; 28-31dBHz -> 3       COMMENT             
       32-35dBHz -> 4; 36-38dBHz -> 5; 39-41dBHz -> 6       COMMENT             
       42-44dBHz -> 7; 45-48dBHz -> 8; >=49dBHz -> 9        COMMENT             
                                                            END OF HEADER       
 15 02 25 00 00  0.0000000  0  6G16G18G21G27G29G31
  21949480.780   115345311.11409  21949476.820    89879454.45747
  22941675.860   120559324.06508  22941672.300    93942327.99046
  21149492.760   111141336.97708  21149488.240    86603623.55848
  23111297.640   121450702.67008  23111297.000    94636920.90547
  23660221.540   124335290.08908  23660219.140    96884623.69046
  22565998.680   118585114.74709  22565995.460    92403967.42948
 15 02 25 00 00 30.0000000  0  6G16G18G21G27G29G31
  21935223.240   115270387.02609  21935219.360    89821072.05947
  22928884.440   120492104.83608  22928881.000    93889949.40946
  21155133.640   111170980.14808  21155129.100    86626722.13148
  23098512.700   121383518.04308  23098512.060    94584569.27247
  23674409.300   124409847.05608  23674406.960    96942719.97546
  22582510.160   118671883.08209  22582506.900    92471579.08948
 15 02 25 00 01  0.0000000  0  6G16G18G21G27G29G31
  21921009.220   115195691.62309  21921005.340    89762867.84947
  22916138.080   120425122.59908  22916134.720    93837755.48446
  21160846.220   111200999.80608  21160841.640    86650114.07148
  23085749.480   121316448.18008  23085749.020    94532307.07247
  23688602.560   124484433.01208  23688600.380    97000838.87547
  22599069.600   118758903.50309  22599066.360    92539387.18248
 15 02 25 00 01 30.0000000  0  6G16G18G21G27G29G31
  21906837.460   115121218.14909  21906833.420    89704836.57847
  22903435.600   120358370.80509  22903432.240    93785741.13046
  21166628.380   111231384.97608  21166623.800    86673790.82648
  23073006.360   121249483.91508  23073006.220    94480127.16847
  23702799.580   124559038.86808  23702797.480    97058973.25146
  22615674.720   118846164.01509  22615671.520    92607382.36148
 15 02 25 00 02  0.0000000  0  6G16G18G21G27G29G31
  21892708.780   115046971.56009  21892704.700    89646982.10447
  22890778.060   120291855.25909  22890774.660    93733910.85746
  21172480.400   111262137.22808  21172475.800    86697753.62648
  23060283.980   121182628.10508  23060284.000    94428031.74247
  23717000.840   124633667.21908  23716998.800    97117125.19147
  22632325.500   118933664.20509  22632322.280    92675564.30448
 15 02 25 00 02 30.0000000  0  6G16G18G21G27G29G31
  21878623.900   114972955.37909  21878619.860    89589307.15547
  22878166.240   120225579.86609  22878162.820    93682267.68946
  21178402.280   111293256.48409  21178397.600    86722002.39348
  23047582.640   121115882.19408  23047582.560    94376021.97847
  23731206.640   124708319.35708  23731204.580    97175295.64347
  22649021.680   119021402.74009  22649018.420    92743931.95748
 15 02 25 00 03  0.0000000  0  6G16G18G21G27G29G31
  21864582.740   114899168.60909  21864578.660    89531810.96747
  22865600.020   120159544.15009  22865596.540    93630811.30346
  21184393.060   111324738.25308  21184388.300    86746533.64448
  23034901.780   121049243.20308  23034901.680    94324095.49947
  23745416.380   124782991.95608  23745414.380    97233482.01746
  22665762.140   119109373.88109  22665758.780    92812480.86748
 15 02 25 00 03 30.0000000  0  6G16G18G21G27G29G31
  21850586.820   114825618.58809  21850582.560    89474499.27547
  22853080.780   120093755.27009  22853077.260    93579547.25846
  21190453.360   111356585.76808  21190448.640    86771349.88548
  23022242.060   120982716.03308  23022242.200    94272256.20447
  23759630.920   124857689.74108  23759628.860    97291688.03147
  22682547.300   119197579.57809  22682543.800    92881212.55248
 15 02 25 00 04  0.0000000  0  6G16G18G21G27G29G31
  21836635.340   114752302.06009  21836630.920    89417369.52548
  22840608.020   120028210.68409  22840604.540    93528473.57346
  21196581.960   111388792.43508  21196577.300    86796445.99148
  23009602.800   120916295.59308  23009602.900    94220500.04547
  23773849.240   124932407.34608  23773846.960    97349909.48846
  22699375.560   119286011.87209  22699371.920    92950120.80248
 15 02 25 00 04 30.0000000  0  6G16G18G21G27G29G31
  21822729.280   114679224.63809  21822724.840    89360426.08548
  22828182.980   119962916.73709  22828179.520    93477595.19946
  21202779.360   111421360.47508  21202774.780    86821823.68948
  22996984.440   120849985.07708  22996984.280    94168829.50847
  23788072.060   125007148.55708  23788069.560    97408149.35446
  22716246.940   119374671.28009  22716243.240    93019206.03548
 15 02 25 00 05  0.0000000  0  6G16G18G21G27G29G31
  21808868.800   114606387.57909  21808864.560    89303669.93548
  22815805.840   119897874.57209  22815802.420    93426913.01946
  21209045.000   111454286.78308  21209040.560    86847480.55648
  22984386.760   120783783.60108  22984386.500    94117243.99547
  23802299.040   125081911.99408  23802296.560    97466406.52846
  22733160.680   119463553.65209  22733157.000    93088464.99848
 15 02 25 00 05 30.0000000  0  6G16G18G21G27G29G31
  21795054.240   114533792.32509  21795050.220    89247102.19748
  22803476.960   119833086.23009  22803473.580    93376428.61746
  21215378.420   111487569.10309  21215374.020    86873414.82648
  22971809.720   120717690.43209  22971809.360    94065742.84547
  23816530.080   125156696.53808  23816527.540    97524680.17645
  22750116.140   119552655.32509  22750112.500    93157894.83648
 15 02 25 00 06  0.0000000  0  6G16G18G21G27G29G31
  21781286.360   114461441.70109  21781282.340    89190725.09748
  22791197.060   119768555.06209  22791193.720    93326144.61346
  21221779.580   111521206.94309  21221775.060    86899626.12948
  22959253.460   120651706.55108  22959252.720    94014326.83047
  23830765.340   125231503.08408  23830762.640    97582970.96946
  22767112.980   119641974.51309  22767109.400    93227494.16748
 15 02 25 00 06 30.0000000  0  6G16G18G21G27G29G31
  21767566.100   114389340.57009  21767561.900    89134542.41248
  22778967.040   119704285.89709  22778963.740    93276064.76246
  21228248.560   111555200.94509  21228243.860    86926114.95848
  22946718.340   120585834.05908  22946717.480    93962997.66847
  23845005.240   125306333.88608  23845002.500    97641280.64446
  22784151.080   119731510.54609  22784147.540    93297262.48148
 15 02 25 00 07  0.0000000  0  6G16G18G21G27G29G31
  21753892.720   114317486.00009  21753888.360    89078551.85148
  22766786.600   119640277.02709  22766783.260    93226187.74146
  21234784.180   111589545.52809  21234779.420    86952876.96948
  22934203.660   120520068.73208  22934202.760    93911751.95147
  23859248.860   125381184.39108  23859246.200    97699605.67146
  22801229.040   119821255.96809  22801225.580    93367193.95348
 15 02 25 00 07 30.0000000  0  6G16G18G21G27G29G31
  21740267.000   114245883.07809  21740262.860    89022757.35448
  22754656.540   119576532.70809  22754653.080    93176516.85646
  21241386.540   111624240.81509  21241381.800    86979912.25548
  22921709.780   120454412.71608  22921708.680    93860591.44147
  23873496.660   125456056.86708  23873494.460    97757947.79947
  22818346.740   119911210.16209  22818343.340    93437288.10348
 15 02 25 00 08  0.0000000  0  6G16G18G21G27G29G31
  21726689.040   114174532.31609  21726685.320    88967159.36448
  22742577.040   119513054.24409  22742573.480    93127053.13446
  21248055.080   111659284.04509  21248050.380    87007218.66648
  22909236.380   120388864.68508  22909235.380    93809515.07647
  23887748.380   125530949.69608  23887746.460    97816305.78247
  22835503.360   120001368.95109  22835500.060    93507541.67848
 15 02 25 00 08 30.0000000  0  6G16G18G21G27G29G31
  21713160.020   114103438.27109  21713156.600    88911761.41748
  22730548.960   119449846.35509  22730545.400    93077800.25846
  21254789.920   111694675.84209  21254785.200    87034796.69048
  22896784.000   120323427.09208  22896783.000    93758524.75447
  23902004.340   125605864.89608  23902002.540    97874681.20547
  22852698.820   120091731.71409  22852695.600    93577954.18848
 15 02 25 00 09  0.0000000  0  6G16G18G21G27G29G31
  21699680.140   114032601.39409  21699676.720    88856563.84848
  22718572.520   119386909.90309  22718568.940    93028758.88946
  21261590.440   111730412.71309  21261585.680    87062643.60148
  22884352.140   120258097.81508  22884351.200    93707618.85547
  23916264.160   125680800.53208  23916262.420    97933072.54546
  22869932.140   120182293.29309  22869928.960    93648521.61147
 15 02 25 00 09 30.0000000  0  6G16G18G21G27G29G31
  21686250.720   113962028.64009  21686247.020    88801572.09848
  22706649.120   119324252.19209  22706645.520    92979934.71747
  21268457.260   111766498.19608  21268452.500    87090762.16248
  22871941.800   120192881.94708  22871941.160    93656801.31247
  23930528.800   125755761.55008  23930526.940    97991483.68946
  22887203.740   120273056.01609  22887200.600    93719245.79747
 15 02 25 00 10  0.0000000  0  6G16G18G21G27G29G31
  21672870.500   113891714.38409  21672866.440    88746781.76348
  22694777.800   119261868.39409  22694774.280    92931323.99447
  21275388.580   111802922.73109  21275383.780    87119144.90948
  22859551.660   120127771.70909  22859550.940    93606066.07347
  23944796.840   125830740.26008  23944794.760    98049908.60246
  22904511.620   120364009.17209  22904508.400    93790118.34647
 15 02 25 00 10 30.0000000  0  6G16G18G21G27G29G31
  21659541.200   113821667.87809  21659536.880    88692200.07548
  22682960.360   119199767.76909  22682956.940    92882933.91547
  21282385.420   111839691.72509  21282380.680    87147796.07548
  22847182.860   120062774.24008  22847182.160    93555418.69747
  23959069.420   125905743.12208  23959067.120    98108352.40146
  22921856.540   120455156.97909  22921853.300    93861142.58747
 15 02 25 00 11  0.0000000  0  6G16G18G21G27G29G31
  21646261.540   113751882.49109  21646257.160    88637821.85048
  22671195.560   119137943.50909  22671192.180    92834759.19247
  21289445.840   111876794.73509  21289441.160    87176707.51348
  22834833.780   119997880.59308  22834833.400    93504852.25547
  23973344.880   125980761.66108  23973342.580    98166808.37346
  22939236.220   120546487.45609  22939232.960    93932309.16247
 15 02 25 00 11 30.0000000  0  6G16G18G21G27G29G31
  21633033.900   113682370.61909  21633029.620    88583656.75948
  22659485.740   119076408.45508  22659482.360    92786809.83847
  21296571.480   111914240.37309  21296566.780    87205885.93748
  22822506.540   119933101.18208  22822506.200    93454374.82147
  23987625.220   126055806.02208  23987622.800    98225284.42546
  22956652.080   120638008.00809  22956648.780    94003623.84647
 15 02 25 00 12  0.0000000  0  6G16G18G21G27G29G31
  21619857.440   113613127.56009  21619853.320    88529701.12848
  22647830.180   119015158.49909  22647826.800    92739082.62646
  21303760.740   111952020.31808  21303756.040    87235324.85148
  22810199.800   119868428.97608  22810199.520    93403980.91947
  24001909.140   126130869.20408  24001906.940    98283775.15446
  22974102.220   120729708.77709  22974098.860    94075078.96147
 15 02 25 00 12 30.0000000  0  6G16G18G21G27G29G31
  21606732.340   113544154.47309  21606728.320    88475955.87048
  22636229.160   118954194.90409  22636225.780    92691578.53046
  21311012.980   111990131.35908  21311008.320    87265021.76648
  22797913.440   119803863.00208  22797913.040    93353669.78847
  24016196.580   126205949.87108  24016194.420    98342279.51746
  22991585.880   120821585.41009  22991582.440    94146671.10647
 15 02 25 00 13  0.0000000  0  6G16G18G21G27G29G31
  21593659.500   113475456.28809  21593655.580    88422424.81348
  22624683.580   118893522.71309  22624680.120    92644301.50346
  21318328.520   112028574.93909  21318323.880    87294977.79248
  22785647.900   119739406.00809  22785647.040    93303443.54347
  24030487.920   126281050.73408  24030485.700    98400799.63346
  23009103.020   120913638.15309  23009099.420    94218400.47747
 15 02 25 00 13 30.0000000  0  6G16G18G21G27G29G31
  21580639.640   113407036.68809  21580635.780    88369110.84148
  22613194.120   118833145.66108  22613190.740    92597254.47646
  21325707.280   112067350.56309  21325702.620    87325192.56648
  22773403.360   119675059.42808  22773402.100    93253303.35647
  24044783.260   126356172.63808  24044781.080    98459336.14946
  23026653.340   121005865.43108  23026649.680    94290265.86047
 15 02 25 00 14  0.0000000  0  6G16G18G21G27G29G31
  21567673.140   113338897.55909  21567669.320    88316015.41448
  22601761.300   118773066.06508  22601758.040    92550439.23546
  21333148.960   112106456.52709  21333144.220    87355664.74048
  22761179.600   119610823.08108  22761178.340    93203249.09447
  24059082.760   126431316.31908  24059080.540    98517889.60946
  23044236.160   121098263.81808  23044232.460    94362264.55847
 15 02 25 00 14 30.0000000  0  6G16G18G21G27G29G31
  21554760.680   113271042.38209  21554756.840    88263141.25348
  22590385.820   118713287.72409  22590382.720    92503858.74446
  21340653.460   112145892.50509  21340648.660    87386394.07748
  22748977.040   119546698.36308  22748975.800    93153281.77747
  24073386.420   126506482.37808  24073384.280    98576460.53346
  23061851.180   121190831.74608  23061847.540    94434395.38346
 15 02 25 00 15  0.0000000  0  6G16G18G21G27G29G31
  21541902.280   113203471.93509  21541898.560    88210488.96148
  22579067.880   118653811.25109  22579064.680    92457513.44747
  21348220.080   112185655.01509  21348215.220    87417377.84148
  22736795.360   119482683.71508  22736794.220    93103400.26247
  24087693.980   126581669.36008  24087692.040    98635047.73546
  23079497.620   121283564.88008  23079494.100    94506654.92246
 15 02 25 00 15 30.0000000  0  6G16G18G21G27G29G31
  21529098.180   113136187.16209  21529094.680    88158059.27448
  22567807.640   118594638.03009  22567804.340    92411404.46447
  21355848.260   112225741.35309  21355843.500    87448613.95748
  22724634.320   119418777.94908  22724633.620    93053603.58947
  24102005.100   126656876.02308  24102003.340    98693650.29846
  23097174.740   121376459.17708  23097171.460    94579040.04846
 15 02 25 00 16  0.0000000  0  7G16G18G21G27G29G31R19
  21516349.580   113069193.57109  21516346.140    88105856.48648
  22556606.220   118535773.82209  22556602.840    92365536.26847
  21363538.340   112266153.32908  21363533.760    87480103.81148
  22712494.700   119354984.37808  22712494.200    93003894.31547
  24116320.620   126732105.69908  24116318.860    98752270.79546
  23114882.600   121469514.71708  23114879.460    94651550.82746
  22255440.240   119051598.79408  22255440.840    92595686.85507
 15 02 25 00 16 30.0000000  0  7G16G18G21G27G29G31R19
  21503655.780   113002487.34409  21503652.300    88053877.61848
  22545462.840   118477214.92209  22545459.500    92319905.97347
  21371288.840   112306882.79208  21371284.320    87511841.05648
  22700375.300   119291297.21008  22700374.980    92954267.98248
  24130639.460   126807352.16108  24130637.900    98810904.38946
  23132619.520   121562722.65008  23132616.460    94724180.33346
  22243233.220   118986299.16308  22243233.360    92544898.26607
 15 02 25 00 17  0.0000000  0  7G16G18G21G27G29G31R19
  21491017.800   112936074.07209  21491014.180    88002127.02348
  22534378.520   118418966.92709  22534375.280    92274517.93747
  21379100.160   112347931.62409  21379095.600    87543827.15148
  22688276.860   119227719.84908  22688276.660    92904727.18347
  24144962.180   126882618.82808  24144961.000    98869553.68746
  23150385.540   121656083.51108  23150382.580    94796929.00646
  22231068.300   118921224.91608  22231068.240    92494285.01007
 15 02 25 00 17 30.0000000  0  7G16G18G21G27G29G31R19
  21478435.480   112869953.35209  21478431.780    87950604.39248
  22523353.220   118361029.45909  22523350.080    92229371.87947
  21386971.520   112389295.79209  21386966.960    87576058.96848
  22676198.820   119164249.50708  22676198.680    92855269.78847
  24159288.420   126957902.96008  24159287.000    98928216.61446
  23168179.600   121749591.56708  23168176.640    94869792.39246
  22218944.980   118856372.86308  22218944.840    92443844.53707
 15 02 25 00 18  0.0000000  0  7G16G18G21G27G29G31R19
  21465909.980   112804131.37709  21465906.220    87899314.52948
  22512388.280   118303408.73409  22512385.160    92184472.62446
  21394903.260   112430977.17808  21394898.640    87608537.95848
  22664141.920   119100890.07308  22664141.760    92805898.80047
  24173618.640   127033208.12308  24173616.960    98986895.90646
  23186001.820   121843247.70508  23185998.940    94942771.14545
  22206863.920   118791746.18008  22206863.460    92393579.33507
 15 02 25 00 18 30.0000000  0 13G16G18G21G27G29G31R02R09R15R16R17R18
                                R19
  21453441.420   112738608.57009  21453437.620    87848257.80148
  22501483.700   118246105.35709  22501480.680    92139820.65947
  21402894.680   112472972.72808  21402890.140    87641261.76148
  22652105.900   119037640.10308  22652105.700    92756613.14447
  24187952.680   127108533.00508  24187950.540    99045590.61446
  23203851.300   121937047.31608  23203848.480    95015861.71045
  22508821.820   120111384.52909  22508824.580    93419979.08207
  22110237.780   118067434.93008  22110237.460    91830229.55204
  21830019.960   116653008.59408  21830022.660                  
  19724219.860   105363240.80608  19724221.780    81949194.44408
  22077931.640   118143469.83408  22077931.940    91889366.04907
  19981306.520   106661570.44409  19981308.260    82959006.28008
  22194824.680   118727343.30008  22194824.140    92343488.25107
 15 02 25 00 19  0.0000000  0 13G16G18G21G27G29G31R02R09R15R16R17R18
                                R19
  21441030.300   112673387.50009  21441026.460    87797436.19248
  22490640.220   118189122.84509  22490637.320    92095418.72447
  21410945.660   112515281.30508  21410941.280    87674229.47948
  22640090.880   118974500.40008  22640090.480    92707413.36947
  24202290.600   127183878.25808  24202288.340    99104301.13945
  23221727.740   122030988.44507  23221724.880    95089062.55345
  22504575.840   120088727.90309  22504578.400    93402357.27207
  22092767.740   117974146.63608  22092767.360    91757671.98204
  21853341.580   116777632.71707  21853344.520    90827055.90606
  19726868.440   105377389.59508  19726870.320    81960199.04308
  22092475.140   118221293.70508  22092475.020    91949895.71207
  19984490.480   106678567.41009  19984492.360    82972226.13808
  22182827.240   118663164.30208  22182826.900    92293571.30907
 15 02 25 00 19 30.0000000  0 14G16G18G21G27G29G31R02R03R09R15R16R17
                                R18R19
  21428677.320   112608471.75809  21428673.460    87746852.50548
  22479858.500   118132464.34809  22479855.480    92051269.24646
  21419056.080   112557902.27309  21419051.840    87707440.62948
  22628097.060   118911471.92308  22628096.500    92658300.27647
  24216632.560   127259244.87908  24216630.340    99163028.34146
  23239630.600   122125068.65707  23239627.720    95162371.74445
  22500460.560   120066769.79208  22500463.240    93385278.74707
  22890909.820   122536833.99305  22890909.320    95306423.04405
  22075397.800   117881393.06008  22075397.380    91685530.32604
  21876718.440   116902551.91607  21876721.480    90924215.23406
  19729675.320   105392383.71908  19729677.080    81971861.11908
  22107020.620   118299129.14308  22107020.220    92010434.36907
  19987720.200   106695809.31309  19987722.360    82985636.50308
  22170871.680   118599209.62309  22170871.280    92243828.78507
 15 02 25 00 20  0.0000000  0 14G16G18G21G27G29G31R02R03R09R15R16R17
                                R18R19
  21416382.860   112543863.45609  21416378.920    87696508.38248
  22469138.780   118076131.81808  22469135.620    92007373.78046
  21427225.580   112600833.10709  21427221.320    87740893.22748
  22616124.400   118848554.88308  22616123.800    92609274.02248
  24230978.440   127334632.27508  24230976.220    99221771.74446
  23257559.440   122219285.60207  23257556.640    95235787.50045
  22496476.500   120045512.32808  22496479.180    93368745.21907
  22872235.700   122436871.21204  22872235.440    95228674.29505
  22058128.620   117789178.28708  22058128.400    91613807.73104
  21900149.660   117027761.35607  21900152.740    91021600.30605
  19732640.320   105408222.57808  19732642.100    81984180.22508
  22121568.140   118376975.51908  22121567.500    92070981.54207
  19990995.520   106713294.70409  19990998.040    82999236.25808
  22158957.880   118535479.05408  22158957.320    92194260.56107
 15 02 25 00 20 30.0000000  0 14G16G18G21G27G29G31R02R03R09R15R16R17
                                R18R19
  21404147.500   112479565.43609  21404143.320    87646406.04248
  22458481.640   118020128.50108  22458478.640    91963734.85647
  21435454.060   112644073.62509  21435449.700    87774587.13548
  22604173.000   118785749.85808  22604172.440    92560335.04747
  24245328.380   127410041.73408  24245326.200    99280532.34146
  23275513.820   122313636.70507  23275511.200    95309307.80345
  22492624.420   120024957.97708  22492627.200    93352758.50307
  22853607.940   122337156.33305  22853607.860    95151118.32005
  22040960.940   117697506.49808  22040961.340    91542507.47604
  21923634.580   117153257.67207  21923637.680    91119208.50405
  19735763.540   105424906.13808  19735765.380    81997156.31908
  22136117.540   118454832.17908  22136117.000    92131536.70507
  19994316.480   106731022.71909  19994319.140    83013024.72008
  22147085.900   118471972.70708  22147085.260    92144866.79107
 15 02 25 00 21  0.0000000  0 14G16G18G21G27G29G31R02R03R09R15R16R17
                                R18R19
  21391970.700   112415575.06309  21391966.220    87596543.42148
  22447886.660   117964451.54409  22447883.720    91920350.22946
  21443740.120   112687616.84309  21443735.720    87808516.92048
  22592241.980   118723051.95808  22592241.480    92511479.56048
  24259681.420   127485468.25908  24259679.420    99339306.22445
  23293492.240   122408113.94507  23293489.640    95382926.38345
  22488903.680   120005103.52608  22488906.580    93337316.19007
  22835026.540   122237688.97905  22835026.500    95073754.86805
  22023894.880   117606376.54008  22023895.740    91471628.59904
  21947171.460   117279031.98306  21947174.660    91217032.91205
  19739043.800   105442428.46309  19739045.580    82010784.79608
  22150667.700   118532693.53808  22150667.480    92192095.51907
  19997681.880   106748987.05209  19997684.360    83026996.98508
  22135254.740   118408684.84308  22135254.340    92095642.95307
 15 02 25 00 21 30.0000000  0 14G16G18G21G27G29G31R02R03R09R15R16R17
                                R18R19
  21379854.260   112351902.34409  21379849.580    87546928.32148
  22437355.740   117909111.00209  22437352.800    91877227.75947
  21452084.920   112731468.89809  21452080.500    87842687.33848
  22580332.800   118660469.22308  22580332.380    92462713.79047
  24274039.120   127560919.52308  24274037.300    99398099.38245
  23311495.620   122502722.40906  23311493.060    95456647.20644
  22485315.980   119985958.71208  22485318.780    93322425.80107
  22816493.820   122138481.59406  22816493.660    94996593.59405
  22006932.700   117515800.36708  22006933.900    91401180.45504
  21970761.220   117405088.06706  21970764.380    91315076.49105
  19742482.580   105460796.88709  19742484.180    82025071.34408
  22165220.060   118610566.81708  22165220.080    92252663.60807
  20001092.740   106767194.11309  20001094.920    83041158.02608
  22123466.140   118345623.12108  22123465.740    92046594.91807
 15 02 25 00 22  0.0000000  0 14G16G18G21G27G29G31R02R03R09R15R16R17
                                R18R19
  21367796.960   112288540.84209  21367792.260    87497555.73048
  22426887.640   117854100.76009  22426884.680    91834362.65647
  21460486.440   112775619.26709  21460482.000    87877090.22348
  22568443.920   118597992.78709  22568443.600    92414030.86747
  24288399.820   127636386.64608  24288398.340    99456904.88345
  23329521.760   122597450.27206  23329519.200    95530461.07444
  22481859.740   119967516.11308  22481862.800    93308081.58307
  22798008.940   122039529.99306  22798008.720    94919631.27005
  21990073.400   117425772.65108  21990074.800    91331158.91104
  21994401.180   117531412.45305  21994404.300    91413328.73704
  19746077.840   105480001.46708  19746079.400    82040008.23108
  22179772.860   118688442.20708  22179773.100    92313233.33107
  20004547.040   106785633.55009  20004549.240    83055499.80308
  22111718.060   118282778.26108  22111717.600    91997715.57708
 15 02 25 00 22 30.0000000  0 14G16G18G21G27G29G31R02R03R09R15R16R17
                                R18R19
  21355799.680   112225494.62909  21355795.020    87448428.80548
  22416483.280   117799425.01209  22416480.220    91791758.16347
  21468944.820   112820068.53009  21468940.340    87911726.00448
  22556575.780   118535625.07808  22556575.380    92365432.64448
  24302764.060   127711871.65908  24302762.620    99515724.38246
  23347570.540   122692296.90205  23347568.060    95604367.44144
  22478535.800   119949779.90308  22478539.040    93294286.77807
  22779573.120   121940840.82906  22779572.640    94842873.01905
  21973318.080   117336299.41008  21973319.160    91261568.62104
  22018091.020   117658003.54605  22018094.160    91511788.40504
  19749829.860   105500044.09508  19749831.520    82055596.90608
  22194326.340   118766321.06408  22194326.940    92373805.74207
  20008045.100   106804306.24309  20008047.200    83070022.99608
  22100010.700   118220152.09508  22100010.180    91949006.35507
 15 02 25 00 23  0.0000000  0 14G16G18G21G27G29G31R02R03R09R15R16R17
                                R18R19
  21343863.720   112162770.48909  21343859.120    87399552.87048
  22406143.840   117745090.52509  22406140.640    91749419.60847
  21477460.520   112864819.50608  21477456.120    87946596.89448
  22544729.140   118473370.62508  22544728.780    92316922.69948
  24317132.760   127787379.46708  24317131.200    99574561.66846
  23365642.160   122787263.63305  23365639.920    95678367.47444
  22475345.560   119932756.26509  22475348.880    93281046.22007
  22761187.960   121842423.35706  22761187.320    94766326.12005
  21956668.180   117247388.89108  21956668.880    91192416.01804
  22041830.740   117784861.49505  22041834.040    91610455.65104
  19753739.360   105520927.99808  19753741.120    82071839.93008
  22208881.140   118844207.40508  22208882.100    92434383.98907
  20011587.460   106823215.24609  20011589.500    83084730.01108
  22088344.880   118157748.46908  22088344.580    91900470.23707
 15 02 25 00 23 30.0000000  0 14G16G18G21G27G29G31R02R03R09R15R16R17
                                R18R19
  21331988.020   112100363.05609  21331983.480    87350923.70848
  22395868.260   117691091.75709  22395864.980    91707342.65347
  21486031.720   112909862.24108  21486027.400    87981695.12548
  22532902.620   118411221.68808  22532902.280    92268494.97448
  24331504.360   127862902.03808  24331502.920    99633410.39246
  23383733.620   122882353.90705  23383734.020    95752483.79344
  22472287.900   119916438.81808  22472290.920    93268354.84307
  22742852.680   121744273.89306  22742852.120    94689987.67105
  21940122.960   117159037.16108  21940123.440    91123698.00204
  22065618.400   117911974.69004  22065621.720    91709321.39504
  19757804.640   105542644.12208  19757806.460    82088730.23008
  22223435.700   118922092.44108  22223436.820    92494961.19907
  20015172.380   106842351.13809  20015174.280    83099613.47408
  22076718.960   118095559.04108  22076718.980    91852100.72907
 15 02 25 00 24  0.0000000  0 13G16G18G21G27G29R02R03R09R15R16R17R18
                                R19
  21320174.480   112038282.92309  21320170.000    87302549.58248
  22385658.620   117637439.24509  22385655.280    91665535.50647
  21494659.820   112955203.76208  21494655.580    88017026.17848
  22521097.760   118349186.67708  22521097.420    92220156.03248
  24345880.420   127938447.76308  24345879.060    99692277.13746
  22469364.400   119900837.59208  22469366.920    93256220.56907
  22724569.880   121646405.61805  22724569.520    94613867.94505
  21923684.560   117071256.03708  21923685.060    91055423.81504
  22089454.260   118039345.66904  22089457.660    91808387.65104
  19762027.080   105565199.99708  19762028.960    82106273.67508
  22237991.600   118999983.89208  22237992.620    92555543.40607
  20018801.160   106861721.19609  20018802.960    83114679.08108
  22065134.680   118033591.81508  22065135.100    91803904.07307
 15 02 25 00 24 30.0000000  0 14G16G18G21G27G29G31R02R03R09R15R16R17
                                R18R19
  21308424.460   111976536.60309  21308419.920    87254435.56548
  22375516.100   117584139.35909  22375512.640    91624003.12747
  21503345.380   113000847.02909  21503341.240    88052592.35948
  22509315.460   118287270.34909  22509315.160    92171909.55048
  24360261.760   128014021.17208  24360260.280    99751165.47346
  23419985.080   123072853.43004  23419982.440    95900924.00643
  22466576.120   119885958.73108  22466578.080    93244648.12607
  22706341.320   121548827.75605  22706341.140    94537974.11506
  21907354.540   116984054.22008  21907355.380    90987600.17905
  22113338.420   118166975.64804  22113342.100    91907655.33604
  19766407.540   105588599.53708  19766409.420    82124473.30908
  22252549.640   119077885.89308  22252550.220    92616133.83907
  20022474.400   106881328.46609  20022476.180    83129929.17408
  22053592.920   117971851.01908  22053593.160    91755883.43307
 15 02 25 00 25  0.0000000  0 13G16G18G21G27G29R02R03R09R15R16R17R18
                                R19
  21296734.260   111915104.35309  21296729.700    87206566.29348
  22365437.000   117531172.95009  22365433.500    91582730.61747
  21512083.820   113046767.88909  21512079.720    88088374.84248
  22497551.560   118225450.62709  22497551.240    92123738.35248
  24374644.240   128089600.32408  24374642.460    99810058.27445
  22463919.220   119871781.26308  22463921.320    93233621.24307
  22688163.700   121451522.34406  22688163.680    94462292.20206
  21891129.520   116897412.90708  21891130.460    90920212.48305
  22137266.180   118294838.71404  22137270.100    92007104.31303
  19770941.540   105612818.88909  19770943.220    82143310.58508
  22267105.280   119155774.79208  22267105.360    92676714.08907
  20026187.540   106901149.21409  20026189.280    83145345.31508
  22042089.180   117910313.57408  22042089.460    91708021.01507
 15 02 25 00 25 30.0000000  0 13G16G18G21G27G29R02R03R09R15R16R17R18
                                R19
  21285108.040   111854008.66509  21285103.700    87158959.27748
  22355425.480   117478562.15009  22355421.940    91541735.19847
  21520878.740   113092985.05609  21520874.500    88124388.21148
  22485809.980   118163748.06008  22485809.520    92075658.43548
  24389031.620   128165205.37108  24389029.560    99868971.26946
  22461398.060   119858327.56308  22461400.260    93223157.26107
  22670041.880   121354514.72406  22670041.840    94386841.85806
  21875013.960   116811356.43208  21875014.980    90853279.67205
  22161240.700   118422950.28304  22161244.640    92106746.57403
  19775632.700   105637877.88709  19775634.340    82162800.90308
  22281662.240   119233671.03308  22281661.960    92737300.03607
  20029944.280   106921202.70509  20029945.960    83160942.47008
  22030627.420   117848999.79009  22030627.720    91660332.52907
 15 02 25 00 26  0.0000000  0 13G16G18G21G27G29R02R03R09R15R16R17R18
                                R19
  21273545.460   111793247.89209  21273541.560    87111613.21948
  22345481.240   117426305.04909  22345477.700    91501015.40247
  21529728.940   113139492.95308  21529724.600    88160628.12548
  22474089.960   118102158.87609  22474089.460    92027666.87148
  24403423.100   128240832.52008  24403420.980    99927901.47046
  22459012.080   119845595.06008  22459014.320    93213254.22607
  22651975.800   121257805.35807  22651975.580    94311623.49406
  21859007.940   116725884.65508  21859008.920    90786801.63505
  22185260.380   118551302.85903  22185264.120    92206576.28803
  19780479.920   105663771.02408  19780481.800    82182939.99308
  22296219.540   119311569.77308  22296219.080    92797887.92207
  20033743.600   106941483.65809  20033745.220    83176716.54508
  22019206.640   117787905.01808  22019206.580    91612814.40907
 15 02 25 00 26 30.0000000  0 13G16G18G21G27G29R02R03R09R15R16R17R18
                                R19
  21262046.160   111732819.31209  21262042.580    87064526.01448
  22335603.800   117374399.24909  22335600.400    91460569.33847
  21538633.180   113186284.81809  21538628.760    88197089.30948
  22462390.600   118040678.22709  22462389.920    91979759.87448
  24417817.800   128316476.89308  24417815.760    99986845.09446
  22456760.480   119833579.99808  22456762.860    93203909.20207
  22633965.380   121161393.86407  22633965.120    94236636.77206
  21843111.040   116640996.16008  21843112.140    90720777.25005
  22209323.580   118679887.54003  22209327.020    92306586.52303
  19785482.200   105690492.11109  19785484.100    82203723.05608
  22310776.300   119389465.54808  22310775.760    92858473.50407
  20037584.260   106961985.67709  20037585.840    83192662.57008
  22007825.680   117727023.93008  22007825.220    91565462.48307
 15 02 25 00 27  0.0000000  0 13G16G18G21G27G29R02R03R09R15R16R17R18
                                R19
  21250611.500   111672729.79409  21250608.040    87017703.02348
  22325794.500   117322851.38609  22325791.140    91420402.19347
  21547591.980   113233363.61709  21547587.500    88233774.08148
  22450712.860   117979310.79309  22450712.000    91931941.09648
  24432216.680   128392143.09808  24432214.620   100045805.77146
  22454644.420   119822288.48808  22454646.940    93195126.93207
  22616012.300   121065289.50407  22616012.220    94161888.95706
  21827324.660   116556699.10908  21827326.020    90655212.87505
  22233430.080   118808704.14603  22233433.280    92406777.13002
  19790640.080   105718044.61009  19790641.980    82225152.76008
  22325333.180   119467362.30308  22325332.620    92919059.83507
  20041466.960   106982712.06009  20041468.560    83208783.09008
  21996485.280   117666360.38408  21996484.680    91518279.75107
 15 02 25 00 27 30.0000000  0 13G16G18G21G27G29R02R03R09R15R16R17R18
                                R19
  21239241.220   111612978.56709  21239237.680    86971143.62348
  22316053.160   117271660.65109  22316049.820    91380513.32147
  21556604.400   113280724.23509  21556599.900    88270678.45448
  22439056.140   117918053.70109  22439055.160    91884208.30748
  24446619.000   128467828.20708  24446617.040   100104781.11146
  22452663.680   119811718.78409  22452666.240    93186906.07807
  22598116.720   120969493.40607  22598116.880    94087380.91206
  21811649.040   116472994.21808  21811650.680    90590109.07505
  22257578.860   118937752.54603  22257581.300                  
  19795952.820   105746424.18809  19795954.680    82247225.75308
  22339889.440   119545255.99908  22339888.960    92979643.79207
  20045390.820   107003658.34009  20045392.600    83225074.63508
  21985184.800   117605911.23308  21985184.240    91471263.76007
 15 02 25 00 28  0.0000000  0 13G16G18G21G27G29R02R03R09R15R16R17R18
                                R19
  21227936.980   111553574.63709  21227933.260    86924854.85548
  22306381.520   117220836.17909  22306378.180    91340909.84646
  21565671.580   113328372.36209  21565667.060    88307806.85748
  22427421.780   117856914.20409  22427420.800    91836567.14448
  24461026.280   128543539.19808  24461024.460   100163776.66046
  22450819.920   119801879.31409  22450822.240    93179253.15207
  22580281.060   120874017.83906  22580281.280    94013122.17106
  21796086.460   116389892.22008  21796088.120    90525474.18605
  22281769.660   119067021.55703                                
  19801421.440   105775636.45408  19801423.300    82269946.40308
  22354446.260   119623153.60408  22354446.060    93040230.78507
  20049356.980   107024830.42809  20049359.100    83241541.81408
  21973925.480   117545682.78208  21973925.000    91424419.40507
 15 02 25 00 28 30.0000000  0 13G16G18G21G27G29R02R03R09R15R16R17R18
                                R19
  21216697.500   111494511.25209  21216693.720    86878831.44048
  22296778.260   117170371.12509  22296774.960    91301586.43847
  21574791.400   113376297.03709  21574786.860    88345150.76848
  22415807.980   117795883.26709  22415807.040    91789010.59348
  24475436.820   128619267.02908  24475434.960   100222785.32646
  22449111.480   119792761.93209  22449113.580    93172161.86507
  22562504.260   120778857.74506  22562504.600    93939108.81706
  21780635.780   116307387.22808  21780637.460    90461303.63404
  22306000.340   119196502.50803                                
  19807044.000   105805670.84808  19807045.720    82293306.48508
  22369001.960   119701045.01008  22369001.860    93100812.97707
  20053363.360   107046217.53009  20053365.860    83258176.22508
  21962705.660   117485665.30809  21962705.480    91377739.20907
 15 02 25 00 29  0.0000000  0 12G16G18G21G27G29R02R03R09R16R17R18R19
  21205523.720   111435793.29609  21205520.160    86833077.19748
  22287244.300   117120270.02709  22287241.100    91262546.63747
  21583964.020   113424499.17309  21583959.420    88382710.87048
  22404215.320   117734963.71709  22404214.460    91741540.81248
  24489851.180   128695014.45208  24489848.960   100281809.27646
  22447539.040   119784370.81809  22447541.160    93165635.48107
  22544787.620   120684020.54906  22544788.220    93865346.61006
  21765298.260   116225485.88708  21765299.920    90397602.59305
  19812820.660   105836528.77908  19812822.380    82317307.09408
  22383557.020   119778932.33308  22383557.020    93161391.98307
  20057410.320   107067821.21909  20057412.940    83274979.09908
  21951525.900   117425861.18108  21951525.860    91331224.91607
 15 02 25 00 29 30.0000000  0 12G16G18G21G27G29R02R03R09R16R17R18R19
  21194415.900   111377422.01509  21194412.700    86787593.06948
  22277779.900   117070534.05909  22277776.600    91223791.34447
  21593188.840   113472976.12109  21593184.240    88420485.10948
  22392643.680   117674154.73009  22392642.940    91694157.20448
  24504269.220   128770780.66608  24504266.620   100340847.87446
  22446102.400   119776705.94709  22446104.960    93159673.96307
  22527132.040   120589509.53007  22527132.720    93791838.08106
  21750074.300   116144190.55808  21750075.900    90334372.88005
  19818750.860   105868207.43108  19818752.680    82341946.02608
  22398111.140   119856814.07508  22398110.980    93221966.63607
  20061497.520   107089639.27509  20061500.120    83291948.68708
  21940385.820   117366268.78308  21940385.740    91284875.30007
 15 02 25 00 30  0.0000000  0 12G16G18G21G27G29R02R03R09R16R17R18R19
  21183374.940   111319401.65709  21183371.920    86742382.39248
  22268385.840   117021167.66209  22268382.460    91185324.03447
  21602465.840   113521727.38809  21602461.300    88458473.10848
  22381093.640   117613458.58709  22381092.840    91646861.51048
  24518691.100   128846567.62908  24518688.220   100399902.60345
  22444802.600   119769770.61609  22444805.040    93154279.83907
  22509538.780   120495331.40207  22509539.280    93718588.46106
  21734965.080   116063507.05508  21734966.440    90271619.06205
  19824834.840   105900707.50708  19824836.860    82367223.86208
  22412664.600   119934691.82708  22412664.220    93282538.19607
  20065625.080   107111672.28109  20065627.600    83309085.46208
  21929285.780   117306889.84808  21929285.280    91238691.68407
 15 02 25 00 30 30.0000000  0 12G16G18G21G27G29R02R03R09R16R17R18R19
  21172401.360   111261734.68209  21172398.280    86697447.09148
  22259062.560   116972173.02209  22259059.140    91147146.39847
  21611795.060   113570752.93008  21611790.620    88496674.82648
  22369565.160   117552875.64509  22369564.360    91599654.03748
  24533116.980   128922375.42508  24533113.780   100458973.62845
  22443639.960   119763566.18409  22443642.420    93149454.18007
  22492008.720   120401491.20107  22492008.920    93645601.65506
  21719971.120   115983438.88308  21719972.380    90209343.83305
  19831072.320   105934027.54608  19831074.480    82393139.43608
  22427217.360   120012565.30108  22427216.460    93343106.45207
  20069792.780   107133919.34909  20069795.280    83326388.74308
  21918225.360   117247723.71908  21918224.340    91192673.61107
 15 02 25 00 31  0.0000000  0 12G16G18G21G27G29R02R03R09R16R17R18R19
  21161495.420   111204422.67609  21161492.080    86652788.39448
  22249810.260   116923551.61509  22249806.860    91109259.61147
  21621176.060   113620050.29709  21621171.660    88535088.35648
  22358058.180   117492405.60509  22358057.240    91552534.52748
  24547546.840   128998204.11308  24547543.560   100518060.91345
  22442614.400   119758093.23909  22442616.760    93145197.46107
  22474542.460   120307992.52007  22474542.100    93572880.45305
  21705092.940   115903989.35608  21705094.080    90147549.75605
  19837463.020   105968165.42408  19837465.220    82419691.10508
  22441768.860   120090433.24208  22441767.940    93403670.38107
  20074000.280   107156378.63209  20074002.680    83343857.06808
  21907204.520   117188769.75008  21907203.360    91146820.55507
 15 02 25 00 31 30.0000000  0 11G16G18G21G27R02R03R09R16R17R18R19
  21150668.440   111147525.65609  21150664.740    86608453.05548
  22240640.320   116875363.09509  22240636.900    91071710.12747
  21630619.320   113669674.71309  21630614.920    88573756.73348
  22346583.640   117432106.12309  22346582.700    91505547.92048
  22441736.940   119753411.11008  22441739.300    93141555.83207
  22457151.820   120214898.93407  22457151.140    93500474.34506
  21690342.200   115825220.26908  21690343.040    90086284.89805
  19844017.540   106003178.16508  19844019.600    82446923.23108
  22456330.040   120168353.89008  22456329.600    93464275.27307
  20078258.260   107179107.34309  20078260.500    83361534.95008
  21896233.960   117130085.60908  21896232.820    91101177.36907
 15 02 25 00 32  0.0000000  0 11G16G18G21G27R02R03R09R16R17R18R19
  21139896.380   111090918.17509  21139892.600    86564343.34248
  22231529.000   116827482.38909  22231525.460    91034400.50048
  21640100.200   113719497.16108  21640095.880    88612579.41948
  22335117.280   117371849.99909  22335116.420    91458595.10748
  22440983.500   119749391.42909  22440985.940    93138429.45707
  22439813.400   120122084.90007  22439812.880    93428285.69106
  21675695.320   115747005.55008  21675695.760    90025451.24905
  19850711.240   106038934.22808  19850713.180    82474733.47908
  22470876.840   120246196.93408  22470876.720    93524819.83607
  20082542.140   107201974.65409  20082544.300    83379320.64908
  21885289.660   117071541.31008  21885288.520    91055642.92707
 15 02 25 00 32 30.0000000  0 12G16G18G19G21G27R02R03R09R16R17R18R19
  21129194.980   111034682.66609  21129191.420    86520523.46148
  22222491.840   116779991.34809  22222488.180    90997394.49647
  24537919.920   128947643.68807  24537916.720   100478665.19546
  21649633.620   113769596.06509  21649629.380    88651617.51848
  22323674.420   117311717.63709  22323673.600    91411738.71948
  22440369.740   119746116.58109  22440372.040    93135882.35807
  22422543.280   120029636.84407  22422542.980    93356381.67206
  21661168.140   115669430.35708  21661168.020    89965114.98405
  19857558.980   106075513.27608  19857560.740    82503183.83208
  22485424.340   120324043.17608  22485424.260    93585366.88607
  20086866.900   107225060.82109  20086869.120    83397276.54808
  21874386.680   117013217.93609  21874385.640    91010280.30507
 15 02 25 00 33  0.0000000  0 12G16G18G19G21G27R02R03R09R16R17R18R19
  21118563.300   110978813.14409  21118559.880    86476988.76248
  22213527.680   116732884.18009  22213524.020    90960687.63347
  24522723.000   128867790.12107  24522720.380   100416441.78445
  21659217.860   113819961.49409  21659213.640    88690863.30548
  22312253.620   117251701.16509  22312252.760    91364972.65048
  22439894.300   119743579.27009  22439896.440    93133908.92107
  22405340.740   119937551.00407  22405340.660    93284759.37306
  21646759.500   115592489.55808  21646759.200    89905272.16005
  19864558.980   106112905.69708  19864560.700    82532266.81108
  22499970.780   120401884.25108  22499970.780    93645909.91307
  20091230.880   107248356.45609  20091233.220    83415395.36708
  21863523.340   116955106.69408  21863522.440    90965082.69507
 15 02 25 00 33 30.0000000  0 12G16G18G19G21G27R02R03R09R16R17R18R19
  21108000.800   110923305.85709  21107997.280    86433736.34748
  22204635.700   116686156.62609  22204632.080    90924276.57647
  24507539.560   128788003.67107  24507536.300   100354270.45345
  21668851.440   113870585.75209  21668847.060    88730310.77148
  22300853.740   117191794.70909  22300852.860    91318292.30848
  22439556.060   119741774.10808  22439557.840    93132504.90807
  22388205.600   119845825.67107  22388205.660    93213417.47806
  21632469.140   115516180.74608  21632468.940    89845920.87505
  19871709.640   106151103.21508  19871711.280    82561975.97508
  22514515.000   120479713.67708  22514515.180    93706443.86507
  20095632.780   107271854.27609  20095635.240    83433671.45608
  21852698.340   116897200.79208  21852697.620    90920044.81507
 15 02 25 00 34  0.0000000  0 12G16G18G19G21G27R02R03R09R16R17R18R19
  21097509.200   110868171.00009  21097505.400    86390774.12148
  22195817.800   116639818.39809  22195814.120    90888168.88847
  24492370.680   128708292.40107  24492368.300   100292157.94346
  21678535.480   113921475.08709  21678530.900    88769964.78448
  22289476.420   117132006.36009  22289475.400    91271703.99448
  22439356.720   119740710.14908  22439358.340    93131677.39507
  22371140.160   119754473.31807  22371140.220    93142365.68606
  21618299.220   115440515.20708  21618299.340    89787069.90205
  19879012.100   106190111.92308  19879013.880    82592316.05008
  22529058.400   120557538.56508  22529058.720    93766974.29207
  20100073.880   107295560.91609  20100076.320    83452109.94108
  21841913.160   116839507.81908  21841912.540    90875172.53407
 15 02 25 00 34 30.0000000  0 12G16G18G19G21G27R02R03R09R16R17R18R19
  21087087.600   110813404.61509  21087083.600    86348099.01848
  22187073.360   116593865.96409  22187069.560    90852361.80547
  24477215.460   128628650.51207  24477212.940   100230099.37141
  21688268.580   113972622.19309  21688263.860    88809819.66748
  22278120.500   117072330.32209  22278119.300    91225203.19748
  22439295.120   119740381.86708  22439296.860    93131422.06407
  22354144.100   119663492.38807  22354144.060    93071602.78206
  21604249.320   115365490.19508  21604249.800    89728717.10905
  19886464.980   106229924.01208  19886466.720    82623280.99408
  22543599.840   120635352.80708  22543600.080    93827496.45307
  20104552.660   107319469.02509  20104555.120    83470705.12708
  21831166.640   116782021.12208  21831166.040    90830460.67307
 15 02 25 00 35  0.0000000  0 12G16G18G19G21G27R02R03R09R16R17R18R19
  21076736.220   110759007.97509  21076732.160    86305712.02548
  22178402.380   116548300.04809  22178398.580    90816855.91947
  24462073.000   128549076.81808  24462069.720   100168093.80946
  21698050.100   114024023.90209  21698045.280    88849872.94648
  22266785.880   117012765.74509  22266784.420    91178789.25648
  22439371.460   119740789.15409  22439373.320    93131738.85507
  22337218.020   119572886.43907  22337218.120    93001131.52406
  21590319.840   115291107.95508  21590320.360    89670864.27405
  19894067.740   106270536.38308  19894069.500    82654868.38508
  22558138.960   120713154.56908  22558139.000    93888008.92606
  20109068.800   107343576.37509  20109071.260    83489455.28808
  21820458.400   116724738.96208  21820457.960    90785907.91107
 15 02 25 00 35 30.0000000  0 12G16G18G19G21G27R02R03R09R16R17R18R19
  21066456.360   110704987.08209  21066452.300    86263617.81348
  22169806.140   116503126.77009  22169802.460    90781655.96847
  24446944.440   128469575.13405  24446941.600   100106144.61545
  21707880.220   114075681.78108  21707875.480    88890125.83948
  22255473.220   116953316.64309  22255471.620    91132465.30548
  22439586.580   119741936.48308  22439588.560    93132631.21807
  22320363.560   119482663.78207  22320363.800    92930958.37906
  21576512.120   115217375.69308  21576512.880    89613516.94305
  19901820.620   106311950.51308  19901822.260    82687079.36708
  22572676.380   120790947.50008  22572676.500    93948514.49506
  20113622.840   107367885.73909  20113625.180    83508362.56408
  21809789.180   116667664.97308  21809788.760    90741517.05607
 15 02 25 00 36  0.0000000  0 12G16G18G19G21G27R02R03R09R16R17R18R19
  21056248.120   110651341.99309  21056244.080    86221816.45848
  22161284.580   116458345.85409  22161280.980    90746761.76847
  24431829.480   128390143.58308  24431825.660   100044249.73646
  21717758.500   114127593.13609  21717753.880    88930576.24848
  22244182.140   116893981.38909  22244180.580    91086230.05448
  22439940.160   119743822.52809  22439941.920    93134098.17507
  22303581.360   119392827.13407  22303581.540    92861085.45807
  21562826.460   115144294.82908  21562827.280    89556676.30405
  19909722.940   106354162.57808  19909724.480    82719910.97008
  22587211.700   120868729.21908  22587211.580    94009011.38807
  20118214.080   107392393.78809  20118216.420    83527424.38908
  21799158.300   116610796.37509  21799157.580    90697285.91707
 15 02 25 00 36 30.0000000  0 12G16G18G19G21G27R02R03R09R16R17R18R19
  21046113.180   110598081.88809  21046109.120    86180315.07748
  22152839.340   116413965.95209  22152835.680    90712180.03147
  24416728.820   128310789.54406  24416725.440    99982415.66644
  21727685.920   114179762.74809  21727681.460    88971227.88348
  22232914.040   116834767.15009  22232912.540    91040089.10948
  22440433.500   119746454.94408  22440435.360    93136145.60707
  22286873.420   119303387.86207  22286873.420    92791521.60306
  21549264.700   115071875.64308  21549265.580    89500350.28305
  19917775.560   106397177.77708  19917777.120    82753367.21808
  22601746.260   120946506.26008  22601746.140    94069504.59407
  20122843.660   107417106.60109  20122846.020    83546645.46308
  21788567.060   116554139.82108  21788566.400    90653219.70207
 15 02 25 00 37  0.0000000  0 12G16G18G19G21G27R02R03R09R16R17R18R19
  21036048.700   110545192.79409  21036044.720    86139102.78648
  22144467.760   116369973.23109  22144464.100    90677899.98247
  24401640.240   128231496.95208  24401636.580    99920629.09646
  21737658.940   114232171.59509  21737654.540    89012065.93648
  22221665.920   116775658.00609  22221664.420    90994030.02848
  22441063.640   119749818.23609  22441065.580    93138761.53507
  22270237.440   119214333.92807  22270237.280    92722257.43606
  21535824.400   115000105.03908  21535825.220    89444528.70005
  19925974.980   106440977.37208  19925976.640    82787433.53808
  22616276.980   121024261.97008  22616276.800    94129981.21407
  20127508.320   107442006.33909  20127510.600    83566011.92008
  21778012.080   116497678.15909  21778011.660    90609305.11607
 15 02 25 00 37 30.0000000  0 12G16G18G19G21G27R02R03R09R16R17R18R19
  21026058.780   110492695.77309  21026054.900    86098196.01448
  22136173.760   116326388.11909  22136170.140    90643937.57047
  24386566.540   128152284.24806  24386563.380    99858905.14846
  21747681.060   114284838.27809  21747676.740    89053104.91148
  22210441.360   116716672.76109  22210439.880    90948067.51348
  22441834.420   119753931.54009  22441836.320    93141960.77807
  22253677.800   119125688.97307  22253677.660    92653311.39706
  21522509.620   114929005.03508  21522510.600    89389228.70905
  19934324.300   106485578.05809  19934326.000    82822122.95708
  22630807.200   121102014.66708  22630806.980    94190455.52807
  20132211.380   107467110.96309  20132213.540    83585537.73608
  21767497.040   116441429.95108  21767496.880    90565556.53508
 15 02 25 00 38  0.0000000  0 12G16G18G19G21G27R02R03R09R16R17R18R19
  21016141.500   110440580.16709  21016137.560    86057586.44748
  22127955.340   116283200.03509  22127951.720    90610284.52247
  24371505.940   128073139.58308  24371502.680    99797233.84746
  21757749.480   114337748.24709  21757745.260    89094333.44348
  22199237.980   116657799.21109  22199236.620    90902192.02448
  22442743.560   119758782.88308  22442745.560    93145734.03607
  22237192.880   119037444.40007  22237192.780    92584676.75507
  21509318.640   114858566.23208  21509319.780    89334442.96705
  19942820.760   106530964.81708  19942822.460    82857423.74708
  22645334.380   121179751.31408  22645334.340    94250917.33507
  20136950.120   107492406.66209  20136952.260    83605212.16108
  21757019.320   116385381.97408  21757019.260    90521963.66408
 15 02 25 00 38 30.0000000  0 12G16G18G19G21G27R02R03R09R16R17R18R19
  21006301.320   110388869.56509  21006297.280    86017292.46948
  22119816.780   116240431.71909  22119813.200    90576958.56947
  24356463.980   127994067.68107  24356459.180    99735625.99846
  21767867.840   114390920.52209  21767863.720    89135766.37648
  22188060.000   116599059.03709  22188058.820    90856420.44648
  22443795.080   119764394.12109  22443797.420    93150098.37307
  22220787.780   118949626.76508  22220787.660    92516374.17307
  21496256.060   114788813.54208  21496257.300    89280190.88505
  19951467.980   106577157.16908  19951469.720    82893351.11208
  22659862.480   121257493.80408  22659862.680    94311383.66807
  20141728.440   107517913.91009  20141730.580    83625051.12508
  21746583.000   116329555.28508  21746582.960    90478542.92807
 15 02 25 00 39  0.0000000  0 12G16G18G19G21G27R02R03R09R16R17R18R19
  20996523.720   110337488.01409  20996519.720    85977254.89548
  22111743.720   116198007.52109  22111740.240    90543900.76547
  24341421.660   127915023.25106  24341417.120    99674032.80245
  21778021.080   114444276.10409  21778017.080    89177342.15248
  22176892.560   116540374.24309  22176891.580    90810692.05748
  22444974.080   119770686.46408  22444976.700    93154992.42307
  22204448.320   118862160.71808  22204448.220    92448345.03707
  21483307.760   114719670.64908  21483308.920    89226413.08005
  19960250.680   106624073.49708  19960252.500    82929841.56908
  22674376.480   121335161.77308  22674376.880    94371792.05907
  20146531.240   107543552.13009  20146533.440    83644991.96108
  21736173.080   116273869.66808  21736172.640    90435231.92907
 15 02 25 00 39 30.0000000  0 12G16G18G19G21G27R02R03R09R16R17R18R19
