     2.11           OBSERVATION DATA    G                   RINEX VERSION / TYPE
SPIDER V4,0,0,3554                      2015 04 17 03:18    PGM / RUN BY / DATE 
CABS                                                        MARKER NAME         
CABS                                                        MARKER NUMBER       
                                                            OBSERVER / AGENCY   
462287              LEICA GRX1200PRO    8.10/2.127          REC # / TYPE / VERS 
103298              LEIAT504                                ANT # / TYPE        
  5116912.3402   671231.6412  3737143.4301                  APPROX POSITION XYZ 
        0.0600        0.0000        0.0000                  ANTENNA: DELTA H/E/N
     1     1                                                WAVELENGTH FACT L1/2
     4    C1    L1    P2    L2                              # / TYPES OF OBSERV 
    30.000                                                  INTERVAL            
  2015    02    25    00    00    0.0000000     GPS         TIME OF FIRST OBS   
  2015    02    25    23    59   30.0000000     GPS         TIME OF LAST OBS    
    16                                                      LEAP SECONDS        
    30                                                      # OF SATELLITES     
   G 1   801   801   801   801                              PRN / # OF OBS      
   G 2   943   943   943   943                              PRN / # OF OBS      
   G 3   847   847   847   847                              PRN / # OF OBS      
   G 4   831   831   831   831                              PRN / # OF OBS      
   G 5   647   647   647   647                              PRN / # OF OBS      
   G 6   829   829   829   829                              PRN / # OF OBS      
   G 7   673   673   673   673                              PRN / # OF OBS      
   G 9   807   807   807   807                              PRN / # OF OBS      
   G10   723   723   723   723                              PRN / # OF OBS      
   G11   770   770   770   770                              PRN / # OF OBS      
   G12   819   819   819   819                              PRN / # OF OBS      
   G13   788   788   788   788                              PRN / # OF OBS      
   G14   941   941   941   941                              PRN / # OF OBS      
   G15   702   702   702   702                              PRN / # OF OBS      
   G16   664   664   664   664                              PRN / # OF OBS      
   G17   942   942   942   942                              PRN / # OF OBS      
   G18   904   904   904   904                              PRN / # OF OBS      
   G19   750   750   750   750                              PRN / # OF OBS      
   G20   749   749   749   749                              PRN / # OF OBS      
   G21   741   741   741   741                              PRN / # OF OBS      
   G22   666   666   666   666                              PRN / # OF OBS      
   G23   755   755   755   755                              PRN / # OF OBS      
   G24   816   816   816   816                              PRN / # OF OBS      
   G25   855   855   855   855                              PRN / # OF OBS      
   G27   800   800   800   800                              PRN / # OF OBS      
   G28   865   865   865   865                              PRN / # OF OBS      
   G29   763   763   762   762                              PRN / # OF OBS      
   G30   720   720   720   720                              PRN / # OF OBS      
   G31   871   871   871   871                              PRN / # OF OBS      
   G32   769   769   769   769                              PRN / # OF OBS      
BIT 2 OF LLI FLAGS DATA COLLECTED UNDER A/S CONDITION       COMMENT             
SNR is mapped to RINEX snr flag value [2-9]                 COMMENT             
Lx:     = 25dBHz -> 1; 26-27dBHz -> 2; 28-31dBHz -> 3       COMMENT             
       32-35dBHz -> 4; 36-38dBHz -> 5; 39-41dBHz -> 6       COMMENT             
       42-44dBHz -> 7; 45-48dBHz -> 8; >=49dBHz -> 9        COMMENT             
                                                            END OF HEADER       
 15 02 25 00 00  0.0000000  0  8G16G18G21G22G25G27G29G31
  22101394.440   116143618.50808  22101395.460    90501526.18847
  22767095.380   119641952.21107  22767097.460    93227532.41945
  21066098.960   110703222.56808  21066099.680    86262312.40749
  24381714.460   128126789.01206  24381718.300    99839084.61744
  24452925.780   128501198.36605  24452931.980   100130926.43346
  23394778.880   122940399.15806  23394782.680    95797738.78046
  23367877.160   122799362.74707  23367879.820    95687972.01346
  22717320.040   119380322.90808  22717321.000    93023646.70447
 15 02 25 00 00 30.0000000  0  8G16G18G21G22G25G27G29G31
  22086532.900   116065520.50208  22086533.900    90440670.60247
  22753942.700   119572834.77407  22753944.660    93173674.70845
  21071154.640   110729790.34008  21071155.340    86283014.57049
  24363499.260   128031069.98106  24363503.060    99764498.86544
  24472110.900   128602015.94005  24472117.080   100209485.48545
  23381402.340   122870104.84707  23381406.120    95742964.00546
  23381552.520   122871226.87106  23381555.160    95743969.99946
  22733663.660   119466209.58908  22733664.740    93090571.37247
 15 02 25 00 01  0.0000000  0  8G16G18G21G22G25G27G29G31
  22071715.340   115987653.68008  22071716.360    90379995.16547
  22740836.780   119503962.67307  22740838.440    93120008.16345
  21076279.300   110756720.41008  21076279.960    86303999.04248
  24345274.860   127935302.23306  24345278.440    99689875.06145
  24491325.320   128702987.05305  24491331.320   100288164.20545
  23368042.220   122799896.93007  23368046.000    95688256.57546
  23395236.960   122943138.63106  23395239.520    95800005.10246
  22750051.820   119552330.53708  22750053.100    93157678.57947
 15 02 25 00 01 30.0000000  0  8G16G18G21G22G25G27G29G31
  22056942.040   115910019.18108  22056943.080    90319500.75847
  22727777.860   119435337.22008  22727779.240    93066533.82346
  21081472.280   110784009.64108  21081472.920    86325263.37249
  24327041.420   127839486.98506  24327044.860    99615214.24745
  24510568.400   128804108.89705  24510574.200   100366960.33445
  23354698.340   122729774.04906  23354702.080    95633615.38247
  23408930.300   123015096.71707  23408932.680    95856076.27846
  22766483.800   119638681.54508  22766485.240    93224965.06147
 15 02 25 00 02  0.0000000  0  8G16G18G21G22G25G27G29G31
  22042213.380   115832619.60508  22042214.500    90259189.40947
  22714766.500   119366961.67007  22714767.620    93013254.19046
  21086733.460   110811657.18408  21086734.080    86346806.91849
  24308799.420   127743627.01906  24308802.820    99540518.61144
  24529839.900   128905380.31406  24529845.480   100445873.02144
  23341370.680   122659736.72807  23341374.400    95579040.85947
  23422632.600   123087101.40007  23422634.900    95912183.78246
  22782959.080   119725259.65508  22782960.560    93292428.50747
 15 02 25 00 02 30.0000000  0  8G16G18G21G22G25G27G29G31
  22027529.500   115755455.69708  22027530.720    90199061.71047
  22701802.800   119298836.97707  22701803.780    92960170.03445
  21092062.240   110839660.05708  21092062.820    86368627.33449
  24290549.240   127647723.79106  24290552.640    99465789.22345
  24549139.460   129006798.39205  24549144.640   100524900.00844
  23328058.960   122589783.56707  23328062.740    95524531.92046
  23436343.500   123159150.98707  23436345.720    95968326.27046
  22799476.900   119812060.62608  22799478.260    93360065.60447
 15 02 25 00 03  0.0000000  0  8G16G18G21G22G25G27G29G31
  22012891.500   115678532.82708  22012892.780    90139121.82047
  22688887.960   119230969.04007  22688888.920    92907285.94246
  21097459.000   110868020.20108  21097459.580    86390726.15249
  24272291.900   127551782.76106  24272295.320    99391030.34745
  24568467.140   129108365.08505  24568472.080   100604042.74244
  23314763.920   122519917.85207  23314767.720    95470091.13446
  23450063.480   123231248.69107  23450065.640    96024506.26946
  22816037.300   119899084.97208  22816038.420    93427876.75447
 15 02 25 00 03 30.0000000  0  8G16G18G21G22G25G27G29G31
  21998299.360   115601850.51108  21998300.580    90079369.37247
  22676021.760   119163356.97407  22676022.840    92854601.21046
  21102922.860   110896732.84308  21102923.420    86413099.64349
  24254027.240   127455803.53206  24254030.940    99316241.70445
  24587822.060   129210075.68705  24587826.940   100683297.62644
  23301484.980   122450136.69107  23301488.800    95415716.22646
  23463791.880   123303391.07407  23463793.940    96080721.08046
  22832639.000   119986326.60908  22832639.960    93495857.22847
 15 02 25 00 04  0.0000000  0  8G16G18G21G22G25G27G29G31
  21983753.660   115525412.19408  21983754.780    90019807.05447
  22663205.000   119096004.89707  22663206.320    92802119.09146
  21108453.860   110925798.14208  21108454.360    86435747.92649
  24235756.060   127359790.26106  24235759.860    99241426.49745
  24607204.500   129311930.34005  24607209.340   100762664.79245
  23288222.420   122380441.63307  23288226.200    95361408.43546
  23477528.980   123375579.73807  23477531.080    96136971.96746
  22849281.740   120073784.23608  22849282.620    93564005.99746
 15 02 25 00 04 30.0000000  0  8G16G18G21G22G25G27G29G31
  21969254.820   115449220.13708  21969255.840    89960436.62547
  22650438.240   119028915.65107  22650439.860    92749841.77546
  21114051.740   110955214.89508  21114052.220    86458670.07549
  24217478.980   127263745.10406  24217482.840    99166586.45845
  24626613.820   129413927.21805  24626618.720   100842142.73545
  23274976.220   122310832.44507  23274979.980    95307167.53946
  23491274.860   123447814.82807  23491276.980    96193259.01346
  22865964.860   120161454.84908  22865965.800    93632320.73746
 15 02 25 00 05  0.0000000  0  8G16G18G21G22G25G27G29G31
  21954802.980   115373274.96608  21954803.880    89901258.57047
  22637721.680   118962089.64108  22637723.400    92697769.57746
  21119715.740   110984979.28708  21119716.220    86481863.10849
  24199196.020   127167668.79706  24199199.780    99091722.10145
  24646049.700   129516063.38805  24646054.740   100921729.22244
  23261746.080   122241307.70307  23261749.960    95252992.45246
  23505029.100   123520094.28807  23505031.200    96249580.64846
  22882687.500   120249333.57208  22882688.520    93700797.64147
 15 02 25 00 05 30.0000000  0  8G16G18G21G22G25G27G29G31
  21940398.940   115297581.38508  21940399.840    89842276.57147
  22625056.240   118895532.01008  22625057.920    92645906.51546
  21125446.080   111015092.25408  21125446.540    86505327.75549
  24180908.140   127071566.53906  24180911.860    99016837.54545
  24665512.140   129618339.52406  24665517.560   101001424.78144
  23248532.460   122171869.71707  23248536.440    95198884.95446
  23518792.180   123592420.25806  23518794.140    96305938.51246
  22899449.620   120337419.76708  22899450.740    93769436.21047
 15 02 25 00 06  0.0000000  0  8G16G18G21G22G25G27G29G31
  21926042.760   115222139.12408  21926043.640    89783490.39647
  22612442.000   118829242.93808  22612443.420    92594252.71146
  21131242.040   111045550.20008  21131242.500    86529061.21649
  24162615.500   126975438.59806  24162618.620    98941932.95145
  24685000.540   129720752.04305  24685006.200   101081226.63444
  23235334.960   122102516.40207  23235338.960    95144843.42346
  23532563.760   123664790.51807  23532565.500    96362330.86745
  22916250.340   120425708.47208  22916251.560    93838232.58346
 15 02 25 00 06 30.0000000  0  8G16G18G21G22G25G27G29G31
  21911735.080   115146951.96308  21911736.020    89724903.00247
  22599879.540   118763226.03708  22599880.720    92542811.00346
  21137103.520   111076352.63008  21137104.020    86553063.10949
  24144318.920   126879288.83506  24144321.660    98867011.31145
  24704514.760   129823300.35005  24704520.520   101161134.25645
  23222153.740   122033248.86207  23222157.780    95090868.72946
  23546344.120   123737206.10507  23546345.700    96418758.55246
  22933089.320   120514197.86508  22933090.580    93907185.32646
 15 02 25 00 07  0.0000000  0  8G16G18G21G22G25G27G29G31
  21897476.420   115072022.28308  21897477.380    89666516.24247
  22587369.420   118697484.73408  22587370.480    92491584.04546
  21143030.480   111107499.19608  21143031.020    86577333.16149
  24126018.700   126783120.36506  24126021.340    98792075.12145
  24724054.640   129925983.73305  24724060.520   101241147.14045
  23208988.920   121964067.97607  23208993.040    95036961.55746
  23560133.260   123809667.80706  23560134.640    96475222.17346
  22949966.100   120602885.53708  22949967.280    93976292.57746
 15 02 25 00 07 30.0000000  0  8G16G18G21G22G25G27G29G31
  21883266.840   114997350.43308  21883267.840    89608330.39147
  22574911.560   118632018.53008  22574912.560    92440571.45246
  21149022.040   111138985.28308  21149022.600    86601867.77049
  24107714.780   126686932.99106  24107717.260    98717124.17545
  24743619.640   130028798.17105  24743625.480   101321262.12745
  23195840.160   121894971.29007  23195844.340    94983120.00446
  23573930.580   123882173.02106  23573931.920    96531719.68346
  22966879.640   120691766.19608  22966880.680    94045550.19646
 15 02 25 00 08  0.0000000  0  8G16G18G21G22G25G27G29G31
  21869106.680   114922938.24008  21869107.700    89550346.87147
  22562506.420   118566829.84608  22562507.500    92389775.08846
  21155077.920   111170809.30708  21155078.520    86626665.70949
  24089407.720   126590729.24106  24089409.960    98642160.45345
  24763209.500   130131741.89605  24763215.260   101401477.86545
  23182707.440   121825958.62807  23182711.580    94929343.90647
  23587736.060   123954721.42706  23587737.540    96588250.83846
  22983829.240   120780836.68508  22983830.180    94114955.73746
 15 02 25 00 08 30.0000000  0  8G16G18G21G22G25G27G29G31
  21854996.860   114848790.58608  21854997.860    89492569.48647
  22550154.980   118501923.62908  22550156.200    92339198.82346
  21161198.360   111202972.27308  21161198.920    86651727.75648
  24071098.480   126494514.50206  24071100.680    98567188.20844
  24782824.280   130234816.03805  24782829.700   101481795.18844
  23169591.300   121757032.77307  23169595.400    94875635.45646
  23601550.140   124027315.34307  23601551.920    96644817.46946
  23000814.840   120870096.59208  23000815.760    94184508.88546
 15 02 25 00 09  0.0000000  0  8G16G18G21G22G25G27G29G31
  21840937.840   114774909.85508  21840938.800    89435000.08547
  22537857.880   118437302.58608  22537859.220    92288844.76646
  21167382.960   111235472.53408  21167383.520    86677052.63348
  24052787.520   126398290.91206  24052789.640    98492208.96945
  24802463.540   130338018.69906  24802468.720   101562212.69043
  23156491.600   121688193.48807  23156495.640    94821994.45846
  23615372.780   124099954.63706  23615374.960    96701419.47746
  23017835.860   120959542.65908  23017836.780    94254207.09846
 15 02 25 00 09 30.0000000  0  7G16G18G21G22G27G29G31
  21826928.780   114701291.72708  21826929.740    89377635.31647
  22525614.360   118372962.56508  22525615.800    92238709.69746
  21173630.260   111268302.30708  21173630.820    86702634.27448
  24034474.100   126302054.66406  24034476.180    98417219.92344
  23143407.260   121619434.60907  23143411.140    94768416.12446
  23629202.780   124172632.96006  23629205.420    96758051.91846
  23034890.560   121049165.76408  23034891.560    94324043.25646
 15 02 25 00 10  0.0000000  0  7G16G18G21G22G27G29G31
  21812974.020   114627959.12108  21812975.020    89320493.03247
  22513428.920   118308927.18008  22513430.360    92188812.00946
  21179943.860   111301480.52208  21179944.420    86728487.42748
  24016162.800   126205829.32307  24016164.800    98342239.35345
  23130342.220   121550776.82507  23130345.920    94714916.57646
  23643044.280   124245371.13806  23643047.180    96814730.99546
  23051982.320   121138983.58808  23051983.400    94394031.13146
 15 02 25 00 10 30.0000000  0  7G16G18G21G22G27G29G31
  21799069.460   114554890.02308  21799070.460    89263556.07548
  22501297.280   118245174.30908  22501298.640    92139134.46546
  21186318.840   111334981.31308  21186319.420    86754591.94348
  23997849.620   126109593.08906  23997851.380    98267250.26845
  23117291.760   121482195.96907  23117295.320    94661476.96047
  23656892.520   124318144.15606  23656895.560    96871437.21546
  23069106.000   121228969.04408  23069107.160    94464149.64446
 15 02 25 00 11  0.0000000  0  7G16G18G21G22G27G29G31
  21785217.460   114482096.98308  21785218.420    89206834.23147
  22489221.700   118181716.23308  22489222.920    92089686.63246
  21192756.860   111368813.32108  21192757.440    86780954.55748
  23979536.740   126013358.52006  23979538.400    98192262.51346
  23104257.860   121413702.28307  23104261.340    94608105.26946
  23670749.560   124390962.78606  23670752.600    96928178.95746
  23086263.000   121319129.10508  23086264.120    94534404.20647
 15 02 25 00 11 30.0000000  0  7G16G18G21G22G27G29G31
  21771417.640   114409578.28708  21771418.560    89150326.16047
  22477201.840   118118551.55508  22477202.980    92040467.42346
  21199256.860   111402971.09108  21199257.420    86807570.99948
  23961224.040   125917124.59606  23961225.380    98117275.23445
  23091239.860   121345292.10807  23091243.280    94554798.66246
  23684614.680   124463823.00907  23684617.380    96984953.12246
  23103451.960   121409457.03408  23103453.040    94604789.56446
 15 02 25 00 12  0.0000000  0  7G16G18G21G22G27G29G31
  21757671.240   114337340.62508  21757672.160    89094037.07947
  22465239.080   118055687.46308  22465240.180    91991482.43446
  21205819.460   111437457.62608  21205819.980    86834443.62848
  23942912.660   125820897.72006  23942913.640    98042293.46646
  23078238.560   121276969.75007  23078241.980    94501560.48147
  23698488.540   124536729.12807  23698491.020    97041763.03346
  23120673.100   121499954.22608  23120674.160    94675306.82246
 15 02 25 00 12 30.0000000  0  7G16G18G21G22G27G29G31
  21743978.600   114265385.61608  21743979.560    89037968.24347
  22453333.720   117993125.44008  22453334.880    91942732.82546
  21212444.060   111472270.05808  21212444.520    86861570.19248
  23924603.080   125724680.66406  23924603.900    97967319.32545
  23065253.840   121208734.57007  23065257.240    94448390.23147
  23712370.940   124609680.23207  23712373.220    97098608.01146
  23137925.600   121590616.61207  23137926.640    94745952.80746
 15 02 25 00 13  0.0000000  0  7G16G18G21G22G27G29G31
  21730340.320   114193716.08108  21730341.280    88982121.85848
  22441486.460   117930868.38408  22441487.660    91894220.84746
  21219130.560   111507407.72908  21219130.980    86888950.19848
  23906295.780   125628476.09906  23906296.380    97892354.90546
  23052285.840   121140587.24607  23052289.240    94395288.43746
  23726261.880   124682676.84407  23726264.080    97155488.46946
  23155209.160   121681442.24707  23155210.180    94816725.98946
 15 02 25 00 13 30.0000000  0  7G16G18G21G22G27G29G31
  21716756.880   114122334.52508  21716757.820    88926499.86448
  22429697.780   117868918.74608  22429699.040    91845948.41046
  21225878.640   111542869.00508  21225879.040    86916582.35948
  23887991.220   125532286.67906  23887991.800    97817402.29345
  23039334.640   121072528.10507  23039338.020    94342255.35847
  23740161.320   124755718.65007  23740163.440    97212404.08745
  23172523.220   121772428.29307  23172524.240    94887624.16446
 15 02 25 00 14  0.0000000  0  7G16G18G21G22G27G29G31
  21703228.640   114051243.11508  21703229.560    88871103.96148
  22417968.160   117807279.03008  22417969.560    91797917.48546
  21232688.040   111578652.39708  21232688.400    86944465.52348
  23869689.920   125436115.11606  23869690.700    97742463.56645
  23026400.160   121004557.22907  23026403.620    94289291.04847
  23754069.420   124828806.48206  23754071.500    97269355.63045
  23189867.120   121863571.43907  23189868.200    94958644.75046
 15 02 25 00 14 30.0000000  0  7G16G18G21G22G27G29G31
  21689755.980   113980443.86408  21689756.880    88815935.71748
  22406298.040   117745951.36008  22406299.500    91750129.70747
  21239558.380   111614756.05708  21239558.700    86972598.24548
  23851392.260   125339964.05306  23851393.300    97667540.82745
  23013482.420   120936674.46007  23013485.960    94236395.38247
  23767985.940   124901939.41006  23767988.240    97326342.30445
  23207240.320   121954868.57607  23207241.460    95029785.34046
 15 02 25 00 15  0.0000000  0  7G16G18G21G22G27G29G31
  21676339.240   113909938.26108  21676340.080    88760996.28348
  22394687.540   117684936.98808  22394689.040    91702586.06146
  21246489.100   111651177.15708  21246489.420    87000978.32548
  23833098.840   125243834.74006  23833100.200    97592635.01845
  23000581.240   120868878.90307  23000584.860    94183567.67946
  23781910.900   124975116.66706  23781913.540    97383363.52146
  23224642.100   122046315.93907  23224643.420    95101042.97846
 15 02 25 00 15 30.0000000  0  7G16G18G21G22G27G29G31
  21662978.300   113839726.02908  21662979.080    88706285.45148
  22383136.660   117624235.97408  22383138.140    91655286.58746
  21253479.440   111687911.78408  21253479.820    87029602.70848
  23814809.840   125147727.34806  23814811.340    97517746.29145
  22987696.220   120801168.24707  22987699.960    94130806.13347
  23795843.860   125048335.78306  23795846.680    97440417.32745
  23242071.480   122137908.20407  23242073.000    95172413.54546
 15 02 25 00 16  0.0000000  0  7G16G18G21G22G27G29G31
  21649673.540   113769809.06208  21649674.320    88651804.70148
  22371645.700   117563850.29008  22371647.080    91608232.81246
  21260529.100   111724958.07808  21260529.520    87058469.95048
  23796525.680   125051644.28006  23796527.340    97442876.54646
  22974827.380   120733542.04707  22974831.140    94078110.40547
  23809785.000   125121596.29306  23809787.600    97497503.46346
  23259527.800   122229641.65807  23259529.400    95243894.11646
 15 02 25 00 16 30.0000000  0  7G16G18G21G22G27G29G31
  21636425.540   113700190.42808  21636426.340    88597556.42148
  22360215.240   117503783.06208  22360216.520    91561427.18846
  21267637.820   111762314.77008  21267638.260    87087579.05848
  23778247.060   124955589.05506  23778248.420    97368028.44645
  22961974.860   120666001.48807  22961978.620    94025481.41247
  23823734.380   125194898.93307  23823736.720    97554622.35846
  23277010.660   122321514.22707  23277012.300    95315483.09846
 15 02 25 00 17  0.0000000  0  7G16G18G21G22G27G29G31
  21623235.320   113630875.40708  21623236.160    88543544.72048
  22348846.320   117444039.36208  22348847.500    91514873.66446
  21274805.880   111799983.35008  21274806.360    87116931.20348
  23759974.960   124859567.12106  23759976.020    97293206.31145
  22949139.200   120598549.55807  22949142.980    93972921.48347
  23837692.320   125268246.62407  23837694.480    97611776.34945
  23294520.020   122413526.12507  23294521.700    95387180.63446
 15 02 25 00 17 30.0000000  0  7G16G18G21G22G27G29G31
  21610103.440   113561867.07708  21610104.360    88489771.99848
  22337539.580   117384622.25508  22337540.620    91468574.63246
  21282033.200   111837963.28108  21282033.700    87146525.95048
  23741709.860   124763581.84406  23741710.540    97218412.70345
  22936320.540   120531187.05807  22936324.360    93920431.24647
  23851658.920   125341640.00206  23851660.980    97668965.97646
  23312055.460   122505674.81407  23312057.120    95458984.77846
 15 02 25 00 18  0.0000000  0  7G16G18G21G22G27G29G31
  21597030.420   113493167.85708  21597031.360    88436240.13848
  22326295.520   117325534.04808  22326296.360    91422531.88546
  21289319.400   111876252.64608  21289319.920    87176361.81548
  23723452.100   124667635.72907  23723452.740    97143649.62445
  22923518.940   120463914.04307  22923522.760    93868010.71947
  23865634.020   125415078.98607  23865636.020    97726191.12446
  23329616.400   122597957.51207  23329617.960    95530893.32546
 15 02 25 00 18 30.0000000  0  7G16G18G21G22G27G29G31
  21584016.760   113424780.72808  21584017.720    88382951.46848
  22315114.680   117266777.78508  22315115.340    91376747.80746
  21296664.460   111914850.95308  21296664.960    87206438.42048
  23705202.360   124571732.37807  23705202.980    97068919.85846
  22910734.580   120396731.65508  22910738.400    93815660.82047
  23879617.820   125488564.75007  23879619.880    97783452.69145
  23347202.360   122690371.94807  23347203.780    95602904.52146
 15 02 25 00 19  0.0000000  0  7G16G18G21G22G27G29G31
  21571062.400   113356705.40108  21571063.400    88329905.76648
  22303997.100   117208353.98008  22303997.660    91331222.78046
  21304067.520   111953754.14608  21304068.000    87236752.58848
  23686960.760   124475872.35407  23686961.480    96994223.85945
  22897967.040   120329637.81907  22897970.880    93763379.92547
  23893609.920   125562094.89906  23893612.320    97840748.90246
  23364812.360   122782913.16507  23364813.680    95675014.51046
 15 02 25 00 19 30.0000000  0  7G16G18G21G22G27G29G31
  21558167.760   113288943.81008  21558168.800    88277104.53348
  22292942.940   117150264.01108  22292943.600    91285957.88246
  21311528.120   111992959.90608  21311528.620    87267302.53148
  23668727.740   124380057.43106  23668728.520    96919562.99345
  22885216.240   120262631.76507  22885220.020    93711167.42747
  23907610.260   125635668.79506  23907613.040    97898079.16845
  23382445.660   122875577.10707  23382446.880    95747220.13546
 15 02 25 00 20  0.0000000  0  7G16G18G21G22G27G29G31
  21545333.080   113221497.12208  21545334.100    88224548.67848
  22281952.360   117092508.77008  22281953.240    91240953.80847
  21319045.640   112032464.76908  21319046.160    87298085.54548
  23650503.540   124284289.26806  23650504.520    96844938.55546
  22872482.040   120195712.86107  22872485.740    93659022.83647
  23921618.700   125709284.76606  23921621.600    97955442.25446
  23400101.680   122968360.26607  23400102.860    95819518.65946
 15 02 25 00 20 30.0000000  0  7G16G18G21G22G27G29G31
  21532558.920   113154368.38708  21532559.880    88172240.57348
  22271026.000   117035091.63008  22271027.200    91196213.18946
  21326620.060   112072268.69108  21326620.620    87329101.58848
  23632288.860   124188571.23806  23632290.020    96770353.18346
  22859764.540   120128881.84807  22859768.180    93606946.73247
  23935635.560   125782944.32206  23935638.420    98012839.26646
  23417779.980   123061260.19707  23417781.140    95891908.17746
 15 02 25 00 21  0.0000000  0  7G16G18G21G22G27G29G31
  21519845.540   113087558.81708  21519846.380    88120181.16848
  22260164.120   116978013.41608  22260165.600    91151736.67347
  21334250.820   112112368.56808  21334251.400    87360348.24848
  23614084.060   124092904.81007  23614085.260    96695808.03146
  22847063.520   120062137.67107  22847067.140    93554938.28147
  23949660.700   125856646.19206  23949663.420    98070269.28445
  23435479.700   123154272.59307  23435480.920    95964385.30946
 15 02 25 00 21 30.0000000  0  7G16G18G21G22G27G29G31
  21507193.840   113021073.39808  21507194.600    88068374.35448
  22249367.760   116921279.08308  22249369.380    91107528.10946
  21341938.100   112152765.45008  21341938.660    87391826.33648
  23595890.260   123997295.81906  23595891.340    96621307.62746
  22834379.560   119995483.33707  22834383.200    93502999.85747
  23963694.540   125930392.97207  23963697.000    98127734.28345
  23453200.780   123247397.49707  23453202.140    96036950.11246
 15 02 25 00 22  0.0000000  0  7G16G18G21G22G27G29G31
  21494604.540   112954915.95708  21494605.300    88016823.10548
  22238637.740   116864892.60508  22238639.260    91063590.59946
  21349681.880   112193459.13908  21349682.420    87423535.70648
  23577708.120   123901747.89506  23577709.000    96546854.79746
  22821712.960   119928920.37008  22821716.640    93451132.62747
  23977737.120   126004185.94507  23977739.320    98185235.26046
  23470942.960   123340633.21407  23470944.500    96109601.27546
 15 02 25 00 22 30.0000000  0  7G16G18G21G22G27G29G31
  21482077.820   112889087.44608  21482078.600    87965528.16848
  22227974.200   116808854.93308  22227975.500    91019924.89346
  21357481.620   112234447.03408  21357482.180    87455474.32548
  23559537.820   123806262.79406  23559538.600    96472450.92546
  22809063.580   119862447.95307  22809067.320    93399335.95447
  23991788.140   126078024.09106  23991790.280    98242771.43345
  23488705.580   123433975.91807  23488707.120    96182335.79646
 15 02 25 00 23  0.0000000  0  7G16G18G21G22G27G29G31
  21469613.880   112823588.96308  21469614.700    87914490.38948
  22217377.300   116753167.06708  22217378.400    90976531.77346
  21365336.760   112275726.19608  21365337.360    87487639.90448
  23541379.580   123710841.66806  23541380.360    96398096.88546
  22796431.260   119796064.91807  22796434.980    93347608.93247
  24005847.500   126151906.42706  24005849.720    98300342.04745
  23506487.740   123527421.12707  23506489.220    96255150.19646
 15 02 25 00 23 30.0000000  0  7G16G18G21G22G27G29G31
  21457213.320   112758423.79309  21457214.200    87863712.33748
  22206847.500   116697831.98208  22206848.440    90933413.53846
  21373247.120   112317295.38708  21373247.740    87520031.47548
  23523234.280   123615488.38706  23523235.020    96323795.69546
  22783816.160   119729772.28508  22783819.920    93295952.35647
  24019915.260   126225833.63806  24019917.780    98357947.62946
  23524288.940   123620966.79907  23524290.380    96328042.86846
 15 02 25 00 24  0.0000000  0  7G16G18G21G22G27G29G31
  21444876.640   112693594.14109  21444877.520    87813195.72948
  22196385.160   116642851.75408  22196386.040    90890571.81246
  21381212.420   112359153.23208  21381213.000    87552647.96948
  23505102.180   123520205.16206  23505102.980    96249549.12046
  22771218.300   119663570.07908  22771222.060    93244366.23847
  24033991.520   126299805.53306  24033994.300    98415588.00745
  23542108.640   123714609.71807  23542110.080    96401011.31546
 15 02 25 00 24 30.0000000  0  7G16G18G21G22G27G29G31
  21432603.700   112629099.35909  21432604.520    87762940.06148
  22185990.060   116588225.42408  22185990.980    90848005.84947
  21389231.820   112401295.49708  21389232.400    87585486.09448
  23486983.520   123424992.02206  23486984.240    96175357.14546
  22758637.260   119597455.85208  22758640.960    93192848.67547
  24048075.880   126373819.48306  24048078.580    98473261.24046
  23559945.780   123808344.53707  23559947.260    96474051.37246
 15 02 25 00 25  0.0000000  0  7G16G18G21G22G27G29G31
  21420395.340   112564944.15209  21420396.140    87712948.98448
  22175663.240   116533958.17808  22175664.280    90805719.68747
  21397305.360   112443722.46508  21397305.980    87618546.06148
  23468879.320   123329854.24306  23468879.840    96101223.88646
  22746073.420   119531432.00208  22746077.040    93141401.52947
  24062168.640   126447877.88905  24062171.260    98530969.06646
  23577800.180   123902170.61007  23577801.800    96547162.54446
 15 02 25 00 25 30.0000000  0  7G16G18G21G22G27G29G31
  21408252.420   112501132.75309  21408253.220    87663225.82248
  22165405.540   116480053.76908  22165406.660    90763716.27247
  21405433.120   112486434.57408  21405433.820    87651828.21748
  23450790.460   123234796.47106  23450790.760    96027152.97746
  22733527.180   119465500.89008  22733530.800    93090026.65047
  24076270.140   126521982.66206  24076272.940    98588712.95545
  23595671.800   123996087.08507  23595673.460    96620344.14246
 15 02 25 00 26  0.0000000  0  7G16G18G21G22G27G29G31
  21396174.700   112437663.96609  21396175.500    87613769.62348
  22155216.680   116426510.64908  22155217.760    90721994.37047
  21413614.180   112529426.70208  21413614.940    87685328.56948
  23432716.780   123139817.88507  23432716.800    95953143.78146
  22720997.980   119399659.13708  22721001.540    93038721.40347
  24090379.920   126596130.20106  24090382.760    98646490.26845
  23613559.420   124090087.24907  23613561.040    96693590.96446
 15 02 25 00 26 30.0000000  0  7G16G18G21G22G27G29G31
  21384162.740   112374540.43309  21384163.520    87564582.45648
  22145097.140   116373331.66908  22145098.180    90680556.21247
  21421848.300   112572697.43108  21421849.060    87719046.01848
  23414658.740   123044921.41907  23414658.560    95879198.56746
  22708485.860   119333907.34508  22708489.400    92987486.26347
  24104498.100   126670321.26205  24104500.640    98704301.52845
  23631462.660   124184168.78207  23631464.200    96766901.17146
 15 02 25 00 27  0.0000000  0  7G16G18G21G22G27G29G31
  21372216.900   112311764.57009  21372217.680    87515666.19948
  22135047.280   116320518.85908  22135048.220    90639403.38847
  21430135.220   112616245.30808  21430135.960    87752979.42148
  23396616.780   122950109.94007  23396616.480    95805319.56446
  22695990.860   119268245.75307  22695994.420    92936321.39847
  24118624.620   126744555.65606  24118626.780    98762146.38145
  23649380.920   124278328.70807  23649382.340    96840272.47446
 15 02 25 00 27 30.0000000  0  7G16G18G21G22G27G29G31
  21360338.200   112249341.59109  21360338.960    87467024.91548
  22125068.000   116268077.26808  22125068.940    90598539.82747
  21438475.020   112660071.14008  21438475.720    87787129.42048
  23378591.920   122855388.80407  23378591.640    95731510.96246
  22683513.600   119202677.43208  22683517.180    92885229.21547
  24132759.960   126818836.45707  24132761.860    98820027.45344
  23667314.080   124372566.83607  23667315.380    96913704.70446
 15 02 25 00 28  0.0000000  0  7G16G18G21G22G27G29G31
  21348526.600   112187271.30809  21348527.360    87418658.46148
  22115159.240   116216006.74008  22115160.300    90557965.39747
  21446867.040   112704171.46908  21446867.720    87821493.30648
  23360584.080   122760758.05307  23360584.040    95657772.80746
  22671053.720   119137200.52107  22671057.300    92834208.25947
  24146903.720   126893161.34307  24146905.480    98877942.93645
  23685261.100   124466878.19507  23685262.320    96987193.99946
 15 02 25 00 28 30.0000000  0  7G16G18G21G22G27G29G31
  21336782.840   112125557.69809  21336783.660    87370569.93448
  22105321.780   116164311.05908  22105322.980    90517683.05547
  21455311.260   112748546.06008  21455311.900    87856070.90848
  23342594.540   122666223.35207  23342594.720    95584109.48246
  22658611.520   119071816.67307  22658615.120    92783259.83147
  24161056.200   126967531.97707  24161057.920    98935894.07745
  23703221.680   124561261.14906  23703222.920    97060739.07846
 15 02 25 00 29  0.0000000  0  7G16G18G21G22G27G29G31
  21325107.280   112064202.35809  21325108.140    87322760.57448
  22095555.900   116112991.27308  22095557.180    90477693.62447
  21463807.240   112793192.50808  21463807.860    87890860.34348
  23324623.560   122571786.08507  23324623.940    95510522.06046
  22646186.940   119006525.47707  22646190.560    92732383.58247
  24175217.120   127041947.80606  24175219.060    98993880.42645
  23721195.160   124655712.41907  23721196.480    97134337.38946
 15 02 25 00 29 30.0000000  0  7G16G18G21G22G27G29G31
  21313500.500   112003208.24709  21313501.360    87275232.69248
  22085862.160   116062050.31008  22085863.400    90437999.37547
  21472354.740   112838109.95308  21472355.400    87925860.94748
  23306671.860   122477449.45107  23306672.200    95437013.05646
  22633780.180   118941327.96507  22633783.780    92681580.33447
  24189386.540   127116409.73806  24189389.000    99051902.66946
  23739181.240   124750229.81506  23739182.640    97207987.21245
 15 02 25 00 30  0.0000000  0  7G16G18G21G22G27G29G31
  21301962.380   111942575.07509  21301963.260    87227986.06548
  22076240.480   116011487.82808  22076241.660    90398600.05447
  21480952.860   112883293.24908  21480953.520    87961068.70748
  23288739.380   122383213.56207  23288739.640    95363582.55646
  22621390.840   118876221.74608  22621394.420    92630848.23247
  24203564.200   127190914.94305  24203567.020    99109958.69546
  23757178.920   124844807.86306  23757180.380    97281684.31146
 15 02 25 00 30 30.0000000  0  7G16G18G21G22G27G29G31
  21290493.600   111882306.41009  21290494.500    87181023.47148
  22066691.440   115961307.00508  22066692.500    90359498.12947
  21489601.800   112928743.53608  21489602.440    87996484.51148
  23270826.840   122289082.44707  23270827.060    95290233.68146
  22609019.220   118811208.37908  22609022.760    92580188.48047
  24217750.500   127265464.63105  24217753.820    99168049.28846
  23775187.780   124939444.90607  23775189.300    97355427.35946
 15 02 25 00 31  0.0000000  0  7G16G18G21G22G27G29G31
  21279094.500   111822403.95409  21279095.440    87134346.23648
  22057215.280   115911509.36908  22057216.260    90320694.79347
  21498301.080   112974458.43808  21498301.720    88032106.51248
  23252934.640   122195058.57207  23252934.920    95216968.38146
  22596665.240   118746287.67308  22596668.780    92529600.93347
  24231945.300   127340058.90305  24231948.620    99226174.71146
  23793207.220   125034137.55207  23793208.760    97429213.75746
 15 02 25 00 31 30.0000000  0  7G16G18G21G22G27G29G31
  21267765.600   111762870.38709  21267766.580    87087956.44248
  22047812.440   115862097.15408  22047813.400    90282191.78447
  21507050.280   113020435.93808  21507050.940    88067933.13048
  23235063.240   122101144.75906  23235063.720    95143788.84646
  22584328.980   118681460.08908  22584332.500    92479085.95347
  24246148.720   127414697.50905  24246152.040    99284334.58646
  23811236.660   125128883.17506  23811238.400    97503041.42346
 15 02 25 00 32  0.0000000  0  7G16G18G21G22G27G29G31
  21256507.420   111703708.35209  21256508.420    87041856.15148
  22038483.420   115813073.19808  22038484.420    90243991.31247
  21515849.280   113066675.05608  21515849.960    88103963.61348
  23217213.380   122007344.34907  23217214.160    95070697.67946
  22572010.660   118616726.47408  22572014.120    92428644.19747
  24260360.860   127489381.27406  24260363.500    99342529.74646
  23829275.620   125223679.45906  23829277.700    97576908.55546
 15 02 25 00 32 30.0000000  0  7G16G18G21G22G27G29G31
  21245320.340   111644919.98409  21245321.360    86996047.03148
  22029228.580   115764438.95908  22029229.580    90206094.51047
  21524697.660   113113173.92208  21524698.420    88140196.49648
  23199385.620   121913659.90207  23199386.680    94997696.86646
  22559710.200   118552086.97608  22559713.640    92378275.77447
  24274581.500   127564110.39306  24274583.740    99400760.14946
  23847323.720   125318523.31906  23847326.020    97650812.78046
 15 02 25 00 33  0.0000000  0  7G16G18G21G22G27G29G31
  21234204.780   111586507.16709  21234205.780    86950530.54848
  22020048.300   115716196.37008  22020049.360    90168502.89047
  21533595.120   113159930.47908  21533595.880    88176630.17348
  23181580.600   121820093.86407  23181581.660    94924788.31246
  22547427.640   118487541.62708  22547431.100    92327980.71547
  24288810.660   127638884.25405  24288812.840    99459025.45646
  23865380.440   125413411.71306  23865382.820    97724751.69246
 15 02 25 00 33 30.0000000  0  7G16G18G21G22G27G29G31
  21223161.360   111528473.49509  21223162.360    86905309.50548
  22010943.180   115668348.47908  22010944.280    90131218.82547
  21542541.500   113206944.34908  21542542.300    88213264.35348
  23163799.040   121726650.43407  23163799.920    94851975.30346
  22535163.280   118423091.89608  22535166.740    92277760.15247
  24303048.580   127713704.24506  24303050.480    99517326.69244
  23883445.460   125508342.99606  23883447.720    97798724.00345
 15 02 25 00 34  0.0000000  0  7G16G18G21G22G27G29G31
  21212190.800   111470822.67909  21212191.780    86860386.78948
  22001913.800   115620898.30408  22001914.900    90094244.67147
  21551536.840   113254215.38008  21551537.640    88250098.91848
  23146041.640   121633333.50807  23146042.220    94779260.86347
  22522917.420   118358739.53608  22522920.840    92227615.47448
  24317295.240   127788571.97607  24317297.060    99575665.13345
  23901518.460   125603315.61007  23901520.460    97872728.51746
 15 02 25 00 34 30.0000000  0  7G16G18G21G22G27G29G31
  21201292.740   111413552.73009  21201293.720    86815760.85548
  21992959.760   115573844.22008  21992960.840    90057579.16347
  21560580.120   113301738.20808  21560580.920    88287129.68548
  23128307.960   121540141.52907  23128308.280    94706643.79746
  22510689.300   118294480.64108  22510692.720    92177543.62547
  24331550.100   127863483.44206  24331552.320    99634037.59944
  23919598.000   125698322.73606  23919599.700    97946759.91946
 15 02 25 00 35  0.0000000  0  7G16G18G21G22G27G29G31
  21190467.620   111356666.15609  21190468.580    86771433.65348
  21984081.420   115527188.12008  21984082.420    90021223.76347
  21569670.960   113349510.94408  21569671.780    88324355.18448
  23110598.640   121447077.58107  23110598.700    94634126.47646
  22498479.060   118230315.73608  22498482.480    92127545.00947
  24345813.480   127938438.81405  24345815.740    99692444.44444
  23937683.440   125793361.55506  23937685.000    98020816.02346
 15 02 25 00 35 30.0000000  0  7G16G18G21G22G27G29G31
  21179716.560   111300168.91309  21179717.520    86727409.82748
  21975279.880   115480935.87808  21975280.880    89985183.06847
  21578809.700   113397535.10308  21578810.500    88361776.60048
  23092914.880   121354148.38007  23092914.800    94561714.16546
  22486287.460   118166248.81108  22486290.900    92077622.74448
  24360085.780   128013441.74105  24360088.360    99750888.25545
  23955775.060   125888432.83006  23955776.580    98094897.40246
 15 02 25 00 36  0.0000000  0  7G16G18G21G22G27G29G31
  21169038.940   111244057.66208  21169039.900    86683686.77448
  21966554.440   115435083.73108  21966555.480    89949454.13847
  21587995.160   113445804.61608  21587995.940    88399389.20448
  23075256.020   121261350.83007  23075255.960    94489404.42346
  22474113.580   118102274.83108  22474117.060    92027772.90247
  24374366.500   128088486.79005  24374369.160    99809364.97845
  23973871.220   125983528.41706  23973872.820    98168997.73946
 15 02 25 00 36 30.0000000  0  7G16G18G21G22G27G29G31
  21158436.520   111188341.74208  21158437.480    86640271.77448
  21957906.720   115389640.39408  21957907.900    89914043.76047
  21597228.260   113494324.42208  21597229.000    88437196.84048
  23057623.980   121168694.91707  23057623.980    94417205.07246
  22461958.800   118038401.20708  22461962.340    91978001.26047
  24388656.440   128163581.45506  24388659.280    99867880.15744
  23991972.680   126078652.68006  23991974.520    98243120.40946
 15 02 25 00 37  0.0000000  0  7G16G18G21G22G27G29G31
  21147907.740   111133012.63308  21147908.680    86597158.18048
  21949335.220   115344597.40208  21949336.420    89878945.33247
  21606506.400   113543081.02208  21606507.080    88475188.99048
  23040017.400   121076172.69507  23040017.420    94345109.86446
  22449821.200   117974617.51508  22449824.740    91928299.69447
  24402953.860   128238714.99605  24402956.680    99926425.77845
  24010077.000   126173791.85806  24010079.140    98317254.68946
 15 02 25 00 37 30.0000000  0  7G16G18G21G22G27G29G31
  21137455.660   111078086.64209  21137456.620    86554358.70648
  21940842.920   115299970.26608  21940844.060    89844170.95347
  21615832.180   113592088.20008  21615832.820    88513376.40048
  23022439.420   120983800.63307  23022439.380    94273131.66946
  22437703.400   117910937.87308  22437706.920    91878679.21247
  24417261.480   128313901.12406  24417264.060    99985012.39245
  24028186.260   126268956.95006  24028188.660    98391409.16246
 15 02 25 00 38  0.0000000  0  7G16G18G21G22G27G29G31
  21127078.700   111023555.16209  21127079.660    86511866.64948
  21932428.200   115255750.37808  21932429.220    89809713.90447
  21625203.260   113641333.57708  21625203.880    88551749.41448
  23004888.620   120891571.08407  23004888.440    94201264.52546
  22425603.480   117847352.23008  22425606.940    91829131.96847
  24431577.180   128389129.75806  24431579.640   100043632.07246
  24046297.920   126364134.63106  24046300.560    98465573.44746
 15 02 25 00 38 30.0000000  0  7G16G18G21G22G27G29G31
  21116777.880   110969423.95909  21116778.820    86469686.49248
  21924091.940   115211942.55208  21924092.860    89775577.95247
  21634619.900   113690818.27508  21634620.500    88590308.91748
  22987366.180   120799490.33207  22987365.900    94129513.33146
  22413522.200   117783864.41808  22413525.560    91779660.96247
  24445901.640   128464404.22306  24445904.080   100102287.45645
  24064412.260   126459325.76806  24064414.940    98539748.22446
 15 02 25 00 39  0.0000000  0  7G16G18G21G22G27G29G31
  21106554.240   110915698.45009  21106555.160    86427822.46148
  21915835.080   115168552.32108  21915835.960    89741767.39047
  21644082.540   113740544.68108  21644083.120    88629056.76448
  22969873.280   120707564.27007  22969872.960    94057882.68646
  22401460.120   117720477.84708  22401463.400    91730268.83647
  24460234.940   128539727.88904  24460238.000   100160981.12446
  24082529.240   126554530.67006  24082531.960    98613933.69046
 15 02 25 00 39 30.0000000  0  7G16G18G21G22G27G29G31
  21096406.440   110862371.73209  21096407.420    86386269.18048
  21907656.300   115125572.59708  21907657.220    89708276.70147
  21653589.080   113790501.70008  21653589.620    88667984.30748
  22952408.580   120615786.62607  22952408.360    93986367.67547
  22389415.640   117657183.95808  22389418.900    91680948.92347
  24474577.040   128614758.54706  24474578.140   100219319.07745
  24100646.640   126649737.37006  24100649.340    98688120.56246
 15 02 25 00 40  0.0000000  0  7G16G18G21G22G27G29G31
  21086337.660   110809460.27209  21086338.720    86345039.47248
  21899558.640   115083019.44508  21899559.680    89675118.40747
  21663141.820   113840701.69208  21663142.360    88707101.17848
  22934975.340   120524174.24208  22934975.260    93914981.43746
  22377391.580   117593997.36208  22377394.840    91631712.61847
  24488927.880   128690177.05605  24488930.080   100278086.68046
  24118766.700   126744957.46706  24118769.340    98762317.87746
 15 02 25 00 40 30.0000000  0  7G16G18G21G22G27G29G31
  21076345.000   110756948.53909  21076346.080    86304121.23848
  21891538.940   115040876.13408  21891540.160    89642279.47747
  21672737.120   113891125.41808  21672737.680    88746392.39148
  22917570.580   120432711.72907  22917570.740    93843711.97546
  22365384.600   117530900.48208  22365387.920    91582546.22947
  24503286.400   128765631.91905  24503289.120   100336882.70444
  24136885.380   126840169.93606  24136887.840    98836509.22746
 15 02 25 00 41  0.0000000  0  7G16G18G21G22G27G29G31
  21066431.700   110704853.84409  21066432.780    86263527.97348
  21883600.620   114999160.24908  21883601.940    89609773.60547
  21682377.600   113941786.63508  21682378.200    88785868.65848
  22900197.820   120341417.82707  22900198.280    93772573.91047
  22353397.680   117467909.15508  22353401.120    91533462.07647
  24517654.660   128841139.02206  24517657.980   100395719.31245
  24155005.080   126935387.71006  24155007.360    98910704.71345
 15 02 25 00 41 30.0000000  0  7G16G18G21G22G27G29G31
  21056596.300   110653168.33409  21056597.340    86223253.55048
  21875742.020   114957863.29808  21875743.400    89577594.17947
  21692060.960   113992673.12208  21692061.600    88825520.46448
  22882855.740   120250284.93907  22882856.340    93701561.31147
  22341429.020   117405013.67708  22341432.560    91484452.62948
  24532031.400   128916688.56006  24532034.780   100454589.09345
  24173123.320   127030597.99906  24173125.440    98984894.35046
 15 02 25 00 42  0.0000000  0  7G16G18G21G22G27G29G31
  21046840.100   110601899.13609  21046841.140    86183303.52748
  21867964.400   114916991.55808  21867965.740    89545746.07647
  21701787.940   114043788.69408  21701788.600    88865350.77648
  22865545.800   120159320.50807  22865546.340    93630679.97647
  22329479.620   117342219.31108  22329483.220    91435521.95248
  24546417.140   128992285.38706  24546420.360   100513495.71944
  24191240.440   127125803.00106  24191242.440    99059079.85546
 15 02 25 00 42 30.0000000  0  7G16G18G19G21G22G27G31
  21037163.460   110551047.95509  21037164.500    86143679.23248
  21860268.140   114876547.28608  21860269.440    89514231.06947
  24542275.240   128970529.96106  24542276.580   100496505.89144
  21711558.100   114095131.40308  21711558.820    88905358.07748
  22848268.460   120068527.06107  22848268.760    93559931.88246
  22317549.480   117279526.09908  22317553.100    91386670.10548
  24209355.760   127220999.18806  24209357.760    99133258.49345
 15 02 25 00 43  0.0000000  0  7G16G18G19G21G22G27G31
  21027559.500   110500578.67509  21027560.480    86104352.51948
  21852646.120   114836493.31408  21852647.420    89483020.19047
  24526938.320   128889932.54605  24526939.100   100433702.74345
  21721363.780   114146660.90108  21721364.580    88945510.93148
  22831016.960   119977869.42807  22831016.960    93489289.61446
  22305631.380   117216896.17208  22305635.020    91337867.56648
  24227461.560   127316145.62506  24227463.620    99207398.35946
 15 02 25 00 43 30.0000000  0  7G16G18G19G21G22G27G31
  21018045.320   110450581.40909  21018046.280    86065393.61048
  21845115.380   114796919.22108  21845116.680    89452183.24347
  24511619.880   128809433.86105  24511620.380   100370976.53245
  21731221.420   114198463.64008  21731222.320    88985876.69348
  22813808.440   119887438.13207  22813808.140    93418823.70346
  22293742.180   117154417.98508  22293745.820    91289183.28148
  24245574.120   127411327.57806  24245576.320    99281565.90045
 15 02 25 00 44  0.0000000  0  7G16G18G19G21G22G27G31
  21008609.520   110400995.97109  21008610.460    86026755.60748
  21837664.440   114757764.54608  21837665.740    89421673.11447
  24496308.440   128728971.73505  24496308.660   100308278.78245
  21741118.960   114250476.06808  21741119.940    89026405.85248
  22796631.540   119797173.47307  22796631.080    93348487.63846
  22281870.080   117092029.54208  22281873.720    91240568.92048
  24263681.000   127506479.98006  24263683.300    99355710.37445
 15 02 25 00 44 30.0000000  0  7G16G18G19G21G22G27G31
  20999254.700   110351836.10809  20999255.620    85988449.21848
  21830295.860   114719042.45708  21830297.160    89391500.06247
  24481006.220   128648558.30505  24481006.340   100245618.99645
  21751058.380   114302708.24408  21751059.380    89067106.24448
  22779488.940   119707089.60807  22779488.500    93278292.45446
  22270017.380   117029743.00708  22270021.000    91192033.97048
  24281784.040   127601611.90806  24281786.480    99429838.91446
 15 02 25 00 45  0.0000000  0  7G16G18G19G21G22G27G31
  20989981.820   110303106.69509  20989982.760    85950478.24848
  21823010.520   114680757.59208  21823011.800    89361667.70647
  24465713.640   128568196.03705  24465713.860   100182999.07045
  21761039.720   114355160.50508  21761040.720    89107978.13448
  22762381.860   119617192.31807  22762381.520    93208242.64447
  22258184.640   116967561.47608  22258188.240    91143580.84348
  24299883.200   127696723.01806  24299885.700    99503951.21244
 15 02 25 00 45 30.0000000  0  7G16G18G19G21G22G27G31
  20980790.460   110254805.60609  20980791.400    85912841.03548
  21815807.920   114642907.25808  21815809.160    89332173.94647
  24450430.140   128487881.16806  24450430.420   100120416.07245
  21771061.980   114407827.57208  21771062.980    89149017.40148
  22745310.160   119527480.44707  22745309.980    93138337.32647
  22246371.180   116905481.35608  22246374.760    91095206.73648
  24317977.220   127791806.77406  24317979.800    99578042.19045
 15 02 25 00 46  0.0000000  0  7G16G18G19G21G22G27G31
  20971681.080   110206935.28109  20971682.020    85875539.48348
  21808688.300   114605493.07708  21808689.520    89303020.05347
  24435155.820   128407614.11606  24435156.120   100057870.36444
  21781124.840   114460707.98708  21781125.820    89190222.91148
  22728274.360   119437956.42208  22728274.240    93068578.36946
  22234577.120   116843503.23408  22234580.680    91046912.11647
  24336065.580   127886860.54906  24336068.300    99652109.79645
 15 02 25 00 46 30.0000000  0  7G16G18G19G21G22G27G31
  20962655.220   110159503.86209  20962656.120    85838579.93948
  21801653.080   114568522.80908  21801654.360    89274212.06447
  24419891.700   128327401.02106  24419892.100    99995366.66644
  21791229.180   114513806.41608  21791230.140    89231598.30648
  22711276.120   119348629.40308  22711276.020    92998972.92247
  22222803.740   116781633.66008  22222807.280    90998702.07548
  24354148.860   127981887.43406  24354151.640    99726156.44346
 15 02 25 00 47  0.0000000  0  7G16G18G19G21G22G27G31
  20953711.940   110112506.35309  20953712.720    85801958.50048
  21794701.260   114531990.94108  21794702.600    89245745.68147
  24404636.580   128247235.13706  24404637.020    99932899.76845
  21801373.340   114567114.06608  21801374.240    89273136.73648
  22694314.580   119259495.08608  22694314.480    92929517.64347
  22211049.740   116719865.93608  22211053.300    90950571.38948
  24372225.300   128076878.03606  24372228.120    99800174.81346
 15 02 25 00 47 30.0000000  0  7G16G18G19G21G22G27G31
  20944852.120   110065947.56409  20944852.880    85765678.92449
  21787833.580   114495901.73508  21787835.080    89217624.23047
  24389391.040   128167119.22105  24389391.320    99870471.79144
  21811557.420   114620631.56008  21811558.280    89314838.67448
  22677390.640   119170558.54808  22677390.500    92860216.45947
  22199315.740   116658203.15508  22199319.280    90902522.48548
  24390294.720   128171831.77406  24390297.660    99874164.43446
 15 02 25 00 48  0.0000000  0  7G16G18G19G21G22G27G31
  20936075.960   110019828.63709  20936076.760    85729742.09448
  21781050.240   114460255.76308  21781051.840    89189848.15447
  24374154.900   128087052.52006  24374154.960    99808082.14444
  21821781.100   114674357.11408  21821781.920    89356702.73448
  22660504.600   119081821.80908  22660504.540    92791070.97447
  22187601.620   116596644.96008  22187605.140    90854555.06948
  24408356.600   128266745.32306  24408359.480    99948122.72546
 15 02 25 00 48 30.0000000  0  7G16G18G19G21G22G27G31
  20927383.620   109974150.18709  20927384.460    85694148.50049
  21774351.360   114425053.23908  21774352.960    89162417.62647
  24358927.920   128007033.84006  24358927.820    99745729.95544
  21832043.760   114728287.49908  21832044.520    89398726.40848
  22643656.760   118993286.35107  22643656.840    92722082.33447
  22175907.240   116535190.62608  22175910.760    90806668.58748
  24426410.080   128361615.10206  24426413.000   100022046.88745
 15 02 25 00 49  0.0000000  0  7G16G18G19G21G22G27G31
  20918775.780   109928915.96609  20918776.680    85658901.06048
  21767737.640   114390297.53508  21767739.060    89135335.26647
  24343710.420   127927065.19606  24343710.360    99683416.73845
  21842345.380   114782422.55708  21842346.080    89440909.57048
  22626848.020   118904956.48008  22626848.200    92653253.88847
  22164233.000   116473842.15208  22164236.540    90758864.59348
  24444455.000   128456439.78306  24444457.820   100095935.92445
 15 02 25 00 49 30.0000000  0  7G16G18G19G21G22G27G31
  20910252.940   109884128.38409  20910253.860    85624001.64349
  21761209.320   114355990.35708  21761210.560    89108602.41447
  24328502.520   127847146.91906  24328502.460    99621142.77445
  21852685.560   114836760.51408  21852686.220    89483250.82748
  22610078.980   118816835.25807  22610079.180    92584588.02746
  22152579.080   116412600.32108  22152582.580    90711143.70248
  24462490.820   128551216.66606  24462493.660   100169787.67246
 15 02 25 00 50  0.0000000  0  7G16G18G19G21G22G27G31
  20901815.580   109839789.92109  20901816.500    85589452.18749
  21754766.720   114322133.52708  21754767.780    89082220.48347
  24313304.380   127767279.90706  24313304.400    99558908.75845
  21863064.440   114891301.74408  21863065.060    89525750.48548
  22593350.280   118728926.06107  22593350.460    92516087.37547
  22140945.660   116351466.28108  22140949.180    90663506.79448
  24480517.100   128645943.85906  24480520.040   100243600.70746
 15 02 25 00 50 30.0000000  0  7G16G18G19G21G22G27G31
  20893464.260   109795903.37509  20893465.180    85555254.88148
  21748410.200   114288729.29508  21748411.140    89056191.22847
  24298116.160   127687465.29306  24298116.260    99496715.56445
  21873481.700   114946044.79908  21873482.300    89568407.40948
  22576662.620   118641232.30708  22576662.680    92447754.61447
  22129332.980   116290441.28508  22129336.480    90615954.86248
  24498533.400   128740619.54706  24498536.580   100317373.59045
 15 02 25 00 51  0.0000000  0  7G16G18G19G21G22G27G31
  20885199.400   109752470.90909  20885200.260    85521411.39949
  21742140.020   114255779.31608  21742140.960    89030515.92447
  24282937.800   127607703.00906  24282938.060    99434563.13146
  21883937.060   115000987.99508  21883937.640    89611220.28748
  22560016.520   118553756.85008  22560016.440    92379591.95547
  22117741.140   116229525.89408  22117744.640    90568488.33848
  24516539.320   128835241.09606  24516542.800   100391104.27346
 15 02 25 00 51 30.0000000  0  7G16G18G19G21G22G27G31
  20877020.880   109709492.51809  20877021.740    85487921.74149
  21735956.080   114223282.91008  21735957.060    89005194.05947
  24267769.060   127527991.61806  24267769.540    99372450.37045
  21894429.740   115056127.28208  21894430.300    89654185.96148
  22543412.160   118466500.26808  22543411.920    92311599.84647
  22106169.860   116168718.62308  22106173.360    90521106.05548
  24534534.060   128929803.80406  24534537.780   100464789.09545
 15 02 25 00 52  0.0000000  0  7G16G18G19G21G22G27G31
  20868929.220   109666970.90709  20868930.120    85454788.01649
  21729858.840   114191242.16208  21729859.960    88980227.24547
  24252610.160   127448331.82506  24252610.800    99310377.83446
  21904959.620   115111462.26708  21904960.180    89697304.12348
  22526850.180   118379466.12608  22526849.820    92243781.06347
  22094619.380   116108020.73508  22094622.900    90473809.00948
  24552517.200   129024305.80606  24552521.220   100538426.58045
 15 02 25 00 52 30.0000000  0  7G16G18G19G21G22G27G31
  20860924.380   109624905.28809  20860925.280    85422009.61449
  21723848.100   114159655.80208  21723849.340    88955614.50147
  24237460.740   127368721.09906  24237461.420    99248343.51445
  21915525.980   115166988.91108  21915526.520    89740571.63448
  22510330.560   118292654.34608  22510330.140    92176135.54747
  22083089.300   116047429.98908  22083092.860    90426595.45248
  24570487.820   129118741.71506  24570492.000   100612012.57145
 15 02 25 00 53  0.0000000  0  7G16G18G19G21G22G27G31
  20853007.200   109583300.42909  20853008.180    85389590.24149
  21717924.660   114128528.05208  21717925.960    88931359.11548
  24222321.240   127289162.32906  24222321.920    99186349.68145
  21926129.000   115222708.32008  21926129.540    89783989.34748
  22493854.320   118206070.53708  22493853.960    92108667.67647
  22071580.280   115986949.70508  22071583.820    90379467.96748
  24588446.040   129213111.55006  24588450.300   100685547.05546
