     2.11           OBSERVATION DATA    M                   RINEX VERSION / TYPE
SPIDER V4,0,0,3554                      2015 03 24 00:15    PGM / RUN BY / DATE 
CBEJ                                                        MARKER NAME         
CBEJ                                                        MARKER NUMBER       
                                                            OBSERVER / AGENCY   
496519              LEICA GRX1200+GNSS  8.10/4.007          REC # / TYPE / VERS 
                    LEIAR25         NONE                    ANT # / TYPE        
  5095766.4657   453329.2088  3797108.6657                  APPROX POSITION XYZ 
        0.0730        0.0000        0.0000                  ANTENNA: DELTA H/E/N
     1     1                                                WAVELENGTH FACT L1/2
     4    C1    L1    P2    L2                              # / TYPES OF OBSERV 
    30.000                                                  INTERVAL            
  2015    02    25    00    00    0.0000000     GPS         TIME OF FIRST OBS   
  2015    02    25    17    45   30.0000000     GPS         TIME OF LAST OBS    
    16                                                      LEAP SECONDS        
    54                                                      # OF SATELLITES     
   G 1   812   812   812   812                              PRN / # OF OBS      
   G 2   457   457   457   457                              PRN / # OF OBS      
   G 3   833   833   833   833                              PRN / # OF OBS      
   G 4   832   832   831   831                              PRN / # OF OBS      
   G 5   621   621   621   621                              PRN / # OF OBS      
   G 6   567   566   566   566                              PRN / # OF OBS      
   G 7   648   648   646   646                              PRN / # OF OBS      
   G 9   785   783   785   783                              PRN / # OF OBS      
   G10   731   731   731   731                              PRN / # OF OBS      
   G11   776   776   776   776                              PRN / # OF OBS      
   G12   267   267   267   267                              PRN / # OF OBS      
   G13   754   754   754   754                              PRN / # OF OBS      
   G14   423   423   423   423                              PRN / # OF OBS      
   G15   531   530   530   530                              PRN / # OF OBS      
   G16   507   507   507   507                              PRN / # OF OBS      
   G17   821   821   821   821                              PRN / # OF OBS      
   G18   678   678   675   675                              PRN / # OF OBS      
   G19   759   759   759   759                              PRN / # OF OBS      
   G20   768   768   768   768                              PRN / # OF OBS      
   G21   277   277   266   266                              PRN / # OF OBS      
   G22   679   679   678   678                              PRN / # OF OBS      
   G23   719   719   711   711                              PRN / # OF OBS      
   G24   405   404   404   404                              PRN / # OF OBS      
   G25   105   105   105   105                              PRN / # OF OBS      
   G27   700   700   700   700                              PRN / # OF OBS      
   G28   794   793   793   792                              PRN / # OF OBS      
   G29    70    70    70    70                              PRN / # OF OBS      
   G30   669   669   660   660                              PRN / # OF OBS      
   G31   294   292   286   285                              PRN / # OF OBS      
   G32   742   741   738   738                              PRN / # OF OBS      
   R 1   648   648   648   648                              PRN / # OF OBS      
   R 2   640   640   634   634                              PRN / # OF OBS      
   R 3   743   743   743   743                              PRN / # OF OBS      
   R 4   674   674   668   668                              PRN / # OF OBS      
   R 5   573   573   573   573                              PRN / # OF OBS      
   R 6   671   671   653   649                              PRN / # OF OBS      
   R 7   762   762   759   759                              PRN / # OF OBS      
   R 8   763   763   762   761                              PRN / # OF OBS      
   R 9   725   725   710   696                              PRN / # OF OBS      
   R10   688   688   683   682                              PRN / # OF OBS      
   R11   562   562   556   550                              PRN / # OF OBS      
   R12   650   650   639   636                              PRN / # OF OBS      
   R13   505   505   505   505                              PRN / # OF OBS      
   R14   274   274   274   274                              PRN / # OF OBS      
   R15    79    79    79    79                              PRN / # OF OBS      
   R16   491   491   491   491                              PRN / # OF OBS      
   R17   109   109    94    91                              PRN / # OF OBS      
   R18   407   407   407   407                              PRN / # OF OBS      
   R19   674   674   674   674                              PRN / # OF OBS      
   R20   670   670   670   670                              PRN / # OF OBS      
   R21   376   376   376   371                              PRN / # OF OBS      
   R22   687   687   681   680                              PRN / # OF OBS      
   R23   557   557   557   556                              PRN / # OF OBS      
   R24   319   319   308   306                              PRN / # OF OBS      
BIT 2 OF LLI FLAGS DATA COLLECTED UNDER A/S CONDITION       COMMENT             
SNR is mapped to RINEX snr flag value [2-9]                 COMMENT             
Lx:     = 25dBHz -> 1; 26-27dBHz -> 2; 28-31dBHz -> 3       COMMENT             
       32-35dBHz -> 4; 36-38dBHz -> 5; 39-41dBHz -> 6       COMMENT             
       42-44dBHz -> 7; 45-48dBHz -> 8; >=49dBHz -> 9        COMMENT             
                                                            END OF HEADER       
 15 02 25 00 00  0.0000000  0  8G16G18G21G22G25G27G29G31
  21959818.200   115399621.86109  21959814.660    89921764.22747
  22926889.920   120481666.46009  22926886.720    93881820.90746
  21109756.640   110932525.12908  21109752.500    86440912.05748
  24465243.700   128565738.27307  24465243.300   100181078.83746
  24642208.860   129495664.94807  24642209.480   100905707.16745
  23192857.600   121879299.24508  23192858.200    94970885.73347
  23540296.360   123705071.79906  23540294.520    96393575.69445
  22666971.280   119115724.25509  22666968.540    92817431.86447
 15 02 25 00 00 30.0000000  0  8G16G18G21G22G25G27G29G31
  21945457.620   115324157.25009  21945454.020    89862960.64147
  22913776.360   120412753.85109  22913773.120    93828122.81146
  21114960.680   110959874.06208  21114956.900    86462222.90048
  24447303.100   128471463.29408  24447303.760   100107618.23945
  24661312.220   129596056.16907  24661313.560   100983933.97345
  23179683.840   121810067.42208  23179684.100    94916938.84946
  23554478.440   123779599.20406  23554477.580    96451649.04344
  22683615.520   119203189.68009  22683612.660    92885586.70647
 15 02 25 00 01  0.0000000  0  8G16G18G21G22G25G27G29G31
  21931141.180   115248923.11709  21931137.360    89804336.65347
  22900706.280   120344069.80408  22900702.960    93774602.79146
  21120235.120   110987592.35108  21120231.560    86483821.57048
  24429350.820   128377124.79208  24429351.620   100034108.17245
  24680442.040   129696586.47407  24680443.800   101062269.21445
  23166528.940   121740936.71508  23166528.300    94863070.84446
  23568667.160   123854158.69807  23568666.140    96509747.28144
  22700304.120   119290888.87809  22700301.000    92953923.73547
 15 02 25 00 01 30.0000000  0  8G16G18G21G22G25G27G29G31
  21916869.540   115173922.92509  21916865.280    89745894.96147
  22887680.300   120275617.87508  22887676.580    93721263.65746
  21125579.780   111015679.18308  21125576.180    86505707.41248
  24411387.360   128282726.41208  24411386.960    99960551.44545
  24699598.960   129797255.57208  24699600.100   101140712.52645
  23153393.100   121671908.17008  23153391.260    94809282.41846
  23582862.160   123928751.18106  23582860.140    96567871.17943
  22717036.760   119378820.09909  22717033.600    93022441.52147
 15 02 25 00 02  0.0000000  0  8G16G18G21G22G25G27G29G31
  21902643.100   115099161.64309  21902638.560    89687639.41747
  22874699.520   120207403.85209  22874695.780    93668109.87245
  21130994.980   111044136.18808  21130991.340    86527881.70648
  24393413.680   128188273.33408  24393411.280    99886952.08945
  24718782.820   129898064.80708  24718784.160   101219265.06445
  23140276.820   121602984.69308  23140275.060    94755575.81747
  23597063.720   124003379.23006  23597060.660    96626022.88244
  22733813.420   119466982.78109  22733810.340    93091139.70847
 15 02 25 00 02 30.0000000  0  8G16G18G21G22G25G27G29G31
  21888461.900   115024639.93209  21888457.580    89629570.53347
  22861764.380   120139428.66709  22861760.240    93615142.23146
  21136480.080   111072960.41508  21136476.420    86550342.14448
  24375429.940   128093766.92908  24375426.360    99813311.16845
  24737993.000   129999011.42908  24737994.400   101297924.64745
  23127180.020   121534164.94608  23127179.460    94701950.03447
  23611271.920   124078041.26506  23611268.900    96684200.96744
  22750633.440   119555372.73009  22750630.260    93160014.96247
 15 02 25 00 03  0.0000000  0  7G16G18G21G22G25G27G31
  21874328.200   114950366.59809  21874323.900    89571695.23648
  22848876.540   120071701.82009  22848871.800    93562368.11346
  21142036.120   111102157.30008  21142032.500    86573092.95848
  24357437.320   127999216.27608  24357433.880    99739635.72646
  24757230.100   130100100.77308  24757231.380   101376695.45646
  23114104.660   121465455.72508  23114104.580    94648410.40247
  22767497.500   119643994.01009  22767494.160    93229070.48148
 15 02 25 00 03 30.0000000  0  8G16G18G21G22G25G27G29G31
  21860240.920   114876337.30009  21860236.220    89514010.08847
  22836035.060   120004218.75109  22836030.560    93509783.94146
  21147661.480   111131718.34408  21147657.820    86596127.53748
  24339435.140   127904617.21108  24339432.840    99665922.52745
  24776492.720   130201324.75808  24776494.100   101455571.17445
  23101049.700   121396850.35908  23101049.400    94594951.71247
  23639707.920   124227479.34706  23639705.460    96800639.32643
  22784403.740   119732836.82009  22784400.440    93298298.63047
 15 02 25 00 04  0.0000000  0  8G16G18G21G22G25G27G29G31
  21846195.660   114802530.57209  21846191.360    89456498.33747
  22823235.680   119936958.42308  22823231.980    93457373.29146
  21153351.380   111161618.67008  21153347.680    86619426.48748
  24321419.800   127809948.85108  24321418.720    99592155.31146
  24795776.120   130302658.36908  24795777.300   101534532.29244
  23088010.180   121328325.26708  23088009.760    94541555.56547
  23653932.800   124302224.87807  23653928.440    96858882.44144
  22801347.280   119821874.83509  22801344.140    93367678.87547
 15 02 25 00 04 30.0000000  0  8G16G18G21G22G25G27G29G31
  21832201.020   114728989.13509  21832197.300    89399193.31348
  22810486.800   119869964.49808  22810483.800    93405170.21246
  21159113.380   111191897.73008  21159109.440    86643020.55948
  24303399.700   127715254.00808  24303399.020    99518367.46046
  24815087.520   130404140.67707  24815088.240   101613609.25945
  23074993.380   121259921.13808  23074992.540    94488253.66947
  23668166.760   124377021.09308  23668162.000    96917165.13745
  22818335.280   119911145.75109  22818332.100    93437240.60548
 15 02 25 00 05  0.0000000  0  7G16G18G21G22G27G29G31
  21818253.880   114655697.18209  21818250.660    89342082.71748
  22797785.680   119803221.01208  22797783.160    93353162.32046
  21164943.580   111222535.39908  21164939.500    86666894.07148
  24285371.580   127620516.96408  24285370.560    99444546.73945
  23061995.860   121191619.97508  23061995.180    94435032.03547
  23682405.980   124451849.36107  23682402.100    96975472.86045
  22835363.560   120000628.36409  22835359.860    93506967.29247
 15 02 25 00 05 30.0000000  0  7G16G18G21G22G27G29G31
  21804356.140   114582665.20309  21804353.080    89285174.68347
  22785134.480   119736738.95409  22785131.740    93301358.11946
  21170843.360   111253538.42109  21170839.040    86691052.27148
  24267337.460   127525748.96008  24267335.820    99370701.87145
  23049019.620   121123429.98608  23049019.680    94381896.94847
  23696652.820   124526717.67608  23696649.340    97033811.74445
  22852432.920   120090327.81809  22852428.780    93576862.94347
 15 02 25 00 06  0.0000000  0  7G16G18G21G22G27G29G31
  21790507.100   114509888.48009  21790504.020    89228465.56248
  22772532.640   119670514.11409  22772529.100    93249754.42346
  21176811.060   111284898.84408  21176806.700    86715488.97048
  24249296.600   127430945.72408  24249294.160    99296829.53745
  23036063.760   121055344.70308  23036063.620    94328843.49146
  23710905.920   124601619.28608  23710902.940    97092176.59546
  22869541.640   120180234.95609  22869537.520    93646920.44747
 15 02 25 00 06 30.0000000  0  7G16G18G21G22G27G29G31
  21776706.700   114437366.92509  21776703.680    89171955.27848
  22759979.700   119604546.36709  22759975.940    93198351.02946
  21182845.980   111316612.34208  21182841.640    86740200.78048
  24231249.220   127336107.22708  24231246.160    99222929.73245
  23023127.260   120987361.40008  23023126.180    94275869.51546
  23725164.760   124676551.44608  23725162.600    97150565.25046
  22886688.780   120270343.99709  22886684.600    93717135.26547
 15 02 25 00 07  0.0000000  0  7G16G18G21G22G27G29G31
  21762955.980   114365106.49009  21762953.020    89115648.43648
  22747476.520   119538842.88408  22747473.120    93147153.49147
  21188948.780   111348682.21809  21188944.460    86765190.29648
  24213196.440   127241240.29208  24213192.760    99149007.77345
  23010210.660   120919484.61908  23010209.480    94222978.50246
  23739430.280   124751518.44208  23739428.600    97208981.04446
  22903874.620   120360656.32209  22903870.180    93787508.46247
 15 02 25 00 07 30.0000000  0  7G16G18G21G22G27G29G31
  21749255.300   114293108.05109  21749251.920    89059545.77848
  22735023.600   119473403.58809  22735020.260    93096161.84046
  21195118.600   111381104.43109  21195114.300    86790454.35248
  24195138.340   127146345.44708  24195134.460    99075064.01845
  22997313.880   120851712.38408  22997312.160    94170169.02046
  23753701.860   124826518.21407  23753700.480    97267422.39645
  22921098.360   120451167.02009  22921093.620    93858036.24747
 15 02 25 00 08  0.0000000  0  7G16G18G21G22G27G29G31
  21735605.120   114221375.83909  21735601.440    89003650.56747
  22722622.140   119408233.52609  22722618.720    93045380.01446
  21201355.440   111413879.89808  21201351.440    86815993.66148
  24177076.120   127051427.37808  24177072.320    99001102.20245
  22984437.380   120784047.10508  22984435.020    94117442.85546
  23767979.640   124901552.72907  23767978.880    97325890.84746
  22938360.080   120541875.73209  22938354.940    93928718.30747
 15 02 25 00 08 30.0000000  0  7G16G18G21G22G27G29G31
  21722004.280   114149904.31109  21722000.680    88947958.45547
  22710270.960   119343327.27409  22710267.540    92994803.74346
  21207657.700   111446999.19409  21207653.960    86841800.90248
  24159008.240   126956481.28908  24159005.000    98927118.50145
  22971579.940   120716481.24008  22971578.280    94064794.17646
  23782263.160   124976614.07908  23782262.840    97384380.18246
  22955657.420   120632771.42109  22955651.980    93999546.07847
 15 02 25 00 09  0.0000000  0  7G16G18G21G22G27G29G31
  21708454.740   114078700.19409  21708451.000    88892474.74448
  22697971.300   119278692.11909  22697968.080    92944438.66947
  21214026.020   111480465.21709  21214022.360    86867878.31148
  24140936.100   126861513.78508  24140933.700    98853118.11346
  22958742.200   120649018.96308  22958741.440    94012226.15047
  23796552.960   125051706.52608  23796552.840    97442893.71846
  22972990.480   120723855.58209  22972985.140    94070520.72047
 15 02 25 00 09 30.0000000  0  7G16G18G21G22G27G29G31
  21694957.000   114007768.19309  21694953.160    88837203.05948
  22685724.200   119214332.86709  22685721.220    92894288.61147
  21220460.620   111514279.16909  21220456.860    86894226.85449
  24122860.920   126766530.01508  24122858.820    98779105.02545
  22945924.880   120581663.07108  22945924.480    93959741.08247
  23810849.140   125126832.70508  23810848.820    97501433.57146
  22990359.180   120815128.03809  22990354.280    94141642.08047
 15 02 25 00 10  0.0000000  0  7G16G18G21G22G27G29G31
  21681510.540   113937107.63309  21681506.840    88782142.88448
  22673529.600   119150249.71208  22673526.440    92844353.71546
  21226960.540   111548436.46309  21226956.600    86920842.93048
  24104782.660   126671530.14108  24104780.060    98705079.40745
  22933127.160   120514410.75408  22933127.040    93907336.67947
  23825151.320   125201989.70208  23825149.820    97559997.37445
  23007762.280   120906582.89709  23007757.820    94212905.59248
 15 02 25 00 10 30.0000000  0  7G16G18G21G22G27G29G31
  21668115.640   113866719.13909  21668112.080    88727294.70747
  22661387.560   119086443.26009  22661384.240    92794634.43546
  21233525.120   111582933.96909  21233521.080    86947724.10548
  24086701.280   126576514.84808  24086698.360    98631041.76045
  22920348.940   120447260.56508  22920348.660    93855011.85347
  23839459.060   125277175.43307  23839456.600    97618583.58745
  23025198.980   120998215.84109  23025195.140    94284307.87647
 15 02 25 00 11  0.0000000  0  7G16G18G21G22G27G29G31
  21654774.500   113796612.14209  21654771.100    88672665.89247
  22649299.940   119022922.83508  22649296.620    92745138.01446
  21240155.520   111617777.31609  21240151.420    86974874.75948
  24068618.960   126481493.95608  24068615.940    98556999.75045
  22907591.600   120380219.69708  22907590.980    93802772.25447
  23853773.300   125352397.36407  23853771.060    97677198.04045
  23042670.300   121090030.93609  23042667.000    94355852.06847
 15 02 25 00 11 30.0000000  0  7G16G18G21G22G27G29G31
  21641487.220   113726786.25809  21641483.800    88618256.12048
  22637266.660   118959688.43909  22637263.460    92695864.44246
  21246851.040   111652962.33709  21246846.900    87002291.66748
  24050535.780   126386467.59708  24050532.880    98482953.45945
  22894854.380   120313285.86408  22894853.780    93750616.03747
  23868093.680   125427652.90907  23868091.700    97735838.63844
  23060175.320   121182022.77509  23060172.120    94427533.98447
 15 02 25 00 12  0.0000000  0  7G16G18G21G22G27G29G31
  21628253.580   113657241.91409  21628250.240    88564065.71348
  22625288.360   118896740.98609  22625284.920    92646814.53446
  21253611.020   111688485.94109  21253606.940    87029972.39748
  24032451.860   126291435.91608  24032449.080    98408903.05345
  22882137.120   120246457.08108  22882136.660    93698541.67747
  23882420.060   125502940.07007  23882418.280    97794503.90145
  23077713.140   121274186.59608  23077709.960    94499349.91447
 15 02 25 00 12 30.0000000  0  7G16G18G21G22G27G29G31
  21615074.120   113587981.02509  21615070.560    88510096.18547
  22613365.120   118834082.49709  22613361.540    92597989.76046
  21260435.000   111724345.55709  21260430.980    87057914.94948
  24014367.480   126196402.24208  24014364.600    98334851.02546
  22869439.820   120179733.26508  22869439.780    93646549.06947
  23896752.380   125578258.18707  23896750.800    97853193.30444
  23095283.180   121366518.73308  23095280.420    94571297.00947
 15 02 25 00 13  0.0000000  0  7G16G18G21G22G27G29G31
  21601948.100   113519000.55209  21601943.980    88456345.18548
  22601495.980   118771710.09208  22601492.600    92549387.89647
  21267321.620   111760534.79509  21267317.540    87086114.36548
  23996282.000   126101363.45108  23996279.040    98260795.00946
  22856761.940   120113109.18209  22856761.700    93594634.20946
  23911089.880   125653602.02407  23911088.420    97911902.75745
  23112884.060   121459011.47709  23112881.460    94643369.24347
 15 02 25 00 13 30.0000000  0  7G16G18G21G22G27G29G31
  21588876.340   113450307.72709  21588872.120    88402818.30948
  22589682.420   118709630.98109  22589679.500    92501014.56347
  21274271.460   111797056.65509  21274267.380    87114572.95248
  23978196.900   126006326.81308  23978193.840    98186740.69346
  22844104.280   120046589.79509  22844103.500    93542800.98147
  23925433.280   125728975.95907  23925431.780    97970635.68146
  23130516.060   121551666.63909  23130513.160    94715568.01947
 15 02 25 00 14  0.0000000  0  7G16G18G21G22G27G29G31
  21575859.020   113381902.82309  21575855.340    88349515.78848
  22577924.640   118647845.89008  22577922.420    92452870.34447
  21281283.980   111833907.87509  21281280.000    87143288.18648
  23960112.340   125911293.27708  23960109.040    98112688.76546
  22831466.080   119980173.55408  22831465.200    93491048.09147
  23939782.200   125804379.03708  23939780.940    98029391.31346
  23148178.100   121644479.15209  23148174.820    94787889.41947
 15 02 25 00 14 30.0000000  0  7G16G18G21G22G27G29G31
  21562898.420   113313795.26709  21562895.300    88296444.95148
  22566224.820   118586364.54708  22566222.900    92404962.82147
  21288360.340   111871094.10408  21288356.240    87172264.47448
  23942030.360   125816272.96908  23942027.220    98038647.15146
  22818848.640   119913867.71008  22818847.620    93439381.21047
  23954137.900   125879817.70107  23954136.880    98088174.65546
  23165871.000   121737453.48609  23165867.420    94860336.90947
 15 02 25 00 15  0.0000000  0 14G16G18G21G22G27G29G31R02R03R15R16R17
                                R18R19
  21549994.660   113245985.63409  21549991.660    88243606.27648
  22554582.980   118525187.22208  22554581.000    92357292.18247
  21295499.760   111908611.67008  21295495.520    87201498.94447
  23923951.260   125721266.23608  23923948.320    97964616.09946
  22806251.620   119847670.50608  22806250.860    93387799.00647
  23968499.820   125955290.25808  23968498.820    98146984.40946
  23183593.780   121830585.04809  23183590.000    94932906.93747
  22422432.240   119650419.08205  22422438.820    93061447.28805
  23013248.960   123191730.30407  23013249.320    95815796.95606
  21746800.320   116208293.54508  21746803.640    90384236.81407
  19763592.460   105573567.51509  19763594.400    82112780.88308
  21859648.860   116975398.97908  21859651.580    90980865.07207
  19939979.360   106440972.12109  19939982.060    82787431.28608
  22379150.140   119713387.76408  22379148.500    93110385.06207
 15 02 25 00 15 30.0000000  0 14G16G18G21G22G27G29G31R02R03R15R16R17
                                R18R19
  21537147.580   113178473.80509  21537144.400    88190999.68648
  22542999.280   118464314.41209  22542997.160    92309858.84046
  21302701.400   111946456.93508  21302697.220    87230988.76148
  23905875.020   125626273.64608  23905871.600    97890596.09946
  22793674.360   119781579.91708  22793674.500    93336299.82547
  23982867.880   126030794.43608  23982866.280    98205818.82445
  23201345.400   121923868.74109  23201341.420    95005595.51847
  22417184.460   119622412.77906  22417189.880    93039664.66205
  22993871.000   123087999.04308  22993870.900    95735117.12906
  21769916.160   116331817.94908  21769919.140    90480311.30707
  19765615.120   105584371.79309  19765617.000    82121184.20608
  21873933.720   117051839.45208  21873936.540    91040318.79407
  19942205.120   106452854.35609  19942208.080    82796673.01609
  22366438.640   119645389.71908  22366437.980    93057497.71307
 15 02 25 00 16  0.0000000  0 13G16G18G21G22G27G29G31R03R15R16R17R18
                                R19
  21524357.080   113111258.99509  21524353.820    88138624.50848
  22531473.660   118403745.48809  22531470.780    92262662.30446
  21309964.420   111984625.34608  21309960.500    87260730.37147
  23887801.460   125531294.92008  23887797.620    97816586.88045
  22781117.060   119715592.80208  22781117.340    93284881.29647
  23997241.460   126106327.06907  23997239.020    98264675.40444
  23219124.500   122017298.27709  23219120.500    95078397.71746
  22974531.480   122984473.18008  22974531.280    95654597.06706
  21793089.620   116455649.32908  21793092.660    90576624.55307
  19767795.840   105596020.49609  19767797.440    82130244.29608
  21888224.100   117128308.53008  21888226.380    91099794.74906
  19944479.320   106464993.33809  19944482.100    82806114.45408
  22353766.440   119577603.13408  22353766.860    93004774.81507
 15 02 25 00 16 30.0000000  0 13G16G18G21G22G27G29G31R03R15R16R17R18
                                R19
  21511623.440   113044343.46209  21511620.420    88086482.55148
  22520006.340   118343482.79109  22520002.980    92215704.39547
  21317288.560   112023114.89108  21317284.940    87290722.21947
  23869730.940   125436332.89808  23869726.820    97742590.64546
  22768579.980   119649709.44008  22768579.840    93233543.65847
  24011620.200   126181888.04107  24011617.940    98323554.10945
  23236930.680   122110870.94909  23236926.380    95151311.44247
  22955231.320   122881157.59708  22955231.360    95574240.58307
  21816319.740   116579784.00408  21816323.500    90673173.71407
  19770134.460   105608513.28608  19770135.780    82139960.89208
  21902519.940   117204805.81408  21902521.400    91159292.65406
  19946801.500   106477387.89409  19946803.940    82815754.68708
  22341133.640   119510027.75308  22341134.740    92952216.19807
 15 02 25 00 17  0.0000000  0 14G16G18G21G22G27G29G31R02R03R15R16R17
                                R18R19
  21498947.660   112977733.12109  21498945.100    88034578.39948
  22508598.360   118283532.29809  22508595.320    92168989.72147
  21324674.360   112061927.76108  21324670.800    87320966.00147
  23851664.560   125341393.56408  23851660.060    97668612.09046
  22756063.480   119583933.64008  22756062.960    93182289.82547
  24026005.220   126257481.10107  24026003.260    98382457.76944
  23254764.100   122204587.45409  23254759.380    95224337.25046
  22402220.700   119542532.76006  22402218.460    92977523.28705
  22935971.900   122778060.45407  22935972.620    95494053.91707
  21839606.200   116704221.36508  21839610.780    90769958.30508
  19772631.620   105621853.21908  19772632.600    82150336.37008
  21916821.220   117281334.05507  21916822.520    91218814.56207
  19949171.640   106490040.47109  19949173.960    82825595.53808
  22328540.680   119442666.90608  22328542.100    92899824.41607
 15 02 25 00 17 30.0000000  0 13G16G18G21G22G27G29G31R03R15R16R17R18
                                R19
  21486331.120   112911433.50209  21486328.560    87982916.35648
  22497250.640   118223899.42409  22497247.980    92122522.55447
  21332122.260   112101065.83308  21332118.480    87351463.21247
  23833603.760   125246482.84208  23833599.120    97594655.83346
  22743567.320   119518268.79808  22743567.560    93131122.37648
  24040397.040   126333109.42007  24040395.060    98441388.89145
  23272624.940   122298447.95309  23272620.060    95297475.24947
  22916754.780   122675189.56708  22916755.940    95414043.22207
  21862949.100   116828960.32708  21862954.200    90866977.45807
  19775288.000   105636043.09508  19775288.880    82161372.92008
  21931128.280   117357895.28307  21931129.640    91278362.13206
  19951590.520   106502952.86509  19951592.840    82835638.50508
  22315988.540   119375523.63108  22315989.780    92847601.87906
 15 02 25 00 18  0.0000000  0 14G16G18G21G22G27G29G31R02R03R15R16R17
                                R18R19
  21473773.300   112845441.87509  21473770.880    87931494.31748
  22485962.700   118164581.53008  22485960.340    92076300.83647
  21339630.840   112140522.23208  21339626.480    87382208.46447
  23815547.820   125151598.22608  23815543.720    97520719.91446
  22731091.380   119452709.70808  22731092.460    93080037.36747
  24054794.340   126408767.47907  24054792.080    98500343.18044
  23290511.820   122392444.53109  23290507.180    95370719.28947
  22392897.000   119492778.11705  22392895.680    92938830.05004
  22897579.800   122572544.18308  22897580.660    95334207.94507
  21886346.560   116953990.62208  21886351.580    90964223.19307
  19778102.400   105651077.05008  19778103.400    82173065.97508
  21945440.400   117434483.41507  21945441.940    91337930.67106
  19954056.980   106516118.46009  19954059.160    82845878.43508
  22303476.280   119308591.96608  22303477.080    92795543.99007
 15 02 25 00 18 30.0000000  0 14G16G18G21G22G27G29G31R02R03R15R16R17
                                R18R19
  21461273.660   112779756.00509  21461271.460    87880310.52248
  22474734.240   118105576.57809  22474732.200    92030322.95347
  21347198.940   112180291.20208  21347194.060    87413197.28947
  23797496.400   125056738.04908  23797492.660    97446803.02446
  22718635.220   119387252.40808  22718636.360    93029031.67747
  24069196.560   126484451.38008  24069194.300    98559317.61244
  23308423.220   122486569.83609  23308418.940    95444063.63947
  22388431.840   119468950.26405                                
  22878447.100   122470124.51008  22878447.580    95254548.24307
  21909797.220   117079304.74208  21909801.980    91061689.67307
  19781073.700   105666950.09108  19781075.320    82185411.66908
  21959756.980   117511093.32308  21959758.500    91397516.13206
  19956569.560   106529531.62809  19956571.760    82856310.88108
  22291002.840   119241867.64908  22291003.580    92743647.33906
 15 02 25 00 19  0.0000000  0 15G16G18G21G22G27G29G31R02R03R09R15R16
                                R17R18R19
  21448834.240   112714386.61109  21448831.920    87829373.32248
  22463567.740   118046896.14809  22463565.680    91984597.94347
  21354827.820   112220379.80008  21354822.600    87444435.17647
  23779451.720   124961913.96108  23779447.620    97372914.26946
  22706200.080   119321905.90808  22706200.940    92978112.31048
  24083605.400   126560169.78308  24083603.440    98618318.92244
  23326360.160   122580829.99508  23326356.420    95517513.05547
  22384099.520   119445830.80306                                
  22859358.980   122367944.20708  22859359.240    95175074.71806
  22089123.800   117954685.23106                                
  21933302.120   117204907.87908  21933307.140    91159380.95307
  19784203.600   105683670.82308  19784206.060    82198416.68708
  21974079.340   117587733.53708  21974080.340    91457125.18605
  19959130.060   106543200.00209  19959132.420    82866941.84808
  22278569.680   119175359.13008  22278570.260    92691918.49906
 15 02 25 00 19 30.0000000  0 15G16G18G21G22G27G29G31R02R03R09R15R16
                                R17R18R19
  21436454.540   112649331.14809  21436452.100    87778680.73948
  22452462.460   117988537.22709  22452459.940    91939123.48246
  21362515.980   112260781.24308  21362510.920    87475916.80947
  23761413.120   124867123.42308  23761408.640    97299051.65446
  22693785.360   119256664.90809  22693785.780    92927275.16147
  24098019.660   126635917.50108  24098017.800    98677343.07744
  23344321.000   122675216.46508  23344318.040    95591060.93747
  22379899.260   119423416.01206  22379906.760    92884916.21903
  22840315.220   122266002.37408  22840315.080    95095786.67506
  22072100.320   117863779.70306  22072100.860                  
  21956859.280   117330789.89208  21956864.740    91257289.15307
  19787490.980   105701232.93608  19787493.920    82212076.10708
  21988406.160   117664397.61608  21988406.920    91516752.77106
  19961737.440   106557116.87109  19961739.740    82877766.09408
  22266175.680   119109060.59608  22266176.540    92640352.96007
 15 02 25 00 20  0.0000000  0 15G16G18G21G22G27G29G31R02R03R09R15R16
                                R17R18R19
  21424134.900   112584590.32509  21424132.060    87728233.34348
  22441418.340   117930500.55509  22441415.500    91893900.11346
  21370262.720   112301491.72507  21370258.160    87507639.24847
  23743381.320   124772367.77208  23743376.540    97225216.20446
  22681391.000   119191528.47309  22681390.420    92876519.55247
  24112439.120   126711692.69808  24112436.720    98736388.62544
  23362305.020   122769725.53808  23362303.100    95664704.34247
  22375831.100   119401706.59206  22375837.640    92868031.07903
  22821316.700   122164302.67808  22821316.340    95016686.94706
  22055179.680   117773423.39608  22055180.120    91601558.19203
  21980467.640   117456944.77108  21980472.820    91355409.56607
  19790935.700   105719634.26908  19790938.560    82226388.24608
  22002736.920   117741083.58108  22002737.640    91576397.38705
  19964390.840   106571279.57109  19964392.860    82888781.53408
  22253820.760   119042970.68008  22253821.280    92588949.71706
 15 02 25 00 20 30.0000000  0 15G16G18G21G22G27G29G31R02R03R09R15R16
                                R17R18R19
  21411875.460   112520166.10209  21411872.420    87678032.67048
  22430436.120   117872788.29409  22430433.120    91848929.56546
  21378067.940   112342510.18807  21378063.920    87539601.67047
  23725356.940   124677649.29108  23725351.820    97151409.72346
  22669016.400   119126496.27608  22669014.740    92825845.16147
  24126863.820   126787495.58408  24126861.100    98795455.72144
  23380311.860   122864353.65508  23380310.540    95738440.51047
  22371895.740   119380704.02705  22371900.440    92851695.84004
  22802363.860   122062848.88007  22802363.500    94937778.45006
  22038362.680   117683619.61308  22038363.200    91531710.82804
  22004126.300   117583368.14608  22004131.000    91453738.81407
  19794537.540   105738873.77808  19794539.840    82241352.28808
  22017071.420   117817789.97908  22017071.880    91636057.85705
  19967089.820   106585686.44809  19967091.700    82899986.85608
  22241504.740   118977088.37608  22241504.500    92537707.97106
 15 02 25 00 21  0.0000000  0 15G16G18G21G22G27G29G31R02R03R09R15R16
                                R17R18R19
  21399678.320   112456071.26009  21399675.400    87628088.62348
  22419518.020   117815413.04709  22419515.040    91804221.59147
  21385933.480   112383845.06207  21385929.740    87571810.63647
  23707342.220   124582980.93908  23707336.900    97077642.31146
  22656662.820   119061578.92608  22656660.940    92775260.19247
  24141295.720   126863336.48108  24141293.360    98854552.46745
  23398343.040   122959108.20308  23398341.580    95812275.18746
  22368094.880   119360420.80303  22368098.180    92835919.97805
  22783460.020   121961656.29008  22783459.960    94859073.14307
  22021651.740   117594382.59808  22021652.180    91462304.29204
  22027836.480   117710066.77508  22027840.620    91552282.11507
  19798298.040   105758960.90609  19798300.140    82256975.58708
  22031411.860   117894526.72707  22031411.680    91695741.95504
  19969836.340   106600346.78209  19969838.080    82911389.35208
  22229229.280   118911423.86008  22229228.920    92486635.54006
 15 02 25 00 21 30.0000000  0 14G16G18G21G22G27G29G31R03R09R15R16R17
                                R18R19
  21387542.520   112392297.35509  21387539.660    87578394.66748
  22408662.460   117758366.42409  22408659.480    91759769.70147
  21393857.160   112425484.04508  21393853.280    87604256.62047
  23689335.620   124488355.23908  23689330.860    97003908.12846
  22644328.960   118996766.01208  22644328.000    92724756.63747
  24155733.000   126939204.63208  24155730.800    98913670.48646
  23416396.000   123053975.86909  23416393.980    95886197.98546
  22764604.100   121860718.55408  22764604.760    94780565.98907
  22005045.440   117505705.64308  22005045.860    91393333.30805
  22051595.340   117837025.62908  22051598.780    91651027.80307
  19802215.140   105779884.10909  19802217.320    82273249.17708
  22045755.840   117971282.32707  22045755.020    91755440.79805
  19972627.820   106615248.47909  19972629.500    82922979.55608
  22216992.580   118845965.98808  22216992.440    92435723.88907
 15 02 25 00 22  0.0000000  0 14G16G18G21G22G27G29G31R03R09R15R16R17
                                R18R19
  21375468.580   112328847.86309  21375465.600    87528953.53048
  22397870.200   117701652.22909  22397867.060    91715576.85047
  21401838.820   112467426.67908  21401834.660    87636939.18847
  23671337.560   124393775.74408  23671333.620    96930209.90447
  22632015.440   118932058.68208  22632015.500    92674335.34748
  24170175.820   127015100.95708  24170173.640    98972810.43546
  23434470.240   123148954.71209  23434467.360    95960207.39846
  22745797.120   121760041.55408  22745797.820    94702261.68407
  21988544.720   117417593.38308  21988545.360    91324801.54905
  22075401.860   117964241.23908  22075405.520    91749973.27407
  19806288.840   105801643.39309  19806291.100    82290173.03508
  22060103.100   118048057.12406  22060102.020    91815154.54805
  19975464.240   106630391.32309  19975466.140    82934757.29908
  22204794.760   118780715.68108  22204795.060    92384973.67507
 15 02 25 00 22 30.0000000  0 14G16G18G21G22G27G29G31R03R09R15R16R17
                                R18R19
  21363457.280   112265728.06309  21363454.140    87479769.26348
  22387142.040   117645275.83009  22387139.200    91671647.19947
  21409878.620   112509674.55508  21409874.240    87669859.62546
  23653349.380   124299248.38908  23653345.820    96856552.31346
  22619722.800   118867460.60608  22619722.840    92623999.16847
  24184624.640   127091028.80008  24184622.340    99031974.96345
  23452565.700   123244045.24408  23452561.540    96034303.85746
  22727040.260   121659633.15207  22727040.220    94624166.32306
  21972150.900   117330052.90608  21972151.880    91256714.51305
  22099256.380   118091713.31808  22099260.320    91849118.15107
  19810519.400   105824241.57408  19810521.680    82307749.39008
  22074454.080   118124853.71706  22074453.600    91874885.19205
  19978346.520   106645777.42309  19978348.560    82946724.28208
  22192636.280   118715675.96908  22192636.620    92334387.26107
 15 02 25 00 23  0.0000000  0 15G16G18G21G22G27G29G31R02R03R09R15R16
                                R17R18R19
  21351509.600   112202941.17809  21351506.120    87430844.43148
  22376478.800   117589240.43309  22376476.460    91627983.25147
  21417976.140   112552227.14708  21417971.860    87703017.48946
  23635371.900   124204776.63508  23635368.420    96782938.06846
  22607451.060   118802972.69508  22607450.720    92573748.87447
  24199079.360   127166989.31008  24199077.300    99091164.94846
  23470681.880   123339245.23308  23470677.080    96108485.60346
  22354228.400   119286448.28405  22354227.040    92778344.48005
  22708334.560   121559499.07707  22708334.100    94546284.30906
  21955864.900   117243088.77008  21955866.020    91189075.77605
  22123158.460   118219438.23008  22123162.620    91948459.68807
  19814906.700   105847678.17909  19814908.700    82325977.85008
  22088809.460   118201672.45606  22088808.860    91934633.09203
  19981274.440   106661406.40209  19981276.440    82958880.17408
  22180517.220   118650847.07108  22180516.940    92283964.82706
 15 02 25 00 23 30.0000000  0 15G16G18G21G22G27G29G31R02R03R09R15R16
                                R17R18R19
  21339625.920   112140490.28609  21339622.080    87382181.40748
  22365881.180   117533548.91709  22365878.860    91584587.28647
  21426131.240   112595082.95707  21426126.900    87736411.63546
  23617405.660   124110364.25808  23617402.040    96709370.06446
  22595200.600   118738595.82008  22595200.400    92523585.07547
  24213540.180   127242982.90908  24213538.120    99150380.68646
  23488818.340   123434552.54508  23488813.820    96182750.96746
  22351099.020   119269750.06505  22351098.240    92765357.05906
  22689680.620   121459644.31307  22689679.880    94468619.53606
  21939687.700   117156705.65108  21939688.860    91121888.92204
  22147107.280   118347413.04708  22147112.180    92047995.60407
  19819450.840   105871952.52508  19819452.440    82344857.85708
  22103168.640   118278513.15806  22103167.940    91994398.02904
  19984247.520   106677277.51409  19984249.800    82971224.35508
  22168437.380   118586229.38808  22168437.760    92233706.67507
 15 02 25 00 24  0.0000000  0 15G16G18G21G22G27G29G31R02R03R09R15R16
                                R17R18R19
  21327805.820   112078374.11209  21327801.800    87333779.19148
  22355348.560   117478199.95709  22355346.240    91541458.24247
  21434342.760   112638237.14807  21434338.840    87770038.23046
  23599450.460   124016009.90708  23599446.040    96635847.29646
  22582970.420   118674326.52608  22582970.680    92473505.12447
  24228006.680   127319006.11708  24228004.840    99209619.52346
  23506973.880   123529960.44908  23506970.140    96257094.73846
  22348103.860   119253772.97405  22348104.340    92752930.37705
  22671078.760   121360069.76807  22671078.900    94391172.68807
  21923619.380   117070903.21408  21923620.280    91055153.67704
  22171101.000   118475628.12108  22171106.060    92147718.39507
  19824150.900   105897059.92008  19824152.620    82364385.81708
  22117531.460   118355371.45306  22117530.940    92054176.68604
  19987265.080   106693385.99609  19987267.500    82983753.15408
  22156396.200   118521818.93608  22156397.840    92183609.62707
 15 02 25 00 24 30.0000000  0 15G16G18G21G22G27G29G31R02R03R09R15R16
                                R17R18R19
  21316049.620   112016593.90209  21316045.540    87285638.75848
  22344881.080   117423194.71508  22344878.900    91498597.01747
  21442610.760   112681687.53207  21442607.060    87803895.64146
  23581506.640   123921715.73908  23581501.820    96562371.42346
  22570760.300   118610164.46908  22570760.960    92423508.68748
  24242478.600   127395058.26408  24242477.480    99268880.92246
  23525148.080   123625465.78209  23525144.960    96331514.39947
  22345244.200   119238517.41806  22345245.380    92741064.99205
  22652530.100   121260779.39408  22652531.140    94313946.86907
  21907660.440   116985684.69708  21907660.960    90988872.59304
  22195138.840   118604079.37808  22195143.300    92247624.86007
  19829006.320   105922998.81208  19829008.920    82384560.52308
  22131897.380   118432245.99206  22131897.220    92113967.97305
  19990326.880   106709729.72109  19990329.220    82996464.94608
  22144393.860   118457614.56108  22144395.300    92133672.92206
 15 02 25 00 25  0.0000000  0 15G16G18G21G22G27G29G31R02R03R09R15R16
                                R17R18R19
  21304357.660   111955152.23509  21304353.720    87237762.14548
  22334479.640   117368536.38408  22334477.420    91456006.12246
  21450935.160   112725432.15707  21450931.300    87837982.38546
  23563574.980   123827484.83708  23563570.180    96488944.86346
  22558571.020   118546109.80408  22558571.560    92373595.99647
  24256956.260   127471139.44908  24256955.520    99328164.97947
  23543340.280   123721065.60508  23543337.680    96406007.72547
  22342520.180   119223985.14405  22342521.580    92729762.19704
  22634035.780   121161778.00708  22634036.980    94236945.83207
  21891811.560   116901053.87808  21891811.860    90923048.62704
  22219220.400   118732763.42808  22219224.560    92347712.42207
  19834017.060   105949767.75408  19834020.360    82405380.83408
  22146266.020   118509135.98405  22146266.020    92173771.23205
  19993432.620   106726307.74209  19993434.820    83009358.96508
  22132430.220   118393615.99308  22132430.840    92083896.31107
 15 02 25 00 25 30.0000000  0 15G16G18G21G22G27G29G31R02R03R09R15R16
                                R17R18R19
  21292730.780   111894052.70009  21292726.920    87190152.12148
  22324145.060   117314228.04409  22324142.840    91413687.95947
  21459315.720   112769470.97607  21459311.520    87872298.34547
  23545656.240   123733321.40908  23545651.940    96415570.84947
  22546402.620   118482164.29608  22546403.480    92323768.32248
  24271439.900   127547250.97308  24271439.100    99387472.62947
  23561550.120   123816758.64508  23561548.020    96480573.67147
  22339931.640   119210179.56805  22339933.680    92719024.55804
  22615596.540   121063071.58207  22615598.060    94160174.18407
  21876073.760   116817015.92208  21876074.140    90857685.77404
  22243345.120   118861676.59208  22243348.900    92447978.13706
  19839183.700   105977367.28209  19839186.820    82426847.12308
  22160637.940   118586042.59006  22160637.920    92233587.44305
  19996582.200   106743120.12009  19996584.400    83022435.24508
  22120505.620   118329824.39308  22120505.860    92034280.65107
 15 02 25 00 26  0.0000000  0 15G16G18G21G22G27G29G31R02R03R09R15R16
                                R17R18R19
  21281169.100   111833295.84509  21281165.280    87142809.13048
  22313877.380   117260270.14109  22313875.300    91371642.85747
  21467751.600   112813800.60507  21467747.360    87906840.90346
  23527750.480   123639226.31308  23527746.920    96342250.08347
  22534254.680   118418326.42508  22534256.080    92274024.52448
  24285929.100   127623391.18208  24285928.020    99446802.64446
  23579776.740   123912540.10609  23579774.840    96555208.52246
  22337480.260   119197099.93006  22337482.180    92708851.63504
  22597212.820   120964662.93507  22597214.600    94083634.12607
  21860447.500   116733572.71708  21860448.100    90792785.50005
  22267511.660   118990813.62208  22267514.420    92548417.97007
  19844505.500   106005793.93509  19844507.560    82448956.69208
  22175012.580   118662963.14306  22175012.740    92293414.58206
  19999775.120   106760163.95709  19999777.460    83035691.55409
  22108619.280   118266237.33808  22108619.220    91984824.07207
 15 02 25 00 26 30.0000000  0 15G16G18G21G22G27G29G31R02R03R09R15R16
                                R17R18R19
  21269673.160   111772884.98209  21269669.480    87095735.72048
  22303677.080   117206666.19109  22303675.140    91329873.52148
  21476242.680   112858420.35207  21476238.500    87941609.50946
  23509858.300   123545203.29208  23509855.160    96268985.43847
  22522127.460   118354597.42508  22522128.900    92224365.56348
  24300424.080   127699561.29208  24300422.680    99506155.95046
  23598019.820   124008408.26208  23598017.500    96629910.92646
  22335165.860   119184748.77206  22335167.980    92699245.21905
  22578885.720   120866557.71706  22578887.860    94007330.06507
  21844933.660   116650728.95908  21844934.320    90728351.47805
  22291719.560   119120171.49407  22291722.360    92649029.55107
  19849982.100   106035047.42408  19849983.640    82471709.36608
  22189389.900   118739898.40206  22189390.140    92353253.11205
  20003011.360   106777439.04508  20003013.760    83049127.72908
  22096770.940   118202855.74607  22096770.520    91935527.28007
 15 02 25 00 27  0.0000000  0 15G16G18G21G22G27G29G31R02R03R09R15R16
                                R17R18R19
  21258243.800   111712824.03909  21258240.180    87048934.98948
  22293544.980   117153419.89109  22293542.820    91288382.89348
  21484788.820   112903330.29507  21484784.800    87976604.26947
  23491980.720   123451256.80008  23491977.440    96195780.45947
  22510021.480   118290979.11708  22510022.420    92174792.89848
  24314924.960   127775762.76708  24314923.460    99565533.70446
  23616279.120   124104361.64108  23616275.960    96704679.72046
  22332988.380   119173129.31707  22332991.360    92690207.84505
  22560616.740   120768762.28408  22560618.560    93931267.04606
  21829533.080   116568489.75208  21829533.520    90664387.63805
  22315968.080   119249747.25808  22315971.440    92749810.62907
  19855613.540   106065128.17409  19855615.100    82495105.48708
  22203770.200   118816849.34007  22203770.480    92413103.89705
  20006291.020   106794945.86309  20006293.380    83062744.15608
  22084961.300   118139680.56808  22084960.600    91886391.06107
 15 02 25 00 27 30.0000000  0 15G16G18G21G22G27G29G31R02R03R09R15R16
                                R17R18R19
  21246881.260   111653113.74809  21246877.660    87002407.50248
  22283481.180   117100532.01909  22283478.340    91247171.59747
  21493389.360   112948526.91907  21493385.680    88011822.38946
  23474118.100   123357387.79908  23474114.700    96122635.86346
  22497936.360   118227470.15508  22497937.260    92125305.39648
  24329431.460   127851994.34008  24329429.840    99624934.89946
  23634553.840   124200395.93808  23634549.980    96779511.56546
  22330948.040   119162241.26908  22330951.380    92681739.37004
  22542406.100   120671279.29108  22542407.480    93855447.00607
  21814246.040   116486857.28508  21814246.600    90600895.74405
  22340256.000   119379535.23808  22340259.340    92850756.78007
  19861399.200   106096033.19909  19861400.620    82519142.71808
  22218153.060   118893813.45407  22218152.680    92472964.86304
  20009613.400   106812681.49009  20009615.600    83076538.53408
  22073190.060   118076710.21508  22073188.600    91837414.15807
 15 02 25 00 28  0.0000000  0 15G16G18G21G22G27G29G31R02R03R09R15R16
                                R17R18R19
  21235584.820   111593751.84809  21235581.400    86956151.47248
  22273484.760   117048000.33009  22273481.580    91206237.83046
  21502043.460   112994004.49707  21502039.800    88047259.48845
  23456270.180   123263594.23109  23456266.620    96049550.06247
  22485871.260   118164066.54208  22485872.240    92075899.99148
  24343942.920   127928251.50208  24343941.020    99684356.02146
  23652842.620   124296503.90508  23652838.920    96854400.83146
  22329044.180   119152081.42408  22329045.840    92673837.33903
  22524254.220   120574109.43508  22524255.620    93779870.48407
  21799072.200   116405830.59808  21799073.020    90537875.00804
  22364581.580   119509526.46907  22364585.320    92951861.01907
  19867337.960   106127756.35009  19867338.920    82543816.27208
  22232537.340   118970786.13706  22232536.720    92532832.46704
  20012977.600   106830640.49809  20012979.860    83090506.65008
  22061455.800   118013939.52608  22061453.600    91788592.57806
 15 02 25 00 28 30.0000000  0 15G16G18G21G22G27G29G31R02R03R09R15R16
                                R17R18R19
  21224356.360   111534746.64109  21224352.980    86910173.37048
  22263557.440   116995833.18809  22263554.180    91165588.09447
  21510751.800   113039767.41407  21510748.240    88082918.89145
  23438438.540   123169886.22509  23438434.760    95976530.90147
  22473827.120   118100774.42208  22473827.880    92026581.45648
  24358460.280   128004540.33908  24358458.200    99743801.82546
  23671146.120   124392688.49509  23671142.860    96929349.76846
  22327278.100   119142657.06908  22327278.800    92666507.31804
  22506162.680   120477263.14108  22506164.240    93704545.57608
  21784013.540   116325419.27208  21784014.520    90475332.83505
  22388945.560   119639723.17808  22388950.120    93053125.06807
  19873430.720   106160302.40408  19873431.500    82569129.85108
  22246923.900   119047772.66506  22246923.320    92592710.79305
  20016384.660   106848827.54109  20016386.940    83104652.11508
  22049759.800   117951374.19808  22049758.140    91739930.68507
 15 02 25 00 29  0.0000000  0 15G16G18G21G22G27G29G31R02R03R09R15R16
                                R17R18R19
  21213197.600   111476105.64509  21213193.880    86864479.11448
  22253700.840   116944037.64109  22253697.320    91125227.95846
  21519515.260   113085819.00007  21519511.480    88118803.30844
  23420624.240   123076271.16609  23420620.120    95903584.17346
  22461805.120   118037599.39108  22461805.500    91977354.16447
  24372984.420   128080866.14508  24372982.720    99803276.47946
  23689464.720   124488952.43108  23689461.780    97004360.54246
  22325651.080   119133975.02908  22325651.780    92659754.65805
  22488133.380   120380750.57007  22488135.200    93629480.26008
  21769071.960   116245632.43208  21769073.020    90413276.42804
  22413348.880   119770127.53308  22413353.760    93154550.59807
  19879678.360   106193675.10209  19879679.200    82595086.39108
  22261313.880   119124777.96506  22261314.040    92652603.76704
  20019835.460   106867246.87809  20019837.460    83118978.29508
  22038103.100   117889019.42008  22038102.600    91691432.54407
 15 02 25 00 29 30.0000000  0 15G16G18G21G22G27G29G31R02R03R09R15R16
                                R17R18R19
  21202106.700   111417821.31409  21202102.720    86819062.75648
  22243913.720   116892606.17009  22243910.060    91085151.52447
  21528331.620   113132148.08907  21528327.480    88154903.90545
  23402826.100   122982741.94508  23402821.340    95830704.31546
  22449803.580   117974531.80608  22449804.100    91928210.60548
  24387513.880   128157219.46208  24387512.540    99862772.55847
  23707795.960   124585283.03108  23707793.040    97079423.25246
  22324161.460   119126026.28908  22324162.640    92653572.33605
  22470165.060   120284565.98607  22470166.880    93554669.98207
  21754246.140   116166463.48108  21754247.720    90351700.58205
  22437788.560   119900724.21508  22437793.140    93256125.69806
  19886078.460   106227862.65409  19886079.360    82621676.70608
  22275705.600   119201791.39207  22275705.440    92712502.99904
  20023327.640   106885887.56309  20023329.400    83133476.59508
  22026483.780   117826864.68108  22026483.420    91643089.99107
 15 02 25 00 30  0.0000000  0 15G16G18G21G22G27G29G31R02R03R09R15R16
                                R17R18R19
  21191084.080   111359897.40909  21191080.300    86773927.23848
  22234196.860   116841542.63309  22234193.260    91045361.78847
  21537200.200   113178753.58305  21537195.900    88191219.90045
  23385045.100   122889302.63509  23385039.760    95757894.53546
  22437822.920   117911573.48608  22437823.320    91879152.17148
  24402048.980   128233601.52108  24402047.740    99922291.01646
  23726139.560   124681678.94408  23726136.960    97154536.87946
  22322809.800   119118813.50608  22322811.200    92647962.42206
  22452259.400   120188715.57808  22452260.900    93480119.69007
  21739537.020   116087917.61708  21739538.940    90290609.36105
  22462263.820   120031511.14907  22462267.820    93357848.79807
  19892630.980   106262865.12609  19892631.920    82648900.84008
  22290099.180   119278814.10507  22290098.840    92772409.50304
  20026861.120   106904749.68809  20026862.920    83148147.12408
  22014901.820   117764911.27308  22014901.560    91594904.03407
 15 02 25 00 30 30.0000000  0 15G16G18G21G22G27G29G31R02R03R09R15R16
                                R17R18R19
  21180130.880   111302337.72409  21180127.240    86729075.52148
  22224550.720   116790850.57209  22224547.320    91005861.49347
  21546121.060   113225636.90205  21546117.100    88227752.34445
  23367282.080   122795957.60509  23367276.660    95685158.22446
  22425863.660   117848726.18809  22425863.660    91830180.28247
  24416589.680   128310013.79808  24416588.620    99981833.02746
  23744495.160   124778138.81508  23744493.500    97229700.33746
  22321596.540   119112339.44808  22321597.780    92642927.11305
  22434417.540   120093205.67408  22434418.140    93405834.27306
  21724945.600   116009999.54108  21724947.280    90230006.42505
  22486773.840   120162485.35008  22486777.700    93459717.54406
  19899335.900   106298682.14408  19899337.060    82676758.49808
  22304494.660   119355847.24507  22304494.720    92832324.16204
  20030436.200   106923833.83809  20030438.260    83162990.34008
  22003357.860   117703159.94408  22003357.540    91546875.24507
 15 02 25 00 31  0.0000000  0 15G16G18G21G22G27G29G31R02R03R09R15R16
                                R17R18R19
  21169247.800   111245145.83309  21169244.000    86684510.42948
  22214975.720   116740533.51509  22214972.500    90966653.41747
  21555094.760   113272797.57104  21555091.540    88264500.88745
  23349537.460   122702711.32308  23349532.720    95612498.82046
  22413925.920   117785991.70108  22413925.660    91781296.29548
  24431136.340   128386458.21608  24431135.360   100041400.07745
  23762862.540   124874661.24108  23762861.540    97304912.55446
  22320522.280   119106606.73508  22320523.360    92638468.38806
  22416640.300   119998041.98308  22416639.840    93331818.16706
  21710472.860   115932714.58208  21710474.460    90169895.92405
  22511318.400   120293643.80408  22511321.840    93561729.56506
  19906193.100   106335313.53908  19906194.680    82705249.58108
  22318892.440   119432891.52607  22318892.900    92892247.51904
  20034052.980   106943140.25309  20034054.980    83178006.45708
  21991852.440   117641612.10809  21991851.420    91499004.77507
 15 02 25 00 31 30.0000000  0 15G16G18G21G22G27G29G31R02R03R09R15R16
                                R17R18R19
  21158433.380   111188316.49709  21158429.480    86640227.84848
  22205470.700   116690585.91408  22205467.800    90927733.20447
  21564120.240   113320216.67006  21564116.380    88301458.78345
  23331810.800   122609558.74408  23331806.660    95539912.42647
  22402008.060   117723362.53508  22402007.760    91732494.38648
  24445687.820   128462926.72809  24445686.380   100100985.87346
  23781239.820   124971235.69708  23781238.640    97380165.29747
  22319585.520   119101608.44708  22319586.780    92634580.88206
  22398927.140   119903221.64408  22398926.400    93258069.09107
  21696117.880   115856058.16308  21696119.140    90110274.26604
  22535895.300   120424975.11708  22535898.740    93663876.04606
  19913201.120   106372749.83508  19913202.660    82734366.67908
  22333290.640   119509938.69207  22333290.640    92952173.10004
  20037709.600   106962660.05409  20037711.260    83193188.53208
  21980383.240   117580259.15908  21980381.480    91451285.86707
 15 02 25 00 32  0.0000000  0 15G16G18G21G22G27G29G31R02R03R09R15R16
                                R17R18R19
  21147689.560   111131860.62109  21147686.020    86596236.24848
  22196037.940   116641019.00508  22196035.540    90889109.61547
  21573198.220   113367919.54106  21573194.360    88338629.85546
  23314104.740   122516511.51709  23314100.440    95467408.16347
  22390111.840   117660847.92908  22390111.420    91683781.69848
  24460245.700   128539428.45409  24460243.940   100160597.56946
  23799628.200   125067868.27408  23799626.340    97455463.32946
  22318788.280   119097354.69408  22318789.940    92631272.42806
  22381280.620   119808757.92708  22381280.320    93184597.28607
  21681883.060   115780042.75708  21681883.400    90051151.15104
  22560505.620   120556484.01908  22560509.040    93766160.63706
  19920361.300   106410997.98609  19920362.700    82764115.21308
  22347690.780   119586997.37908  22347691.280    93012107.60905
  20041407.620   106982400.97609  20041409.320    83208542.56908
  21968952.020   117519109.92908  21968949.500    91403725.38706
 15 02 25 00 32 30.0000000  0 15G16G18G21G22G27G29G31R02R03R09R15R16
                                R17R18R19
  21137016.980   111075777.31109  21137013.880    86552534.97448
  22186677.400   116591831.33209  22186675.380    90850781.54347
  21582327.860   113415892.20807  21582323.720    88376011.17245
  23296418.700   122423569.29409  23296413.840    95394985.72346
  22378237.000   117598444.91909  22378236.460    91635156.01048
  24474809.420   128615960.46009  24474807.640   100220232.87846
  23818026.600   125164552.91308  23818023.980    97530801.90046
  22318130.240   119093843.09608  22318131.880    92628541.22305
  22363700.940   119714652.54708  22363701.080    93111404.23607
  21667768.160   115704668.62808  21667767.560    89992526.81404
  22585147.900   120688163.36908  22585151.680    93868577.81607
  19927672.380   106450052.71908  19927674.020    82794491.12308
