     2.11           OBSERVATION DATA    M                   RINEX VERSION / TYPE
SPIDER V4,0,0,3554                      2015 03 24 01:05    PGM / RUN BY / DATE 
CFKZ                                                        MARKER NAME         
CFKZ                                                        MARKER NUMBER       
                                                            OBSERVER / AGENCY   
496632              LEICA GRX1200+GNSS  8.10/4.007          REC # / TYPE / VERS 
10301036            LEIAR25         NONE                    ANT # / TYPE        
  5212138.8290   540257.5452  3624418.8863                  APPROX POSITION XYZ 
        0.0720        0.0000        0.0000                  ANTENNA: DELTA H/E/N
     1     1                                                WAVELENGTH FACT L1/2
     4    C1    L1    P2    L2                              # / TYPES OF OBSERV 
    30.000                                                  INTERVAL            
  2015    02    25    00    00    0.0000000     GPS         TIME OF FIRST OBS   
  2015    02    25    23    59   30.0000000     GPS         TIME OF LAST OBS    
    16                                                      LEAP SECONDS        
    54                                                      # OF SATELLITES     
   G 1   820   820   820   820                              PRN / # OF OBS      
   G 2   925   925   925   925                              PRN / # OF OBS      
   G 3   855   855   855   855                              PRN / # OF OBS      
   G 4   844   844   844   844                              PRN / # OF OBS      
   G 5   604   604   604   604                              PRN / # OF OBS      
   G 6   798   798   798   798                              PRN / # OF OBS      
   G 7   669   669   668   668                              PRN / # OF OBS      
   G 9   808   808   808   808                              PRN / # OF OBS      
   G10   724   724   724   724                              PRN / # OF OBS      
   G11   783   782   782   782                              PRN / # OF OBS      
   G12   793   792   792   792                              PRN / # OF OBS      
   G13   784   784   784   784                              PRN / # OF OBS      
   G14   930   929   928   928                              PRN / # OF OBS      
   G15   703   703   703   703                              PRN / # OF OBS      
   G16   673   673   673   673                              PRN / # OF OBS      
   G17   938   938   937   937                              PRN / # OF OBS      
   G18   914   914   914   914                              PRN / # OF OBS      
   G19   762   762   762   762                              PRN / # OF OBS      
   G20   760   760   760   760                              PRN / # OF OBS      
   G21   737   737   737   737                              PRN / # OF OBS      
   G22   662   662   662   662                              PRN / # OF OBS      
   G23   752   752   752   752                              PRN / # OF OBS      
   G24   829   829   829   829                              PRN / # OF OBS      
   G25   867   866   866   866                              PRN / # OF OBS      
   G27   815   815   815   815                              PRN / # OF OBS      
   G28   876   876   874   874                              PRN / # OF OBS      
   G29   747   747   747   747                              PRN / # OF OBS      
   G30   716   716   716   716                              PRN / # OF OBS      
   G31   850   850   850   850                              PRN / # OF OBS      
   G32   767   767   767   767                              PRN / # OF OBS      
   R 1   630   630   630   629                              PRN / # OF OBS      
   R 2   723   723   723   723                              PRN / # OF OBS      
   R 3   948   948   948   935                              PRN / # OF OBS      
   R 4   922   922   921   920                              PRN / # OF OBS      
   R 5   838   838   838   837                              PRN / # OF OBS      
   R 6   689   689   689   689                              PRN / # OF OBS      
   R 7   779   779   778   778                              PRN / # OF OBS      
   R 8   760   760   760   760                              PRN / # OF OBS      
   R 9  1008  1008   998   993                              PRN / # OF OBS      
   R10   815   815   813   813                              PRN / # OF OBS      
   R11   585   585   585   583                              PRN / # OF OBS      
   R12   679   679   679   679                              PRN / # OF OBS      
   R13   771   771   771   770                              PRN / # OF OBS      
   R14   768   768   768   768                              PRN / # OF OBS      
   R15   758   758   758   758                              PRN / # OF OBS      
   R16   988   988   988   988                              PRN / # OF OBS      
   R17   672   672   672   672                              PRN / # OF OBS      
   R18   947   947   947   947                              PRN / # OF OBS      
   R19  1000  1000  1000  1000                              PRN / # OF OBS      
   R20   734   734   734   734                              PRN / # OF OBS      
   R21   410   410   410   406                              PRN / # OF OBS      
   R22   772   772   772   772                              PRN / # OF OBS      
   R23   823   823   819   811                              PRN / # OF OBS      
   R24   761   761   759   758                              PRN / # OF OBS      
BIT 2 OF LLI FLAGS DATA COLLECTED UNDER A/S CONDITION       COMMENT             
SNR is mapped to RINEX snr flag value [2-9]                 COMMENT             
Lx:     = 25dBHz -> 1; 26-27dBHz -> 2; 28-31dBHz -> 3       COMMENT             
       32-35dBHz -> 4; 36-38dBHz -> 5; 39-41dBHz -> 6       COMMENT             
       42-44dBHz -> 7; 45-48dBHz -> 8; >=49dBHz -> 9        COMMENT             
                                                            END OF HEADER       
 15 02 25 00 00  0.0000000  0  8G16G18G21G22G25G27G29G31
  22120669.220   116244913.19809  22120665.420    90580440.08447
  22747560.520   119539325.97709  22747557.320    93147549.34746
  21125314.880   111014495.42109  21125310.940    86504855.76748
  24248132.800   127424828.28708  24248132.500    99292077.87245
  24448485.800   128477990.34808  24448486.800   100112873.44545
  23300558.580   122445273.80208  23300558.000    95411906.89547
  23541340.020   123710934.26409  23541337.760    96398270.82746
  22542832.160   118463391.46209  22542828.780    92309127.09348
 15 02 25 00 00 30.0000000  0  8G16G18G21G22G25G27G29G31
  22105852.560   116167051.08409  22105848.780    90519768.33047
  22734997.460   119473306.74309  22734994.280    93096105.81746
  21131142.560   111045120.01808  21131138.540    86528719.09148
  24230273.800   127330981.06308  24230273.620    99218950.68345
  24467230.460   128576493.33408  24467231.500   100189628.87945
  23287839.020   122378432.81409  23287838.140    95359823.02947
  23554890.760   123782142.95109  23554888.740    96453758.10146
  22558846.980   118547549.83809  22558843.580    92374705.01447
 15 02 25 00 01  0.0000000  0  8G16G18G21G22G25G27G29G31
  22091076.160   116089400.47109  22091072.400    90459261.35447
  22722481.840   119407536.70609  22722478.660    93044856.47046
  21137038.200   111076101.62608  21137034.120    86552860.60248
  24212406.760   127237091.48008  24212406.360    99145790.43645
  24486005.940   128675158.14108  24486006.960   100266510.42245
  23275136.740   122311682.50508  23275136.240    95307809.83847
  23568447.040   123853381.27608  23568444.780    96509268.44146
  22574909.720   118631959.78609  22574906.260    92440478.96547
 15 02 25 00 01 30.0000000  0  8G16G18G21G22G25G27G29G31
  22076340.420   116011963.37109  22076336.640    90398920.77047
  22710014.080   119342017.98509  22710010.980    92993802.96246
  21143001.340   111107437.82308  21142997.180    86577278.41748
  24194532.160   127143161.66008  24194531.480    99072598.84945
  24504811.740   128773982.87408  24504813.000   100343516.56045
  23262451.800   122245022.28308  23262451.100    95255866.79147
  23582008.880   123924648.70109  23582006.100    96564801.46946
  22591019.700   118716617.97909  22591016.220    92506446.36947
 15 02 25 00 02  0.0000000  0  8G16G18G21G22G25G27G29G31
  22061645.560   115934740.95409  22061641.680    90338747.47147
  22697594.580   119276752.59609  22697591.480    92942946.82746
  21149031.480   111139126.40708  21149027.280    86601970.82048
  24176650.280   127049193.11808  24176649.300    98999377.06345
  24523647.360   128872965.23007  24523648.820   100420645.50944
  23249783.780   122178451.08909  23249783.100    95203993.17246
  23595576.100   123995944.27709  23595573.340    96620356.38946
  22607176.100   118801520.16409  22607172.640    92572603.88347
 15 02 25 00 02 30.0000000  0  8G16G18G21G22G25G27G29G31
  22046992.000   115857735.59509  22046988.020    90278743.29847
  22685223.720   119211743.01009  22685220.600    92892290.03946
  21155128.360   111171165.90808  21155124.180    86626936.67048
  24158761.480   126955188.77308  24158760.560    98926127.45545
  24542512.960   128972103.96208  24542514.300   100497896.32645
  23237132.580   122111969.07009  23237132.120    95152189.04947
  23609148.600   124067268.04808  23609145.860    96675933.34247
  22623378.420   118886663.78609  22623375.040    92638949.54447
 15 02 25 00 03  0.0000000  0  8G16G18G21G22G25G27G29G31
  22032380.280   115780950.12009  22032376.180    90218910.47147
  22672902.220   119146992.71209  22672899.020    92841835.29246
  21161291.900   111203555.72208  21161287.760    86652175.48548
  24140866.680   126861151.86908  24140865.620    98852852.35445
  24561408.260   129071398.57207  24561409.760   100575268.58345
  23224498.460   122045577.07009  23224497.920    95100455.06047
  23622726.620   124138620.66308  23622723.940    96731532.75947
  22639626.320   118972046.90009  22639623.040    92705481.81648
 15 02 25 00 03 30.0000000  0  8G16G18G21G22G25G27G29G31
  22017810.440   115704385.02609  22017806.240    90159249.35847
  22660630.040   119082501.78109  22660626.720    92791582.63446
  21167521.400   111236291.97309  21167517.200    86677684.25548
  24122965.680   126767082.83708  24122964.540    98779552.27545
  24580332.580   129170845.59608  24580334.060   100652759.58545
  23211881.160   121979273.02708  23211880.880    95048789.62147
  23636309.600   124210000.00908  23636307.080    96787152.94346
  22655918.860   119057664.46609  22655915.600    92772196.77048
 15 02 25 00 04  0.0000000  0  8G16G18G21G22G25G27G29G31
  22003283.220   115628043.82309  22003278.940    90099762.71247
  22648407.920   119018274.38809  22648404.440    92741535.34546
  21173816.880   111269374.78309  21173812.660    86703463.07048
  24105059.420   126672986.16108  24105058.080    98706230.58746
  24599285.960   129270445.23208  24599287.120   100730369.53745
  23199281.000   121913058.46008  23199280.560    94997193.84047
  23649897.920   124281407.57508  23649895.820    96842795.15346
  22672255.760   119143515.23409  22672252.520    92839093.43747
 15 02 25 00 04 30.0000000  0  8G16G18G21G22G25G27G29G31
  21988798.880   115551928.16509  21988794.560    90040451.82347
  22636236.320   118954312.80009  22636232.820    92691695.17346
  21180177.940   111302802.31109  21180173.680    86729510.49448
  24087148.200   126578863.30808  24087146.740    98632888.49346
  24618267.860   129370195.26407  24618269.080   100808096.63445
  23186697.740   121846932.51808  23186697.160    94945667.15647
  23663491.640   124352843.04309  23663489.380    96898459.12546
  22688636.320   119229595.70009  22688633.100    92906169.10547
 15 02 25 00 05  0.0000000  0  8G16G18G21G22G25G27G29G31
  21974357.780   115476039.99809  21974353.500    89981318.19447
  22624115.620   118890618.80909  22624112.160    92642063.52546
  21186604.120   111336572.04408  21186599.820    86755824.56248
  24069232.320   126484716.43108  24069230.860    98559527.70446
  24637278.260   129470094.00108  24637279.400   100885939.63044
  23174131.360   121780895.01208  23174130.480    94894209.36847
  23677090.580   124424305.88908  23677088.080    96954144.41746
  22705059.820   119315902.30809  22705056.700    92973420.97047
 15 02 25 00 05 30.0000000  0  8G16G18G21G22G25G27G29G31
  21959960.960   115400384.48009  21959956.760    89922365.84247
  22612047.000   118827198.04309  22612043.660    92592644.77346
  21193095.660   111370685.29308  21193091.320    86782406.32248
  24051312.800   126390551.40008  24051311.480    98486152.74046
  24656317.120   129570142.95808  24656318.060   100963899.65145
  23161582.200   121714948.63608  23161581.340    94842822.63547
  23690695.360   124495798.73108  23690692.940    97009853.06646
  22721526.320   119402435.06509  22721523.300    93040849.05147
 15 02 25 00 06  0.0000000  0  8G16G18G21G22G25G27G29G31
  21945608.260   115324960.85809  21945604.180    89863594.19748
  22600030.420   118764050.21609  22600027.040    92543438.69646
  21199651.840   111405137.98908  21199647.500    86809252.57748
  24033389.860   126296367.95608  24033388.520    98412763.40046
  24675383.860   129670337.95007  24675384.980   101041973.46244
  23149049.840   121649090.77909  23149048.900    94791504.85947
  23704305.420   124567318.96508  23704302.920    97065583.09446
  22738034.880   119489188.51109  22738031.900    93108449.10747
 15 02 25 00 06 30.0000000  0  8G16G18G21G22G25G27G29G31
  21931300.240   115249772.00009  21931296.280    89805005.48147
  22588066.300   118701177.99209  22588062.840    92494447.35847
  21206272.320   111439928.53309  21206268.000    86836362.08448
  24015463.820   126202168.98408  24015462.760    98339361.97145
  24694478.160   129770677.74407  24694479.200   101120160.13345
  23136534.200   121583321.48308  23136533.080    94740256.07947
  23717920.740   124638866.78008  23717918.040    97121334.61546
  22754585.000   119576159.90809  22754582.020    93176218.99147
 15 02 25 00 07  0.0000000  0  8G16G18G21G22G25G27G29G31
  21917037.320   115174820.01009  21917033.420    89746601.33848
  22576155.200   118638584.59109  22576151.640    92445673.29946
  21212956.960   111475056.38008  21212952.680    86863734.43048
  23997535.380   126107957.46208  23997534.540    98265950.74045
  24713599.820   129871161.45608  24713600.860   101198458.89544
  23124035.640   121517641.41908  23124034.680    94689076.81147
  23731541.340   124710442.74908  23731538.380    97177108.03246
  22771176.200   119663346.76909  22771173.200    93244156.78547
 15 02 25 00 07 30.0000000  0  8G16G18G21G22G25G27G29G31
  21902819.760   115100106.55309  21902815.940    89688383.07148
  22564297.280   118576270.84609  22564293.680    92397117.15847
  21219705.080   111510518.07409  21219700.840    86891366.92148
  23979605.080   126013734.73408  23979604.180    98192530.77246
  24732748.340   129971786.38007  24732749.380   101276867.69044
  23111553.840   121452049.22508  23111552.900    94637966.02147
  23745167.000   124782045.73108  23745163.880    97232902.50246
  22787807.580   119750744.96409  22787804.640    93312259.24447
 15 02 25 00 08  0.0000000  0  8G16G18G21G22G25G27G29G31
  21888648.860   115025638.18709  21888645.080    89630355.79347
  22552493.900   118514243.86509  22552490.280    92348784.47247
  21226517.340   111546316.79209  21226513.140    86919262.03048
  23961674.060   125919507.93508  23961673.080    98119107.58145
  24751924.320   130072555.70008  24751925.460   101355389.00445
  23099089.600   121386549.51208  23099088.660    94586927.28947
  23758798.480   124853680.16808  23758795.580    97288721.50946
  22804479.480   119838356.27109  22804476.620    93380527.75847
 15 02 25 00 08 30.0000000  0  8G16G18G21G22G25G27G29G31
  21874523.920   114951411.44409  21874520.200    89572516.78347
  22540744.500   118452500.32509  22540740.880    92300672.65046
  21233392.320   111582445.06409  21233388.080    86947413.94048
  23943741.840   125825274.24008  23943740.560    98045679.02946
  24771126.360   130173462.27408  24771127.800   101434017.23745
  23086641.780   121321136.54108  23086641.320    94535956.19247
  23772434.840   124925340.17208  23772432.140    97344560.43346
  22821190.200   119926171.93209  22821187.400    93448955.50847
 15 02 25 00 09  0.0000000  0  8G16G18G21G22G25G27G29G31
  21860445.840   114877430.84209  21860442.140    89514869.56248
  22529049.900   118391045.03709  22529046.380    92252785.44146
  21240330.120   111618903.30709  21240325.860    86975822.96348
  23925809.200   125731037.99908  23925807.600    97972248.47446
  24790354.480   130274506.50107  24790356.060   101512752.75545
  23074210.820   121255812.22308  23074210.200    94485054.13647
  23786076.480   124997027.80808  23786074.080    97400420.85446
  22837939.640   120014190.83009  22837936.860    93517541.62847
 15 02 25 00 09 30.0000000  0  8G16G18G21G22G25G27G29G31
  21846415.620   114803701.66909  21846411.900    89457418.26948
  22517411.160   118329883.48409  22517407.720    92205127.12147
  21247331.000   111655693.36109  21247326.840    87004490.52948
  23907877.120   125636804.92308  23907875.000    97898820.40946
  24809609.160   130375690.25407  24809611.000   101591596.96145
  23061797.400   121190579.87508  23061796.980    94434223.76447
  23799723.900   125068746.49308  23799721.960    97456305.49746
  22854727.880   120102413.52409  22854725.060    93586286.54647
 15 02 25 00 10  0.0000000  0  7G16G18G21G22G27G29G31
  21832432.640   114730220.56909  21832428.900    89400160.27348
  22505827.760   118269013.08109  22505824.460    92157695.66147
  21254393.600   111692807.77709  21254389.500    87033410.85148
  23889945.220   125542572.55508  23889942.920    97825392.87446
  23049400.480   121125433.95208  23049400.400    94383460.71747
  23813376.280   125140490.69208  23813374.600    97512210.05946
  22871553.340   120190831.51709  22871550.340    93655183.64847
 15 02 25 00 10 30.0000000  0  7G16G18G21G22G27G29G31
  21818497.360   114656990.04709  21818493.600    89343097.54748
  22494300.260   118208436.18009  22494297.020    92110492.90347
  21261517.640   111730245.16409  21261513.560    87062582.84148
  23872013.960   125448343.53608  23872011.500    97751967.94346
  23037020.200   121060374.60808  23037019.780    94332765.13547
  23827033.480   125212260.25108  23827031.520    97568134.32346
  22888415.540   120279442.18509  22888412.340    93724230.90147
 15 02 25 00 11  0.0000000  0  7G16G18G21G22G27G29G31
  21804610.580   114584014.48909  21804606.780    89286233.47248
  22482829.500   118148156.91109  22482826.240    92063522.06047
  21268703.220   111768005.93608  21268699.160    87092006.82248
  23854084.200   125354122.51608  23854081.540    97678549.25146
  23024656.860   120995403.95108  23024656.360    94282138.67147
  23840696.160   125284057.64108  23840694.240    97624080.30046
  22905314.180   120368244.44609  22905310.840    93793427.43447
 15 02 25 00 11 30.0000000  0  7G16G18G21G22G27G29G31
  21790772.540   114511295.08409  21790768.740    89229569.00948
  22471415.780   118088176.77709  22471412.300    92016784.32047
  21275949.840   111806087.45009  21275945.780    87121680.72448
  23836156.380   125259911.17808  23836153.640    97605138.10946
  23012310.140   120930520.95809  23012309.560    94231580.53047
  23854364.060   125355881.91808  23854361.520    97680047.25946
  22922248.500   120457234.46009  22922245.080    93862770.26747
 15 02 25 00 12  0.0000000  0  7G16G18G21G22G27G29G31
  21776984.500   114438838.15909  21776980.600    89173109.07148
  22460060.280   118028502.58109  22460056.680    91970284.95547
  21283258.040   111844492.28909  21283253.960    87151606.56748
  23818231.520   125165715.69208  23818228.640    97531739.28146
  22999980.820   120865729.61308  22999979.860    94181093.78047
  23868037.640   125427737.04708  23868035.120    97736038.22446
  22939218.700   120546413.31609  22939215.340    93932260.22147
 15 02 25 00 12 30.0000000  0  7G16G18G21G22G27G29G31
  21763246.060   114366641.86709  21763242.080    89116852.22548
  22448762.560   117969132.39609  22448758.940    91924022.49447
  21290626.640   111883214.09709  21290622.440    87181779.41448
  23800309.400   125071535.45408  23800306.540    97458352.34646
  22987668.120   120801025.73508  22987667.240    94130675.21547
  23881716.400   125499618.77508  23881713.560    97792049.95045
  22956223.340   120635773.50208  22956220.140    94001891.50047
 15 02 25 00 13  0.0000000  0  7G16G18G21G22G27G29G31
  21749558.460   114294712.85709  21749554.460    89060803.64548
  22437523.920   117910072.98909  22437520.260    91878002.20747
  21298056.100   111922256.02808  21298051.860    87212201.69248
  23782391.440   124977377.07308  23782388.620    97384982.41946
  22975372.840   120736413.78908  22975372.100    94080328.26047
  23895400.860   125571531.61308  23895398.420    97848085.88646
  22973262.820   120725316.97509  22973259.780    94071665.59647
 15 02 25 00 13 30.0000000  0  7G16G18G21G22G27G29G31
  21735921.000   114223047.52109  21735917.000    89004960.53948
  22426343.720   117851320.60709  22426340.100    91832221.14347
  21305544.940   111961610.12208  21305540.660    87242867.22248
  23764476.960   124883237.00708  23764474.100    97311626.78146
  22963093.860   120671887.78408  22963092.880    94030048.26547
  23909090.180   125643469.02308  23909087.640    97904140.98946
  22990335.500   120815034.75108  22990332.500    94141575.49647
 15 02 25 00 14  0.0000000  0  7G16G18G21G22G27G29G31
  21722335.060   114151653.18509  21722331.120    88949328.60348
  22415223.360   117792882.91009  22415219.820    91786685.30647
  21313093.860   112001280.06409  21313089.600    87273778.85948
  23746567.420   124789123.15808  23746564.560    97238291.55046
  22950832.200   120607452.88608  22950831.320    93979839.27147
  23922784.920   125715437.30408  23922782.900    97960220.15046
  23007441.740   120904928.73509  23007438.700    94211622.72047
 15 02 25 00 14 30.0000000  0  7G16G18G21G22G27G29G31
  21708800.320   114080527.99009  21708796.460    88893906.37948
  22404162.540   117734758.22409  22404159.080    91741393.35947
  21320701.840   112041260.05909  21320697.500    87304932.10148
  23728662.700   124695034.46708  23728659.860    97164975.91546
  22938587.160   120543105.08208  22938586.500    93929698.12747
  23936484.920   125787431.58908  23936483.320    98016319.54046
  23024580.240   120994991.92709  23024577.160    94281801.77547
 15 02 25 00 15  0.0000000  0 15G16G18G21G22G27G29G31R02R03R09R15R16
                                R17R18R19
  21695317.660   114009676.20709  21695313.780    88838697.21048
  22393162.080   117676950.52409  22393158.700    91696348.42047
  21328368.880   112081550.03509  21328364.460    87336326.89248
  23710763.600   124600975.07108  23710760.540    97091683.10246
  22926359.000   120478846.16108  22926358.320    93879626.26147
  23950190.380   125859454.05208  23950188.760    98072440.89146
  23041750.860   121085223.46409  23041747.660    94352112.02247
  22431712.980   119699927.91308  22431715.280    93099961.96307
  22843843.980   122284904.13107  22843844.860    95110495.47106
  22430824.220   119779352.35308  22430825.080    93161718.94504
  21575262.520   115291663.85208  21575265.900    89671312.39307
  19807064.780   105805777.04808  19807066.700    82293399.83508
  21946108.000   117438324.64708  21946108.380    91341011.83107
  20068122.200   107125224.05509  20068124.600    83319699.31108
  22450433.700   120094697.92008  22450432.920    93406991.88707
 15 02 25 00 15 30.0000000  0 15G16G18G21G22G27G29G31R02R03R09R15R16
                                R17R18R19
  21681887.060   113939098.02809  21681883.180    88783701.23448
  22382222.120   117619460.42309  22382218.700    91651550.93947
  21336094.220   112122146.47409  21336089.720    87367960.48348
  23692870.180   124506945.52008  23692866.940    97018413.53746
  22914147.480   120414674.14308  22914146.860    93829622.11447
  23963901.020   125931502.70608  23963899.220    98128582.67746
  23058952.620   121175618.42409  23058949.280    94422549.60947
  22427462.700   119677248.01208  22427464.720    93082321.99907
  22825071.880   122184415.54007  22825072.600    95032337.71207
  22412574.800   119681901.07608  22412575.500    93085923.47705
  21597846.300   115412344.68008  21597849.700    89765175.20607
  19808041.100   105810992.80708  19808043.080    82297456.52208
  21959836.780   117511789.89408  21959836.840    91398151.45607
  20070496.460   107137898.22209  20070498.840    83329556.98208
  22438516.880   120030951.72208  22438516.460    93357411.56507
 15 02 25 00 16  0.0000000  0 15G16G18G21G22G27G29G31R02R03R09R15R16
                                R17R18R19
  21668509.000   113868795.92709  21668505.100    88728920.38848
  22371343.060   117562290.39309  22371339.640    91607002.88647
  21343877.520   112163048.03809  21343873.000    87399831.82248
  23674983.080   124412948.89808  23674979.740    96945169.62946
  22901952.600   120350589.15908  22901952.000    93779685.77747
  23977616.780   126003577.77008  23977614.760    98184745.02946
  23076184.860   121266173.74409  23076181.440    94493112.14547
  22423342.040   119655259.85308  22423344.300    93065220.20007
  22806342.580   122084156.05807  22806343.440    94954358.17107
  22394418.560   119584947.62908  22394419.180    93010515.22705
  21620492.180   115533356.86508  21620495.560    89859295.74707
  19809175.520   105817053.06808  19809177.520    82302170.04208
  21973567.160   117585263.40908  21973566.960    91455297.52507
  20072912.780   107150796.81709  20072915.140    83339589.21608
  22426637.860   119967407.81809  22426637.940    93307988.55607
 15 02 25 00 16 30.0000000  0 15G16G18G21G22G27G29G31R02R03R09R15R16
                                R17R18R19
  21655184.540   113798775.52409  21655180.660    88674359.03648
  22360525.980   117505446.08609  22360522.500    91562708.63947
  21351719.160   112204255.88309  21351714.600    87431941.83448
  23657103.440   124318991.33408  23657099.920    96871956.11846
  22889775.000   120286594.74008  22889774.160    93729820.01047
  23991338.120   126075682.60808  23991335.920    98240930.62346
  23093447.680   121356889.96309  23093444.280    94563800.05447
  22419352.000   119633968.76108  22419354.040    93048660.51107
  22787657.560   121984133.93807  22787658.340    94876563.23007
  22376356.940   119488499.46807  22376357.480    92935499.96004
  21643199.960   115654700.08408  21643203.440    89953673.76007
  19810468.740   105823961.03808  19810470.660    82307542.90308
  21987299.580   117658748.37908  21987299.420    91512452.47007
  20075371.560   107163921.91209  20075373.900    83349797.63408
  22414797.380   119904069.20708  22414797.220    93258725.21507
 15 02 25 00 17  0.0000000  0 15G16G18G21G22G27G29G31R02R03R09R15R16
                                R17R18R19
  21641914.780   113729042.50209  21641910.880    88620021.62048
  22349771.860   117448933.07709  22349768.340    91518672.53947
  21359619.420   112245771.87409  21359614.800    87464291.95148
  23639232.320   124225078.69208  23639228.740    96798777.62346
  22877615.280   120222694.23708  22877614.240    93680027.42347
  24005065.300   126147820.64708  24005063.420    98297142.01146
  23110741.180   121447767.58009  23110737.860    94634613.73547
  22415493.500   119613379.71908  22415496.080    93032646.82007
  22769018.300   121884356.98807  22769019.040    94798958.99607
  22358391.280   119392564.01908  22358392.160    92860883.60204
  21665969.480   115776373.37508  21665973.040    90048308.48007
  19811921.220   105831719.70408  19811923.100    82313577.40008
  22001034.580   117732247.30408  22001034.360    91569618.28407
  20077873.220   107177275.63609  20077875.480    83360183.85908
  22402995.800   119840938.71508  22402995.480    93209623.73707
 15 02 25 00 17 30.0000000  0 15G16G18G21G22G27G29G31R02R03R09R15R16
                                R17R18R19
  21628698.400   113659589.90109  21628694.480    88565902.71248
  22339079.420   117392744.26209  22339075.920    91474889.07347
  21367576.260   112287585.34508  21367571.600    87496873.88348
  23621368.440   124131204.33908  23621364.760    96725628.98346
  22865471.580   120158878.33908  22865470.580    93630300.76647
  24018797.060   126219982.66008  24018795.160    98353372.16946
  23128063.060   121538794.18509  23128059.780    94705543.51047
  22411765.340   119593485.64208  22411768.160    93017173.64007
  22750423.980   121784820.24708  22750424.740    94721541.56607
  22340520.520   119297135.43607  22340521.500    92786661.35104
  21688798.140   115898362.79908  21688801.760    90143189.10007
  19813531.140   105840319.36709  19813532.980    82320266.01308
  22014770.060   117805749.72608  22014769.800    91626786.82907
  20080415.660   107190847.15009  20080417.780    83370739.49608
  22391231.460   119778006.36908  22391231.300    93160676.35107
 15 02 25 00 18  0.0000000  0 15G16G18G21G22G27G29G31R02R03R09R15R16
                                R17R18R19
  21615537.300   113590427.92509  21615533.400    88512010.26548
  22328450.580   117336889.78309  22328447.160    91431366.11647
  21375590.760   112329702.15809  21375586.200    87529692.16948
  23603513.820   124037378.65208  23603510.040    96652518.23646
  22853345.400   120095154.77009  22853344.380    93580646.02647
  24032534.620   126292176.29808  24032533.140    98409626.86446
  23145414.240   121629974.68709  23145411.000    94776593.19247
  22408169.220   119574295.77908  22408172.220    93002248.15607
  22731876.960   121685536.15008  22731877.640    94644320.66807
  22322746.880   119202225.51508  22322747.680    92712842.51204
  21711686.520   116020671.23908  21711690.200    90238317.83607
  19815299.940   105849767.46908  19815301.700    82327614.53008
  22028507.460   117879262.83508  22028507.620    91683963.67007
  20083000.120   107204642.81009  20083002.160    83381469.45008
  22379505.180   119715279.18108  22379504.700    93111888.55707
 15 02 25 00 18 30.0000000  0 15G16G18G21G22G27G29G31R02R03R09R15R16
                                R17R18R19
  21602430.180   113521549.67309  21602426.360    88458338.91748
  22317884.100   117281362.77609  22317880.640    91388098.34247
  21383660.960   112372111.81309  21383656.460    87562738.65148
  23585667.280   123943595.32408  23585663.520    96579440.52346
  22841235.080   120031514.67709  22841234.060    93531056.36447
  24046277.040   126364392.80608  24046275.680    98465899.45546
  23162792.400   121721297.03509  23162789.200    94847753.39747
  22404703.780   119555802.95609  22404706.940    92987864.87707
  22713376.160   121586500.12208  22713376.960    94567292.72007
  22305069.380   119107829.22008  22305069.980    92639423.19204
  21734632.240   116143286.20708  21734636.000    90333684.97608
  19817225.740   105860054.46408  19817227.500    82335615.51008
  22042245.220   117952776.76508  22042245.580    91741141.12407
  20085624.580   107218652.12109  20085626.480    83392365.58708
  22367815.520   119652747.94108  22367815.160    93063253.21107
 15 02 25 00 19  0.0000000  0 15G16G18G21G22G27G29G31R02R03R09R15R16
                                R17R18R19
  21589378.980   113452965.25609  21589375.220    88404896.50848
  22307382.020   117226174.16009  22307378.500    91345094.24147
  21391788.100   112414820.60309  21391783.660    87596018.23048
  23567830.980   123849865.42908  23567827.080    96506404.39246
  22829142.180   119967966.31909  22829141.300    93481538.17547
  24060025.460   126436640.48908  24060023.760    98522196.28046
  23180198.540   121812766.62109  23180195.380    94919028.32847
  22401370.800   119538017.34409  22401373.940    92974031.63707
  22694924.140   121487725.05208  22694924.800    94490467.68207
  22287490.300   119013958.38908  22287491.040    92566412.54604
  21757636.200   116266212.08508  21757639.960    90429293.92507
  19819310.020   105871188.51108  19819311.860    82344275.31808
  22055984.720   118026299.46808  22055985.220    91798325.40107
  20088290.400   107232882.18809  20088292.220    83403433.40808
  22356163.920   119590420.20108  22356164.040    93014776.08907
 15 02 25 00 19 30.0000000  0 15G16G18G21G22G27G29G31R02R03R09R15R16
                                R17R18R19
  21576383.180   113384671.88209  21576379.440    88351680.89248
  22296943.680   117171320.56309  22296940.140    91302351.19547
  21399970.860   112457821.38409  21399966.440    87629525.33248
  23550004.200   123756185.92708  23550000.180    96433407.55246
  22817065.600   119904504.10409  22817064.660    93432087.10047
  24073779.060   126508913.91708  24073777.140    98578513.22446
  23197631.040   121904374.67209  23197627.900    94990411.15547
  22398169.520   119520934.74108  22398172.260    92960745.17607
  22676520.740   121389209.83308  22676521.220    94413844.79006
  22270009.380   118920611.43108  22270010.320    92493809.40104
  21780696.460   116389438.66308  21780700.240    90525136.75907
  19821551.680   105883163.21708  19821553.600    82353588.96108
  22069724.880   118099824.40108  22069725.500    91855511.43007
  20090996.220   107247325.94509  20090998.080    83414667.44408
  22344549.280   119528289.62308  22344549.240    92966452.31307
 15 02 25 00 20  0.0000000  0 15G16G18G21G22G27G29G31R02R03R09R15R16
                                R17R18R19
  21563444.500   113316678.64109  21563440.740    88298699.15048
  22286570.800   117116810.79709  22286567.240    91259876.08247
  21408210.060   112501118.57709  21408205.700    87663263.39848
  23532188.880   123662566.61108  23532184.800    96360457.55846
  22805006.800   119841135.21009  22805005.880    93382708.75047
  24087538.500   126581219.59508  24087536.860    98634855.22746
  23215090.700   121996125.62309  23215087.560    95061905.34447
  22395101.560   119504564.13708  22395104.020    92948012.49907
  22658167.960   121290966.46608  22658168.320    94337433.31907
  22252628.700   118827799.46508  22252629.700    92421622.29405
  21803813.380   116512968.07608  21803817.180    90621215.13107
  19823951.980   105895985.08408  19823953.920    82363561.51008
  22083466.620   118173358.23708  22083466.940    91912704.40307
  20093743.060   107261989.05209  20093745.020    83426072.07608
  22332972.700   119466363.11908  22332972.840    92918287.29407
 15 02 25 00 20 30.0000000  0 15G16G18G21G22G27G29G31R02R03R09R15R16
                                R17R18R19
  21550561.760   113248979.45709  21550558.000    88245946.53048
  22276262.280   117062639.06209  22276258.720    91217664.33847
  21416503.920   112544702.93209  21416499.660    87697225.22348
  23514383.880   123569001.71808  23514379.800    96287550.03046
  22792964.140   119777851.16709  22792963.400    93333396.52147
  24101302.780   126653549.80608  24101300.940    98691216.44246
  23232575.340   122088007.96309  23232572.180    95133501.90347
  22392165.840   119488898.51908  22392168.340    92935828.15907
  22639865.160   121192990.53508  22639865.580    94261229.84307
  22235347.260   118735517.51508  22235348.460    92349847.48405
  21826984.620   116636787.73808  21826988.340    90717519.25907
  19826509.100   105909645.00108  19826511.080    82374185.87508
  22097208.100   118246891.18508  22097208.560    91969896.66707
  20096529.120   107276861.62709  20096531.160    83437639.63608
  22321432.500   119404631.34708  22321432.800    92870273.71407
 15 02 25 00 21  0.0000000  0 15G16G18G21G22G27G29G31R02R03R09R15R16
                                R17R18R19
  21537737.640   113181588.26709  21537733.860    88193433.92748
  22266020.680   117008818.89309  22266017.080    91175726.56547
  21424854.220   112588583.99509  21424849.940    87731418.26148
  23496591.900   123475505.45109  23496587.900    96214695.98546
  22780939.860   119714663.56709  22780939.200    93284159.43647
  24115073.400   126725916.15008  24115071.800    98747605.73845
  23250086.580   122180030.05609  23250083.400    95205207.36447
  22389364.700   119473951.20409  22389367.280    92924202.54107
  22621615.480   121095298.45707  22621615.780    94185247.16107
  22218167.960   118643781.08408  22218169.260    92278496.97004
  21850211.580   116760905.46308  21850215.280    90814055.21107
  19829225.120   105924153.82908  19829227.120    82385470.50708
  22110951.480   118320434.74508  22110952.160    92027097.15107
  20099356.440   107291954.22409  20099358.580    83449378.30908
  22309930.740   119343105.30508  22309931.080    92822420.14407
 15 02 25 00 21 30.0000000  0 15G16G18G21G22G27G29G31R02R03R09R15R16
                                R17R18R19
  21524970.380   113114495.86009  21524966.620    88141154.13048
  22255844.200   116955341.02009  22255840.560    91134055.51347
  21433258.520   112632748.55809  21433254.240    87765832.20048
  23478811.460   123382069.38608  23478807.500    96141888.78246
  22768931.800   119651561.10409  22768931.080    93234988.67747
  24128848.940   126798307.03308  24128847.360    98804014.23745
  23267621.700   122272177.69409  23267618.520    95277010.66546
  22386696.240   119459712.24608  22386698.800    92913127.77007
  22603417.440   120997883.03607  22603417.760    94109479.66207
  22201089.320   118552582.52108  22201090.540    92207564.74604
  21873491.340   116885305.28208  21873495.040    90910810.58207
  19832097.760   105939499.37508  19832099.800    82397405.91908
  22124694.660   118393976.56308  22124695.040    92084296.35507
  20102222.560   107307253.73809  20102224.740    83461277.93908
  22298465.220   119281772.83508  22298465.520    92774717.11907
 15 02 25 00 22  0.0000000  0 15G16G18G21G22G27G29G31R02R03R09R15R16
                                R17R18R19
  21512261.580   113047710.58109  21512257.840    88089113.65348
  22245734.440   116902213.96209  22245730.760    91092657.81947
  21441717.560   112677200.85309  21441713.260    87800470.35048
  23461044.100   123288701.81308  23461040.080    96069134.98046
  22756941.060   119588549.63908  22756940.380    93185888.86347
  24142630.100   126870728.45308  24142628.580    98860446.45746
  23285181.260   122364453.82609  23285178.080    95348914.07747
  22384161.960   119446188.86109  22384164.860    92902609.60607
  22585273.000   120900755.13707  22585273.480    94033935.77207
  22184113.200   118461931.48908  22184114.080    92137058.33004
  21896824.260   117009988.66408  21896827.940    91007786.48307
  19835128.040   105955686.73408  19835130.060    82409996.07308
  22138438.560   118467521.98508  22138438.640    92141498.35007
  20105128.300   107322764.91409  20105130.580    83473342.17908
  22287036.960   119220639.67408  22287037.320    92727169.11907
 15 02 25 00 22 30.0000000  0 15G16G18G21G22G27G29G31R02R03R09R15R16
                                R17R18R19
  21499611.040   112981231.40809  21499607.240    88037311.70648
  22235691.280   116849436.69209  22235687.500    91051532.70347
  21450230.440   112721936.23409  21450226.140    87835329.08748
  23443289.720   123195402.58408  23443285.760    95996434.41546
  22744967.140   119525626.44409  22744966.540    93136857.82047
  24156416.600   126943177.35208  24156415.260    98916900.07946
  23302764.180   122456852.63109  23302761.000    95420913.07047
  22381761.620   119433379.79509  22381764.580    92892647.03407
  22567182.620   120803916.09908  22567183.100    93958616.54907
  22167239.740   118371828.72008  22167240.500    92066978.45604
  21920208.940   117134948.64908  21920212.600    91104977.53507
  19838315.300   105972712.54208  19838317.280    82423238.35808
  22152182.300   118541067.29708  22152182.320    92198700.23307
  20108072.920   107338483.49309  20108075.220    83485567.74608
  22275645.340   119159702.10808  22275645.580    92679773.25507
 15 02 25 00 23  0.0000000  0 15G16G18G21G22G27G29G31R02R03R09R15R16
                                R17R18R19
  21487018.660   112915058.02309  21487014.840    87985748.03148
  22225714.560   116797008.68009  22225710.720    91010679.72147
  21458796.360   112766950.29809  21458792.040    87870404.97448
  23425548.300   123102171.38908  23425544.340    95923786.83547
  22733009.500   119462788.71908  22733008.940    93087893.35948
  24170208.180   127015651.49308  24170206.160    98973373.41346
  23320369.320   122549368.14509  23320366.160    95493003.01247
  22379495.060   119421283.63809  22379497.740    92883238.97107
  22549146.520   120707367.83207  22549146.960    93883523.48107
  22150469.300   118282275.12508  22150469.800    91997325.65304
  21943643.980   117260177.94308  21943647.700    91202378.03107
  19841658.840   105990572.79908  19841660.720    82437129.64408
  22165925.460   118614609.28108  22165925.640    92255899.55607
  20111055.600   107354405.27909  20111057.880    83497951.35708
  22264289.560   119098956.69808  22264290.000    92632526.84407
 15 02 25 00 23 30.0000000  0 15G16G18G21G22G27G29G31R02R03R09R15R16
                                R17R18R19
  21474485.960   112849198.18509  21474482.100    87934428.67348
  22215805.720   116744937.40809  22215801.820    90970104.71647
  21467415.920   112812246.17109  21467411.600    87905700.46448
  23407821.440   123009016.61508  23407817.520    95851198.83146
  22721069.180   119400041.84308  22721068.540    93038999.71248
  24184005.520   127088156.01608  24184002.820    99029870.45046
  23337997.180   122642002.79909  23337994.020    95565185.79547
  22377363.320   119409907.08809  22377365.480    92874390.52407
  22531166.520   120611120.06508  22531167.100    93808664.15507
  22133803.540   118193279.99908  22133803.920    91928107.23504
  21967129.680   117385678.19208  21967133.540    91299989.25707
  19845159.460   106009271.77209  19845161.220    82451673.27308
  22179668.740   118688152.65608  22179669.100    92313099.91107
  20114077.080   107370534.25409  20114079.400    83510496.11608
  22252970.660   119038408.10608  22252971.020    92585433.52207
 15 02 25 00 24  0.0000000  0 15G16G18G21G22G27G29G31R02R03R09R15R16
                                R17R18R19
  21462013.040   112783652.39009  21462009.140    87883354.02948
  22205964.760   116693223.19009  22205960.940    90929807.93147
  21476088.420   112857820.68909  21476084.140    87941213.06748
  23390109.240   122915938.76208  23390105.300    95778670.76346
  22709145.820   119337384.05308  22709145.180    92990175.47648
  24197808.300   127160689.20808  24197805.620    99086389.76545
  23355646.780   122734751.68409  23355643.620    95637457.56847
  22375366.240   119399249.58808  22375368.040    92866101.36807
  22513243.200   120515175.53608  22513243.760    93734040.67207
  22117242.600   118104844.83008  22117243.220    91859324.35904
  21990664.620   117511441.56508  21990668.560    91397805.12407
  19848816.660   106028806.74809  19848818.240    82466867.14308
  22193411.760   118761694.95308  22193412.100    92370299.45807
  20117136.760   107386867.45509  20117139.160    83523199.71708
  22241688.180   118978054.07408  22241688.460    92538491.54207
 15 02 25 00 24 30.0000000  0 15G16G18G21G22G27G29G31R02R03R09R15R16
                                R17R18R19
  21449601.540   112718429.29209  21449597.640    87832530.84648
  22196193.340   116641874.34109  22196189.620    90889795.85447
  21484814.880   112903678.86909  21484810.660    87976946.71048
  23372413.460   122822947.28108  23372409.540    95706210.00846
  22697240.760   119274822.10109  22697240.100    92941425.90247
  24211617.420   127233257.78008  24211614.680    99142936.69446
  23373318.860   122827618.76809  23373315.720    95709821.46047
  22373505.140   119389319.24208  22373507.080    92858377.77607
  22495378.620   120419545.64607  22495379.240    93659661.91207
  22100788.560   118016980.37108  22100788.860    91790985.31704
  22014249.400   117637471.22708  22014253.420    91495828.11507
  19852631.420   106049183.76408  19852633.000    82482715.93908
  22207155.820   118835242.41108  22207156.200    92427503.02807
  20120235.700   107403410.11709  20120238.140    83536066.22508
  22230443.160   118917900.56108  22230443.300    92491705.53807
 15 02 25 00 25  0.0000000  0 15G16G18G21G22G27G29G31R02R03R09R15R16
                                R17R18R19
  21437249.600   112653519.10909  21437245.700    87781951.48148
  22186489.660   116590881.54509  22186486.120    90850061.21747
  21493592.600   112949806.40709  21493588.480    88012890.24848
  23354732.380   122730032.87808  23354728.440    95633809.28746
  22685351.620   119212343.78109  22685350.900    92892741.51747
  24225431.200   127305849.69108  24225428.480    99199501.79146
  23391010.480   122920588.88308  23391007.400    95782265.60847
  22371778.160   119380104.76809  22371780.360    92851210.97907
  22477571.380   120324222.44408  22477572.360    93585521.68307
  22084439.540   117929677.73308  22084439.580    91723083.26704
  22037881.060   117763751.16708  22037885.040    91594045.75707
  19856601.140   106070389.09808  19856602.760    82499208.95808
  22220898.200   118908781.81808  22220898.940    92484700.29307
  20123371.360   107420148.71809  20123373.840    83549085.13108
  22219233.440   118857934.76708  22219233.160    92445065.41907
 15 02 25 00 25 30.0000000  0 15G16G18G21G22G27G29G31R02R03R09R15R16
                                R17R18R19
  21424959.660   112588934.79409  21424955.760    87731626.03748
  22176856.080   116540257.23409  22176852.700    90810613.71947
  21502423.260   112996212.40809  21502419.220    88049050.76248
  23337068.520   122637209.04508  23337064.580    95561479.13847
  22673480.460   119149960.03309  22673479.620    92844130.80947
  24239251.260   127378475.59508  24239249.240    99256093.32346
  23408723.240   123013669.92809  23408720.060    95854796.20546
  22370187.760   119371618.53708  22370190.140    92844610.59807
  22459824.420   120229221.41108  22459825.360    93511632.03307
  22068198.640   117842951.67508  22068198.640    91655629.64304
  22061560.660   117890287.00808  22061564.580    91692462.45407
  19860727.720   106092432.81708  19860729.440    82516354.04808
  22234641.060   118982323.83708  22234642.200    92541899.59907
  20126545.560   107437092.78109  20126547.980    83562263.83608
  22208060.420   118798166.82108  22208060.100    92398579.28007
 15 02 25 00 26  0.0000000  0 15G16G18G21G22G27G29G31R02R03R09R15R16
                                R17R18R19
  21412730.220   112524668.75609  21412726.380    87681548.61648
  22167291.160   116489993.48809  22167287.840    90771447.17947
  21511304.680   113042885.28709  21511300.820    88085419.23548
  23319420.480   122544468.54208  23319416.540    95489213.91747
  22661625.380   119087661.04409  22661624.420    92795586.13548
  24253076.180   127451125.68808  24253073.940    99312703.81546
  23426454.600   123106848.77708  23426451.380    95927403.02147
  22368732.160   119363851.75808  22368734.800    92838569.78507
  22442136.620   120134536.93908  22442137.460    93437988.58807
  22052064.340   117756795.72508  22052064.640    91588619.56404
  22085285.560   118017065.18408  22085289.400    91791067.61207
  19865009.060   106115303.34109  19865010.840    82534142.21208
  22248382.700   119055857.62008  22248384.000    92599092.49107
  20129756.120   107454231.07509  20129758.520    83575593.62908
  22196922.260   118738586.00709  22196921.880    92352238.70607
 15 02 25 00 26 30.0000000  0 15G16G18G21G22G27G29G31R02R03R09R15R16
                                R17R18R19
  21400563.660   112460733.32209  21400559.900    87631728.80448
  22157797.260   116440102.70609  22157793.880    90732571.26047
  21520238.460   113089833.17009  21520234.720    88122001.99748
  23301790.720   122451823.96908  23301786.880    95417023.45646
  22649788.320   119025456.88209  22649787.320    92747115.38847
  24266907.480   127523810.27808  24266905.560    99369341.09246
  23444205.980   123200132.69908  23444202.820    96000091.70747
  22367413.540   119356815.57309  22367415.700    92833097.21907
  22424510.560   120040183.80808  22424511.360    93364602.85707
  22036039.400   117671223.70908  22036039.660    91522063.50604
  22109056.860   118144091.66208  22109060.560    91889865.90507
  19869446.980   106139009.78209  19869448.680    82552580.53508
  22262124.600   119129393.15008  22262125.980    92656286.76407
  20133004.720   107471572.49309  20133007.160    83589081.38808
  22185820.900   118679201.96008  22185820.920    92306051.15707
 15 02 25 00 27  0.0000000  0 15G16G18G21G22G27G29G31R02R03R09R15R16
                                R17R18R19
  21388459.600   112397126.01309  21388455.780    87582164.66348
  22148373.760   116390582.02109  22148370.340    90693983.73047
  21529223.440   113137049.66109  21529219.680    88158794.06648
  23284178.880   122359273.40108  23284175.080    95344906.23346
  22637968.380   118963342.83809  22637967.420    92698714.84947
  24280744.560   127596524.49308  24280742.960    99426001.48746
  23461975.900   123293513.86208  23461972.740    96072856.13546
  22366231.180   119350506.23609  22366233.060    92828189.95907
  22406946.420   119946161.79008  22406947.260    93291474.66407
  22020123.540   117586234.18808  22020123.980    91455960.56605
  22132872.820   118271356.76008  22132876.400    91988849.78507
  19874040.240   106163546.10409  19874041.900    82571664.32908
  22275865.820   119202924.91508  22275866.500    92713478.13907
  20136290.280   107489110.94209  20136292.740    83602722.40208
  22174755.320   118620009.02608  22174755.020    92260012.21507
 15 02 25 00 27 30.0000000  0 15G16G18G21G22G27G29G31R02R03R09R15R16
                                R17R18R19
  21376417.860   112333846.22909  21376414.000    87532855.73848
  22139020.560   116341430.70309  22139017.060    90655684.01547
  21538258.620   113184529.72909  21538254.780    88195791.52148
  23266584.800   122266816.32308  23266580.940    95272861.86547
  22626165.040   118901316.10909  22626164.120    92650382.32948
  24294586.900   127669265.70308  24294585.080    99482682.92246
  23479763.240   123386986.28108  23479760.040    96145691.69847
  22365184.760   119344921.95209  22365186.900    92823846.61907
  22389444.520   119852472.05508  22389445.260    93218604.89607
  22004316.980   117501827.98108  22004317.260    91390311.25804
  22156732.080   118398853.40608  22156735.660    92088013.74607
  19878788.020   106188908.09308  19878789.760    82591390.31008
  22289605.640   119276449.22708  22289606.060    92770663.65407
  20139611.980   107506842.06609  20139614.380    83616513.28608
  22163724.780   118561003.93108  22163724.880    92214119.40507
 15 02 25 00 28  0.0000000  0 15G16G18G21G22G27G29G31R02R03R09R15R16
                                R17R18R19
  21364439.560   112270899.83809  21364435.680    87483806.59448
  22129738.800   116292654.53309  22129735.200    90617676.61847
  21547344.400   113232275.78009  21547340.580    88232996.23248
  23249009.720   122174458.92809  23249005.840    95200895.15147
  22614379.080   118839380.65309  22614378.220    92602120.95347
  24308435.000   127742037.63108  24308433.380    99539388.28046
  23497568.200   123480550.94209  23497564.920    96218599.11647
  22364275.140   119340067.52708  22364277.220    92820070.97207
  22372006.400   119759123.52108  22372006.860    93146000.50107
  21988620.860   117418012.34208  21988621.040    91325121.39404
  22180634.560   118526580.83908  22180638.140    92187357.24007
  19883690.840   106215098.11808  19883692.560    82611760.31008
  22303344.840   119349969.73108  22303345.520    92827846.25207
  20142970.280   107524768.69409  20142972.700    83630456.21708
  22152730.100   118502189.62508  22152730.060    92168374.95107
 15 02 25 00 28 30.0000000  0 15G16G18G21G22G27G29G31R02R03R09R15R16
                                R17R18R19
  21352524.560   112208285.93009  21352520.660    87435016.53648
  22120528.160   116244252.40309  22120524.520    90579960.67947
  21556479.840   113280282.69709  21556475.940    88270404.22448
  23231453.760   122082201.94308  23231449.780    95129006.69247
  22602609.860   118777533.17609  22602609.000    92553928.12448
  24322288.580   127814837.11608  24322286.880    99596115.12345
  23515389.460   123574201.33209  23515386.180    96291573.33947
  22363501.620   119335940.60209  22363503.900    92816861.17207
  22354632.060   119666117.04808  22354632.300    93073662.15807
  21973035.540   117334787.60008  21973035.360    91260390.93305
  22204578.740   118654531.55508  22204582.440    92286874.33907
  19888747.780   106242111.56008  19888749.520    82632770.75508
  22317082.460   119423482.47808  22317082.820    92885022.79807
  20146364.260   107542885.98709  20146366.680    83644547.43908
  22141770.320   118443562.14908  22141770.040    92122775.84907
 15 02 25 00 29  0.0000000  0 15G16G18G21G22G27G29G31R02R03R09R15R16
                                R17R18R19
  21340674.640   112146014.16909  21340670.740    87386493.08248
  22111390.380   116196233.39209  22111386.880    90542543.28047
  21565665.920   113328556.00708  21565662.020    88308019.79248
  23213918.640   121990054.87708  23213914.640    95057203.86947
  22590858.880   118715781.27809  22590858.000    92505809.74848
  24336148.580   127887671.75308  24336146.600    99652869.32245
  23533227.920   123667942.26809  23533224.640    96364618.11747
  22362866.000   119332549.84509  22362868.580    92814223.91207
  22337323.800   119573464.82108  22337324.020    93001599.36507
  21957562.800   117252164.69908  21957562.900    91196128.79505
  22228565.500   118782709.76508  22228569.340    92386568.39207
  19893960.000   106269954.60508  19893961.760    82654426.44008
  22330820.080   119496994.50108  22330820.360    92942198.81907
  20149795.160   107561200.37709  20149797.540    83658791.96108
  22130846.740   118385128.59508  22130846.700    92077327.53507
 15 02 25 00 29 30.0000000  0 15G16G18G21G22G27G29G31R02R03R09R15R16
                                R17R18R19
  21328888.380   112084076.98909  21328884.520    87338230.35748
  22102324.080   116148589.80609  22102320.720    90505418.42847
  21574900.480   113377084.24708  21574896.680    88345834.00948
  23196403.000   121898010.43808  23196398.960    94985481.02447
  22579124.220   118654115.21609  22579123.340    92457758.32048
  24350013.680   127960531.83208  24350011.540    99709643.39146
  23551081.140   123761760.99109  23551077.940    96437723.51247
  22362366.580   119329885.93809  22362369.760    92812152.01207
  22320080.520   119481161.05708  22320080.900    92929807.59507
  21942201.700   117170137.33308  21942202.020    91132329.75504
  22252592.000   118911100.09408  22252595.880    92486427.43307
  19899325.300   106298615.50808  19899327.200    82676718.26308
  22344555.180   119570495.36308  22344555.960    92999366.10107
  20153260.980   107579700.80809  20153263.240    83673181.18408
  22119957.460   118326878.10208  22119957.600    92032021.65607
 15 02 25 00 30  0.0000000  0 15G16G18G21G22G27G29G31R02R03R09R15R16
                                R17R18R19
  21317167.540   112022483.80409  21317163.700    87290235.66448
  22093330.980   116101331.02009  22093327.700    90468593.40847
  21584184.460   113425871.93009  21584180.640    88383850.38048
  23178908.780   121806078.39508  23178904.700    94913845.74647
  22567407.260   118592542.29309  22567406.360    92409779.42148
  24363884.920   128033424.44208  24363882.660    99766442.81545
  23568949.900   123855661.66709  23568946.860    96510892.75947
  22362004.940   119327957.01909  22362008.520    92810651.74607
  22302904.680   119389217.66108  22302905.140    92858296.09707
  21926954.280   117088716.26708  21926954.560    91069002.22405
  22276658.880   119039706.11608  22276662.780    92586454.24107
  19904844.860   106328100.18508  19904846.920    82699650.76508
  22358289.360   119643992.08708  22358290.660    93056530.18507
  20156762.760   107598393.04509  20156764.900    83687719.59508
  22109103.620   118268817.55609  22109103.400    91986863.46007
 15 02 25 00 30 30.0000000  0 15G16G18G21G22G27G29G31R02R03R09R15R16
                                R17R18R19
  21305512.520   111961236.74609  21305508.720    87242510.68748
  22084411.480   116054458.73909  22084408.120    90432069.55747
  21593517.800   113474918.65809  21593513.860    88422068.60948
  23161436.480   121714261.43808  23161432.380    94842300.16547
  22555708.020   118531062.49309  22555707.200    92361873.09648
  24377762.180   128106349.43608  24377759.600    99823267.45345
  23586833.660   123949641.19709  23586830.760    96584123.44347
  22361781.440   119326763.76909  22361784.880    92809723.67107
  22285797.140   119297639.14008  22285797.580    92787068.38607
  21911820.840   117007904.48008  21911821.160    91006148.64505
  22300765.320   119168522.91908  22300769.240    92686644.98207
  19910518.380   106358406.77409  19910520.520    82723222.53608
  22372023.000   119717483.95108  22372024.320    93113690.51407
  20160300.240   107617275.98509  20160302.320    83702406.31608
  22098285.260   118210945.76108  22098285.300    91941852.11807
 15 02 25 00 31  0.0000000  0 15G16G18G21G22G27G29G31R02R03R09R15R16
                                R17R18R19
  21293923.220   111900335.20709  21293919.480    87195054.95048
  22075565.400   116007972.05109  22075561.940    90395846.18147
  21602899.480   113524219.63809  21602895.500    88460484.96148
  23143986.140   121622559.63209  23143982.000    94770844.31346
  22544025.960   118469673.12909  22544025.220    92314037.25747
  24391645.040   128179304.64408  24391642.660    99880115.64746
  23604731.280   124043693.87008  23604728.680    96657411.10747
  22361695.420   119326304.41709  22361698.620    92809366.39207
  22268757.800   119206426.76507  22268758.120    92716125.46907
  21896801.780   116927703.04608  21896802.060    90943769.74805
  22324909.880   119297543.01108  22324913.760    92786993.84907
  19916345.040   106389530.90509  19916347.120    82747430.19108
  22385755.100   119790967.61708  22385756.500    93170844.45607
  20163872.600   107636345.51209  20163874.760    83717238.18308
  22087501.500   118153259.64109  22087501.120    91896985.13407
 15 02 25 00 31 30.0000000  0 15G16G18G21G22G27G29G31R02R03R09R15R16
                                R17R18R19
  21282401.800   111839790.07009  21282398.060    87147876.92248
  22066794.700   115961881.40709  22066791.100    90359931.40147
  21612330.720   113573780.98609  21612326.660    88499104.18348
  23126559.840   121530984.12308  23126555.560    94699486.83646
  22532362.760   118408382.78909  22532362.160    92266278.54848
  24405534.720   128252298.07508  24405533.100    99936993.56945
  23622643.820   124137825.20508  23622641.520    96730760.07447
  22361748.360   119326588.08308  22361751.220    92809587.01807
  22251789.320   119115594.02808  22251789.760    92645477.82407
  21881899.260   116848123.78808  21881899.500    90881874.74005
  22349093.400   119426771.30008  22349097.240    92887504.63507
  19922326.080   106421479.65809  19922327.980    82772279.20408
  22399487.160   119864451.35307  22399488.580    93227998.45007
  20167481.260   107655609.10209  20167483.480    83732220.96708
  22076753.920   118095766.68808  22076753.520    91852268.43808
 15 02 25 00 32  0.0000000  0 15G16G18G21G22G27G29G31R02R03R09R15R16
                                R17R18R19
  21270945.980   111779589.51109  21270942.200    87100967.39948
  22058097.100   115916175.10809  22058093.420    90324316.12247
