     2.11           OBSERVATION DATA    M                   RINEX VERSION / TYPE
SPIDER V4,0,0,3554                      2015 03 18 00:44    PGM / RUN BY / DATE 
CKHR                                                        MARKER NAME         
CKHR                                                        MARKER NUMBER       
                                                            OBSERVER / AGENCY   
496547              LEICA GRX1200+GNSS  8.10/4.007          REC # / TYPE / VERS 
10301042            LEIAR25         NONE                    ANT # / TYPE        
  5141838.0877   498328.5776  3730203.3049                  APPROX POSITION XYZ 
        0.0720        0.0000        0.0000                  ANTENNA: DELTA H/E/N
     1     1                                                WAVELENGTH FACT L1/2
     4    C1    L1    P2    L2                              # / TYPES OF OBSERV 
    30.000                                                  INTERVAL            
  2015    02    25    07    18    0.0000000     GPS         TIME OF FIRST OBS   
  2015    02    25    23    59   30.0000000     GPS         TIME OF LAST OBS    
    16                                                      LEAP SECONDS        
    53                                                      # OF SATELLITES     
   G 1    47    47    47    47                              PRN / # OF OBS      
   G 2   895   895   895   895                              PRN / # OF OBS      
   G 3   188   188   188   188                              PRN / # OF OBS      
   G 4    27    27    27    27                              PRN / # OF OBS      
   G 5   622   621   621   621                              PRN / # OF OBS      
   G 6   590   590   590   590                              PRN / # OF OBS      
   G 7   536   536   536   536                              PRN / # OF OBS      
   G 9   474   474   474   474                              PRN / # OF OBS      
   G10   566   566   566   566                              PRN / # OF OBS      
   G11    27    27    27    27                              PRN / # OF OBS      
   G12   810   810   810   810                              PRN / # OF OBS      
   G13   797   797   796   796                              PRN / # OF OBS      
   G14   491   491   491   491                              PRN / # OF OBS      
   G15   710   710   710   710                              PRN / # OF OBS      
   G16   162   162   162   162                              PRN / # OF OBS      
   G17   511   511   511   511                              PRN / # OF OBS      
   G18   456   456   456   456                              PRN / # OF OBS      
   G20   522   522   522   522                              PRN / # OF OBS      
   G21   395   395   395   395                              PRN / # OF OBS      
   G22    18    18    18    18                              PRN / # OF OBS      
   G23   288   288   288   288                              PRN / # OF OBS      
   G24   825   825   825   825                              PRN / # OF OBS      
   G25   844   844   844   844                              PRN / # OF OBS      
   G27   106   106   106   106                              PRN / # OF OBS      
   G28   596   596   596   596                              PRN / # OF OBS      
   G29   686   686   686   686                              PRN / # OF OBS      
   G30   678   678   678   678                              PRN / # OF OBS      
   G31   529   529   529   529                              PRN / # OF OBS      
   G32    27    27    27    27                              PRN / # OF OBS      
   R 1   641   641   641   641                              PRN / # OF OBS      
   R 2   564   564   564   562                              PRN / # OF OBS      
   R 3   577   577   577   577                              PRN / # OF OBS      
   R 4   407   407   407   407                              PRN / # OF OBS      
   R 5   262   262   262   262                              PRN / # OF OBS      
   R 6    46    46    46    46                              PRN / # OF OBS      
   R 7   297   297   297   297                              PRN / # OF OBS      
   R 8   524   524   523   523                              PRN / # OF OBS      
   R 9   484   484   482   479                              PRN / # OF OBS      
   R10   480   480   480   480                              PRN / # OF OBS      
   R11   583   583   583   574                              PRN / # OF OBS      
   R12   676   676   675   675                              PRN / # OF OBS      
   R13   762   762   762   762                              PRN / # OF OBS      
   R14   762   762   762   762                              PRN / # OF OBS      
   R15   674   674   674   673                              PRN / # OF OBS      
   R16   509   509   509   509                              PRN / # OF OBS      
   R17   567   567   567   567                              PRN / # OF OBS      
   R18   534   534   524   524                              PRN / # OF OBS      
   R19   313   313   313   312                              PRN / # OF OBS      
   R20    78    78    78    78                              PRN / # OF OBS      
   R21    27    27    27    27                              PRN / # OF OBS      
   R22   366   366   366   366                              PRN / # OF OBS      
   R23   620   620   620   620                              PRN / # OF OBS      
   R24   748   748   733   731                              PRN / # OF OBS      
BIT 2 OF LLI FLAGS DATA COLLECTED UNDER A/S CONDITION       COMMENT             
SNR is mapped to RINEX snr flag value [2-9]                 COMMENT             
Lx:     = 25dBHz -> 1; 26-27dBHz -> 2; 28-31dBHz -> 3       COMMENT             
       32-35dBHz -> 4; 36-38dBHz -> 5; 39-41dBHz -> 6       COMMENT             
       42-44dBHz -> 7; 45-48dBHz -> 8; >=49dBHz -> 9        COMMENT             
                                                            END OF HEADER       
 15 02 25 07 18  0.0000000  0 14G01G03G04G09G11G17G23G31G32R06R07R20
                                R21R22
  20619111.520   108354161.63209  20619112.920    84431819.76249
  20537052.680   107922939.84609  20537053.060    84095798.98849
  22306937.680   117223748.21209  22306937.380    91343178.82647
  22983239.380   120777738.59508  22983241.240    94112530.57247
  21621045.700   113619361.99009  21621043.560    88534558.94348
  22247396.480   116910856.97609  22247394.060    91099358.75748
  21138891.020   111085621.94509  21138887.220    86560209.13148
  23904670.120   125619889.26408  23904669.120    97885623.20746
  22581664.140   118667445.22509  22581662.900    92468134.80647
  20200838.020   107795542.15009  20200840.580    83840987.47708
  20296635.560   108649479.46809  20296636.120    84505152.27708
  22843377.260   122153802.91507  22843382.300    95008532.85207
  19615283.720   104965344.62409  19615285.040    81639717.41308
  20246537.860   108077393.74109  20246540.400    84060205.24408
 15 02 25 07 18 30.0000000  0 14G01G03G04G09G11G17G23G31G32R06R07R20
                                R21R22
  20624866.200   108384401.94909  20624867.500    84455383.64649
  20538600.920   107931075.51609  20538601.240    84102138.49449
  22322102.700   117303441.18209  22322102.500    91405277.22447
  22964109.200   120677209.06708  22964111.020    94034195.93147
  21636687.660   113701561.23909  21636685.580    88598610.28648
  22240162.320   116872841.41909  22240160.020    91069736.26048
  21128069.120   111028752.78709  21128065.440    86515895.54648
  23905499.000   125624245.46708  23905498.040    97889017.67646
  22595854.420   118742016.55409  22595853.540    92526242.30047
  20211645.140   107853210.43709  20211647.680    83885840.58908
  20290888.280   108618714.38709  20290888.880    84481223.90808
  22867712.880   122283936.49507  22867717.760    95109747.73907
  19626753.460   105026720.83409  19626754.660    81687454.47408
  20234704.760   108014227.75909  20234707.220    84011076.16708
 15 02 25 07 19  0.0000000  0 14G01G03G04G09G11G17G23G31G32R06R07R20
                                R21R22
  20630702.080   108415068.89409  20630703.240    84479279.96449
  20540197.320   107939464.23709  20540197.500    84108675.16749
  22337324.640   117383432.77009  22337324.440    91467608.29047
  22945029.960   120576947.03408  22945031.700    93956069.70647
  21652401.080   113784135.60009  21652399.020    88662953.94048
  22233036.520   116835395.20009  22233034.300    91040557.37648
  21117334.020   110972339.60309  21117330.520    86471937.24848
  23906434.600   125629162.86208  23906433.760    97892849.40546
  22610061.060   118816673.30808  22610060.200    92584416.37847
  20222501.160   107911139.37209  20222503.600    83930896.40508
  20285218.740   108588365.57309  20285219.420    84457619.28708
  22892091.380   122414298.90807  22892096.200    95211140.58007
  19638363.360   105088846.93809  19638364.520    81735774.75608
  20223000.820   107951751.40409  20223003.220    83962483.45308
 15 02 25 07 19 30.0000000  0 14G01G03G04G09G11G17G23G31G32R06R07R20
                                R21R22
  20636614.080   108446135.77309  20636615.040    84503487.90749
  20541836.600   107948078.43809  20541836.680    84115387.53049
  22352598.180   117463695.16009  22352597.880    91530150.38647
  22925997.000   120476927.61909  22925998.600    93878132.52247
  21668180.440   113867056.10309  21668178.380    88727567.30048
  22226014.080   116798492.10309  22226011.820    91011801.70148
  21106680.880   110916356.33009  21106677.400    86428313.94548
  23907472.040   125634614.93508  23907471.320    97897097.74746
  22624278.540   118891387.62909  22624277.980    92642635.26647
  20233400.480   107969299.58909  20233402.780    83976132.10408
  20279621.820   108558404.94509  20279622.580    84434316.58908
  22916506.820   122544859.23007  22916511.820    95312687.33207
  19650107.780   105151693.37009  19650108.940    81784655.29208
  20211421.620   107889940.68609  20211423.980    83914408.45008
 15 02 25 07 20  0.0000000  0 14G01G03G04G09G11G17G23G31G32R06R07R20
                                R21R22
  20642601.760   108477600.55509  20642602.540    84528005.90149
  20543518.180   107956915.20109  20543518.220    84122273.30949
  22367922.660   117544225.07909  22367922.200    91592900.92347
  22907010.160   120377150.55408  22907011.660    93800384.17647
  21684025.100   113950319.21309  21684022.960    88792447.61748
  22219094.740   116762131.14309  22219092.540    90983468.47148
  21096109.520   110860802.14709  21096105.860    86385024.99048
  23908610.960   125640600.06008  23908610.400    97901761.47346
  22638506.480   118966156.30508  22638506.120    92700896.52147
  20244342.180   108027686.35709  20244344.480    84021544.00808
  20274096.800   108528828.64709  20274097.540    84411312.80408
  22940958.120   122675611.26106  22940963.220    95414383.20207
  19661985.780   105215255.56009  19661987.160    81834092.51108
  20199967.260   107828796.35809  20199969.540    83866851.73808
 15 02 25 07 20 30.0000000  0 14G01G03G04G09G11G17G23G31G32R06R07R20
                                R21R22
  20648665.860   108509467.09009  20648666.440    84552836.93549
  20545242.680   107965977.47009  20545242.700    84129334.78949
  22383298.500   117625025.31109  22383298.000    91655862.07547
  22888070.400   120277621.44608  22888071.900    93722829.03547
  21699935.280   114033926.78009  21699933.040    88857596.32148
  22212279.500   116726317.42709  22212277.500    90955561.65348
  21085620.800   110805681.72009  21085616.840    86342074.00048
  23909852.080   125647122.45008  23909851.600    97906843.81446
  22652745.300   119040981.94609  22652744.920    92759202.15847
  20255326.660   108086301.59909  20255328.900    84067133.59708
  20268644.100   108499639.63809  20268644.800    84388610.23308
  22965445.200   122806555.19506  22965450.320    95516228.31607
  19673997.740   105279534.76109  19673999.400    81884087.38608
  20188638.960   107768325.46209  20188641.260    83819818.79608
 15 02 25 07 21  0.0000000  0 15G01G03G04G09G11G17G20G23G31G32R06R07
                                R20R21R22
  20654805.520   108541730.96409  20654805.940    84577977.59349
  20547009.040   107975259.97209  20547009.100    84136567.88549
  22398724.620   117706090.14009  22398724.120    91719029.42547
  22869177.300   120178337.67808  22869178.940    93645465.07847
  21715909.580   114117872.19309  21715907.420    88923008.27248
  22205567.780   116691047.52409  22205565.940    90928078.60548
  24518673.660   128846517.05407  24518676.720   100399860.37545
  21075213.900   110750991.17909  21075209.560    86299457.98748
  23911194.620   125654177.46608  23911194.100    97912341.22546
  22666994.080   119115859.02009  22666993.700    92817547.84847
  20266352.560   108145138.07109  20266354.800    84112895.26008
  20263262.580   108470832.08209  20263263.260    84366204.35008
  22989966.640   122937682.67007  22989972.100    95618216.14307
  19686142.520   105344523.96409  19686144.160    81934634.49408
  20177436.440   107708526.03409  20177438.780    83773308.10908
 15 02 25 07 21 30.0000000  0 15G01G03G04G09G11G17G20G23G31G32R06R07
                                R20R21R22
  20661022.400   108574400.65209  20661022.740    84603434.46849
  20548818.760   107984770.33109  20548818.900    84143978.54349
  22414202.460   117787426.96709  22414202.100    91782408.69947
  22850332.940   120079309.56109  22850334.600    93568300.33748
  21731949.260   114202161.86109  21731947.260    88988688.47248
  22198961.380   116656330.76009  22198959.580    90901026.56948
  24503083.280   128764587.99008  24503084.540   100336019.42344
  21064890.500   110696740.04509  21064885.860    86257184.37548
  23912640.160   125661774.01408  23912639.720    97918260.60146
  22681254.140   119190794.87209  22681253.480    92875939.36847
  20277421.040   108204201.66309  20277423.380    84158833.56408
  20257953.740   108442413.36309  20257954.340    84344100.90008
  23014523.420   123068998.65907  23014528.860    95720350.63407
  19698421.180   105410229.06109  19698422.680    81985738.41508
  20166361.960   107649409.80909  20166364.300    83727328.81908
 15 02 25 07 22  0.0000000  0 15G01G03G04G09G11G17G20G23G31G32R06R07
                                R20R21R22
  20667313.860   108607462.61309  20667314.280    84629197.00149
  20550669.060   107994494.19809  20550669.320    84151555.56149
  22429729.360   117869021.26709  22429729.100    91845988.56847
  22831535.060   119980525.34709  22831536.520    93491325.64047
  21748051.520   114286780.44909  21748049.680    89054624.98348
  22192457.920   116622154.39009  22192455.980    90874395.60748
  24487504.240   128682718.25808  24487504.560   100272224.76744
  21054648.040   110642915.39409  21054643.280    86215243.07448
  23914186.140   125669898.48508  23914185.720    97924591.36246
  22695522.540   119265774.91609  22695521.740    92934365.30047
  20288529.040   108263476.17809  20288531.540    84204935.90808
  20252714.860   108414368.63409  20252715.340    84322288.33308
  23039112.260   123200485.65707  23039117.760    95822618.10607
  19710830.620   105476633.74609  19710832.020    82037386.45708
  20155413.420   107590965.75609  20155415.760    83681872.31508
 15 02 25 07 22 30.0000000  0 16G01G03G04G09G11G17G20G23G31G32R06R07
                                R16R20R21R22
  20673681.740   108640926.28009  20673682.260    84655272.55049
  20552561.620   108004440.10209  20552561.960    84159305.58749
  22445306.820   117950880.99109  22445306.620    91909775.29747
  22812785.680   119881996.20608  22812786.960    93414549.70147
  21764217.940   114371735.49909  21764216.140    89120823.65148
  22186059.320   116588528.78909  22186057.140    90848193.81448
  24471938.200   128600916.89908  24471938.500   100208483.41445
  21044488.520   110589527.58409  21044483.840    86173642.16848
  23915834.460   125678560.51808  23915833.920    97931341.00646
  22709800.760   119340807.37208  22709800.020    92992832.06347
  20299677.980   108322968.85809  20299680.580    84251207.94508
  20247547.240   108386705.66809  20247547.640    84300772.68808
  23639836.000   126279762.46708  23639843.140    98217617.61306
  23063734.120   123332149.07707  23063739.640    95925022.78007
  19723372.080   105543744.94909  19723373.400    82089583.99208
  20144593.160   107533206.39409  20144595.480    83636948.35208
 15 02 25 07 23  0.0000000  0 16G01G03G04G09G11G17G20G23G31G32R06R07
                                R16R20R21R22
  20680126.100   108674792.12209  20680126.700    84681661.48149
  20554496.420   108014607.78909  20554496.840    84167228.43149
  22460934.720   118033005.59709  22460934.460    91973768.40047
  22794085.180   119783724.46809  22794086.340    93337974.33747
  21780448.220   114457025.43409  21780446.300    89187283.28248
  22179765.760   116555455.30109  22179763.480    90822422.22248
  24456385.460   128519184.74708  24456385.520   100144795.88345
  21034412.320   110536577.82309  21034407.720    86132382.60448
  23917585.140   125687760.80008  23917584.620    97938510.05346
  22724088.840   119415891.77809  22724088.220    93051339.31547
  20310867.620   108382678.18509  20310870.120    84297648.47208
  20242450.800   108359424.08209  20242451.200    84279553.66008
  23623633.220   126193211.82807  23623640.860    98150300.57006
  23088388.500   123463985.90807  23088394.040    96027562.32907
  19736045.100   105611560.32509  19736046.280    82142329.23408
  20133901.840   107476135.09209  20133904.100    83592559.54008
 15 02 25 07 23 30.0000000  0 16G01G03G04G09G11G17G20G23G31G32R06R07
                                R16R20R21R22
  20686647.500   108709063.05109  20686648.220    84708366.06949
  20556473.840   108024999.31909  20556474.340    84175325.70549
  22476613.400   118115397.08809  22476613.000    92037969.48347
  22775434.480   119685714.82708  22775435.580    93261603.20747
  21796742.520   114542651.47109  21796740.380    89254004.82048
  22173577.900   116522937.77809  22173575.660    90797083.86148
  24440845.980   128437524.07007  24440845.760   100081164.13445
  21024420.200   110484069.71409  21024415.660    86091467.19448
  23919438.880   125697502.23608  23919438.500    97946100.81946
  22738387.180   119491029.94408  22738386.720    93109888.45347
  20322097.920   108442604.34009  20322100.300    84344257.66408
  20237425.820   108332525.46009  20237426.340    84258632.49608
  23607487.700   126106966.87507  23607495.260    98083221.39106
  23113075.060   123595995.14807  23113080.820    96130235.96007
  19748849.680   105680080.26809  19748850.840    82195622.46608
  20123340.420   107419757.32509  20123342.700    83548710.16008
 15 02 25 07 24  0.0000000  0 17G01G03G04G09G11G17G20G23G31G32R06R07
                                R08R16R20R21R22
  20693245.300   108743735.41009  20693246.140    84735383.45849
  20558493.060   108035610.29509  20558493.600    84183593.97749
  22492341.920   118198050.54109  22492341.460    92102374.67447
  22756833.300   119587965.48709  22756834.460    93185434.91448
  21813099.580   114628607.95209  21813097.400    89320983.81648
  22167495.300   116490973.66709  22167493.180    90772176.73348
  24425319.560   128355931.62308  24425319.320   100017585.55745
  21014511.640   110432000.41809  21014507.140    86050893.69748
  23921394.940   125707781.05308  23921394.660    97954110.30346
  22752694.820   119566217.08709  22752694.360    93168475.75947
  20333367.620   108502741.16509  20333369.900    84391030.69708
  20232471.520   108306004.93209  20232472.060    84238005.41208
  23605133.320   126404422.75707                                
  23591399.700   126021028.48208  23591407.080    98016380.53506
  23137792.540   123728169.42607  23137798.580    96233037.94807
  19761784.740   105749298.32009  19761786.000    82249458.66308
  20112908.780   107364072.54409  20112911.100    83505399.76408
 15 02 25 07 24 30.0000000  0 17G01G03G04G09G11G17G20G23G31G32R06R07
                                R08R16R20R21R22
  20699919.000   108778806.65509  20699920.000    84762711.64649
  20560553.480   108046437.41009  20560553.980    84192030.65349
  22508119.560   118280962.11209  22508119.100    92166980.99947
  22738281.540   119490475.64009  22738282.760    93109468.82748
  21829518.480   114714889.89109  21829516.400    89388216.42248
  22161517.660   116459561.05409  22161515.580    90747699.33548
  24409805.480   128274404.51707  24409805.160    99954057.87844
  21004686.240   110380368.23409  21004681.880    86010660.80148
  23923452.800   125718595.25408  23923452.580    97962536.96446
  22767011.220   119641449.71709  22767010.800    93227098.49547
  20344675.880   108563084.22809  20344678.120    84437964.12208
  20227587.020   108279858.36409  20227587.700    84217669.17408
  23589145.440   126318811.73007  23589148.360    98247960.93906
  23575369.400   125935397.67807  23575376.740    97949778.99206
  23162539.800   123860502.42807  23162545.900    96335963.40807
  19774849.220   105819209.18109  19774850.780    82303833.71508
  20102606.920   107309080.74009  20102609.280    83462628.34908
 15 02 25 07 55  0.0000000  0 18G01G03G04G06G09G11G17G20G23G31G32R06
                                R07R08R16R21R22R23
  21251705.700   111678467.20009  21251707.380    87022188.01448
  20761430.240   109102052.25809  20761430.480    85014586.40048
  23556766.720   123791644.51008  23556766.880    96461021.03946
  23862879.660   125400278.34708  23862882.280    97714513.84047
  21715476.640   114115599.70309  21715476.560    88921245.40448
  22935441.800   120526559.59209  22935440.820    93916795.66346
  22001866.120   115620586.09209  22001864.520    90093956.56348
  23489418.740   123437727.38808  23489417.020    96185234.36345
  20569214.920   108091953.72109  20569210.380    84227477.11949
  24241933.020   127392217.09508  24241933.080    99266662.23446
  23652692.800   124295739.44908  23652693.040    96853823.45146
  21094064.520   112561969.96109  21094067.120    87548209.26307
  20054249.240   107351966.36609  20054250.400    83495978.15808
  22691988.900   121514569.64208  22691991.560    94511343.44907
  22739685.720   121471319.11307  22739692.120    94477720.06006
  20795455.400   111280682.24509  20795458.420    86551654.16508
  19739323.740   105369850.62209  19739326.240    81954337.67608
  22982772.680   122942335.81908  22982778.480    95621841.60905
 15 02 25 07 55 30.0000000  0 18G01G03G04G06G09G11G17G20G23G31G32R06
                                R07R08R16R21R22R23
  21263075.640   111738216.32009  21263077.260    87068745.74948
  20765881.620   109125444.66209  20765881.840    85032814.24648
  23575206.400   123888545.04108  23575206.860    96536527.81146
  23844086.600   125301520.18408  23844089.160    97637559.47446
  21700687.840   114037884.45209  21700687.720    88860688.12748
  22955018.620   120629436.02309  22955017.460    93996959.05747
  22002625.960   115624578.57909  22002624.280    90097067.56748
  23474756.400   123360676.19008  23474754.560    96125194.55646
  20564796.340   108068733.85809  20564791.860    84209383.72849
  24250235.740   127435847.58208  24250235.840    99300659.94146
  23667323.760   124372627.32908  23667324.340    96913735.97646
  21107088.200   112631467.07709  21107090.860    87602262.54907
  20053276.040   107346756.47809  20053277.140    83491926.03908
  22678545.640   121442581.80708  22678548.460    94455352.95007
  22728797.940   121413159.01408  22728804.200    94432484.53206
  20815418.080   111387506.46809  20815421.100    86634739.60208
  19737925.880   105362389.17209  19737928.540    81948534.33008
  22961640.100   122829290.62608  22961645.980    95533917.58605
 15 02 25 07 56  0.0000000  0 18G01G03G04G06G09G11G17G20G23G31G32R06
                                R07R08R16R21R22R23
  21274540.360   111798463.67009  21274541.960    87115691.71848
  20770390.400   109149139.10209  20770390.660    85051277.43348
  23593702.780   123985743.97408  23593703.540    96612267.08246
  23825327.280   125202939.60508  23825329.880    97560743.49646
  21685990.620   113960650.74909  21685990.520    88800506.06848
  22974655.540   120732627.98808  22974654.220    94077368.30447
  22003515.900   115629254.37009  22003514.040    90100711.02048
  23460130.100   123283814.49608  23460127.960    96065302.41746
  20560487.720   108046091.74409  20560483.260    84191740.52449
  24258656.020   127480095.59508  24258656.120    99335138.82146
  23681978.300   124449637.83708  23681978.880    96973744.06446
  21120150.940   112701172.96409  21120153.760    87656478.19307
  20052379.580   107341956.87309  20052380.520    83488193.00508
  22665164.540   121370925.69508  22665167.000    94399620.42307
  22718037.860   121355679.80708  22718043.700    94387778.54406
  20835492.040   111494925.44309  20835494.860    86718287.62508
  19736701.620   105355854.25109  19736704.380    81943451.61508
  22940596.760   122716722.81608  22940602.620    95446364.87905
 15 02 25 07 56 30.0000000  0 18G01G03G04G06G09G11G17G20G23G31G32R06
                                R07R08R16R21R22R23
  21286079.060   111859100.28709  21286080.780    87162941.00348
  20774935.940   109173026.95109  20774936.360    85069891.32948
  23612235.140   124083131.49008  23612235.700    96688153.34746
  23806581.620   125104430.27808  23806584.140    97483982.99646
  21671364.620   113883791.62509  21671364.660    88740615.87648
  22994331.560   120836025.16009  22994330.200    94157937.43547
  22004515.140   115634505.09409  22004513.160    90104802.47748
  23445519.260   123207034.26608  23445516.980    96005473.81045
  20556268.480   108023919.23309  20556263.940    84174463.24549
  24267173.000   127524851.61008  24267173.000    99370013.56247
  23696635.700   124526662.44208  23696636.200    97033763.14346
  21133232.080   112770976.27609  21133234.880    87710769.63907
  20051538.940   107337455.81709  20051539.660    83484692.17108
  22651824.560   121299490.45608  22651826.960    94344059.71907
  22707385.400   121298775.05208  22707390.920    94343519.37806
  20855655.840   111602824.57809  20855658.380    86802209.10808
  19735630.420   105350136.49109  19735633.280    81939004.47108
  22919622.840   122604526.54008  22919628.740    95359101.13405
 15 02 25 07 57  0.0000000  0 18G01G03G04G06G09G11G17G20G23G31G32R06
                                R07R08R16R21R22R23
  21297691.160   111920122.73609  21297693.000    87210490.91848
  20779517.660   109197105.13209  20779518.360    85088653.52648
  23630802.660   124180703.46708  23630803.060    96764183.32045
  23787849.280   125005991.33808  23787851.680    97407277.37146
  21656809.580   113807305.66609  21656809.880    88681016.45848
  23014045.700   120939622.54009  23014044.300    94238662.57046
  22005623.060   115640327.14209  22005621.060    90109339.10848
  23430923.240   123130332.43308  23430921.160    95945706.17245
  20552137.980   108002213.19409  20552133.360    84157549.44448
  24275785.920   127570111.68608  24275785.700    99405281.10246
  23711295.160   124603697.96008  23711295.820    97093790.71846
  21146330.700   112840873.00309  21146333.600    87765133.71107
  20050753.160   107333249.25009  20050753.860    83481420.37808
  22638525.060   121228273.11007  22638527.700    94288668.52907
  22696840.700   121242445.54908  22696846.100    94299707.59406
  20875908.100   111711197.18309  20875910.520    86886498.83808
  19734711.900   105345233.69709  19734714.840    81935191.17508
  22898718.580   122492702.63408  22898724.460    95272126.99905
 15 02 25 07 57 30.0000000  0 18G01G03G04G06G09G11G17G20G23G31G32R06
                                R07R08R16R21R22R23
  21309376.520   111981530.11209  21309378.440    87258340.78048
  20784135.500   109221373.18309  20784136.500    85107563.68348
  23649404.980   124278458.33608  23649405.220    96840355.84146
  23769130.680   124907624.60408  23769133.120    97330627.98546
  21642325.720   113731193.99709  21642326.340    88621708.71048
  23033797.400   121043417.74609  23033796.040    94319541.88447
  22006839.480   115646719.57209  22006837.560    90114320.19948
  23416342.180   123053709.42008  23416340.540    95885999.99045
  20548096.280   107980973.71709  20548091.600    84140999.20749
  24284494.400   127615874.49708  24284494.040    99440940.39547
  23725956.540   124680743.74508  23725957.540    97153826.27946
  21159446.540   112910861.31009  21159449.500    87819569.03207
  20050022.040   107329335.39309  20050022.740    83478376.25808
  22625266.060   121157273.19408  22625268.860    94233446.45807
  22686404.180   121186694.41608  22686409.100    94256345.63906
  20896248.020   111820039.01809  20896250.400    86971153.52808
  19733946.140   105341145.93609  19733949.000    81932011.79408
  22877884.580   122381255.32208  22877890.500    95185445.79705
 15 02 25 07 58  0.0000000  0 18G01G03G04G06G09G11G17G20G23G31G32R06
                                R07R08R16R21R22R23
  21321135.980   112043326.59309  21321137.920    87306493.84048
  20788790.420   109245835.63509  20788791.600    85126625.32448
  23668042.740   124376399.45608  23668043.320    96916673.45446
  23750427.140   124809336.91208  23750429.560    97254040.21446
  21627914.240   113655462.81909  21627915.200    88562697.42948
  23053587.180   121147413.63408  23053586.000    94400577.55346
  22008165.300   115653686.92209  22008163.480    90119749.28448
  23401777.140   122977170.42508  23401775.840    95826359.23545
  20544144.140   107960204.87109  20544139.380    84124815.69849
  24293299.120   127662143.53508  24293298.740    99476994.17646
  23740620.840   124757804.37108  23740621.860    97213873.41946
  21172580.160   112980944.73509  21172583.180    87874078.31007
  20049346.280   107325717.98309  20049347.020    83475562.70108
  22612048.660   121086495.44708  22612051.640    94178397.11607
  22676077.380   121131530.22908  22676082.200    94213440.21706
  20916675.620   111929350.91609  20916678.080    87056173.81008
  19733334.140   105337878.86209  19733336.960    81929470.72208
  22857122.640   122270193.38708  22857128.600    95099064.32305
 15 02 25 07 58 30.0000000  0 18G01G03G04G06G09G11G17G20G23G31G32R06
                                R07R08R16R21R22R23
  21332968.200   112105505.00609  21332970.080    87354944.50848
  20793481.160   109270485.79809  20793482.380    85145833.22948
  23686714.340   124474519.11408  23686715.060    96993130.19445
  23731737.840   124711123.82308  23731740.160    97177510.54847
  21613574.240   113580106.98509  21613575.480    88503978.62548
  23073413.380   121251601.40209  23073412.500    94481762.72246
  22009599.120   115661221.46509  22009597.320    90125620.32748
  23387226.860   122900708.83408  23387225.780    95766778.82846
  20540280.320   107939900.22609  20540275.520    84108993.90349
  24302198.500   127708911.07208  24302198.400    99513436.38246
  23755286.640   124834872.99208  23755287.660    97273926.81046
  21185730.040   113051115.12909  21185733.060    87928655.24607
  20048724.440   107322389.09909  20048725.240    83472973.55208
  22598871.600   121015932.88708  22598874.600    94123515.20107
  22665859.800   121076949.67608  22665864.780    94170988.69207
  20937189.020   112039122.22809  20937191.540    87141551.41608
  19732874.660   105335426.19909  19732877.480    81927563.08508
  22836432.340   122159514.69408  22836438.380    95012980.94405
 15 02 25 07 59  0.0000000  0 19G01G03G04G06G09G11G17G20G23G31G32R06
                                R07R08R09R16R21R22R23
  21344873.680   112168068.12409  21344875.460    87403694.95548
  20798208.380   109295326.87409  20798209.480    85165189.89748
  23705420.160   124572819.38408  23705421.180    97069727.64045
  23713063.840   124612990.88608  23713066.140    97101043.34947
  21599306.580   113505131.31009  21599308.100    88445556.04448
  23093276.420   121355982.42709  23093275.660    94563098.49147
  22011141.540   115669326.76909  22011139.720    90131936.12948
  23372692.120   122824328.47008  23372691.140    95707261.67146
  20536505.480   107920063.26109  20536500.660    84093536.53049
  24311192.940   127756179.29907  24311193.420    99550268.70746
  23769954.420   124911952.94308  23769955.540    97333989.00645
  21198896.760   113121375.13409  21198899.600    87983301.87507
  20048156.840   107319350.81209  20048157.700    83470610.40508
  22585735.480   120945588.81908  22585738.240    94068803.22607
  23553777.740   125775857.70508  23553783.120                  
  22655752.820   121022960.00608  22655757.980    94128996.75907
  20957788.160   112149352.47309  20957790.740    87227285.96408
  19732568.440   105333791.62409  19732571.260    81926291.72808
  22815815.120   122049226.80008  22815821.180    94927201.52405
 15 02 25 07 59 30.0000000  0 19G01G03G04G06G09G11G17G20G23G31G32R06
                                R07R08R09R16R21R22R23
  21356852.180   112231015.27509  21356853.860    87452744.63148
  20802971.920   109320358.60209  20802972.880    85184695.10348
  23724160.020   124671298.74608  23724161.600    97146464.63746
  23694405.380   124514940.03208  23694407.660    97024640.11946
  21585111.480   113430537.08609  21585113.360    88387430.69948
  23113175.960   121460554.97909  23113175.180    94644583.49446
  22012792.400   115678001.97309  22012790.520    90138695.98848
  23358172.940   122748029.73008  23358171.940    95647808.12046
  20532819.420   107900693.40009  20532814.680    84078443.13949
  24320282.520   127803946.68608  24320283.340    99587490.02945
  23784624.320   124989043.73008  23784625.240    97394059.63845
  21212080.060   113191723.40209  21212082.880    88038017.13407
  20047643.340   107316601.95609  20047644.200    83468472.36408
  22572640.120   120875463.05908  22572642.500    94014261.01407
  23533142.320   125665673.16307  23533149.580    97739990.67604
  22645757.060   120969564.50108  22645762.520    94087466.94107
  20978472.320   112260037.63409  20978474.960    87313374.33108
  19732415.680   105332975.65509  19732418.340    81925657.05408
  22795271.760   121939333.80808  22795277.860    94841729.27105
 15 02 25 08 00  0.0000000  0 19G01G03G04G06G09G11G17G20G23G31G32R06
                                R07R08R09R16R21R22R23
  21368903.020   112294342.68809  21368904.620    87502090.62248
  20807771.160   109345577.73809  20807771.960    85204346.36348
  23742933.200   124769952.88808  23742934.940    97223337.84946
  23675762.340   124416970.34008  23675764.660    96948300.15946
  21570988.760   113356322.60809  21570990.900    88329601.26048
  23133111.000   121565313.55909  23133110.100    94726213.45447
  22014550.960   115687243.20609  22014549.020    90145896.91348
  23343668.800   122671809.62808  23343667.740    95588415.85146
  20529221.700   107881787.90009  20529217.060    84063711.60049
  24329466.620   127852209.31808  24329467.180    99625097.27945
  23799295.780   125066142.10008  23799296.340    97454136.22546
  21225279.080   113262155.71309  21225281.780    88092797.77507
  20047183.040   107314138.04409  20047183.960    83466555.95608
  22559584.780   120805551.95308  22559586.860    93959885.72607
  23512521.840   125555560.86507  23512529.300    97654347.96203
  22635872.620   120916763.44408  22635878.360    94046399.46707
  20999240.140   112371170.39109  20999242.760    87399810.83408
  19732415.860   105332975.65709  19732418.300    81925657.01908
  22774802.420   121829836.59108  22774808.520    94756564.82905
 15 02 25 08 00 30.0000000  0 19G01G03G04G06G09G11G17G20G23G31G32R06
                                R07R08R09R16R21R22R23
  21381026.220   112358050.17909  21381027.740    87551732.78248
  20812606.060   109370984.58409  20812606.720    85224143.89348
  23761739.640   124868780.90108  23761741.340    97300346.54746
  23657135.180   124319084.47408  23657137.380    96872025.45646
  21556938.800   113282489.74309  21556941.060    88272069.17848
  23153081.220   121670256.73509  23153080.100    94807987.24547
  22016417.220   115697050.51009  22016415.320    90153538.93648
  23329179.820   122595669.01508  23329178.620    95529085.52846
  20525712.440   107863346.87409  20525707.840    84049341.98449
  24338744.800   127900965.87908  24338744.580    99663089.43144
  23813968.700   125143248.35608  23813969.380    97514218.90246
  21238493.520   113332670.53909  21238496.180    88147642.60007
  20046775.900   107311958.35309  20046776.740    83464860.61508
  22546569.640   120735856.15608  22546571.380    93905677.88807
  23491915.500   125445525.68907  23491922.480    97568765.23203
  22626100.340   120864561.17908  22626106.180    94005797.74007
  21020091.040   112482747.37809  21020093.720    87486592.83408
  19732568.880   105333792.29909  19732571.340    81926292.16208
  22754407.960   121720740.13108  22754413.960    94671712.09005
 15 02 25 08 30 30.0000000  0 20G01G03G04G06G07G09G10G11G17G20G23G32
                                R06R07R08R09R16R21R22R23
  22234661.400   116843932.33908  22234663.720    91047229.65448
  21167459.180   111235748.62609  21167459.420    86677207.16848
  24940694.040   131064230.86107  24940698.440   102127990.53444
  22584996.400   118684957.29509  22584998.240    92481792.25748
  24539942.520   128958267.12508  24539946.680   100486978.14445
  20855138.000   109594491.28709  20855138.360    85398304.50249
  23668248.320   124377486.73908  23668250.400    96917524.98446
  24400685.740   128226465.20908  24400687.440    99916737.82345
  22318123.720   117282531.70109  22318123.140    91388983.24748
  22490267.980   118187156.36309  22490266.520    92093881.08847
  20474120.620   107592229.50209  20474116.080    83838082.16949
  24696202.580   129779420.73908  24696205.320   101126832.72245
  22052798.700   117677962.69008  22052804.880    91527322.80707
  20111003.580   107655775.30909  20111004.700    83732274.10408
  21837101.940   116936690.84209  21837103.840    90950762.15807
  22315229.440   119162084.27609  22315235.460    92681644.05504
  22265999.800   118940974.12208  22266004.580    92509668.04307
  22393994.620   119834791.48708  22393998.940    93204853.44907
  20019060.780   106863104.44409  20019063.640    83115759.82708
  21696930.780   116063949.12108  21696936.340    90271984.61306
 15 02 25 08 58  0.0000000  0 17G01G03G06G07G09G10G17G20G23R06R07R08
                                R09R10R16R22R23
  23205810.820   121947358.48708  23205814.960    95023930.22047
  21603518.560   113527257.16409  21603519.800    88462801.70348
  21735876.580   114222801.14409  21735878.560    89004788.50548
  23469274.500   123331870.60808  23469275.280    96102758.02347
  20470747.740   107574504.86909  20470747.940    83824289.69949
  22834682.100   119997063.33208  22834681.860    93504206.05646
  22881753.140   120244424.32309  22881753.100    93696953.62347
  21783477.400   114472945.48809  21783475.560    89199690.55048
  20681255.540   108680730.60609  20681251.560    84686267.88248
  22819542.920   121769451.96108  22819548.220    94709595.26106
  20297064.140   108651773.09009  20297065.420    84506939.95908
  21298923.560   114054769.27309  21298925.040    88709270.29408
  21446532.120   114523282.68008  21446534.320    89073677.46605
  23499497.860   125265540.19908  23499510.160    97428809.55704
  22369931.420   119496158.76608  22369936.440    92941475.97607
  20721976.500   110615316.72809  20721978.540    86034144.15508
  21098037.140   112860270.06309  21098042.440    87780232.78506
 15 02 25 08 58 30.0000000  0 17G01G03G06G07G09G10G17G20G23R06R07R08
                                R09R10R16R22R23
  23224816.520   122047233.54708  23224820.720    95101754.78547
  21612437.680   113574127.51109  21612439.100    88499323.98048
  21722134.040   114150583.25709  21722135.960    88948514.81848
  23450020.520   123230690.38608  23450021.460    96023916.40747
  20466092.860   107550042.58709  20466092.940    83805228.16849
  22820035.560   119920095.18209  22820035.240    93444230.89246
  22894067.640   120309136.44309  22894067.460    93747378.53947
  21771291.340   114408907.32609  21771289.500    89149790.67948
  20687026.700   108711057.79409  20687022.660    84709899.42048
  22833580.620   121844358.80408  22833585.820    94767855.97906
  20301384.620   108674900.78109  20301385.840    84524928.13608
  21290021.620   114007099.98608  21290023.220    88672194.15308
  21433515.900   114453776.84508  21433518.740    89019617.42405
  23476029.540   125140442.27108  23476042.100    97331511.49804
  22375811.820   119527571.35008  22375816.860    92965907.89407
  20738088.600   110701323.94509  20738090.440    86101038.56608
  21091036.840   112822822.47009  21091041.940    87751106.86206
 15 02 25 08 59  0.0000000  0 17G01G03G06G07G09G10G17G20G23R06R07R08
                                R09R10R16R22R23
  23243866.920   122147343.20708  23243871.100    95179762.14447
  21621395.580   113621202.02409  21621397.180    88536005.34748
  21708464.280   114078747.60009  21708466.080    88892538.97348
  23430787.120   123129618.14208  23430788.060    95945158.91447
  20461523.460   107526029.83409  20461523.460    83786516.91949
  22805412.080   119843248.28408  22805411.600    93384350.18647
  22906449.200   120374200.35609  22906448.800    93798077.57147
  21759134.660   114345023.69709  21759132.940    89100011.22348
  20692867.180   108741749.52409  20692863.120    84733815.00448
  22847624.260   121919297.84908  22847629.540    94826141.73007
  20305739.120   108698210.88709  20305740.460    84543058.18508
  21281152.520   113959605.91108  21281154.020    88635254.30708
  21420616.880   114384896.97908  21420619.920    88966044.20605
  23452563.900   125015358.00508  23452576.360    97234224.09604
  22381836.100   119559752.29308  22381841.040    92990937.42506
  20754309.560   110787912.59009  20754311.320    86168385.20108
  21084185.780   112786174.38709  21084190.960    87722602.79306
 15 02 25 08 59 30.0000000  0 17G01G03G06G07G09G10G17G20G23R06R07R08
                                R09R10R16R22R23
  23262957.500   122247664.45908  23262961.760    95257934.35647
  21630388.260   113668459.74909  21630390.120    88572829.46448
  21694863.660   114007275.54109  21694865.360    88836846.45248
  23411570.820   123028635.58308  23411571.560    95866471.28247
  20457035.400   107502445.00609  20457035.440    83768139.11549
  22790807.760   119766502.35309  22790807.320    93324548.17346
  22918893.040   120439591.78709  22918892.300    93849031.81247
  21747003.440   114281273.84709  21747001.780    89050336.01648
  20698772.700   108772783.05709  20698768.640    84757996.92748
  22861669.900   121994247.78408  22861675.440    94884435.95206
  20310123.640   108721681.60809  20310125.100    84561313.13608
  21272311.960   113912264.76909  21272313.400    88598433.40308
  21407831.740   114316625.03709  21407834.600    88912943.85405
  23429097.540   124890269.85508  23429110.140    97136933.71104
  22388000.080   119592679.24808  22388004.680    93016547.20806
  20770634.640   110875057.04209  20770636.420    86236164.13208
  21077480.520   112750305.98409  21077485.800    87694705.14006
 15 02 25 09 00  0.0000000  0 17G01G03G06G07G09G10G17G20G23R06R07R08
                                R09R10R16R22R23
  23282088.700   122348198.84808  23282092.740    95336272.66247
  21639416.620   113715904.25409  21639418.580    88609799.12648
  21681333.340   113936173.09309  21681335.000    88781441.93948
  23392372.800   122927748.98908  23392373.200    95787858.43546
  20452629.360   107479291.18009  20452629.420    83750097.15749
  22776223.340   119689861.02908  22776222.940    93264827.64647
  22931399.100   120505311.21608  22931398.180    93900241.64047
  21734898.500   114217662.11109  21734896.900    89000768.41348
  20704743.660   108804160.57509  20704739.620    84782446.87548
  22875718.160   122069212.03408  22875723.880    94942741.32006
  20314538.680   108745315.48409  20314540.140    84579694.99208
  21263500.540   113865079.98008  21263502.080    88561734.10908
  21395161.900   114248968.75808  21395164.660    88860322.30605
  23405631.920   124765186.08208  23405644.600    97039646.76705
  22394304.240   119626354.53608  22394308.640    93042739.04006
  20787063.660   110962756.73909  20787065.540    86304374.92008
  21070922.020   112715222.24609  21070927.280    87667417.76806
 15 02 25 09 00 30.0000000  0 17G01G03G06G07G09G10G17G20G23R06R07R08
                                R09R10R16R22R23
  23301259.900   122448943.03808  23301263.720    95414774.44347
  21648480.320   113763534.27109  21648482.320    88646913.33348
  21667873.560   113865441.30409  21667875.220    88726326.24248
  23373193.200   122826959.32209  23373193.380    95709321.08346
  20448304.920   107456566.39409  20448305.000    83732389.50949
  22761658.700   119613323.57409  22761658.340    93205188.08746
  22943966.480   120571354.36008  22943965.740    93951703.70747
  21722819.680   114154187.87709  21722818.120    88951307.96748
  20710779.500   108835878.86009  20710775.460    84807162.36748
  22889768.880   122144189.02708  22889774.580    95001056.55806
  20318983.940   108769111.13709  20318985.420    84598202.67008
  21254717.840   113818049.39509  21254719.540    88525154.75008
  21382607.620   114181930.29208  21382610.520    88808181.32005
  23382167.560   124640109.07908  23382180.200    96942365.09104
  22400748.020   119660775.65408  22400752.360    93069510.93606
  20803595.640   111051006.31909  20803597.720    86373013.38208
  21064510.320   112680923.42909  21064515.380    87640740.89206
 15 02 25 09 14 30.0000000  0 17G01G03G06G07G09G10G17G20G23R06R07R08
                                R09R10R16R22R23
  23852954.100   125348118.47008  23852958.700    97673875.03046
  21916919.460   115174186.58109  21916921.120    89746128.74848
  21321736.320   112046479.79909  21321738.220    87308953.31549
  22846049.580   120056801.81309  22846049.380    93550753.29447
  20360144.100   106993278.36909  20360144.460    83371388.11349
  22362574.960   117516124.31308  22362574.460    91571003.61247
  23318784.240   122541036.96208  23318783.700    95486519.66347
  21396103.200   112437282.42209  21396101.800    87613459.92648
  20905108.260   109857085.31809  20905104.200    85602906.51648
  23284437.260   124250218.42608  23284444.260    96639087.36606
  20455566.700   109500250.23908  20455569.240    85166870.97308
  21020371.400   112563133.08809  21020372.820    87549109.07108
  21081054.320   112571655.66308  21081057.740    87555744.12705
  22729189.560   121159372.37108  22729199.480    94235102.34905
  22636962.880   120922597.07807  22636970.420    94050936.76507
  21305339.420   113729347.94308  21305345.280    88456183.67908
  20945651.800   112045112.72209  20945656.640    87146219.84207
 15 02 25 09 15  0.0000000  0 17G01G03G06G07G09G10G17G20G23R06R07R08
                                R09R10R16R22R23
  23873137.720   125454182.96308  23873142.460    97756522.41546
  21927037.100   115227354.73809  21927038.740    89787558.37748
  21310541.500   111987650.69309  21310543.400    87263112.44449
  22827656.600   119960146.38509  22827656.440    93475437.37847
  20358156.240   106982831.77809  20358156.580    83363247.88049
  22348655.160   117442975.63309  22348654.780    91514004.64047
  23332908.540   122615261.27408  23332908.180    95544356.66647
  21384872.960   112378267.27509  21384871.520    87567474.09448
  20912912.080   109898095.02809  20912908.100    85634862.07948
  23298583.260   124325704.03008  23298590.180    96697798.13606
  20460870.700   109528642.29509  20460873.060    85188953.61808
  21012407.220   112520485.29509  21012408.740    87515938.53808
  21072164.880   112524187.19308  21072168.380    87518824.19805
  22706135.640   121036482.65808  22706145.700    94139521.59905
  22647348.000   120978071.31808  22647355.200    94094083.35206
  21324533.120   113831804.40308  21324538.720    88535871.91808
  20943599.600   112034135.68309  20943604.660    87137682.10807
 15 02 25 09 15 30.0000000  0 17G01G03G06G07G09G10G17G20G23R06R07R08
                                R09R10R16R22R23
  23893352.240   125560410.09208  23893357.240    97839296.44646
  21937193.300   115280725.49909  21937195.020    89829145.86348
  21299433.300   111929276.92909  21299435.240    87217626.39048
  22809300.540   119863684.97709  22809300.420    93400272.66947
  20356248.680   106972807.18909  20356248.960    83355436.47249
  22334761.420   117369963.74909  22334761.120    91457112.23947
  23347079.480   122689731.04908  23347079.420    95602384.91346
  21373676.480   112319429.25509  21373674.940    87521626.27848
  20920774.000   109939410.49009  20920770.140    85667055.88448
  23312734.920   124401218.91108  23312741.880    96756531.70607
  20466205.320   109557197.77208  20466207.440    85211163.38608
  21004472.020   112477992.65909  21004473.600    87482888.68608
  21063412.760   112477451.84108  21063416.480    87482474.47305
  22683110.160   120913744.87908  22683120.300    94044059.06005
  22657865.780   121034252.45708  22657872.200    94137779.78506
  21343808.240   113934695.36308  21343813.660    88615898.09808
  20941701.320   112023981.63909  20941706.620    87129784.48107
 15 02 25 09 16  0.0000000  0 17G01G03G06G07G09G10G17G20G23R06R07R08
                                R09R10R16R22R23
  23913594.580   125666783.36408  23913599.680    97922184.43146
  21947385.340   115334284.58909  21947387.120    89870880.12548
  21288409.440   111871346.43509  21288411.380    87172485.73949
  22790979.280   119767406.14609  22790979.260    93325250.21147
  20354418.520   106963189.38109  20354418.700    83347942.04849
  22320891.100   117297074.88008  22320890.720    91400315.70547
  23361293.960   122764429.26908  23361294.120    95660591.18747
  21362511.100   112260754.59209  21362509.520    87475905.75948
  20928691.080   109981015.65209  20928687.340    85699475.42748
  23326889.420   124476748.85908  23326896.420    96815277.01306
  20471567.460   109585901.18608  20471569.620    85233488.23108
  20996563.040   112435640.26208  20996564.640    87449947.90708
  21054795.880   112431438.07308  21054799.640    87446685.99105
  22660111.260   120791148.69808  22660121.520    93948706.65205
  22668512.620   121091123.37108  22668518.500    94182012.69006
  21363161.140   114038001.52108  21363166.340    88696247.21608
  20939954.240   112014636.31909  20939959.640    87122515.86107
 15 02 25 09 16 30.0000000  0 17G01G03G06G07G09G10G17G20G23R06R07R08
                                R09R10R16R22R23
  23933865.840   125773309.04108  23933871.020    98005191.12846
  21957614.820   115388040.53509  21957616.580    89912767.76148
  21277472.000   111813869.76809  21277473.880    87127698.71149
  22772694.820   119671320.85209  22772694.920    93250378.56247
  20352667.160   106953985.84309  20352667.320    83340770.41749
  22307045.960   117224318.44909  22307045.580    91343622.38047
  23375553.000   122839360.84608  23375553.240    95718979.28546
  21351378.780   112202253.58009  21351377.180    87430320.55148
  20936664.660   110022917.05309  20936660.920    85732125.79848
  23341048.200   124552302.17308  23341055.280    96874040.44306
  20476958.980   109614761.80209  20476961.100    85255935.32208
  20988681.700   112393436.22609  20988683.380    87417122.51508
  21046316.340   112386157.21508  21046320.060    87411467.53605
  22637141.400   120668707.16008  22637151.820    93853474.51805
  22679289.580   121148690.35208  22679295.260    94226786.90606
  21382592.520   114141726.85808  21382597.560    88776922.35108
  20938359.900   112006108.01409  20938365.380    87115882.69207
 15 02 25 09 17  0.0000000  0 17G01G03G06G07G09G10G17G20G23R06R07R08
                                R09R10R16R22R23
  23954163.920   125879976.26408  23954169.420    98088308.12046
  21967880.100   115441984.58609  21967881.940    89954801.97148
  21266619.700   111756840.35209  21266621.540    87083260.19748
  22754446.060   119575423.18909  22754446.280    93175653.11247
  20350992.680   106945186.83009  20350992.960    83333914.00849
  22293224.340   117151686.03208  22293224.200    91287025.68347
  23389854.260   122914513.72009  23389854.500    95777539.83847
  21340277.900   112143917.63109  21340276.240    87384863.96548
  20944692.640   110065104.29909  20944688.940    85764998.90748
  23355209.800   124627870.59008  23355216.940    96932815.64506
  20482378.180   109643769.83909  20482380.080    85278497.08508
  20980826.380   112351371.30409  20980827.960    87384405.32208
  21037972.920   112341603.14009  21037976.420    87376814.34505
  22614199.840   120546416.07908  22614210.060    93758359.34705
  22690194.440   121206941.93808  22690200.180    94272093.55207
  21402099.780   114245857.83308  21402104.760    88857912.98907
  20936916.760   111998388.02809  20936922.140    87109878.20407
 15 02 25 09 17 30.0000000  0 17G01G03G06G07G09G10G17G20G23R06R07R08
                                R09R10R16R22R23
  23974489.580   125986788.42808  23974495.300    98171538.00946
  21978182.160   115496122.41309  21978184.100    89996987.16748
  21255854.000   111700265.93909  21255855.820    87039176.21449
  22736234.580   119479721.25509  22736234.920    93101080.15448
  20349396.060   106936796.99809  20349396.400    83327376.42449
  22279427.580   117079184.21508  22279427.560    91230530.75347
  23404198.120   122989890.68208  23404198.480    95836274.99447
  21329209.640   112085753.36709  21329208.000    87339541.16248
  20952775.720   110107581.32109  20952772.160    85798097.80148
  23369375.340   124703459.40308  23369382.440    96991606.71905
  20487825.940   109672930.85309  20487827.580    85301177.82008
  20972998.020   112309450.79209  20972999.560    87351800.44108
  21029767.160   112297784.02508  21029770.540    87342732.76605
  22591288.460   120424285.57908  22591298.780    93663369.14905
  22701227.980   121265881.51308  22701233.860    94317935.28507
  21421683.200   114350395.71508  21421688.200    88939220.09007
  20935625.680   111991481.85309  20935631.060    87104506.68507
 15 02 25 09 18  0.0000000  0 17G01G03G06G07G09G10G17G20G23R06R07R08
                                R09R10R16R22R23
  23994842.440   126093743.16108  23994848.380    98254879.02446
  21988520.940   115550453.81309  21988523.160    90039323.20748
  21245175.240   111644148.48409  21245177.100    86995448.31549
  22718060.820   119384217.67009  22718061.200    93026661.78648
  20347877.120   106928815.13509  20347877.500    83321156.75349
  22265655.840   117006813.25609  22265655.760    91174137.80247
  23418583.780   123065487.89408  23418584.460    95895181.77247
  21318174.120   112027761.36009  21318172.560    87294352.57348
  20960913.720   110150346.54509  20960910.260    85831421.28148
  23383544.560   124779068.63607  23383551.620    97050413.67805
  20493302.100   109702244.30709  20493303.580    85323977.12308
  20965196.400   112267673.93709  20965198.120    87319307.31108
  21021699.520   112254702.60709  21021702.720    87309224.94705
  22568407.800   120302319.39608  22568417.900    93568506.69505
  22712389.880   121325506.31008  22712395.780    94364310.02806
  21441342.020   114455335.76108  21441347.080    89020840.01408
  20934486.780   111985389.33009  20934492.120    87099768.03407
 15 02 25 09 18 30.0000000  0 17G01G03G06G07G09G10G17G20G23R06R07R08
                                R09R10R16R22R23
  24015222.040   126200837.57308  24015228.160    98338328.86346
  21998896.380   115604978.20609  21998898.840    90081809.63248
  21234583.600   111588489.39009  21234585.560    86952077.58249
  22699925.100   119288914.22509  22699925.520    92952399.35248
  20346435.600   106921239.62309  20346436.020    83315253.71649
  22251909.040   116934573.17509  22251908.900    91117846.80547
  23433010.640   123141301.77308  23433011.580    95954257.37947
  21307171.540   111969942.29609  21307170.000    87249298.73448
  20969106.040   110193397.10909  20969102.640    85864967.09748
  23397717.480   124854698.23407  23397724.680    97109236.42905
  20498806.500   109731709.25609  20498807.880    85346894.25108
  20957421.420   112226039.81308  20957423.320    87286925.19608
  21013770.340   112212360.64608  21013773.380    87276292.26505
  22545558.720   120180521.63508  22545568.840    93473775.25206
  22723679.620   121385813.02208  22723685.460    94411215.15107
  21461075.160   114560672.63208  21461080.340    89102768.56008
  20933499.880   111980109.54009  20933505.200    87095661.47107
 15 02 25 09 19  0.0000000  0 17G01G03G06G07G09G10G17G20G23R06R07R08
                                R09R10R16R22R23
  24035628.080   126308070.39508  24035634.180    98421886.58546
  22009308.760   115659696.44109  22009311.420    90124447.10048
  21224079.700   111533291.66409  21224081.740    86909066.36149
  22681828.240   119193814.71809  22681828.680    92878295.84447
  20345071.420   106914070.27009  20345071.820    83309667.16449
  22238187.440   116862465.59309  22238187.220    91061659.04647
  23447478.340   123217329.68708  23447479.380    96013499.76047
  21296202.140   111912297.65209  21296200.580    87204380.81148
  20977352.620   110236732.51709  20977349.160    85898734.87448
  23411894.300   124930348.72908  23411901.580    97168075.43105
  20504339.360   109761326.40409  20504340.760    85369929.76508
  20949673.300   112184549.00609  20949675.100    87254654.53708
  21005980.240   112170761.57308  21005983.200    87243937.37405
  22522742.180   120058897.56008  22522752.160    93379178.88605
  22735096.800   121446800.30408  22735102.560    94458649.56807
  21480881.900   114666402.52108  21480887.180    89185002.80008
  20932664.960   111975642.89609  20932670.280    87092187.37107
 15 02 25 09 19 30.0000000  0 17G01G03G06G07G09G10G17G20G23R06R07R08
                                R09R10R16R22R23
  24056059.780   126415437.92708  24056065.640    98505549.24246
  22019757.840   115714607.07909  22019760.560    90167234.48948
  21213663.760   111478555.93209  21213665.820    86866415.13749
  22663770.480   119098920.51409  22663770.880    92804352.29847
  20343784.000   106907304.61709  20343784.360    83304395.18649
  22224490.940   116790489.70609  22224490.580    91005573.93347
  23461985.960   123293566.97508  23461986.760    96072905.29746
  21285265.840   111854826.80509  21285264.180    87159598.30748
  20985652.760   110280349.19109  20985649.180    85932721.81948
  23426074.960   125006019.18908  23426082.340    97226929.98805
  20509900.240   109791093.98409  20509901.760    85393082.28108
  20941951.600   112143199.60509  20941953.360    87222493.86908
  20998329.420   112129906.67509  20998332.340    87212161.25905
  22499958.820   119937450.28308  22499968.660    93284720.02805
  22746640.460   121508463.71308  22746646.280    94506609.86407
  21500761.100   114772519.43808  21500766.600    89267538.05508
  20931981.680   111971987.99609  20931987.000    87089344.60607
 15 02 25 09 20  0.0000000  0 18G01G03G06G07G09G10G17G20G23R06R07R08
                                R09R10R16R22R23R24
  24076516.960   126522939.46508  24076522.680    98589316.34346
  22030243.920   115769711.57309  22030246.720    90210172.95148
  21203336.500   111424285.72509  21203338.480    86824126.65048
  22645752.520   119004235.65109  22645752.900    92730571.90547
  20342573.480   106900943.06309  20342573.760    83299438.09449
  22210819.900   116718647.65308  22210819.520    90949593.07647
  23476533.200   123370012.18008  23476533.820    96132472.85546
  21274363.080   111797532.34409  21274361.400    87114953.25148
