     2.11           OBSERVATION DATA    M                   RINEX VERSION / TYPE
SPIDER V4,0,0,3554                      2015 03 18 02:44    PGM / RUN BY / DATE 
CKTS                                                        MARKER NAME         
CKTS                                                        MARKER NUMBER       
                                                            OBSERVER / AGENCY   
496659              LEICA GRX1200+GNSS  8.10/4.007          REC # / TYPE / VERS 
10321004            LEIAR25         NONE                    ANT # / TYPE        
  5190783.6897   517202.7561  3658836.0979                  APPROX POSITION XYZ 
        0.0720        0.0000        0.0000                  ANTENNA: DELTA H/E/N
     1     1                                                WAVELENGTH FACT L1/2
     4    C1    L1    P2    L2                              # / TYPES OF OBSERV 
    30.000                                                  INTERVAL            
  2015    02    25    00    00    0.0000000     GPS         TIME OF FIRST OBS   
  2015    02    25    23    59   30.0000000     GPS         TIME OF LAST OBS    
    16                                                      LEAP SECONDS        
    54                                                      # OF SATELLITES     
   G 1   819   818   818   818                              PRN / # OF OBS      
   G 2   761   761   759   759                              PRN / # OF OBS      
   G 3   852   852   852   852                              PRN / # OF OBS      
   G 4   842   842   842   842                              PRN / # OF OBS      
   G 5   490   490   490   490                              PRN / # OF OBS      
   G 6   645   645   645   645                              PRN / # OF OBS      
   G 7   665   665   664   664                              PRN / # OF OBS      
   G 9   806   806   806   806                              PRN / # OF OBS      
   G10   640   639   638   638                              PRN / # OF OBS      
   G11   777   777   777   777                              PRN / # OF OBS      
   G12   790   790   789   789                              PRN / # OF OBS      
   G13   778   778   778   778                              PRN / # OF OBS      
   G14   765   765   765   765                              PRN / # OF OBS      
   G15   592   591   591   591                              PRN / # OF OBS      
   G16   554   554   554   554                              PRN / # OF OBS      
   G17   775   774   773   773                              PRN / # OF OBS      
   G18   722   722   722   722                              PRN / # OF OBS      
   G19   666   666   666   666                              PRN / # OF OBS      
   G20   747   746   746   746                              PRN / # OF OBS      
   G21   731   731   731   731                              PRN / # OF OBS      
   G22   659   659   658   658                              PRN / # OF OBS      
   G23   750   749   749   749                              PRN / # OF OBS      
   G24   830   830   829   829                              PRN / # OF OBS      
   G25   855   855   855   855                              PRN / # OF OBS      
   G27   814   814   814   814                              PRN / # OF OBS      
   G28   615   614   613   613                              PRN / # OF OBS      
   G29   737   737   737   737                              PRN / # OF OBS      
   G30   713   713   713   713                              PRN / # OF OBS      
   G31   691   691   691   691                              PRN / # OF OBS      
   G32   765   765   765   765                              PRN / # OF OBS      
   R 1   488   488   487   487                              PRN / # OF OBS      
   R 2   551   551   551   551                              PRN / # OF OBS      
   R 3   797   797   797   797                              PRN / # OF OBS      
   R 4   762   762   761   759                              PRN / # OF OBS      
   R 5   540   540   540   540                              PRN / # OF OBS      
   R 6   688   688   687   687                              PRN / # OF OBS      
   R 7   776   776   776   776                              PRN / # OF OBS      
   R 8   767   767   767   766                              PRN / # OF OBS      
   R 9   799   799   794   793                              PRN / # OF OBS      
   R10   517   517   511   511                              PRN / # OF OBS      
   R11   530   530   522   522                              PRN / # OF OBS      
   R12   679   679   679   679                              PRN / # OF OBS      
   R13   776   776   775   775                              PRN / # OF OBS      
   R14   766   766   766   766                              PRN / # OF OBS      
   R15   599   599   599   599                              PRN / # OF OBS      
   R16   806   806   805   805                              PRN / # OF OBS      
   R17   613   613   613   613                              PRN / # OF OBS      
   R18   939   939   939   938                              PRN / # OF OBS      
   R19   993   993   993   993                              PRN / # OF OBS      
   R20   582   582   582   582                              PRN / # OF OBS      
   R21   365   365   365   361                              PRN / # OF OBS      
   R22   617   617   616   615                              PRN / # OF OBS      
   R23   656   656   651   651                              PRN / # OF OBS      
   R24   494   494   490   490                              PRN / # OF OBS      
BIT 2 OF LLI FLAGS DATA COLLECTED UNDER A/S CONDITION       COMMENT             
SNR is mapped to RINEX snr flag value [2-9]                 COMMENT             
Lx:     = 25dBHz -> 1; 26-27dBHz -> 2; 28-31dBHz -> 3       COMMENT             
       32-35dBHz -> 4; 36-38dBHz -> 5; 39-41dBHz -> 6       COMMENT             
       42-44dBHz -> 7; 45-48dBHz -> 8; >=49dBHz -> 9        COMMENT             
                                                            END OF HEADER       
 15 02 25 00 00  0.0000000  0  8G16G18G21G22G25G27G29G31
  22085276.720   116058913.97609  22085272.900    90435500.41947
  22785745.060   119739973.70409  22785741.660    93303895.37146
  21122620.460   111000122.33709  21122616.180    86493586.69948
  24291366.200   127652022.32608  24291365.500    99469119.58345
  24490604.480   128698976.65508  24490605.460   100284910.57845
  23273432.960   122302731.34008  23273432.480    95300834.07347
  23546030.940   123735214.51708  23546029.000    96417034.95046
  22563912.820   118574153.45509  22563909.600    92395425.98448
 15 02 25 00 00 30.0000000  0  8G16G18G21G22G25G27G29G31
  22070556.860   115981560.82109  22070553.020    90375225.22947
  22773075.280   119673393.11709  22773071.820    93252014.41746
  21128335.580   111030155.47409  21128331.300    86516989.13348
  24273496.160   127558117.22008  24273495.360    99395947.31045
  24509416.600   128797834.47108  24509417.860   100361942.49145
  23260631.440   122235458.36008  23260630.740    95248413.58947
  23559717.720   123807137.83108  23559715.340    96473079.09146
  22580057.900   118658996.73109  22580054.740    92461537.60547
 15 02 25 00 01  0.0000000  0  8G16G18G21G22G25G27G29G31
  22055879.580   115904431.98209  22055875.960    90315124.84147
  22760453.740   119607066.59209  22760450.420    93200331.45646
  21134120.840   111060557.54408  21134116.620    86540679.04948
  24255619.020   127464174.54808  24255618.060    99322745.71945
  24528260.400   128896858.65408  24528261.720   100439104.05145
  23247849.200   122168287.74508  23247848.800    95196072.86147
  23573411.580   123879100.00508  23573408.700    96529153.51346
  22596251.980   118744097.53209  22596248.840    92527849.88748
 15 02 25 00 01 30.0000000  0  8G16G18G21G22G25G27G29G31
  22041243.360   115827518.82609  22041239.940    90255192.54147
  22747878.860   119540985.62209  22747875.600    93148839.81946
  21139973.880   111091315.41908  21139969.680    86564646.25748
  24237733.240   127370185.75308  24237731.960    99249508.17444
  24547133.380   128996036.62608  24547134.940   100516385.46545
  23235084.280   122101208.19708  23235084.140    95143803.13047
  23587110.740   123951089.98208  23587107.800    96585249.52046
  22612492.480   118829441.87309  22612489.360    92594351.95447
 15 02 25 00 02  0.0000000  0  8G16G18G21G22G25G27G29G31
  22026648.340   115750821.81709  22026645.020    90195428.65447
  22735350.880   119475151.46308  22735347.640    93097540.49746
  21145894.140   111122426.33708  21145889.880    86588888.50348
  24219838.940   127276151.70208  24219837.340    99176235.31545
  24566035.200   129095365.36208  24566036.580   100593784.32245
  23222336.460   122034218.14608  23222336.460    95091603.13747
  23600814.960   124023105.82108  23600812.380    96641365.70946
  22628778.420   118915024.84409  22628775.360    92661039.95347
 15 02 25 00 02 30.0000000  0  8G16G18G21G22G25G27G29G31
  22012095.620   115674346.58909  22012092.100    90135837.52847
  22722871.020   119409570.01509  22722867.780    93046438.09146
  21151881.880   111153892.07408  21151877.660    86613407.28348
  24201937.140   127182078.58708  24201935.420    99102932.03245
  24584966.220   129194846.99108  24584967.200   100671302.31545
  23209606.520   121967321.07409  23209606.340    95039475.55147
  23614524.560   124095151.04608  23614521.940    96697504.80146
  22645109.960   119000847.09609  22645106.880    92727914.39248
 15 02 25 00 03  0.0000000  0  8G16G18G21G22G25G27G29G31
  21997585.400   115598094.69809  21997581.940    90076420.48247
  22710439.720   119344243.34509  22710436.540    92995534.22746
  21157936.780   111185710.66708  21157932.580    86638200.99648
  24184028.160   127087968.07008  24184026.460    99029599.59546
  24603925.980   129294479.65208  24603926.840   100748937.96844
  23196894.320   121900516.41208  23196893.420    94987419.96447
  23628239.820   124167224.91108  23628236.900    96753666.22346
  22661486.420   119086905.40109  22661483.340    92794972.79748
 15 02 25 00 03 30.0000000  0  8G16G18G21G22G25G27G29G31
  21983118.260   115522069.73409  21983114.720    90017180.26547
  22698057.660   119279174.75009  22698054.540    92944831.45446
  21164058.720   111217881.52109  21164054.440    86663269.18848
  24166112.740   126993824.16208  24166111.080    98956241.16945
  24622914.500   129394263.10107  24622914.720   100826691.20944
  23184199.600   121833805.24208  23184198.700    94935437.29647
  23641960.760   124239328.36708  23641958.200    96809850.66946
  22677907.380   119173197.93409  22677904.240    92862213.69947
 15 02 25 00 04  0.0000000  0  8G16G18G21G22G25G27G29G31
  21968694.920   115446273.87209  21968691.280    89958118.55547
  22685725.280   119214366.97809  22685721.980    92894331.90946
  21170247.380   111250403.34308  21170243.080    86688610.86848
  24148191.380   126899649.59108  24148189.820    98882858.80445
  24641931.220   129494196.08208  24641930.940   100904560.84544
  23171522.680   121767187.74109  23171521.780    94883527.57147
  23655687.460   124311461.56408  23655685.160    96866058.27346
  22694372.380   119259721.99309  22694369.160    92929635.00347
 15 02 25 00 04 30.0000000  0  8G16G18G21G22G25G27G29G31
  21954315.180   115370707.26909  21954311.320    89899235.48347
  22673442.640   119149820.93209  22673439.160    92844036.30846
  21176502.180   111283272.89708  21176497.900    86714223.52348
  24130264.400   126805444.70408  24130262.700    98809452.78545
  24660975.660   129594275.01407  24660975.280   100982544.28345
  23158863.320   121700661.76409  23158862.360    94831689.16547
  23669419.460   124383622.74709  23669416.300    96922287.80546
  22710880.500   119346472.65709  22710877.200    92997232.90247
 15 02 25 00 05  0.0000000  0  8G16G18G21G22G25G27G29G31
  21939979.800   115295373.93609  21939975.820    89840534.19347
  22661210.500   119085540.45809  22661206.900    92793947.64746
  21182823.120   111316489.71308  21182818.840    86740106.72648
  24112332.500   126711213.48908  24112330.720    98736026.27445
  24680048.140   129694500.21907  24680048.080   101060641.67245
  23146221.520   121634229.00808  23146220.380    94779923.37447
  23683156.880   124455813.39008  23683153.880    96978540.19746
  22727431.400   119433448.43409  22727428.080    93065006.19447
 15 02 25 00 05 30.0000000  0  8G16G18G21G22G25G27G29G31
  21925689.560   115220278.56209  21925685.580    89782018.34447
  22649029.800   119021530.74709  22649026.380    92744069.97946
  21189210.340   111350054.72808  21189206.000    86766261.30848
  24094396.740   126616961.47908  24094394.780    98662583.48345
  24699148.460   129794872.83108  24699148.500   101138853.90645
  23133597.720   121567891.95508  23133596.700    94728232.20247
  23696900.220   124528035.65908  23696897.400    97034817.21046
  22744025.100   119520648.83709  22744021.680    93132954.54247
 15 02 25 00 06  0.0000000  0  8G16G18G21G22G25G27G29G31
  21911443.740   115145415.88209  21911439.360    89723683.77347
  22636899.560   118957786.85409  22636896.460    92694399.45246
  21195662.220   111383959.19209  21195657.800    86792680.37548
  24076455.960   126522683.69408  24076453.960    98589120.64145
  24718275.060   129895383.91407  24718275.660   101217174.00945
  23120991.080   121501643.27309  23120990.200    94676609.89447
  23710648.160   124600282.29408  23710645.700    97091113.27146
  22760659.740   119608063.90609  22760656.100    93201070.15347
 15 02 25 00 06 30.0000000  0  8G16G18G21G22G25G27G29G31
  21897243.420   115070792.85409  21897239.220    89665535.98247
  22624821.320   118894315.73709  22624818.380    92644941.45946
  21202179.200   111418205.88009  21202174.680    86819366.06548
  24058511.580   126428387.26408  24058509.600    98515643.26145
  24737428.520   129996036.60307  24737429.520   101295604.47645
  23108402.140   121435487.25608  23108401.440    94625059.78547
  23724401.880   124672557.70608  23724399.320    97147431.76946
  22777335.520   119695695.06209  22777331.780    93269354.14847
 15 02 25 00 07  0.0000000  0  8G16G18G21G22G25G27G29G31
  21883089.700   114996415.03709  21883085.720    89607579.26447
  22612796.280   118831124.03009  22612793.200    92595701.18546
  21208761.780   111452797.54009  21208757.300    86846320.61948
  24040564.980   126334078.62408  24040562.980    98442156.31445
  24756609.320   130096833.44707  24756611.020   101374147.24145
  23095831.440   121369427.95508  23095830.600    94573585.03847
  23738161.640   124744865.84008  23738159.640    97203775.67247
  22794052.540   119783543.23809  22794048.920    93337807.22347
 15 02 25 00 07 30.0000000  0  8G16G18G21G22G25G27G29G31
  21868981.380   114922275.88209  21868977.860    89549808.54347
  22600822.920   118768204.33209  22600819.760    92546672.87946
  21215407.780   111487722.58708  21215403.400    86873534.95848
  24022614.820   126239750.89508  24022612.740    98368654.51345
  24775815.780   130197763.44707  24775817.460   101452793.80945
  23083277.320   121303455.93508  23083276.080    94522178.28447
  23751925.800   124817197.36008  23751923.660    97260137.84646
  22810808.500   119871596.10509  22810805.100    93406419.81447
 15 02 25 00 08  0.0000000  0  8G16G18G21G22G25G27G29G31
  21854920.240   114848383.61509  21854916.460    89492230.11848
  22588903.140   118705565.46309  22588899.900    92497863.38346
  21222118.140   111522985.88008  21222113.800    86901012.84048
  24004662.740   126145412.77708  24004660.520    98295144.60545
  24795048.560   130298831.38708  24795050.600   101531547.79244
  23070741.120   121237577.36308  23070739.720    94470844.30447
  23765695.620   124889558.28408  23765693.080    97316522.94445
  22827604.040   119959857.04809  22827600.780    93475194.54247
 15 02 25 00 08 30.0000000  0  8G16G18G21G22G25G27G29G31
  21840906.480   114774740.18609  21840902.580    89434845.62448
  22577037.320   118643209.51709  22577034.080    92449274.35846
  21228892.540   111558585.35608  21228888.220    86928752.74148
  23986709.280   126051067.00508  23986706.840    98221628.71145
  24814307.280   130400035.73707  24814309.300   101610408.10745
  23058222.700   121171792.15108  23058221.380    94419583.13847
  23779470.960   124961948.07908  23779468.280    97372930.55246
  22844438.540   120048322.81109  22844435.340    93544128.89147
 15 02 25 00 09  0.0000000  0  7G16G18G21G22G27G29G31
  21826940.740   114701349.25209  21826936.640    89377657.89148
  22565225.980   118581140.51109  22565222.900    92400908.94146
  21235730.820   111594520.71009  21235726.480    86956754.26648
  23968755.000   125956716.93708  23968752.180    98148109.45446
  23045721.920   121106101.15508  23045720.820    94368395.41247
  23793251.900   125034368.13008  23793249.920    97429361.69446
  22861311.660   120136991.44009  22861308.400    93613221.29847
 15 02 25 00 09 30.0000000  0  7G16G18G21G22G27G29G31
  21813022.860   114628209.38909  21813018.580    89320665.76848
  22553468.880   118519357.23009  22553465.900    92352766.12846
  21242632.100   111630787.01009  21242627.700    86985013.70248
  23950799.640   125862361.72408  23950796.640    98074586.22545
  23033238.600   121040501.16008  23033237.140    94317278.50247
  23807037.900   125106815.00308  23807036.640    97485813.74346
  22878222.220   120225856.76209  22878218.860    93682466.95447
 15 02 25 00 10  0.0000000  0  7G16G18G21G22G27G29G31
  21799152.920   114555321.89209  21799148.380    89263870.31047
  22541766.580   118457861.74109  22541763.580    92304847.59246
  21249595.840   111667381.49009  21249591.380    87013528.90048
  23932843.640   125768003.54708  23932840.520    98001060.64745
  23020772.480   120974991.20409  23020771.000    94266231.77747
  23820829.220   125179287.89309  23820827.780    97542286.11746
  22895169.460   120314914.96409  22895165.960    93751862.92847
 15 02 25 00 10 30.0000000  0  7G16G18G21G22G27G29G31
  21785331.800   114482691.66609  21785327.420    89207275.37247
  22530120.040   118396658.82609  22530116.900    92257157.01946
  21256622.180   111704305.18508  21256617.700    87042300.61648
  23914887.980   125673647.34608  23914884.780    97927536.59746
  23008324.100   120909573.95608  23008322.880    94215257.34147
  23834625.840   125251788.87708  23834623.960    97598780.36346
  22912153.340   120404165.81209  22912149.760    93821409.00347
 15 02 25 00 11  0.0000000  0  7G16G18G21G22G27G29G31
  21771560.520   114410323.50109  21771556.460    89150884.61048
  22518530.040   118335752.97509  22518526.780    92209697.94146
  21263711.220   111741558.95408  21263706.900    87071329.50948
  23896933.680   125579298.21108  23896930.480    97854018.07146
  22995893.800   120844251.83409  22995893.060    94164357.03347
  23848428.220   125324320.98408  23848426.300    97655298.81046
  22929173.780   120493608.62509  22929170.120    93891104.66747
 15 02 25 00 11 30.0000000  0  7G16G18G21G22G27G29G31
  21757838.720   114338215.93209  21757834.880    89094696.90648
  22506996.360   118275143.14109  22506993.120    92162469.51946
  21270862.040   111779137.46008  21270857.860    87100611.48848
  23878980.560   125484955.18708  23878977.280    97780504.27646
  22983480.900   120779021.32009  22983479.820    94113528.03947
  23862235.660   125396880.45908  23862234.120    97711838.62446
  22946229.520   120583236.90709  22946225.800    93960944.86347
 15 02 25 00 12  0.0000000  0  7G16G18G21G22G27G29G31
  21744167.680   114266375.05709  21744164.020    89038717.02448
  22495520.380   118214835.90709  22495517.080    92115476.89847
  21278075.200   111817043.18708  21278071.020    87130148.40248
  23861029.660   125390624.24208  23861026.520    97706999.89346
  22971085.960   120713886.10108  22971084.460    94062773.35447
  23876048.940   125469471.18008  23876047.820    97768402.73346
  22963320.700   120673051.59109  22963316.980    94030930.28747
 15 02 25 00 12 30.0000000  0  7G16G18G21G22G27G29G31
  21730547.060   114194798.17909  21730543.540    88982942.84448
  22484101.520   118154828.46809  22484098.020    92068717.87146
  21285349.300   111855268.83308  21285345.080    87159934.63848
  23843080.740   125296303.84408  23843077.740    97633503.73346
  22958708.160   120648841.17209  22958706.520    94012088.98947
  23889867.520   125542087.79608  23889866.040    97824987.10846
  22980445.740   120763044.23909  22980442.140    94101054.39447
 15 02 25 00 13  0.0000000  0  7G16G18G21G22G27G29G31
  21716976.640   114123484.74409  21716972.700    88927373.90048
  22472739.520   118095120.45809  22472735.860    92022192.14946
  21292683.620   111893810.45609  21292679.340    87189967.03348
  23825133.780   125201993.47508  23825130.840    97560015.39046
  22946347.280   120583883.87809  22946345.760    93961472.93947
  23903690.820   125614727.76008  23903688.940    97881589.69046
  22997603.720   120853209.69609  22997600.160    94171313.14747
 15 02 25 00 13 30.0000000  0  7G16G18G21G22G27G29G31
  21703458.400   114052445.77409  21703454.440    88872018.85548
  22461436.420   118035722.75509  22461432.780    91975908.24746
  21300079.360   111932674.76108  21300075.040    87220250.92848
  23807190.960   125107704.23908  23807187.820    97486543.46945
  22934004.600   120519022.84908  22934003.760    93910931.91847
  23917519.860   125687399.28008  23917517.980    97938216.78146
  23014795.680   120943553.58009  23014792.100    94241710.93547
 15 02 25 00 14  0.0000000  0  7G16G18G21G22G27G29G31
  21689992.100   113981680.32109  21689988.240    88816876.96448
  22450192.240   117976634.78409  22450188.780    91929865.69546
  21307535.620   111971857.10708  21307531.180    87250782.64048
  23789252.180   125013435.69008  23789248.680    97413087.67946
  22921679.560   120454255.04108  22921678.760    93860463.49847
  23931354.360   125760100.05308  23931352.520    97994866.69746
  23032020.400   121034069.55309  23032016.800    94312242.81747
 15 02 25 00 14 30.0000000  0  7G16G18G21G22G27G29G31
  21676577.880   113911187.73509  21676573.760    88761947.66648
  22439007.000   117917856.08809  22439003.540    91884064.13447
  21315051.440   112011352.97909  21315047.100    87281558.61548
  23771317.400   124919188.08108  23771313.700    97339648.20246
  22909371.660   120389577.62008  22909370.860    93810065.50847
  23945194.020   125832826.65408  23945192.160    98051536.74546
  23049276.700   121124751.83009  23049273.140    94382904.28347
 15 02 25 00 15  0.0000000  0 14G16G18G21G22G27G29G31R02R03R15R16R17
                                R18R19
  21663216.340   113840972.59709  21663212.420    88707234.59048
  22427881.520   117859390.99609  22427877.960    91838506.93446
  21322626.960   112051162.65808  21322622.680    87312579.13648
  23753387.420   124824965.75008  23753383.620    97266228.40646
  22897081.460   120324992.78508  22897081.020    93759739.69347
  23959039.040   125905581.41408  23959037.100    98108228.73746
  23066564.540   121215599.84509  23066561.080    94453694.90347
  22434600.580   119715345.87808  22434605.740    93111953.26607
  22881623.300   122487134.18607  22881624.060    95267775.71007
  21607506.000   115463947.00708  21607509.200    89805301.75907
  19794311.980   105737670.29508  19794314.240    82240410.04108
  21932376.160   117364560.18908  21932373.720    91283547.22207
  20040820.240   106979263.77809  20040821.660    83206105.78708
  22430242.480   119986685.58108  22430240.740    93322979.49707
 15 02 25 00 15 30.0000000  0 14G16G18G21G22G27G29G31R02R03R15R16R17
                                R18R19
  21649908.240   113771038.81909  21649904.580    88652740.81548
  22416816.520   117801243.84509  22416813.000    91793197.47047
  21330262.240   112091286.34109  21330258.060    87343844.33348
  23735462.980   124730773.05408  23735459.200    97192831.71546
  22884809.220   120260502.20908  22884808.860    93709487.34747
  23972889.580   125978366.21108  23972887.640    98164944.08246
  23083883.640   121306612.51409  23083880.300    94524613.80047
  22430141.800   119691554.16308  22430147.440    93093448.67808
  22862733.340   122386015.62108  22862733.540    95189127.97606
  21630198.940   115585211.39808  21630202.380    89899618.45008
  19795488.960   105743957.31309  19795491.220    82245299.94808
  21946236.480   117438730.43108  21946233.920    91341235.14207
  20043192.300   106991926.39009  20043192.800    83215954.47308
  22418174.060   119922129.22908  22418173.260    93272769.07508
 15 02 25 00 16  0.0000000  0 14G16G18G21G22G27G29G31R02R03R15R16R17
                                R18R19
  21636654.900   113701391.85309  21636651.140    88598470.39848
  22405813.020   117743420.06509  22405809.580    91748140.01346
  21337957.620   112131725.59108  21337953.420    87375355.47148
  23717545.360   124636616.04308  23717541.580    97119462.82646
  22872555.640   120196109.05908  22872554.940    93659310.88747
  23986745.960   126051184.07908  23986743.700    98221685.30645
  23101234.060   121397789.56509  23101230.700    94595660.81647
  22425813.680   119668460.50308  22425819.600    93075486.89007
  22843886.460   122285127.84107  22843886.780    95110659.76306
  21652954.340   115706809.37008  21652957.960    89994194.59407
  19796825.300   105751095.83108  19796827.480    82250852.09308
  21960100.220   117512919.37508  21960097.980    91398937.60007
  20045609.020   107004826.82209  20045609.760    83225988.10808
  22406145.080   119857784.48508  22406145.660    93222723.20507
 15 02 25 00 16 30.0000000  0 14G16G18G21G22G27G29G31R02R03R15R16R17
                                R18R19
  21623453.640   113632017.78609  21623449.520    88544412.66347
  22394868.460   117685905.87509  22394864.940    91703323.76347
  21345709.500   112172462.25308  21345705.360    87407098.30148
  23699631.980   124542481.30008  23699628.180    97046111.26546
  22860317.560   120131797.38408  22860316.720    93609197.89347
  24000606.180   126124018.89209  24000603.040    98278439.66745
  23118612.200   121489112.15009  23118608.780    94666821.24547
  22421614.360   119646050.18709  22421619.420    93058056.64207
  22825080.620   122184459.29107  22825081.400    95032362.05207
  21675768.380   115828720.88608  21675772.100    90089014.59107
  19798318.140   105759069.31009  19798320.220    82257053.69608
  21973964.140   117587110.39808  21973961.760    91456641.72706
  20048067.020   107017947.50709  20048067.840    83236193.10408
  22394152.700   119793634.68908  22394153.560    93172828.92107
 15 02 25 00 17  0.0000000  0 14G16G18G21G22G27G29G31R02R03R15R16R17
                                R18R19
  21610307.160   113562932.55709  21610303.140    88490580.05048
  22383985.780   117628717.16609  22383982.280    91658761.13947
  21353520.240   112213508.41008  21353516.080    87439082.31848
  23681725.940   124448385.08208  23681722.160    96972789.70446
  22848097.720   120067580.86308  22848096.580    93559159.04647
  24014472.340   126196884.35408  24014468.720    98335217.94745
  23136020.080   121580591.11409  23136016.760    94738103.49547
  22417546.440   119624338.75208  22417550.420    93041170.00207
  22806319.200   122084028.23808  22806320.000    94954249.05607
  21698642.900   115950955.41208  21698646.640    90184085.86207
  19799969.780   105767891.13209  19799971.700    82263915.10008
  21987831.120   117661316.37808  21987829.280    91514357.48907
  20050568.560   107031300.95609  20050569.680    83246579.12908
  22382199.160   119729693.04908  22382200.420    93123096.61407
 15 02 25 00 17 30.0000000  0 14G16G18G21G22G27G29G31R02R03R15R16R17
                                R18R19
  21597216.560   113494140.60609  21597212.540    88436975.92648
  22373165.640   117571858.13609  22373162.380    91614455.42947
  21361390.060   112254864.71209  21361385.900    87471308.00548
  23663828.080   124354331.99908  23663824.300    96899501.78846
  22835896.180   120003461.50108  22835895.320    93509195.93947
  24028344.240   126269782.51408  24028341.240    98392021.64446
  23153457.560   121672225.32909  23153454.400    94809506.70947
  22413610.440   119603330.76609  22413613.200    93024830.47407
  22787603.360   121983841.28507  22787603.920    94876325.91606
  21721577.460   116073510.49908  21721581.100    90279406.45007
  19801780.400   105777563.05608  19801782.340    82271437.66008
  22001701.340   117735538.40808  22001700.360    91572085.71607
  20053113.860   107044887.81709  20053115.660    83257146.69408
  22370284.960   119665961.17709  22370285.200    93073527.39707
 15 02 25 00 18  0.0000000  0 14G16G18G21G22G27G29G31R02R03R15R16R17
                                R18R19
  21584181.160   113425639.26109  21584177.060    88383598.25348
  22362407.780   117515326.14109  22362404.740    91570404.54247
  21369317.620   112296524.30809  21369313.480    87503769.99748
  23645937.900   124260319.56708  23645934.180    96826245.52846
  22823712.200   119939434.22708  22823711.120    93459304.54947
  24042221.480   126342708.27508  24042219.240    98448846.86246
  23170923.060   121764006.85209  23170920.040    94881024.73547
  22409805.500   119583022.46709  22409807.580    93009035.16107
  22768933.080   121883897.77108  22768933.780    94798592.11407
  21744570.140   116196376.05908  21744573.760    90374968.50007
  19803749.100   105788079.46908  19803751.000    82279617.09508
  22015573.060   117809770.74308  22015572.900    91629821.89907
  20055701.680   107058701.50909  20055704.080    83267890.67408
  22358409.380   119602433.33109  22358408.660    93024116.85407
 15 02 25 00 18 30.0000000  0 14G16G18G21G22G27G29G31R02R03R15R16R17
                                R18R19
  21571202.260   113357434.88909  21571198.440    88330452.02548
  22351713.620   117459127.59609  22351710.500    91526613.48647
  21377303.520   112338489.83609  21377299.320    87536470.42748
  23628056.800   124166354.83508  23628053.120    96753026.42246
  22811546.660   119875503.54709  22811545.300    93409488.42647
  24056104.640   126415666.02408  24056102.980    98505697.01946
  23188416.820   121855936.95809  23188413.860    94952658.51447
  22406132.320   119563420.21509  22406133.740    92993789.01507
  22750309.940   121784206.65608  22750310.580    94721054.61507
  21767621.120   116319553.13108  21767624.640    90470772.83707
  19805876.580   105799444.24808  19805878.600    82288456.36108
  22029447.740   117884016.75208  22029447.860    91687568.81407
  20058332.600   107072744.97109  20058335.000    83278813.36208
  22346572.780   119539113.51308  22346570.840    92974868.08606
 15 02 25 00 19  0.0000000  0 14G16G18G21G22G27G29G31R02R03R15R16R17
                                R18R19
  21558278.320   113289519.62809  21558274.400    88277531.02848
  22341081.700   117403255.50509  22341078.300    91483076.80647
  21385345.360   112380749.74108  21385341.100    87569400.25248
  23610183.540   124072430.80008  23610179.840    96679839.01446
  22799397.540   119811659.69009  22799396.600    93359739.97148
  24069992.480   126488646.17008  24069990.240    98562564.65945
  23205936.460   121948003.09609  23205933.520    95024398.29647
  22402589.660   119544516.00908  22402591.120    92979085.76807
  22731733.020   121684762.55207  22731733.660    94643709.24107
  21790727.820   116443027.84908  21790731.260    90566808.67907
  19808161.000   105811647.29509  19808162.980    82297947.62408
  22043322.820   117958266.23908  22043323.320    91745318.32107
  20061004.260   107087007.03409  20061007.080    83289906.04908
  22334772.540   119475991.10608  22334770.160    92925772.88406
 15 02 25 00 19 30.0000000  0 14G16G18G21G22G27G29G31R02R03R15R16R17
                                R18R19
  21545411.200   113221902.57409  21545407.200    88224842.40348
  22330513.440   117347718.38809  22330509.840    91439801.14047
  21393444.020   112423308.81209  21393439.860    87602563.13048
  23592319.800   123978556.47008  23592315.940    96606690.34546
  22787266.220   119747909.03909  22787265.460    93310064.16148
  24083885.840   126561655.19208  24083882.860    98619454.77945
  23223482.560   122040208.32608  23223479.560    95096246.47547
  22399178.980   119526317.84009  22399180.680    92964931.61007
  22713204.200   121585576.45108  22713205.000    94566564.56407
  21813890.540   116566802.11808  21813894.000    90663077.49107
  19810603.440   105824694.28608  19810605.240    82308095.22908
  22057199.880   118032524.61508  22057200.340    91803074.88007
  20063717.920   107101492.73509  20063720.060    83301172.75508
  22323010.360   119413072.06108  22323008.540    92876835.88307
 15 02 25 00 20  0.0000000  0 14G16G18G21G22G27G29G31R02R03R15R16R17
                                R18R19
  21532601.060   113154585.65609  21532597.160    88172387.69248
  22320009.160   117292517.93409  22320005.580    91396787.83747
  21401599.120   112466164.29409  21401595.040    87635957.02248
  23574466.020   123884734.37608  23574461.960    96533582.37546
  22775152.680   119684251.60209  22775151.860    93260460.97647
  24097784.560   126634692.26308  24097781.680    98676366.74246
  23241054.600   122132549.99108  23241051.560    95168200.97247
  22395900.840   119508827.31708  22395903.040    92951327.90307
  22694724.660   121486653.12708  22694725.240    94489624.20807
  21837108.320   116690870.78008  21837111.920    90759575.28507
  19813203.680   105838584.38909  19813205.500    82318898.65808
  22071078.580   118106791.32308  22071079.100    91860837.88507
  20066473.020   107116200.50809  20066475.140    83312612.12008
  22311286.160   119350355.93608  22311285.580    92828056.73407
 15 02 25 00 20 30.0000000  0 14G16G18G21G22G27G29G31R02R03R15R16R17
                                R18R19
  21519849.060   113087573.72809  21519845.260    88120170.61548
  22309570.000   117237659.26909  22309566.360    91354040.82947
  21409811.000   112509317.88308  21409806.860    87669583.19148
  23556623.040   123790969.67908  23556618.940    96460519.12746
  22763057.220   119620689.81208  22763056.240    93210932.29248
  24111689.140   126707760.66508  24111687.020    98733303.09146
  23258652.540   122225027.50309  23258649.360    95240261.29346
  22392756.340   119492048.57709  22392759.180    92938277.74507
  22676295.340   121387999.17308  22676295.400    94412893.41107
  21860380.960   116815232.37308  21860384.620    90856300.91007
  19815962.120   105853319.49908  19815963.860    82330359.26608
  22084958.840   118181067.83408  22084958.740    91918608.46107
  20069269.880   107131131.51109  20069272.080    83324225.10808
  22299599.940   119287844.53908  22299600.260    92779436.77607
 15 02 25 00 21  0.0000000  0 14G16G18G21G22G27G29G31R02R03R15R16R17
                                R18R19
  21507155.760   113020869.15009  21507151.880    88068192.99048
  22299196.240   117183144.40009  22299192.520    91311561.72947
  21418079.260   112552767.56709  21418075.000    87703440.07248
  23538791.380   123697265.01108  23538787.320    96387502.67446
  22750980.020   119557223.79708  22750979.280    93161478.27348
  24125599.340   126780860.45208  24125597.580    98790263.92745
  23276275.820   122317637.73709  23276272.280    95312425.03846
  22389745.740   119475983.33508  22389748.640    92925782.60407
  22657917.140   121289619.35308  22657917.140    94336375.79707
  21883707.760   116939882.99508  21883711.420    90953251.34507
  19818878.540   105868898.80708  19818880.280    82342476.51708
  22098841.180   118255353.57908  22098841.100    91976386.24208
  20072108.420   107146284.56209  20072110.700    83336010.84708
  22287951.800   119225537.19008  22287953.300    92730975.56508
 15 02 25 00 21 30.0000000  0 14G16G18G21G22G27G29G31R02R03R15R16R17
                                R18R19
  21494519.640   112954465.83609  21494515.620    88016450.18348
  22288886.560   117128967.24209  22288882.840    91269345.78047
  21426402.020   112596503.34109  21426397.520    87737519.91048
  23520970.200   123603615.20008  23520966.180    96314528.94546
  22738919.500   119493845.40808  22738919.060    93112092.57448
  24139514.120   126853983.20108  24139511.900    98847242.68145
  23293922.260   122410369.57009  23293918.440    95384683.55147
  22386867.720   119460624.88709  22386870.520    92913837.18207
  22639589.340   121191509.67508  22639589.580    94260068.32907
  21907086.180   117064809.93308  21907089.980    91050416.69907
  19821951.320   105885313.23008  19821953.140    82355243.26808
  22112723.380   118329639.56209  22112723.240    92034164.17807
  20074986.820   107161649.85409  20074989.000    83347961.61908
  22276340.640   119163424.97208  22276342.320    92682666.09707
 15 02 25 00 22  0.0000000  0 14G16G18G21G22G27G29G31R02R03R15R16R17
                                R18R19
  21481942.940   112888374.56709  21481938.880    87964950.44948
  22278643.160   117075138.68909  22278639.440    91227401.47847
  21434780.380   112640531.78108  21434775.760    87771827.78748
  23503161.600   123510030.90308  23503157.460    96241606.24346
  22726876.960   119430562.86808  22726876.440    93062781.51647
  24153434.840   126927137.00308  24153432.280    98904245.64945
  23311592.780   122503228.30908  23311589.040    95457040.95947
  22384124.260   119445982.90309  22384127.020    92902448.99907
  22621314.560   121093683.40908  22621315.040    94183981.26607
  21930517.040   117190017.01008  21930520.820    91147799.91507
  19825181.840   105902570.24008  19825183.760    82368665.37708
  22126607.100   118403933.42708  22126606.520    92091948.28307
  20077906.340   107177234.42309  20077908.440    83360082.93208
  22264767.820   119101516.02209  22264767.440    92634514.65806
 15 02 25 00 22 30.0000000  0 14G16G18G21G22G27G29G31R02R03R15R16R17
                                R18R19
  21469426.380   112822599.47409  21469422.360    87913697.16548
  22268467.040   117021663.02509  22268463.360    91185732.13547
  21443214.440   112684853.59109  21443209.940    87806364.24248
  23485366.440   123416517.14009  23485362.180    96168738.49646
  22714853.240   119367378.75708  22714852.540    93013547.14647
  24167361.580   127000324.40208  24167359.320    98961274.74046
  23329287.240   122596213.40208  23329283.780    95529496.84447
  22381515.540   119432061.56908  22381517.800    92891621.34507
  22603093.800   120996147.25807  22603094.580    94108119.86307
  21953999.940   117315502.70008  21954003.660    91245399.83807
  19828570.540   105920671.79208  19828572.500    82382744.35308
  22140492.380   118478236.84909  22140490.400    92149739.82606
  20080867.280   107193039.37509  20080869.240    83372375.67008
  22253233.320   119039812.18408  22253232.240    92586522.79007
 15 02 25 00 23  0.0000000  0 14G16G18G21G22G27G29G31R02R03R15R16R17
                                R18R19
  21456967.800   112757129.76109  21456964.000    87862681.82148
  22258356.020   116968529.19109  22258352.440    91144329.17647
  21451701.520   112729453.70509  21451697.080    87841117.61248
  23467582.620   123323063.16508  23467578.340    96095917.33046
  22702846.000   119304279.79609  22702845.280    92964379.11948
  24181292.640   127073532.40308  24181290.660    99018319.87945
  23347002.600   122689308.45509  23346999.400    95602038.37347
  22379038.880   119418848.78508  22379041.100    92881344.73107
  22584925.600   120898892.45408  22584926.500    94032477.28307
  21977531.600   117441248.97608  21977535.320    91343202.41507
  19832114.520   105939603.17208  19832116.560    82397468.73908
  22154376.940   118552535.90208  22154375.180    92207527.94707
  20083866.800   107209049.88709  20083868.420    83384828.31608
  22241733.840   118978299.13708  22241733.940    92538679.32607
 15 02 25 00 23 30.0000000  0 14G16G18G21G22G27G29G31R02R03R15R16R17
                                R18R19
  21444569.760   112691977.82409  21444565.880    87811914.07348
  22248312.320   116915749.33809  22248308.800    91103202.03047
  21460243.040   112774340.03408  21460238.760    87876093.96548
  23449812.620   123229681.87608  23449808.360    96023152.80646
  22690856.820   119241275.95708  22690856.280    92915285.25147
  24195229.700   127146770.82108  24195227.520    99075388.77845
  23364740.200   122782520.53008  23364737.180    95674671.06747
  22376697.200   119406355.97809  22376699.620    92871628.10207
  22566812.920   120801933.44708  22566813.620    93957064.73307
  22001113.300   117567262.29708  22001117.140    91441212.71807
  19835815.560   105959373.31108  19835817.640    82412845.50408
  22168262.480   118626839.83008  22168261.220    92265319.86607
  20086906.200   107225274.60509  20086908.320    83397447.55608
  22230271.560   118916986.41208  22230272.520    92490991.69307
 15 02 25 00 24  0.0000000  0 14G16G18G21G22G27G29G31R02R03R15R16R17
                                R18R19
  21432232.500   112627145.19509  21432228.660    87761395.14448
  22238336.240   116863324.83609  22238332.620    91062351.78647
  21468838.640   112819510.48508  21468834.480    87911291.70048
  23432056.760   123136374.90609  23432052.540    95950446.19946
  22678885.440   119178366.52708  22678884.640    92866264.93647
  24209172.420   127220038.94608  24209170.060    99132480.78246
  23382499.320   122875845.73708  23382496.440    95747391.92247
  22374491.040   119394583.76909  22374493.440    92862471.94707
  22548756.160   120705274.03408  22548756.940    93881885.22707
  22024743.720   117693535.80608  22024747.800    91539425.38107
  19839673.320   105979980.53009  19839675.340    82428873.33808
  22182148.660   118701147.37308  22182147.340    92323114.61107
  20089985.380   107241711.62709  20089987.860    83410231.86908
  22218846.940   118855872.89408  22218848.080    92443458.98407
 15 02 25 00 24 30.0000000  0 14G16G18G21G22G27G29G31R02R03R15R16R17
                                R18R19
  21419956.100   112562632.04709  21419952.240    87711125.15248
  22228427.820   116811255.56409  22228424.080    91021778.34347
  21477487.720   112864961.57108  21477483.420    87946708.11248
  23414315.340   123043143.30208  23414311.080    95877798.30846
  22666932.100   119115549.96409  22666930.620    92817316.92247
  24223120.380   127293335.06608  24223118.060    99189594.59145
  23400279.120   122969279.59508  23400276.440    95820197.43947
  22372420.240   119383531.61109  22372422.940    92853875.85208
  22530755.660   120608916.93308  22530756.500    93806940.85307
  22048421.840   117820064.15808  22048426.040    91637836.24607
  19843687.300   106001422.24208  19843689.240    82445550.19608
  22196034.680   118775456.10908  22196034.140    92380910.23607
  20093103.600   107258357.58009  20093106.160    83423178.76108
  22207459.380   118794955.89909  22207459.620    92396079.08207
 15 02 25 00 25  0.0000000  0 14G16G18G21G22G27G29G31R02R03R15R16R17
                                R18R19
  21407741.980   112498445.96109  21407737.980    87661110.02248
  22218588.560   116759549.63909  22218584.700    90981488.01647
  21486190.720   112910696.34708  21486186.420    87982345.63248
  23396589.840   122949995.07008  23396585.460    95805215.38146
  22654997.300   119052831.29909  22654996.160    92768445.26448
  24237074.400   127366664.51208  24237071.760    99246734.40445
  23418080.020   123062824.29208  23418077.600    95893089.35047
  22370485.580   119373206.12008  22370488.820    92845844.86207
  22512813.640   120512872.00808  22512814.300    93732239.27707
  22072148.000   117946849.02408  22072152.120    91736446.62907
  19847858.260   106023702.28608  19847860.120    82462879.10708
  22209922.160   118849770.30308  22209921.980    92438710.14007
  20096261.920   107275216.68309  20096264.160    83436291.34208
  22196109.440   118734240.32708  22196109.520    92348855.95907
 15 02 25 00 25 30.0000000  0 14G16G18G21G22G27G29G31R02R03R15R16R17
                                R18R19
  21395588.640   112434580.08809  21395584.700    87611344.39948
  22208817.020   116708199.69909  22208813.040    90941475.08447
  21494945.720   112956704.22408  21494941.420    88018195.91448
  23378879.000   122856923.92808  23378874.520    95732692.51646
  22643079.540   118990201.79209  22643078.480    92719643.10047
  24251033.220   127440018.04108  24251030.660    99303892.96346
  23435899.800   123156468.00708  23435897.560    95966058.38447
  22368685.320   119363599.46509  22368688.400    92838373.05507
  22494929.260   120417134.55808  22494929.640    93657776.82507
  22095919.460   118073875.93508  22095923.400    91835245.26507
  19852184.320   106046810.66808  19852186.140    82480852.28908
  22223808.960   118924080.67208  22223807.400    92496507.15806
  20099458.260   107292278.23409  20099461.100    83449561.47909
  22184795.000   118673716.23008  22184795.020    92301781.64507
 15 02 25 00 26  0.0000000  0 14G16G18G21G22G27G29G31R02R03R15R16R17
                                R18R19
  21383497.800   112371041.87709  21383493.660    87561834.09648
  22199114.460   116657212.85209  22199110.440    90901745.08847
  21503753.300   113002988.60609  21503749.060    88054261.64448
  23361184.240   122763937.67608  23361179.680    95660235.82546
  22631179.540   118927666.64108  22631177.960    92670914.37447
  24264997.620   127513400.86708  24264995.300    99361074.37046
  23453738.760   123250212.58508  23453736.660    96039106.03947
  22367020.800   119354718.17508  22367023.060    92831465.42006
  22477104.020   120321714.23507  22477103.960    93583561.06607
  22119736.540   118201146.58008  22119740.340    91934233.47407
  19856666.100   106070751.00109  19856667.940    82499472.52708
  22237695.920   118998391.66608  22237694.060    92554304.58307
  20102693.140   107309546.35009  20102696.440    83462992.21508
  22173517.300   118613388.31609  22173517.460    92254859.99407
 15 02 25 00 26 30.0000000  0 14G16G18G21G22G27G29G31R02R03R15R16R17
                                R18R19
  21371471.040   112307840.55109  21371466.860    87512586.31848
  22189482.780   116606598.49409  22189478.860    90862305.34147
  21512614.520   113049554.58409  21512610.240    88090546.82648
  23343507.360   122671045.87509  23343502.840    95587852.70346
  22619298.400   118865232.82108  22619297.060    92622264.66048
  24278968.820   127586820.27308  24278966.860    99418284.24646
  23471597.720   123344062.30808  23471595.620    96112235.59647
  22365493.740   119346570.31208  22365495.220    92825128.28407
  22459340.200   120226622.77308  22459339.820    93509601.09607
  22143599.700   118328663.80508  22143603.480    92033413.44807
  19861304.700   106095529.27308  19861306.540    82518744.48308
  22251583.900   119072710.04508  22251583.680    92612107.62508
  20105967.760   107327026.75009  20105971.020    83476588.08808
  22162278.020   118553263.02609  22162277.480    92208095.87007
 15 02 25 00 27  0.0000000  0 14G16G18G21G22G27G29G31R02R03R15R16R17
                                R18R19
  21359506.840   112244968.32709  21359502.880    87463594.98648
  22179920.400   116556348.45509  22179916.760    90823149.47647
  21521527.000   113096390.46108  21521522.860    88127042.30848
  23325847.060   122578241.20508  23325842.500    95515537.46647
  22607434.980   118802890.46709  22607434.060    92573686.22748
  24292944.900   127660266.10708  24292943.040    99475514.75446
  23489474.200   123438004.04408  23489472.080    96185436.84446
  22364102.480   119339146.90909  22364104.660    92819354.52608
  22441636.620   120131854.55708  22441636.480    93435892.52107
  22167506.160   118456412.65208  22167510.040    92132773.56707
  19866097.960   106121134.00209  19866099.960    82538659.28708
  22265471.540   119147024.72908  22265472.240    92669907.88507
  20109280.240   107344707.98709  20109283.340    83490340.12208
  22151074.240   118493329.40308  22151073.800    92161480.85007
 15 02 25 00 27 30.0000000  0 14G16G18G21G22G27G29G31R02R03R15R16R17
                                R18R19
  21347605.740   112182427.92609  21347601.720    87414862.22748
  22170427.860   116506465.35709  22170424.360    90784279.54647
  21530490.500   113143494.55708  21530486.520    88163746.81148
  23308204.040   122485526.65609  23308199.420    95443292.45846
  22595589.160   118740639.99509  22595588.400    92525179.37048
  24306926.240   127733738.86308  24306924.900    99532766.21045
  23507367.740   123532035.07708  23507365.600    96258707.71546
  22362847.400   119332449.57509  22362850.660    92814145.44908
  22423994.240   120037414.14708  22423994.300    93362438.88807
  22191455.220   118584389.37808  22191459.220    92232310.94007
  19871045.760   106147564.34709  19871047.740    82559216.20108
  22279357.560   119221335.52807  22279356.920    92727705.21706
  20112630.020   107362589.09209  20112632.560    83504247.64808
  22139905.920   118433587.53208  22139905.160    92115015.00506
 15 02 25 00 28  0.0000000  0 14G16G18G21G22G27G29G31R02R03R15R16R17
                                R18R19
  21335768.580   112120223.49809  21335764.500    87366391.23748
  22161005.900   116456953.27209  22161002.440    90745698.71947
  21539505.260   113190867.61709  21539501.300    88200660.84248
  23290579.120   122392906.48809  23290574.300    95371120.98446
  22583761.240   118678483.71409  22583760.220    92476745.90848
  24320913.220   127807240.68908  24320911.660    99590040.28145
  23525278.220   123626154.70608  23525276.120    96332047.61247
  22361729.020   119326481.37808  22361732.680    92809503.56408
  22406414.600   119943308.66808  22406414.760    93289245.77107
  22215446.460   118712591.49708  22215450.620    92332023.60907
  19876148.160   106174820.86609  19876150.140    82580415.72208
  22293243.540   119295644.28308  22293243.620    92785500.90507
  20116017.500   107380671.07909  20116020.060    83518311.42208
  22128774.040   118374038.77108  22128772.920    92068699.27707
 15 02 25 00 28 30.0000000  0 14G16G18G21G22G27G29G31R02R03R15R16R17
                                R18R19
  21323995.720   112058356.71709  21323991.580    87318183.34748
  22151654.940   116407813.73209  22151651.520    90707408.17547
  21548570.780   113238507.00709  21548566.800    88237782.45148
  23272972.820   122300384.16508  23272967.860    95299025.73546
  22571951.160   118616420.98009  22571950.260    92428385.33448
  24334905.920   127880771.01408  24334903.880    99647336.64246
  23543204.960   123720359.10009  23543202.740    96405453.51046
  22360747.080   119321242.57708  22360750.540    92805428.86907
  22388898.040   119849541.72108  22388898.420    93216315.94207
  22239478.960   118841014.18408  22239483.340    92431907.81107
  19881404.820   106202901.59609  19881406.840    82602256.25208
  22307129.320   119369949.72008  22307130.140    92843293.92107
  20119442.220   107398951.80509  20119443.900    83532529.79108
  22117677.820   118314681.77608  22117677.420    92022532.82907
 15 02 25 00 29  0.0000000  0 14G16G18G21G22G27G29G31R02R03R15R16R17
                                R18R19
  21312287.440   111996829.69009  21312283.520    87270240.19948
  22142375.200   116359048.32509  22142371.880    90669409.17247
  21557686.580   113286410.85909  21557682.700    88275110.11248
  23255385.320   122207961.60808  23255380.420    95227008.25846
  22560159.020   118554451.83609  22560158.000    92380097.71648
  24348903.900   127954329.72908  24348901.800    99704655.15845
  23561147.340   123814645.50008  23561144.980    96478923.34747
  22359901.940   119316734.29309  22359904.680    92801922.47307
  22371445.600   119756117.80208  22371446.140    93143652.93607
  22263552.120   118969654.01508  22263556.620    92531960.89307
  19886815.520   106231804.97108  19886817.480    82624736.64508
  22321014.440   119444251.11908  22321015.400    92901083.92307
  20122903.900   107417430.05009  20122905.680    83546901.74908
  22106617.480   118255515.90708  22106616.820    91976514.91407
 15 02 25 00 29 30.0000000  0 14G16G18G21G22G27G29G31R02R03R15R16R17
                                R18R19
  21300646.960   111935658.12909  21300643.000    87222574.04548
  22133169.720   116310672.58809  22133166.340    90631713.81047
  21566855.000   113334590.91608  21566851.160    88312653.02048
  23237819.780   122115654.84408  23237815.060    95155081.00646
  22548387.160   118492589.79009  22548385.760    92331893.53348
  24362909.020   128027930.63606  24362907.860    99762006.44346
  23579107.220   123909024.35608  23579104.840    96552465.20546
  22359196.960   119312970.87209  22359199.440    92798995.40107
  22354060.520   119663054.76908  22354061.220    93071270.61607
  22287667.520   119098519.23008  22287672.080    92632189.32507
  19892382.460   106261542.88109  19892384.540    82647866.13508
  22334901.520   119518561.66408  22334902.800    92958880.96108
  20126404.560   107436118.33209  20126406.740    83561437.07408
  22095595.380   118196554.19708  22095594.400    91930655.85007
 15 02 25 00 30  0.0000000  0 14G16G18G21G22G27G29G31R02R03R15R16R17
                                R18R19
  21289071.120   111874826.55309  21289067.040    87175172.79348
  22124035.500   116262671.11109  22124031.960    90594310.05947
  21576072.100   113383026.87708  21576068.120    88350395.32148
  23220273.460   122023448.75708  23220268.800    95083232.19346
  22536632.200   118430817.41509  22536630.760    92283759.19048
  24376919.080   128101555.78508  24376918.380    99819376.58645
  23597080.680   124003475.11008  23597078.260    96626063.06146
  22358628.520   119309935.41709  22358630.820    92796634.47307
  22336740.320   119570339.26808  22336740.880    92999158.57007
  22311821.100   119227588.21608  22311825.520    92732576.20007
  19898101.980   106292095.93909  19898104.340    82671629.58208
  22348786.320   119592863.10707  22348788.260    93016670.89307
  20129940.900   107454997.21608  20129943.440    83576120.63108
  22084607.420   118137778.14209  22084606.480    91884941.12007
 15 02 25 00 30 30.0000000  0 14G16G18G21G22G27G29G31R02R03R15R16R17
                                R18R19
  21277560.220   111814336.34409  21277556.200    87128037.61048
  22114972.600   116215044.91909  22114969.020    90557198.75547
  21585337.700   113431717.65808  21585333.720    88388336.19948
  23202746.740   121931345.30609  23202741.920    95011463.35646
  22524894.160   118369133.85609  22524892.880    92235694.14348
  24390934.260   128175204.23208  24390933.120    99876765.01346
  23615067.020   124097993.82608  23615064.520    96699713.94046
  22358196.100   119307627.91909  22358198.460    92794839.71107
  22319485.840   119477975.12208  22319485.880    92927319.81907
  22336011.800   119356855.39508  22336016.140    92833117.23707
  19903973.660   106323461.55908  19903976.080    82696025.05108
  22362669.300   119667154.01308  22362670.980    93074452.73207
  20133512.800   107474064.84509  20133515.280    83590951.00908
  22073653.880   118079185.96908  22073653.580    91839369.48207
 15 02 25 00 31  0.0000000  0 14G16G18G21G22G27G29G31R02R03R15R16R17
                                R18R19
  21266116.120   111754197.04909  21266112.060    87081175.83148
  22105982.720   116167803.19609  22105979.280    90520387.04747
  21594652.700   113480668.51909  21594648.800    88426479.73348
  23185241.520   121839354.73309  23185236.380    94939782.46046
  22513174.480   118307546.65109  22513172.980    92187704.10048
  24404955.400   128248883.91808  24404954.160    99934177.69845
  23633067.160   124192584.99208  23633064.760    96773421.21047
  22357901.560   119306056.68309  22357903.980    92793617.70307
  22302299.260   119385973.87508  22302299.440    92855763.34507
  22360240.180   119486323.50108  22360244.420    92933814.55307
  19909998.660   106355645.57909  19910000.940    82721057.07008
  22376551.720   119741441.28008  22376553.040    93132231.64607
  20137121.460   107493327.34309  20137123.620    83605932.94608
  22062736.260   118020784.79408  22062736.420    91793946.37908
 15 02 25 00 31 30.0000000  0 14G16G18G21G22G27G29G31R02R03R15R16R17
                                R18R19
  21254739.800   111694414.53309  21254735.920    87034592.02648
  22097067.080   116120951.45409  22097063.680    90483879.19247
  21604017.420   113529880.69308  21604013.480    88464826.86048
  23167758.860   121747483.08709  23167753.520    94868194.24446
  22501473.900   118246059.42508  22501471.980    92139791.96248
  24418982.760   128322598.01608  24418980.840    99991617.18145
  23651081.280   124287249.14308  23651079.020    96847185.35747
  22357745.840   119305225.92909  22357748.200    92792971.54807
  22285182.200   119294344.01008  22285182.300    92784495.69807
  22384506.120   119615992.36308  22384510.260    93034668.00807
  19916177.280   106388650.03609  19916179.360    82746727.17208
  22390434.400   119815727.92109  22390435.560    93190010.14307
  20140767.080   107512787.12609  20140769.100    83621068.35908
  22051855.000   117962577.22709  22051855.160    91748673.86407
 15 02 25 00 32  0.0000000  0 14G16G18G21G22G27G29G31R02R03R15R16R17
                                R18R19
  21243430.560   111634985.13409  21243426.900    86988283.41048
  22088225.040   116074486.16209  22088221.500    90447672.48647
  21613430.520   113579346.71009  21613426.580    88503371.82248
  23150298.100   121655727.33508  23150292.860    94796696.34146
  22489791.080   118184666.53309  22489789.620    92091953.39848
  24433015.840   128396340.85408  24433013.300   100049079.12745
  23669107.760   124381977.60008  23669105.480    96920999.63046
  22357728.180   119305130.60608  22357730.000    92792897.48907
  22268134.040   119203083.77608  22268134.380    92713515.55507
  22408807.720   119745851.89008  22408811.840    93135669.75507
  19922507.940   106422467.03409  19922510.060    82773029.28608
  22404315.880   119890007.94708  22404316.820    93247783.46207
  20144447.960   107532437.08709  20144450.300    83636351.63808
  22041009.000   117904557.02508  22041008.620    91703547.04907
 15 02 25 00 32 30.0000000  0 14G16G18G21G22G27G29G31R02R03R15R16R17
                                R18R19
  21232188.460   111575908.43809  21232185.060    86942249.66648
  22079456.320   116028406.32209  22079452.800    90411766.12147
  21622891.180   113629062.26008  21622887.180    88542111.20748
  23132859.420   121564087.74608  23132854.420    94725288.94146
  22478125.780   118123365.58509  22478125.120    92044186.46048
  24447054.000   128470110.26708  24447051.200   100106561.79845
  23687145.420   124476764.92208  23687143.060    96994859.73347
  22357847.940   119305768.89409  22357849.320    92793393.91307
  22251155.180   119112195.27008  22251155.700    92642824.53307
  22433143.640   119875895.25708  22433147.760    93236814.47107
  19928989.900   106457092.07109  19928991.960    82799959.85008
  22418195.040   119964277.83108  22418195.220    93305548.95007
  20148163.780   107552273.40109  20148166.520    83651779.86508
  22030197.220   117846720.81908  22030196.800    91658563.32508
 15 02 25 00 33  0.0000000  0 14G16G18G21G22G27G29G31R02R03R15R16R17
                                R18R19
  21221016.460   111517198.76909  21221012.880    86896501.86048
  22070763.620   115982726.14609  22070760.220    90376171.19747
  21632401.260   113679037.45008  21632397.060    88581052.92448
  23115445.720   121472579.02508  23115440.880    94653983.52247
  22466480.440   118062168.84709  22466479.820    91996500.68148
  24461098.980   128543918.16808  24461096.580   100164074.38946
  23705195.920   124571620.22508  23705193.420    97068772.84047
  22358107.520   119307153.55908  22358108.880    92794470.97807
  22234248.960   119021695.20508  22234249.300    92572435.61807
