     2.11           OBSERVATION DATA    M                   RINEX VERSION / TYPE
SPIDER V4,0,0,3554                      2015 03 24 08:02    PGM / RUN BY / DATE 
CNAJ                                                        MARKER NAME         
CNAJ                                                        MARKER NUMBER       
                                                            OBSERVER / AGENCY   
496642              LEICA GRX1200+GNSS  8.10/4.007          REC # / TYPE / VERS 
10321018            LEIAR25         NONE                    ANT # / TYPE        
  5206098.7325   612081.0247  3621806.3029                  APPROX POSITION XYZ 
        0.0720        0.0000        0.0000                  ANTENNA: DELTA H/E/N
     1     1                                                WAVELENGTH FACT L1/2
     4    C1    L1    P2    L2                              # / TYPES OF OBSERV 
    30.000                                                  INTERVAL            
  2015    02    25    00    00    0.0000000     GPS         TIME OF FIRST OBS   
  2015    02    25    23    59   30.0000000     GPS         TIME OF LAST OBS    
    16                                                      LEAP SECONDS        
    54                                                      # OF SATELLITES     
   G 1   810   810   810   810                              PRN / # OF OBS      
   G 2   923   923   922   922                              PRN / # OF OBS      
   G 3   851   851   851   851                              PRN / # OF OBS      
   G 4   843   843   843   843                              PRN / # OF OBS      
   G 5   608   608   606   606                              PRN / # OF OBS      
   G 6   799   799   794   794                              PRN / # OF OBS      
   G 7   670   670   668   668                              PRN / # OF OBS      
   G 9   810   810   807   807                              PRN / # OF OBS      
   G10   715   715   715   715                              PRN / # OF OBS      
   G11   779   779   779   779                              PRN / # OF OBS      
   G12   800   800   799   799                              PRN / # OF OBS      
   G13   788   788   786   786                              PRN / # OF OBS      
   G14   936   936   936   936                              PRN / # OF OBS      
   G15   699   699   699   699                              PRN / # OF OBS      
   G16   670   670   670   670                              PRN / # OF OBS      
   G17   942   942   941   941                              PRN / # OF OBS      
   G18   900   898   897   895                              PRN / # OF OBS      
   G19   758   757   757   757                              PRN / # OF OBS      
   G20   762   762   762   762                              PRN / # OF OBS      
   G21   735   735   730   730                              PRN / # OF OBS      
   G22   666   666   665   665                              PRN / # OF OBS      
   G23   754   754   748   748                              PRN / # OF OBS      
   G24   829   829   828   828                              PRN / # OF OBS      
   G25   850   850   849   849                              PRN / # OF OBS      
   G27   812   812   812   812                              PRN / # OF OBS      
   G28   872   872   871   871                              PRN / # OF OBS      
   G29   738   737   735   735                              PRN / # OF OBS      
   G30   716   716   713   713                              PRN / # OF OBS      
   G31   853   850   845   845                              PRN / # OF OBS      
   G32   768   765   763   762                              PRN / # OF OBS      
   R 1   625   625   618   618                              PRN / # OF OBS      
   R 2   769   769   754   754                              PRN / # OF OBS      
   R 3   892   892   884   872                              PRN / # OF OBS      
   R 4   900   900   891   879                              PRN / # OF OBS      
   R 5   841   841   832   832                              PRN / # OF OBS      
   R 6   692   692   666   663                              PRN / # OF OBS      
   R 7   779   779   776   776                              PRN / # OF OBS      
   R 8   765   765   753   753                              PRN / # OF OBS      
   R 9   948   948   805   797                              PRN / # OF OBS      
   R10   777   777   749   747                              PRN / # OF OBS      
   R11   587   587   573   565                              PRN / # OF OBS      
   R12   680   680   665   664                              PRN / # OF OBS      
   R13   750   750   746   746                              PRN / # OF OBS      
   R14   754   754   747   746                              PRN / # OF OBS      
   R15   760   760   746   742                              PRN / # OF OBS      
   R16   921   921   915   914                              PRN / # OF OBS      
   R17   724   724   714   714                              PRN / # OF OBS      
   R18   890   890   876   874                              PRN / # OF OBS      
   R19   930   930   923   923                              PRN / # OF OBS      
   R20   665   665   665   665                              PRN / # OF OBS      
   R21   410   410   399   395                              PRN / # OF OBS      
   R22   773   773   754   749                              PRN / # OF OBS      
   R23   824   824   779   769                              PRN / # OF OBS      
   R24   765   765   735   731                              PRN / # OF OBS      
BIT 2 OF LLI FLAGS DATA COLLECTED UNDER A/S CONDITION       COMMENT             
SNR is mapped to RINEX snr flag value [2-9]                 COMMENT             
Lx:     = 25dBHz -> 1; 26-27dBHz -> 2; 28-31dBHz -> 3       COMMENT             
       32-35dBHz -> 4; 36-38dBHz -> 5; 39-41dBHz -> 6       COMMENT             
       42-44dBHz -> 7; 45-48dBHz -> 8; >=49dBHz -> 9        COMMENT             
                                                            END OF HEADER       
 15 02 25 00 00  0.0000000  0 16G16G18G21G22G25G27G29G31R02R03R09R15
                                R16R17R18R19
  22159750.360   116450276.41608  22159744.760    90740460.78745
  22703489.060   119307675.26408  22703485.100    92967048.49145
  21108748.520   110927217.79808  21108741.980    86436780.90347
  24234683.760   127354153.87207  24234680.360    99237025.53144
  24394656.040   128194761.53508  24394656.880    99892009.94744
  23365709.680   122787643.29808  23365709.840    95678681.16546
  23478966.320   123382779.86508  23478963.460    96142406.76843
  22571227.920   118612589.86708  22571224.840    92425375.49146
  22552805.240   120346096.95208  22552808.280    93602541.53906
  23365156.180   125075513.64607  23365158.000    97280969.03505
  23054437.540   123109402.56306  23054440.440    95751775.23103
  20937581.580   111884077.12608  20937586.780    87020956.94507
  19888019.760   106238228.90608  19888020.520    82629744.06307
  21500808.900   115055163.41508  21500808.700    89487349.05607
  20043127.280   106991578.17709  20043129.040    83215694.33107
  22894008.820   122467518.27608  22894009.540    95252526.10506
 15 02 25 00 00 30.0000000  0 16G16G18G21G22G25G27G29G31R02R03R09R15
                                R16R17R18R19
  22144789.820   116371659.08508  22144784.320    90679200.53644
  22690871.440   119241369.60408  22690867.780    92915381.73344
  21114474.400   110957306.99308  21114467.880    86460227.02147
  24216719.640   127259755.11907  24216716.880    99163468.50544
  24413456.740   128293559.58908  24413457.440    99968995.28144
  23352881.500   122720231.35108  23352881.520    95626152.37946
  23492380.420   123453272.15808  23492377.800    96197335.77144
  22587181.580   118696427.07208  22587178.500    92490703.13546
  22544983.040   120304355.73209  22544985.720    93570076.15706
  23345402.660   124969770.47608  23345403.720    97198724.50504
  23033793.680   122999169.25605  23033797.260    95666038.19203
  20957929.720   111992811.87708  20957935.040    87105528.36007
  19884305.760   106218389.88108  19884306.280    82614313.69606
  21514141.640   115126508.82108  21514141.260    89542839.93407
  20043831.280   106995337.19409  20043832.980    83218618.01307
  22880897.120   122397381.19107  22880897.740    95197975.00806
 15 02 25 00 01  0.0000000  0 16G16G18G21G22G25G27G29G31R02R03R09R15
                                R16R17R18R19
  22129869.680   116293254.41108  22129864.120    90618105.98644
  22678302.040   119175317.09308  22678299.080    92863912.27245
  21120267.660   110987750.97408  21120261.360    86483949.60647
  24198747.900   127165317.12607  24198746.080    99089880.91143
  24432288.800   128392522.40307  24432289.260   100046109.00944
  23340069.720   122652904.93008  23340069.580    95573690.26846
  23505801.140   123523799.18507  23505798.880    96252291.81443
  22603182.860   118780513.95008  22603179.640    92556225.34846
  22537278.380   120263242.09209  22537280.780    93538098.90306
  23325668.600   124864131.32508  23325668.320    97116560.82104
  23013221.800   122889320.26806                                
  20978363.720   112102006.08107  20978369.260    87190457.13707
  19880747.860   106199384.43708  19880747.820    82599531.67806
  21527482.500   115197897.73008  21527482.140    89598364.63707
  20044585.300   106999362.78609  20044586.600    83221749.03307
  22867824.680   122327454.82907  22867825.220    95143587.89406
 15 02 25 00 01 30.0000000  0 16G16G18G21G22G25G27G29G31R02R03R09R15
                                R16R17R18R19
  22114989.460   116215059.94008  22114983.860    90557175.25044
  22665780.260   119109515.34908  22665778.060    92812638.25044
  21126126.960   111018542.89908  21126121.040    86507943.31147
  24180768.100   127070837.60506  24180767.660    99016260.95243
  24451150.880   128491643.60807  24451151.280   100123346.13143
  23327273.340   122585659.11308  23327272.680    95521290.93445
  23519227.520   123594356.21108  23519225.300    96307271.22444
  22619230.120   118864842.76808  22619226.640    92621936.08246
  22529690.780   120222753.79109  22529693.020    93506608.05906
  23305953.740   124758595.32508  23305952.660    97034477.35304
  22992721.860   122779854.66906  22992727.640                  
  20998881.940   112211650.32008  20998887.600    87275735.93207
  19877345.200   106181208.73208  19877344.640    82585395.01706
  21540830.300   115269323.85908  21540830.140    89653918.29307
  20045388.180   107003648.67009  20045388.940    83225082.50707
  22854790.320   122257733.78607  22854791.680    95089360.49106
 15 02 25 00 02  0.0000000  0 16G16G18G21G22G25G27G29G31R02R03R09R15
                                R16R17R18R19
  22100151.040   116137084.89408  22100145.580    90496415.47045
  22653308.200   119043974.39408  22653306.500    92761567.40744
  21132053.520   111049688.52008  21132048.020    86532212.62247
  24162782.180   126976326.02606  24162782.740    98942616.03644
  24470044.200   128590928.79807  24470043.460   100200711.08841
  23314493.560   122518500.70308  23314492.660    95468959.71945
  23532660.860   123664950.12908  23532658.820    96362279.39944
  22635323.960   118949417.22508  22635320.280    92687838.21845
  22522222.180   120182900.97508  22522224.520    93475611.45306
  23286260.340   124653174.34607  23286259.260    96952483.38104
  22972296.160   122670783.68407                                
  21019485.020   112321747.64408  21019490.560    87361367.13607
  19874099.360   106163870.73208  19874098.500    82571909.88906
  21554186.180   115340793.45608  21554186.160    89709505.74907
  20046240.900   107008200.37609  20046241.200    83228622.70406
  22841795.380   122188224.80307  22841798.000    95035297.96706
 15 02 25 00 02 30.0000000  0 16G16G18G21G22G25G27G29G31R02R03R09R15
                                R16R17R18R19
  22085353.140   116059322.26309  22085347.880    90435821.22945
  22640884.560   118978687.43408  22640883.220    92710694.48945
  21138045.340   111081177.05508  21138040.120    86556749.14947
  24144789.080   126881776.10706  24144790.420    98868941.20844
  24488966.920   128690367.38507  24488965.720   100278195.61742
  23301728.600   122451420.64508  23301727.540    95416689.57646
  23546099.520   123735571.65708  23546097.440    96417309.10444
  22651462.240   119034225.37309  22651458.420    92753922.47945
  22514871.160   120143677.16808  22514873.780    93445104.07906
  23266587.260   124547863.24706  23266586.620    96870574.93804
  22951943.780   122562102.05307                                
  21040170.740   112432285.65608  21040175.700    87447341.12306
  19871008.900   106147362.54908  19871008.060    82559070.17406
  21567548.100   115412295.64808  21567548.340    89765118.56207
  20047141.340   107013007.10909  20047141.200    83232361.26006
  22828838.420   122118918.39106  22828841.380    94981393.01306
 15 02 25 00 03  0.0000000  0 16G16G18G21G22G25G27G29G31R02R03R09R15
                                R16R17R18R19
  22070597.660   115981781.76609  22070592.560    90375400.06245
  22628511.020   118913664.56808  22628509.900    92660027.35645
  21144103.640   111113014.62708  21144098.740    86581557.65747
  24126790.620   126787197.61506  24126792.620    98795244.10244
  24507920.260   128789965.58408  24507919.740   100355804.45243
  23288979.920   122384426.47108  23288978.800    95364486.33946
  23559544.980   123806228.32108  23559542.700    96472366.21744
  22667645.960   119119272.07109  22667642.240    92820192.62545
  22507639.900   120105092.79908  22507642.820    93415094.03306
  23246936.680   124442673.88307  23246936.680    96788761.19204
  22931666.700   122453821.59607                                
  21060939.500   112543266.67008  21060943.620    87533659.68406
  19868075.320   106131692.54808  19868074.740    82546882.39206
  21580917.500   115483837.45608  21580917.860    89820762.19107
  20048090.720   107018075.27109  20048090.360    83236303.15106
  22815921.240   122049821.74408  22815923.980    94927651.22306
 15 02 25 00 03 30.0000000  0 16G16G18G21G22G25G27G29G31R02R03R09R15
                                R16R17R18R19
  22055884.460   115904463.30009  22055879.460    90315151.92145
  22616187.620   118848905.48307  22616186.700    92609565.76245
  21150227.600   111145196.89708  21150222.940    86606634.74747
  24108786.760   126692590.67006  24108789.420    98721524.85945
  24526903.340   128889719.37308  24526903.620   100433534.52244
  23276247.160   122317515.61808  23276246.040    95312348.04946
  23572996.620   123876917.30308  23572993.960    96527448.47944
  22683874.160   119204551.70409  22683870.540    92886644.26446
  22500528.640   120067148.05608  22500531.660    93385581.47805
  23227309.300   124337608.77207  23227309.840    96707043.99404
  22911465.080   122345943.70107                                
  21081789.920   112654683.58208  21081793.200    87620317.27006
  19865298.420   106116859.40808  19865298.380    82535345.49406
  21594293.580   115555415.07608  21594293.840    89876433.66007
  20049088.420   107023400.80809  20049088.040    83240445.21206
  22803043.300   121980932.12008  22803045.460    94874070.43106
 15 02 25 00 04  0.0000000  0 16G16G18G21G22G25G27G29G31R02R03R09R15
                                R16R17R18R19
  22041213.640   115827367.22308  22041208.840    90255077.04245
  22603914.560   118784411.05608  22603913.460    92559310.40745
  21156416.580   111177720.78708  21156412.120    86631978.03247
  24090778.060   126597956.46006  24090780.700    98647784.33245
  24545915.420   128989625.68008  24545916.220   100511383.43843
  23263530.100   122250686.41008  23263528.940    95260273.35546
  23586454.180   123947637.08208  23586450.580    96582554.79543
  22700145.980   119290059.85909  22700142.340    92953273.98846
  22493537.700   120029844.03408  22493540.580    93356567.24905
  23207705.600   124232670.35207  23207706.320    96625425.32904
  22891339.280   122238470.96407                                
  21102721.200   112766532.55308  21102723.880    87707310.90006
  19862677.960   106102862.32408  19862678.500    82524458.87106
  21607675.860   115627025.87708  21607676.020    89932130.93007
  20050133.800   107028980.40409  20050133.400    83244784.89406
  22790203.940   121912247.27307  22790205.780    94820648.90207
 15 02 25 00 04 30.0000000  0 16G16G18G21G22G25G27G29G31R02R03R09R15
                                R16R17R18R19
  22026586.000   115750498.25908  22026581.480    90195179.16645
  22591693.140   118720186.65008  22591691.800    92509265.41845
  21162670.780   111210587.46608  21162666.540    86657588.43747
  24072765.080   126503299.52906  24072767.520    98574026.07545
  24564956.540   129089685.39408  24564957.720   100589351.87443
  23250829.140   122183941.10608  23250827.920    95208264.06146
  23599918.200   124018390.42508  23599913.440    96637687.26844
  22716461.220   119375796.03409  22716457.680    93020081.39046
  22486668.000   119993185.63608  22486670.920    93328055.18405
  23188126.800   124127865.40607  23188127.500    96543910.51804
  22871290.420   122131409.87007                                
  21123732.620   112878809.74708  21123734.960    87794637.61206
  19860214.660   106089704.42608  19860215.560    82514224.93906
  21621064.440   115698670.89708  21621064.620    89987854.81807
  20051226.980   107034815.12909  20051226.640    83249323.02606
  22777403.300   121843769.09908  22777404.960    94767388.17107
 15 02 25 00 05  0.0000000  0 16G16G18G21G22G25G27G29G31R02R03R09R15
                                R16R17R18R19
  22012001.740   115673857.51108  22011997.400    90135459.08445
  22579523.260   118656233.11008  22579521.920    92459431.53645
  21168989.580   111243793.58608  21168985.500    86683463.33547
  24054748.160   126408621.22107  24054750.320    98500251.17845
  24584026.160   129189896.00907  24584027.820   100667437.86343
  23238143.940   122117278.57108  23238142.480    95156319.27646
  23613388.420   124089175.81808  23613383.020    96692844.70943
  22732818.940   119461755.86008  22732815.540    93087063.04846
  22479919.820   119957174.69108  22479922.700    93300046.69206
  23168573.540   124023197.51907  23168574.020    96462502.30804
  22851318.940   122024762.99006                                
  21144823.300   112991510.49008  21144825.340    87882293.75006
  19857908.520   106077385.53408  19857909.420    82504643.56506
  21634459.100   115770348.33808  21634459.200    90043603.92407
  20052367.400   107040902.21809  20052367.100    83254057.43506
  22764641.080   121775496.23608  22764642.460    94714287.11507
 15 02 25 00 05 30.0000000  0 16G16G18G21G22G25G27G29G31R02R03R09R15
                                R16R17R18R19
  21997462.400   115597453.12908  21997458.460    90075923.22245
  22567406.720   118592559.11508  22567405.340    92409815.46845
  21175373.860   111277343.43008  21175369.740    86709606.07147
  24036729.000   126313930.28007  24036731.000    98426466.42845
  24603125.060   129290261.83207  24603126.940   100745644.78544
  23225475.540   122050704.54508  23225473.860    95104443.44045
  23626865.780   124159998.91108  23626860.400    96748031.50644
  22749219.640   119547942.24308  22749216.340    93154221.23046
  22473294.560   119921819.51308  22473297.780    93272548.24806
  23149047.720   123918676.77907  23149048.280    96381208.57804
  22831426.900   121918540.48907                                
  21165993.720   113104637.90308  21165995.640    87970281.70906
  19855760.780   106065912.20908  19855761.720    82495719.84706
  21647860.640   115842062.82508  21647860.760    90099381.84907
  20053555.980   107047246.17309  20053555.540    83258991.61806
  22751918.040   121707434.23208  22751919.440    94661350.03007
 15 02 25 00 06  0.0000000  0 16G16G18G21G22G25G27G29G31R02R03R09R15
                                R16R17R18R19
  21982966.860   115521279.24608  21982963.320    90016566.97246
  22555342.560   118529159.14309  22555340.700    92360412.92745
  21181821.880   111311227.76408  21181817.560    86736009.45347
  24018706.740   126219221.35807  24018707.820    98352667.60044
  24622251.640   129390773.52107  24622253.420   100823965.36543
  23212822.320   121984211.25708  23212820.540    95052630.50646
  23640348.820   124230851.97108  23640344.100    96803241.66644
  22765661.320   119634344.62808  22765658.140    93221547.73745
  22466791.100   119887114.79608  22466794.880    93245555.71706
  23129549.040   123814300.07607  23129548.780    96300026.79201
  22811613.460   121812738.59106                                
  21187241.160   113218178.34907  21187243.240    88058590.92006
  19853770.000   106055277.37908  19853771.020    82487448.30707
  21661267.480   115913805.71008  21661267.720    90155181.85507
  20054790.980   107053837.77209  20054790.440    83264118.42706
  22739232.720   121639574.55008  22739233.880    94608570.32007
 15 02 25 00 06 30.0000000  0 16G16G18G21G22G25G27G29G31R02R03R09R15
                                R16R17R18R19
  21968516.660   115445344.26908  21968513.740    89957396.87946
  22543332.340   118466041.46609  22543329.600    92311230.31845
  21188334.400   111345450.61008  21188329.780    86762676.59547
  24000682.880   126124502.90708  24000682.840    98278861.35245
  24641406.940   129491435.38307  24641409.140   100902402.94043
  23200185.400   121917804.31708  23200183.600    95000884.85346
  23653838.580   124301740.82108  23653835.060    96858479.67944
  22782144.600   119720965.81808  22782141.700    93289044.71945
  22460411.020   119853068.90908  22460415.460    93219075.60306
  23110079.340   123710077.63008                                
  22791880.500   121707366.78507  22791881.820    94661297.03703
  21208565.840   113332133.84607  21208568.600    88147222.90307
  19851937.420   106045487.52808  19851938.620    82479833.98707
  21674680.520   115985581.71408  21674680.980    90211007.60507
  20056073.080   107060681.18509  20056072.240    83269441.09306
  22726586.040   121571922.79708  22726586.880    94555952.33707
 15 02 25 00 07  0.0000000  0 16G16G18G21G22G25G27G29G31R02R03R09R15
                                R16R17R18R19
  21954111.300   115369645.61008  21954109.120    89898410.95846
  22531375.500   118403204.51609  22531371.800    92262266.46345
  21194910.280   111380006.63808  21194905.320    86789603.37047
  23982656.880   126029773.12308  23982656.080    98205046.28945
  24660590.000   129592241.73807  24660592.360   100980953.12143
  23187564.060   121851479.65308  23187562.660    94949203.30945
  23667334.280   124372661.21908  23667332.120    96913742.24745
  22798667.960   119807798.52908  22798665.580    93356706.51645
  22454154.060   119819680.28608  22454159.060    93193106.70706
  23090638.740   123606009.63408  23090636.600                  
  22772227.920   121602425.21106  22772230.680    94579675.85703
  21229966.700   113446495.78707  21229970.120    88236171.04407
  19850262.420   106036538.87308  19850263.700    82472873.92207
  21688098.860   116057385.40008  21688099.360    90266854.90307
  20057401.200   107067770.84409  20057400.060    83274955.27206
  22713977.040   121504474.04308  22713977.440    94503492.22807
 15 02 25 00 07 30.0000000  0 16G16G18G21G22G25G27G29G31R02R03R09R15
                                R16R17R18R19
  21939751.680   115294187.06008  21939750.120    89839612.12546
  22519472.400   118340651.23309  22519468.160    92213523.66845
  21201549.220   111414894.55308  21201544.160    86816788.76247
  23964629.340   125935035.49308  23964627.920    98131225.10545
  24679800.660   129693192.01008  24679803.280   101059615.45644
  23174958.460   121785237.98108  23174957.200    94897586.45045
  23680836.200   124443614.17408  23680834.960    96969030.20745
  22815231.200   119894840.74008  22815229.280    93424531.56745
  22448020.900   119786952.09708  22448026.120    93167651.48206
  23071228.020   123502101.29608  23071226.180                  
  22752656.840   121497918.78406  22752660.480    94498393.08003
  21251443.400   113561261.53207  21251447.220    88325433.24007
  19848745.340   106028433.16508  19848746.220    82466569.47807
  21701522.400   116129216.74408  21701522.940    90322723.72207
  20058775.240   107075106.02508  20058773.540    83280660.43105
  22701406.000   121437229.22108  22701406.120    94451190.71907
 15 02 25 00 08  0.0000000  0 16G16G18G21G22G25G27G29G31R02R03R09R15
                                R16R17R18R19
  21925438.580   115218971.58508  21925437.180    89781002.68846
  22507623.700   118278385.13009  22507619.300    92165004.63845
  21208251.160   111450113.89008  21208246.180    86844232.38747
  23946600.880   125840293.39908  23946598.960    98057400.44145
  24699038.620   129794285.62108  24699041.200   101138389.49543
  23162368.840   121719080.34808  23162367.980    94846035.05045
  23694344.460   124514600.56008  23694343.920    97024344.22144
  22831834.040   119982090.57008  22831832.460    93492518.40445
  22442012.160   119754887.88708  22442017.360    93142712.69806
  23051848.020   123398358.17307  23051846.860    95976477.62704
  22733168.320   121393852.50106  22733172.600    94417452.66503
  21272995.100   113676427.24008  21272999.220    88415006.53507
  19847386.240   106021171.76408  19847386.580    82460921.71607
  21714951.120   116201075.94908  21714951.820    90378614.18307
  20060195.140   107082686.53808  20060192.800    83286556.37705
  22688873.180   121370188.23708  22688873.440    94399047.75907
 15 02 25 00 08 30.0000000  0 16G16G18G21G22G25G27G29G31R02R03R09R15
                                R16R17R18R19
  21911172.180   115144000.45408  21911170.620    89722583.63946
  22495829.680   118216407.52508  22495825.440    92116710.44645
  21215015.520   111485661.87708  21215010.880    86871932.11147
  23928571.800   125745548.83608  23928569.620    97983573.84445
  24718303.360   129895520.16908  24718305.460   101217273.37443
  23149794.900   121653005.81508  23149794.300    94794548.42445
  23707859.060   124585619.07708  23707858.720    97079683.28245
  22848475.720   120069544.02108  22848474.260    93560663.91245
  22436128.060   119723489.40508  22436133.100    93118291.68806
  23032499.500   123294783.98008  23032498.680    95895920.04604
  22713762.920   121290229.22006  22713767.780    94336856.76703
  21294620.600   113791986.78308  21294624.960    88504886.14707
  19846184.980   106014754.22408  19846185.140    82455930.28707
  21728384.560   116272960.76708  21728385.380    90434524.57907
  20061660.580   107090509.79909  20061657.640    83292641.15705
  22676378.360   121303350.05808  22676379.080    94347062.55207
 15 02 25 00 09  0.0000000  0 16G16G18G21G22G25G27G29G31R02R03R09R15
                                R16R17R18R19
  21896952.260   115069273.53908  21896950.380    89664354.87745
  22484090.480   118154718.65108  22484086.180    92068641.20145
  21221841.640   111521534.34208  21221837.400    86899884.66947
  23910542.140   125650801.48708  23910539.700    97909745.06244
  24737594.060   129996891.40307  24737595.780   101296263.68944
  23137236.080   121587011.54308  23137235.860    94743124.30545
  23721379.380   124656667.34608  23721378.940    97135045.53545
  22865155.200   120157195.32708  22865153.600    93628963.61444
  22430368.340   119692755.91108  22430373.080    93094387.89005
  23013182.860   123191380.40508  23013182.240    95815495.13604
  22694440.940   121187050.41807                                
  21316318.840   113907934.60508  21316323.360    88595067.75107
  19845141.180   106009178.36808  19845141.680    82451593.48507
  21741822.180   116344867.96908  21741823.120    90490452.39007
  20063170.760   107098571.60009  20063167.500    83298911.43805
  22663921.020   121236711.66208  22663922.140    94295232.74607
 15 02 25 00 09 30.0000000  0 16G16G18G21G22G25G27G29G31R02R03R09R15
                                R16R17R18R19
  21882780.540   114994799.67008  21882778.160    89606323.28745
  22472407.760   118093327.45808  22472403.640    92020803.93945
  21228730.600   111557736.58108  21228726.700    86928094.22047
  23892513.520   125556060.59407  23892510.960    97835921.31744
  24756911.640   130098404.73906  24756913.040   101375364.68443
  23124693.920   121521104.45908  23124694.300    94691768.16744
  23734906.620   124727752.14508  23734905.640    97190436.26945
  22881873.220   120245048.56108  22881870.900    93697420.66344
  22424734.740   119662696.81508  22424739.120    93071008.64605
  22993900.200   123088158.74208  22993899.480    95735211.72604
  22675204.320   121084326.84007                                
  21338090.240   114024273.42808  21338095.080    88685553.46207
  19844256.240   106004451.32408  19844257.260    82447916.88307
  21755264.900   116416803.41508  21755266.120    90546402.16107
  20064726.580   107106877.39108  20064723.700    83305371.51005
  22651502.180   121170279.08708  22651503.720    94243563.00706
 15 02 25 00 10  0.0000000  0 16G16G18G21G22G25G27G29G31R02R03R09R15
                                R16R17R18R19
  21868656.940   114920578.59809  21868653.920    89548488.67845
  22460781.780   118032234.39708  22460778.040    91973198.97945
  21235681.480   111594264.26408  21235677.900    86956557.35247
  23874485.960   125461326.75307  23874483.400    97762103.01444
  24776254.940   130200056.11906  24776257.000   101454573.21844
  23112167.940   121455281.91807  23112168.580    94640477.87945
  23748440.300   124798871.17808  23748438.840    97245853.66045
  22898628.720   120333098.24608  22898625.340    93766030.82044
  22419227.380   119633311.94807  22419231.080    93048153.77304
  22974651.760   122985120.88707  22974650.720    95655071.27804
  22656053.360   120982059.99907                                
  21359933.440   114140996.32608  21359938.560    88776337.88007
  19843529.960   106000571.10608  19843531.300    82444898.93507
  21768712.100   116488763.46308  21768713.700    90602371.06407
  20066327.300   107115423.33608  20066325.120    83312018.34405
  22639121.320   121104049.67908  22639122.820    94192051.22506
 15 02 25 00 10 30.0000000  0 16G16G18G21G22G25G27G29G31R02R03R09R15
                                R16R17R18R19
  21854581.640   114846611.19609  21854577.940    89490851.72045
  22449212.720   117971440.20508  22449209.520    91925826.91046
  21242693.680   111631114.35408  21242690.340    86985271.71447
  23856459.580   125366600.89507  23856456.920    97688290.94843
  24795623.860   130301842.55707  24795626.040   101533886.99844
  23099658.000   121389542.66207  23099658.860    94589252.52845
  23761979.960   124870022.47107  23761977.880    97301296.19044
  22915420.800   120421340.10808  22915416.580    93834790.72744
  22413846.700   119604602.05508  22413849.300    93025823.85004
  22955438.340   122882270.24008  22955436.840    95575076.38604
  22636988.500   120880252.71007                                
  21381847.300   114258096.84508  21381852.600    88867416.01007
  19842961.980   105997536.44208  19842963.360    82442538.64507
  21782163.420   116560746.05007  21782165.320    90658357.50607
  20067972.500   107124206.60908  20067971.020    83318849.78206
  22626778.020   121038021.29107  22626779.160    94140695.83106
 15 02 25 00 11  0.0000000  0 16G16G18G21G22G25G27G29G31R02R03R09R15
                                R16R17R18R19
  21840554.920   114772899.13409  21840550.520    89433413.74145
  22437700.900   117910946.25808  22437698.020    91878688.80245
  21249766.740   111668284.58108  21249763.600    87014235.53547
  23838434.920   125271885.09707  23838431.540    97614486.61143
  24815018.300   130403761.86207  24815020.240   101613304.34343
  23087163.940   121323885.96507  23087164.720    94538091.50445
  23775525.600   124941205.95007  23775523.200    97356763.80445
  22932248.640   120509770.39508  22932244.180    93903697.41544
  22408593.340   119576568.82008  22408594.840    93004020.21104
  22936260.740   122779610.67308  22936258.940    95495230.09004
  22618010.160   120778908.00507  22618017.180                  
  21403831.040   114375570.10508  21403836.340    88958784.07407
  19842552.180   105995346.92508  19842553.540    82440835.68207
  21795618.520   116632749.62207  21795620.740    90714360.26807
  20069661.940   107133225.20508  20069660.700    83325864.27506
  22614472.040   120972193.03708  22614471.980    94089496.04905
 15 02 25 00 11 30.0000000  0 15G16G18G21G22G27G29G31R02R03R09R15R16
                                R17R18R19
  21826576.920   114699443.52308  21826571.740    89376175.57844
  22426246.480   117850753.95708  22426243.760    91831785.74145
  21256900.320   111705772.13808  21256897.220    87043446.62347
  23820412.640   125177180.79707  23820409.020    97540691.26544
  23074685.500   121258310.75607  23074685.900    94486993.97345
  23789077.080   125012420.51707  23789074.620    97412255.62644
  22949111.180   120598385.10407  22949107.360    93972747.78045
  22403467.280   119549213.49608  22403469.340    92982743.84104
  22917119.280   122677145.37007  22917117.760    95415534.93605
  22599118.900   120678028.96707  22599121.580    93860717.82703
  21425883.800   114493411.91008  21425888.940    89050438.76107
  19842300.320   105994001.53208  19842301.660    82439789.26307
  21809077.200   116704771.88607  21809079.640    90770377.55307
  20071394.980   107142476.40808  20071393.720    83333059.65506
  22602203.240   120906563.17708  22602201.120    94038450.59505
 15 02 25 00 12  0.0000000  0 15G16G18G21G22G27G29G31R02R03R09R15R16
                                R17R18R19
  21812649.280   114626253.37108  21812643.660    89319144.25344
  22414851.220   117790872.77508  22414848.540    91785125.10745
  21264095.400   111743582.36308  21264092.240    87072909.13147
  23802394.280   125082496.91108  23802391.440    97466911.87244
  23062223.820   121192823.69407  23062224.120    94435965.11045
  23802635.400   125083672.89306  23802633.420    97467776.91744
  22966009.200   120687188.00907  22966006.420    94041944.80045
  22398470.000   119522544.96308  22398473.460    92962001.66204
  22898016.100   122574886.11008  22898015.140    95336000.04705
  22580316.760   120577626.15607  22580319.600    93782626.78303
  21448005.660   114611623.47408  21448010.720    89142381.03907
  19842207.820   105993507.47808  19842209.040    82439404.98807
  21822540.660   116776818.99608  21822543.260    90826414.16207
  20073172.480   107151965.67508  20073171.280    83340440.18806
  22589972.760   120841138.08508  22589969.280    93987564.35705
 15 02 25 00 12 30.0000000  0 15G16G18G21G22G27G29G31R02R03R09R15R16
                                R17R18R19
  21798771.020   114553324.31208  21798765.540    89262316.40545
  22403514.440   117731298.23008  22403511.820    91738703.39545
  21271350.240   111781706.30508  21271346.880    87102616.09747
  23784379.360   124987830.30108  23784377.300    97393145.92144
  23049777.620   121127418.06107  23049777.960    94384999.68845
  23816199.500   125154956.15406  23816198.200    97523322.26645
  22982941.200   120776169.10208  22982939.300    94111280.61044
  22393600.480   119496558.38508  22393605.360    92941789.90405
  22878950.800   122472829.87507  22878950.400    95256623.06505
  22561603.340   120477696.87507  22561606.040    93704904.03404
  21470194.780   114730195.20307  21470199.740    89234603.44107
  19842273.440   105993857.80508  19842274.660    82439677.45807
  21836007.740   116848883.41308  21836010.160    90882464.24907
  20074992.760   107161684.81008  20074992.220    83347999.47406
  22577779.260   120775910.19508  22577774.960    93936831.57205
 15 02 25 00 13  0.0000000  0 15G16G18G21G22G27G29G31R02R03R09R15R16
                                R17R18R19
  21784943.040   114480660.47108  21784938.340    89205695.24745
  22392236.900   117672034.56508  22392234.460    91692523.94546
  21278664.980   111820144.62708  21278661.440    87132568.03947
  23766368.500   124893184.99907  23766367.300    97319396.59845
  23037347.380   121062095.82708  23037347.800    94334099.26445
  23829770.080   125226272.35407  23829769.600    97578893.28444
  22999907.500   120865327.67108  22999905.880    94180754.77945
  22388859.580   119471258.21408  22388865.340    92922112.03305
  22859924.860   122370983.89908  22859924.880    95177409.59905
  22542979.800   120378246.93407  22542981.840    93627554.08604
  21492450.340   114849122.81207  21492455.200    89327102.65907
  19842497.580   105995054.85908  19842498.900    82440608.48607
  21849478.520   116920966.23108  21849480.520    90938528.63807
  20076856.120   107171634.25108  20076856.440    83355737.91106
  22565623.040   120710881.22408  22565619.020    93886253.51705
 15 02 25 00 13 30.0000000  0 15G16G18G21G22G27G29G31R02R03R09R15R16
                                R17R18R19
  21771165.160   114408259.57208  21771161.540    89149278.97045
  22381018.000   117613079.23908  22381015.820    91646584.76745
  21286038.240   111858890.69008  21286034.480    87162759.77247
  23748361.300   124798558.74707  23748360.620    97245662.13345
  23024932.140   120996852.25707  23024932.600    94283260.11345
  23843346.220   125297616.33407  23843346.200    97634485.95644
  23016906.560   120954656.07708  23016904.780    94250361.26845
  22384246.600   119446641.37508  22384252.740    92902965.61304
  22840938.120   122269347.21008  22840938.360    95098358.88805
  22524445.840   120279275.66907  22524447.240    93550576.43103
  21514771.020   114968398.16207  21514775.680    89419872.35206
  19842879.240   105997093.41008  19842880.640    82442194.01507
  21862951.760   116993061.54208  21862953.280    90994602.74307
  20078761.660   107181808.01608  20078762.740    83363650.84706
  22553503.100   120646045.85008  22553499.460    93835826.00405
 15 02 25 00 14  0.0000000  0 15G16G18G21G22G27G29G31R02R03R09R15R16
                                R17R18R19
  21757438.800   114336128.41708  21757436.100    89093072.90846
  22369859.340   117554439.43309  22369856.960    91600891.43246
  21293470.640   111897947.57408  21293466.560    87193193.70147
  23730359.300   124703958.93907  23730358.680    97171948.25246
  23012532.760   120931692.01908  23012533.300    94232485.94645
  23856928.960   125368993.62807  23856928.620    97690104.58644
  23033938.420   121044155.66908  23033936.200    94320101.15445
  22379762.920   119422714.93008  22379769.000    92884356.20104
  22821992.460   122167929.56308  22821992.700    95019478.56305
  22506003.000   120180791.50507  22506004.040    93473977.67603
  21537156.800   115088022.17707  21537161.480    89512913.19706
  19843419.320   105999978.43308  19843420.600    82444437.92007
  21876428.060   117065173.56408  21876429.300    91050689.85307
  20080710.060   107192209.35008  20080711.660    83371740.76606
  22541420.060   120581408.26808  22541417.360    93785552.34606
 15 02 25 00 14 30.0000000  0 15G16G18G21G22G27G29G31R02R03R09R15R16
                                R17R18R19
  21743764.260   114264268.08008  21743762.020    89037077.86046
  22358761.060   117496116.36709  22358758.040    91555444.91145
  21300961.660   111937312.47508  21300957.420    87223867.67047
  23712362.800   124609387.40308  23712362.060    97098256.40245
  23000149.080   120866614.04108  23000149.560    94181775.84645
  23870517.860   125440402.51807  23870516.700    97745747.84944
  23051002.120   121133822.41308  23050999.300    94389971.30145
  22375408.720   119399479.41208  22375414.300    92866284.15604
  22803088.460   122066734.18908  22803088.440    94940771.12105
  22487651.760   120082797.30708  22487652.880    93397759.98804
  21559606.840   115207989.60507  21559611.740    89606221.16306
  19844117.540   106003708.58708  19844118.760    82447339.15307
  21889906.900   117137300.31508  21889908.080    91106788.40407
  20082700.740   107202835.82108  20082702.900    83380005.80506
  22529373.500   120516966.64808  22529371.700    93735431.10806
 15 02 25 00 15  0.0000000  0 15G16G18G21G22G27G29G31R02R03R09R15R16
                                R17R18R19
  21730142.140   114192681.61909  21730139.860    88981296.20746
  22347723.680   117438112.73609  22347719.760    91510247.28545
  21308511.100   111976984.03008  21308506.660    87254780.56747
  23694372.440   124514847.06008  23694371.340    97024588.83645
  22987781.200   120801618.84008  22987781.640    94131130.25545
  23884113.040   125511843.86907  23884111.000    97801416.43843
  23068097.140   121223654.10908  23068093.580    94459969.97245
  22371184.380   119376937.67908  22371189.280    92848751.74504
  22784227.020   121965766.25708  22784226.340    94862240.55305
  22469392.980   119985297.57807  22469393.720    93321926.85303
  21582120.380   115328295.90607  21582125.460    89699792.69606
  19844973.980   106008284.32108  19844975.060    82450898.05307
  21903388.320   117209441.50708  21903389.500    91162898.19407
  20084733.300   107213686.41807  20084736.020    83388445.15806
  22517363.460   120452721.23308  22517362.420    93685462.46906
 15 02 25 00 15 30.0000000  0 15G16G18G21G22G27G29G31R02R03R09R15R16
                                R17R18R19
  21716573.360   114121374.29809  21716570.640    88925732.06146
  22336748.200   117380434.17109  22336743.180    91465302.95345
  21316119.140   112016963.83308  21316114.560    87285933.66247
  23676389.060   124420343.47708  23676387.240    96950949.88444
  22975429.740   120736709.49608  22975429.640    94080551.56645
  23897714.780   125583320.78807  23897711.680    97857112.73243
  23085223.360   121313650.95908  23085219.160    94530097.34245
  22367090.840   119355094.52608  22367093.680    92831762.64203
  22765409.420   121865033.40608  22765408.000    94783892.82105
  22451227.980   119888299.29107  22451228.560    93246483.71803
  21604697.180   115448939.91607  21604702.460    89793626.86907
  19845989.280   106013708.54708  19845990.240    82455116.90607
  21916872.840   117281599.56808  21916874.000    91219021.11407
  20086808.020   107224763.12007  20086811.600    83397060.36906
  22505390.520   120388674.46808  22505389.420    93635648.33906
 15 02 25 00 16  0.0000000  0 15G16G18G21G22G27G29G31R02R03R09R15R16
                                R17R18R19
  21703058.240   114050348.40809  21703054.860    88870387.21746
  22325834.900   117323082.98609  22325829.060    91420613.72445
  21323785.500   112057250.32208  21323780.860    87317325.73147
  23658413.260   124325879.56608  23658409.780    96877341.82943
  22963094.640   120671885.99008  22963093.680    94030039.77445
  23911323.080   125654833.30007  23911319.480    97912836.74944
  23102380.200   121403809.63408  23102375.620    94600350.80744
  22363128.480   119333952.11308  22363128.540    92815318.60203
  22746636.580   121764540.10408  22746634.880    94705731.39005
  22433157.300   119791806.27006  22433158.180    93171433.65102
  21627336.400   115569917.29207  21627341.860    89887720.31507
  19847163.360   106019981.07308  19847164.600    82459995.53707
  21930360.260   117353773.53108  21930361.460    91275156.39807
  20088924.740   107236064.31107  20088929.200    83405850.19907
  22493454.660   120324825.83408  22493453.560    93585988.30706
 15 02 25 00 16 30.0000000  0 15G16G18G21G22G27G29G31R02R03R09R15R16
                                R17R18R19
  21689596.340   113979602.10209  21689592.320    88815260.21546
  22314983.420   117266057.34409  22314977.340    91376178.16145
  21331508.960   112097837.19708  21331504.360    87348951.86647
  23640444.700   124231453.97208  23640438.860    96803763.54743
  22950775.100   120607144.36008  22950773.640    93979591.75344
  23924937.160   125726377.28707  23924932.900    97968585.29444
  23119566.380   121494123.24908  23119561.440    94670724.98244
  22359297.080   119313508.02108  22359295.240    92799417.69103
  22727908.480   121664286.96607  22727907.040    94627756.78305
  22415181.000   119695818.38807                                
  21650036.460   115691220.02207  21650042.120    89982066.82906
  19848495.480   106027097.49908  19848497.100    82465530.52907
  21943849.780   117425958.85608  21943851.060    91331300.51507
  20091082.620   107247584.62007  20091087.740    83414810.40807
  22481554.980   120261170.78108  22481554.020    93536478.82807
 15 02 25 00 17  0.0000000  0 15G16G18G21G22G27G29G31R02R03R09R15R16
                                R17R18R19
  21676187.880   113909137.21009  21676183.460    88760352.51446
  22304194.020   117209358.86909  22304188.100    91331997.55145
  21339289.120   112138722.47908  21339284.600    87380810.51947
  23622483.820   124137068.63008  23622476.740    96730216.64744
  22938470.920   120542484.10208  22938469.040    93929207.14045
  23938557.180   125797952.25707  23938553.380    98024357.98644
  23136781.280   121584588.39808  23136775.880    94741217.24744
  22355596.740   119293763.24807  22355594.180    92784060.68403
  22709225.800   121564277.88508  22709224.940    94549972.01505
  22397299.860   119600339.03806                                
  21672796.520   115812843.23206  21672802.260    90076662.60706
  19849985.520   106035056.84108  19849987.380    82471721.12407
  21957341.220   117498154.18908  21957342.460    91387452.43407
  20093281.260   107259322.17707  20093286.680    83423939.62307
  22469691.260   120197708.12508  22469690.620    93487118.98807
 15 02 25 00 17 30.0000000  0 15G16G18G21G22G27G29G31R02R03R09R15R16
                                R17R18R19
  21662833.820   113838959.32809  21662829.240    88705668.45146
  22293467.820   117152993.08309  22293462.160    91288076.16645
  21347126.360   112179908.03708  21347122.060    87412903.13647
  23604531.720   124042729.54508  23604525.360    96656705.80744
  22926182.720   120477908.47608  22926180.900    93878888.47744
  23952183.860   125869561.60807  23952180.660    98080157.43344
  23154025.000   121675205.23208  23154019.020    94811827.70744
  22352028.560   119274723.51108  22352026.280    92769252.03504
  22690590.200   121464520.68108  22690589.840    94472383.11705
  22379515.500   119505375.11205                                
  21695616.380   115934785.63407  21695622.120    90171506.63506
  19851633.980   106043862.07708  19851635.800    82478569.59907
  21970834.980   117570361.88008  21970836.180    91443613.94207
  20095521.040   107271279.02008  20095526.580    83433239.35806
  22457863.900   120134440.62808  22457863.580    93437910.95407
 15 02 25 00 18  0.0000000  0 15G16G18G21G22G27G29G31R02R03R09R15R16
                                R17R18R19
  21649534.900   113769072.09609  21649530.240    88651210.87046
  22282805.540   117096963.45309  22282800.380    91244416.73046
  21355020.600   112221393.13708  21355016.560    87445229.17447
  23586589.060   123948440.39308  23586583.940    96583233.92545
  22913910.640   120413418.59908  22913909.240    93828636.62745
  23965817.400   125941206.31607  23965814.660    98135984.42745
  23171297.260   121765972.01408  23171290.840    94882555.03443
  22348593.040   119256391.23807  22348591.960    92754993.61304
  22672002.760   121365021.03107  22672002.940    94394994.53906
  22361829.100   119410931.75307                                
  21718495.180   116057043.43506  21718501.100    90266596.00706
  19853440.760   106053513.88608  19853442.560    82486076.54307
  21984331.060   117642582.52608  21984332.480    91499785.54107
  20097802.220   107283454.78408  20097807.220    83442709.40406
  22446073.140   120071368.73508  22446073.060    93388855.07007
 15 02 25 00 18 30.0000000  0 15G16G18G21G22G27G29G31R02R03R09R15R16
                                R17R18R19
  21636290.420   113699472.03909  21636285.780    88596977.08246
  22272206.680   117041266.59109  22272201.880    91201016.58846
  21362970.560   112263170.72908  21362966.660    87477783.13647
  23568655.320   123854198.36608  23568651.140    96509798.76546
  22901653.660   120349009.13008  22901652.760    93778447.44645
  23979456.820   126012881.22407  23979454.260    98191834.98045
  23188596.320   121856880.11908  23188589.920    94953392.48443
  22345289.460   119238762.69107  22345289.780    92741282.53404
  22653463.260   121265777.89307  22653463.800    94317805.48706
  22344240.340   119317007.38907  22344246.700    92802121.62203
  21741431.220   116179607.62706  21741437.700    90361923.63306
  19855404.680   106064006.17208  19855406.640    82494237.20407
  21997828.380   117714809.67408  21997830.040    91555962.18307
  20100123.400   107295842.58208  20100127.460    83452344.36406
  22434317.900   120008486.52808  22434317.820    93339946.73507
 15 02 25 00 19  0.0000000  0 15G16G18G21G22G27G29G31R02R03R09R15R16
                                R17R18R19
  21623102.020   113630167.14409  21623097.340    88542973.27246
  22261672.780   116985911.19009  22261668.200    91157882.52846
  21370977.060   112305244.93408  21370973.120    87510568.22947
  23550732.220   123760012.33908  23550728.560    96436407.22446
  22889413.040   120284686.05108  22889412.520    93728325.57145
  23993103.060   126084592.36307  23993100.520    98247713.72844
  23205922.900   121947932.82508  23205917.000    95024342.57844
  22342119.280   119221845.79008  22342120.720    92728124.96705
  22634973.640   121166801.99907  22634974.460    94240824.29106
  22326750.680   119223611.62606  22326756.300    92729480.43204
  21764425.040   116302480.39306  21764432.040    90457491.28006
  19857527.040   106075344.87808  19857529.220    82503056.19807
  22011328.040   117787049.13508  22011330.000    91612148.40707
  20102485.440   107308447.33008  20102488.440    83462148.07506
  22422599.180   119945799.41708  22422598.820    93291190.12507
 15 02 25 00 19 30.0000000  0 15G16G18G21G22G27G29G31R02R03R09R15R16
                                R17R18R19
  21609969.960   113561158.72009  21609965.100    88489200.47046
  22251203.980   116930897.93709  22251199.360    91115015.07646
  21379039.480   112347612.74808  21379035.380    87543582.10647
  23532819.960   123665883.37408  23532816.620    96363060.16946
  22877188.660   120220447.96608  22877188.480    93678269.92745
  24006755.940   126156338.46607  24006753.360    98303619.73545
  23223276.260   122039125.35608  23223271.120    95095401.65444
  22339082.560   119205640.45108  22339084.640    92715520.84805
  22616534.400   121068096.31807  22616535.540    94164053.26006
  22309360.600   119130746.93107  22309365.220    92657252.36004
  21787475.560   116425655.60506  21787482.920    90553294.17507
  19859807.660   106087527.71708  19859809.960    82512531.74907
  22024829.500   117859298.65107  22024831.880    91668342.44207
  20104887.680   107321266.22208  20104889.860    83472118.32107
  22410916.480   119883305.24908  22410916.100    93242583.58006
 15 02 25 00 20  0.0000000  0 15G16G18G21G22G27G29G31R02R03R09R15R16
                                R17R18R19
  21596893.760   113492444.26508  21596888.860    88435656.74945
  22240799.820   116876224.13309  22240795.120    91072412.11846
  21387156.420   112390266.97308  21387152.120    87576819.16647
  23514918.240   123571809.67808  23514915.080    96289756.14446
  22864979.760   120156290.52308  22864979.780    93628277.11246
  24020414.580   126228114.40207  24020411.860    98359548.95644
  23240655.020   122130450.61208  23240650.640    95166564.12445
  22336178.640   119190143.85408  22336181.320    92703467.98705
  22598145.620   120969661.12307  22598147.040    94087492.61106
  22292069.960   119038412.73807  22292074.000    92585436.90004
  21810581.040   116549123.60906  21810588.440    90649324.78406
  19862245.520   106100549.36908  19862247.800    82522659.69707
  22038331.960   117931553.05208  22038334.620    91724540.27907
  20107328.840   107334293.16809  20107330.740    83482250.36907
  22399268.780   119820999.18608  22399268.400    93194123.34306
 15 02 25 00 20 30.0000000  0 15G16G18G21G22G27G29G31R02R03R09R15R16
                                R17R18R19
  21583873.940   113424026.12608  21583869.140    88382343.93045
  22230460.620   116821892.25308  22230456.060    91030075.59746
  21395327.680   112433206.77108  21395323.140    87610278.75347
  23497027.560   123477793.83808  23497024.360    96216497.18946
  22852786.260   120092213.50608  22852786.300    93578346.99345
  24034079.300   126299920.84407  24034076.400    98415502.00344
  23258058.480   122221905.45308  23258054.740    95237827.56445
  22333407.820   119175357.42208  22333410.960    92691967.44705
  22579808.160   120871500.51407  22579809.860    94011145.52806
  22274879.320   118946612.50007  22274882.760    92514036.71204
  21833740.580   116672880.23106  21833747.780    90745579.87406
  19864840.280   106114409.17908  19864842.480    82533439.53207
  22051835.160   118003811.14608  22051837.780    91780741.00207
  20109808.520   107347526.83108  20109810.460    83492543.22407
  22387655.940   119758880.27008  22387655.400    93145808.64206
 15 02 25 00 21  0.0000000  0 15G16G18G21G22G27G29G31R02R03R09R15R16
                                R17R18R19
  21570911.740   113355910.02509  21570907.120    88329266.46345
  22220187.380   116767907.64108  22220183.120    90988009.69646
  21403553.400   112476433.46608  21403548.840    87643961.88847
  23479148.780   123383841.82308  23479145.700    96143287.98646
  22840608.800   120028220.39308  22840608.680    93528482.24445
  24047750.660   126371761.17007  24047746.960    98471481.43344
  23275486.640   122313490.00308  23275483.220    95309192.07144
  22330771.000   119161286.14107  22330774.220    92681023.11505
  22561523.600   120773622.59307  22561525.520    93935018.28106
  22257789.940   118855353.27307  22257792.840    92443057.32604
  21856954.000   116796925.01205  21856960.860    90842059.08806
  19867592.320   106129109.67908  19867594.600    82544873.23207
  22065339.520   118076076.08207  22065341.980    91836947.03607
  20112327.080   107360969.47908  20112329.100    83502998.61907
  22376078.520   119696951.23308  22376077.440    93097641.62805
 15 02 25 00 21 30.0000000  0 15G16G18G21G22G27G29G31R02R03R09R15R16
                                R17R18R19
  21558007.300   113288096.18609  21558002.660    88276424.51846
  22209980.280   116714270.43209  22209976.300    90946214.47946
  21411832.900   112519943.28608  21411828.360    87677865.63847
  23461282.360   123289954.63708  23461279.240    96070129.27146
  22828447.040   119964309.29008  22828446.580    93478681.39546
  24061428.360   126443633.27007  24061423.640    98527485.65544
  23292938.520   122405199.49808  23292935.420    95380653.95145
  22328267.920   119147929.43207  22328270.980    92670634.58005
  22543292.460   120676029.69307  22543294.160    93859112.73905
  22240802.160   118764637.15507  22240804.560    92372500.37004
  21880219.980   116921251.52905  21880226.700    90938757.42306
  19870501.160   106144648.13508  19870503.720    82556958.68907
  22078844.580   118148345.13007  22078846.720    91893156.28106
  20114883.940   107374617.61708  20114885.840    83513613.84307
  22364536.200   119635209.52708  22364535.000    93049620.29706
 15 02 25 00 22  0.0000000  0 15G16G18G21G22G27G29G31R02R03R09R15R16
                                R17R18R19
  21545161.040   113220587.45709  21545156.140    88223820.31446
  22199839.940   116660983.57408  22199836.380    90904692.24946
  21420165.940   112563734.86808  21420161.460    87711988.94446
  23443428.720   123196135.03808  23443425.600    95997023.24646
  22816300.920   119900480.53308  22816300.240    93428944.72446
  24075112.220   126515537.42908  24075106.740    98583514.80243
  23310413.560   122497031.28208  23310410.740    95452211.08944
  22325898.940   119135288.91207  22325901.440    92660803.08605
  22525115.680   120578727.04908  22525116.980    93783432.91305
  22223916.620   118674467.93807  22223918.660    92302368.79504
  21903537.840   117045855.48506  21903544.420    91035671.53406
  19873566.720   106161023.98808  19873569.420    82569695.44307
  22092350.420   118220617.98207  22092352.080    91949368.46406
  20117478.880   107388470.39908  20117480.600    83524388.23607
  22353029.160   119573655.15208  22353027.740    93001744.66806
 15 02 25 00 22 30.0000000  0 15G16G18G21G22G27G29G31R02R03R09R15R16
                                R17R18R19
  21532374.280   113153391.38109  21532369.020    88171459.74046
  22189767.640   116608054.56008  22189764.700    90863448.88846
  21428553.400   112607812.21408  21428548.940    87746334.94247
  23425589.680   123102391.38308  23425586.560    95923976.38146
  22804171.560   119836739.88608  22804170.860    93379276.70546
  24088803.100   126587479.37208  24088796.920    98639573.46743
  23327912.320   122588988.09608  23327909.820    95523865.67445
  22323665.420   119123371.95807  22323667.440    92651534.36605
  22506995.020   120481724.71508  22506995.900    93707986.67605
  22207135.180   118584855.10407  22207136.840    92232669.97304
  21926907.880   117170738.76105  21926914.580    91132802.90706
  19876789.900   106178242.53208  19876792.560    82583087.63307
  22105857.860   118292899.72307  22105858.980    92005587.56406
  20120112.840   107402532.32508  20120114.460    83535325.30807
  22341558.140   119512293.12508  22341557.540    92954018.69506
 15 02 25 00 23  0.0000000  0 15G16G18G21G22G27G29G31R02R03R09R15R16
                                R17R18R19
  21519646.860   113086507.54909  21519641.260    88119342.47846
  22179763.300   116555482.80608  22179760.740    90822483.90446
  21436994.440   112652170.80908  21436990.040    87780900.11046
  23407765.080   123008723.33708  23407761.840    95850988.43245
  22792058.400   119773084.60308  22792057.820    93329675.19645
  24102500.480   126659456.68608  24102493.520    98695659.74541
  23345433.620   122681063.92708  23345431.400    95595612.98944
  22321567.360   119112177.03907  22321569.040    92642827.22805
  22488930.840   120385024.52207  22488931.200    93632775.44305
  22190458.080   118495799.37507  22190459.380    92163404.45404
  21950329.020   117295893.78606  21950335.620    91230145.63406
  19880170.000   106196299.64008  19880172.580    82597132.03007
  22119366.540   118365187.15007  22119367.000    92061811.10406
  20122785.300   107416799.19508  20122786.920    83546421.75207
  22330122.280   119451119.86308  22330122.460    92906439.53906
 15 02 25 00 23 30.0000000  0 15G16G18G21G22G27G29G31R02R03R09R15R16
                                R17R18R19
  21506979.640   113019940.67209  21506973.740    88067472.18346
  22169827.820   116503272.68408  22169825.580    90781800.70446
  21445489.140   112696810.73008  21445484.680    87815684.47846
  23389955.800   122915136.14008  23389952.440    95778063.47745
  22779961.880   119709516.95408  22779961.420    93280141.97946
  24116204.660   126731471.44508  24116197.340    98751775.11843
  23362977.500   122773258.13808  23362975.100    95667452.56044
  22319605.400   119101707.63608  22319606.800    92634684.37005
  22470924.300   120288633.09408  22470924.080    93557804.35405
  22173886.420   118407307.00008  22173887.480    92094577.07403
  21973800.640   117421319.23105  21973807.400    91327698.67206
  19883707.300   106215196.38908  19883709.800    82611829.47807
  22132876.700   118437481.68508  22132876.640    92118040.15406
  20125496.560   107431271.88208  20125498.040    83557678.28707
  22318721.880   119390137.06808  22318723.160    92859008.47906
 15 02 25 00 24  0.0000000  0 15G16G18G21G22G27G29G31R02R03R09R15R16
                                R17R18R19
