     2.11           OBSERVATION DATA    M                   RINEX VERSION / TYPE
SPIDER V4,0,0,3554                      2015 03 21 01:15    PGM / RUN BY / DATE 
CNGR                                                        MARKER NAME         
CNGR                                                        MARKER NUMBER       
                                                            OBSERVER / AGENCY   
496521              LEICA GRX1200+GNSS  8.10/4.007          REC # / TYPE / VERS 
10321004            LEIAR25         NONE                    ANT # / TYPE        
  5218738.7445   688113.1521  3590185.5476                  APPROX POSITION XYZ 
        0.0720        0.0000        0.0000                  ANTENNA: DELTA H/E/N
     1     1                                                WAVELENGTH FACT L1/2
     4    C1    L1    P2    L2                              # / TYPES OF OBSERV 
    30.000                                                  INTERVAL            
  2015    02    25    00    00    0.0000000     GPS         TIME OF FIRST OBS   
  2015    02    25    23    59   30.0000000     GPS         TIME OF LAST OBS    
    16                                                      LEAP SECONDS        
    54                                                      # OF SATELLITES     
   G 1   815   815   815   815                              PRN / # OF OBS      
   G 2   944   942   942   942                              PRN / # OF OBS      
   G 3   861   860   860   860                              PRN / # OF OBS      
   G 4   843   843   843   843                              PRN / # OF OBS      
   G 5   611   611   611   611                              PRN / # OF OBS      
   G 6   809   809   809   809                              PRN / # OF OBS      
   G 7   677   677   677   677                              PRN / # OF OBS      
   G 9   817   817   817   817                              PRN / # OF OBS      
   G10   718   717   717   717                              PRN / # OF OBS      
   G11   778   778   778   778                              PRN / # OF OBS      
   G12   816   816   816   816                              PRN / # OF OBS      
   G13   760   759   759   759                              PRN / # OF OBS      
   G14   942   942   942   942                              PRN / # OF OBS      
   G15   671   671   671   671                              PRN / # OF OBS      
   G16   667   667   667   667                              PRN / # OF OBS      
   G17   936   934   934   934                              PRN / # OF OBS      
   G18   899   899   899   899                              PRN / # OF OBS      
   G19   754   754   754   754                              PRN / # OF OBS      
   G20   750   750   750   750                              PRN / # OF OBS      
   G21   747   747   747   747                              PRN / # OF OBS      
   G22   670   670   670   670                              PRN / # OF OBS      
   G23   762   762   761   761                              PRN / # OF OBS      
   G24   827   827   827   827                              PRN / # OF OBS      
   G25   866   866   866   866                              PRN / # OF OBS      
   G27   810   810   810   810                              PRN / # OF OBS      
   G28   849   848   848   848                              PRN / # OF OBS      
   G29   750   750   750   750                              PRN / # OF OBS      
   G30   724   724   724   724                              PRN / # OF OBS      
   G31   864   864   864   864                              PRN / # OF OBS      
   G32   777   777   777   777                              PRN / # OF OBS      
   R 1   622   622   622   622                              PRN / # OF OBS      
   R 2   717   717   717   717                              PRN / # OF OBS      
   R 3   959   959   959   947                              PRN / # OF OBS      
   R 4   939   939   939   939                              PRN / # OF OBS      
   R 5   832   832   832   832                              PRN / # OF OBS      
   R 6   699   699   699   699                              PRN / # OF OBS      
   R 7   785   785   785   785                              PRN / # OF OBS      
   R 8   762   762   762   762                              PRN / # OF OBS      
   R 9  1011  1011  1011  1008                              PRN / # OF OBS      
   R10   809   809   809   808                              PRN / # OF OBS      
   R11   591   591   591   587                              PRN / # OF OBS      
   R12   690   690   690   690                              PRN / # OF OBS      
   R13   785   785   785   784                              PRN / # OF OBS      
   R14   759   759   759   759                              PRN / # OF OBS      
   R15   752   752   752   752                              PRN / # OF OBS      
   R16   991   991   991   991                              PRN / # OF OBS      
   R17   692   692   692   692                              PRN / # OF OBS      
   R18   957   957   957   957                              PRN / # OF OBS      
   R19  1003  1003  1002  1002                              PRN / # OF OBS      
   R20   708   708   708   708                              PRN / # OF OBS      
   R21   408   408   408   408                              PRN / # OF OBS      
   R22   786   786   786   786                              PRN / # OF OBS      
   R23   825   825   821   821                              PRN / # OF OBS      
   R24   752   752   752   752                              PRN / # OF OBS      
BIT 2 OF LLI FLAGS DATA COLLECTED UNDER A/S CONDITION       COMMENT             
SNR is mapped to RINEX snr flag value [2-9]                 COMMENT             
Lx:     = 25dBHz -> 1; 26-27dBHz -> 2; 28-31dBHz -> 3       COMMENT             
       32-35dBHz -> 4; 36-38dBHz -> 5; 39-41dBHz -> 6       COMMENT             
       42-44dBHz -> 7; 45-48dBHz -> 8; >=49dBHz -> 9        COMMENT             
                                                            END OF HEADER       
 15 02 25 00 00  0.0000000  0  8G16G18G21G22G25G27G29G31
  22221131.420   116772843.89009  22221127.780    90991816.13247
  22637006.340   118958375.63709  22637003.220    92694867.84246
  21099093.700   110876709.64708  21099089.560    86397513.60848
  24187935.440   127108501.95008  24187935.040    99045593.71945
  24316849.520   127786232.22208  24316851.240    99573830.68145
  23440375.020   123180011.22608  23440374.580    95984424.42447
  23426310.040   123106433.43509  23426307.420    95927236.97347
  22576574.960   118640710.57109  22576571.500    92447295.22347
 15 02 25 00 00 30.0000000  0  8G16G18G21G22G25G27G29G31
  22205978.080   116693212.67709  22205974.360    90929765.84647
  22624437.160   118892324.02109  22624433.860    92643399.08746
  21104831.880   110906864.49909  21104827.800    86421010.90348
  24169899.080   127013722.20908  24169898.440    98971739.86545
  24335633.440   127884941.69108  24335635.240    99650747.04246
  23427531.300   123112517.23208  23427530.880    95931831.73247
  23439497.120   123175733.05909  23439494.440    95981236.63547
  22592366.360   118723694.65709  22592362.900    92511958.12147
 15 02 25 00 01  0.0000000  0  8G16G18G21G22G25G27G29G31
  22190865.120   116613793.61509  22190861.340    90867880.87747
  22611917.780   118826533.98009  22611914.440    92592134.14746
  21110637.180   110937371.63808  21110633.120    86444782.70448
  24151856.800   126918911.13308  24151855.900    98897861.56745
  24354450.080   127983823.84908  24354452.180    99727797.91646
  23414703.020   123045104.29708  23414702.560    95879302.20347
  23452691.820   123245073.11008  23452689.880    96035267.76247
  22608205.800   118806931.28209  22608202.340    92576817.80647
 15 02 25 00 01 30.0000000  0  8G16G18G21G22G25G27G29G31
  22175791.680   116534581.99109  22175787.820    90806157.54647
  22599447.280   118761000.91909  22599443.960    92541069.44847
  21116507.800   110968222.00108  21116503.780    86468821.94848
  24133807.680   126824064.23208  24133806.500    98823955.33245
  24373297.920   128082869.96908  24373300.120    99804976.58245
  23401888.800   122977765.16908  23401888.240    95826830.19647
  23465893.260   123314446.57308  23465890.720    96089325.05147
  22624091.380   118890410.43109  22624087.980    92641866.47148
 15 02 25 00 02  0.0000000  0  8G16G18G21G22G25G27G29G31
  22160758.780   116455583.35209  22160754.860    90744600.18047
  22587026.880   118695731.05309  22587023.560    92490209.84947
  21122444.120   110999417.58909  21122440.180    86493130.20748
  24115752.800   126729187.21308  24115751.500    98750025.64346
  24392177.360   128182081.98608  24392179.440    99882284.50645
  23389089.240   122910503.08008  23389088.500    95774418.20947
  23479101.500   123383856.81309  23479099.520    96143410.84247
  22640023.100   118974132.12509  22640019.800    92707104.12447
 15 02 25 00 02 30.0000000  0  8G16G18G21G22G25G27G29G31
  22145766.540   116376798.58109  22145762.580    90683209.44747
  22574656.700   118630725.45709  22574653.500    92439556.16547
  21128445.580   111030955.51109  21128441.700    86517705.21348
  24097692.600   126634281.68508  24097691.220    98676073.73645
  24411087.860   128281457.18208  24411089.820    99959719.55145
  23376304.080   122843316.76308  23376303.300    95722065.27247
  23492316.300   123453302.42008  23492314.320    96197524.25246
  22656000.200   119058092.26809  22655996.920    92772527.58948
 15 02 25 00 03  0.0000000  0  8G16G18G21G22G25G27G29G31
  22130815.320   116298229.39509  22130811.320    90621986.70647
  22562337.140   118565986.30009  22562334.080    92389110.09547
  21134511.900   111062833.86209  21134507.960    86542545.48048
  24079627.300   126539349.42708  24079625.820    98602100.97446
  24430029.200   128380993.66008  24430031.020   100037280.27345
  23363533.200   122776205.74508  23363532.560    95669770.99347
  23505538.100   123522782.78308  23505536.080    96251664.80547
  22672022.100   119142287.72309  22672018.860    92838134.39548
 15 02 25 00 03 30.0000000  0  8G16G18G21G22G25G27G29G31
  22115906.340   116219882.33609  22115902.300    90560937.06747
  22550069.440   118501519.77109  22550066.540    92338876.46946
  21140643.460   111095054.90209  21140639.420    86567652.79448
  24061558.320   126444397.21908  24061556.640    98528112.65445
  24449001.660   128480694.05808  24449003.160   100114968.76145
  23350777.460   122709174.04208  23350776.940    95617538.53247
  23518767.040   123592301.99608  23518764.760    96305835.58846
  22688088.940   119226719.49609  22688085.780    92903925.37847
 15 02 25 00 04  0.0000000  0  8G16G18G21G22G25G27G29G31
  22101039.400   116141756.52009  22101035.440    90500059.80547
  22537853.640   118437325.51409  22537850.600    92288854.99146
  21146839.420   111127614.25009  21146835.220    86593023.70948
  24043485.300   126349424.86208  24043483.580    98454108.64646
  24468004.480   128580554.02808  24468005.820   100192781.58145
  23338036.220   122642218.71808  23338035.860    95565365.59347
  23532002.780   123661857.06308  23532000.960    96360034.24347
  22704199.700   119311381.88009  22704196.620    92969896.03648
 15 02 25 00 04 30.0000000  0  8G16G18G21G22G25G27G29G31
  22086214.840   116063853.29409  22086210.980    90439356.00547
  22525690.040   118373405.42509  22525687.080    92239047.15847
  21153099.260   111160509.68209  21153095.020    86618656.51748
  24025408.640   126254433.62508  24025407.060    98380089.90545
  24487037.060   128680570.96108  24487038.480   100270716.64745
  23325309.200   122575338.57508  23325308.980    95513251.22347
  23545245.340   123731447.44008  23545243.500    96414260.49447
  22720353.580   119396270.97109  22720350.540    93036043.34347
 15 02 25 00 05  0.0000000  0  8G16G18G21G22G25G27G29G31
  22071432.940   115986174.30609  22071429.220    90378826.93147
  22513578.960   118309760.98609  22513575.940    92189454.10946
  21159422.480   111193738.40609  21159418.240    86644549.02148
  24007328.800   126159425.33208  24007327.080    98306057.86445
  24506099.120   128780742.83907  24506100.580   100348772.49145
  23312596.400   122508533.10108  23312596.260    95461195.03847
  23558494.660   123801072.21408  23558492.980    96468513.51247
  22736549.900   119481382.89709  22736546.860    93102364.29047
 15 02 25 00 05 30.0000000  0  8G16G18G21G22G25G27G29G31
  22056695.540   115908728.56809  22056691.820    90318479.61347
  22501522.140   118246401.56809  22501518.940    92140083.15647
  21165810.120   111227305.52609  21165805.860    86670705.22448
  23989247.400   126064409.54008  23989245.600    98232019.99046
  24525191.580   128881074.77208  24525193.300   100426953.02246
  23299899.160   122441808.82308  23299899.060    95409202.12047
  23571751.520   123870737.92808  23571750.420    96522798.43447
  22752789.340   119566721.43109  22752786.300    93168861.80748
 15 02 25 00 06  0.0000000  0  8G16G18G21G22G25G27G29G31
  22042001.480   115831510.26709  22041997.720    90258309.51548
  22489518.520   118183321.72709  22489515.220    92090930.04847
  21172260.400   111261201.76109  21172256.100    86697117.87148
  23971163.660   125969380.95508  23971161.860    98157972.12945
  24544312.840   128981557.50608  24544314.700   100505251.04545
  23287215.940   122375157.95708  23287215.760    95357266.40647
  23585014.760   123940436.81908  23585014.140    96577109.20347
  22769069.900   119652275.98609  22769066.860    93235527.66247
 15 02 25 00 06 30.0000000  0  8G16G18G21G22G25G27G29G31
  22027351.680   115754524.47309  22027347.800    90198320.59148
  22477568.960   118120526.30309  22477565.560    92041998.57346
  21178773.460   111295427.80409  21178769.100    86723787.51148
  23953078.520   125874344.66808  23953076.500    98083918.23245
  24563463.020   129082191.86808  24563464.740   100583667.20845
  23274547.040   122308582.78508  23274546.740    95305389.67747
  23598284.880   124010171.45708  23598284.200    96631447.84847
  22785391.460   119738046.00009  22785388.400    93302361.39847
 15 02 25 00 07  0.0000000  0  8G16G18G21G22G25G27G29G31
  22012746.520   115677773.22209  22012742.600    90138514.42348
  22465673.980   118058018.36509  22465670.760    91993291.12247
  21185349.060   111329982.91309  21185344.640    86750713.58248
  23934992.480   125779303.51308  23934990.220    98009860.54545
  24582641.900   129182976.85608  24582643.800   100662200.75045
  23261892.620   122242083.76108  23261892.360    95253572.27647
  23611561.860   124079942.21408  23611561.300    96685814.62647
  22801753.480   119824028.84009  22801750.440    93369360.99148
 15 02 25 00 07 30.0000000  0  8G16G18G21G22G25G27G29G31
  21998185.820   115601256.08809  21998181.900    90078890.68448
  22453833.440   117995796.60109  22453830.420    91944806.64546
  21191986.140   111364861.55008  21191981.820    86777891.74348
  23916905.480   125684256.72208  23916903.100    97935798.43046
  24601848.560   129283907.55007  24601850.420   100740847.80945
  23249252.040   122175657.45108  23249251.880    95201811.53347
  23624845.300   124149745.85109  23624844.680    96740207.05647
  22818154.800   119910218.23809  22818151.800    93436521.52447
 15 02 25 00 08  0.0000000  0  8G16G18G21G22G25G27G29G31
  21983670.860   115524979.55809  21983667.000    90019454.43148
  22442048.700   117933868.03709  22442045.940    91896550.64347
  21198685.380   111400066.77208  21198681.120    86805324.38148
  23898818.700   125589211.24908  23898816.320    97861737.39246
  24621083.700   129384986.97008  24621085.060   100819610.75845
  23236626.240   122109308.40408  23236626.080    95150110.99947
  23638135.800   124219586.86208  23638135.080    96794628.58947
  22834595.680   119996615.85509  22834592.740    93503844.30848
 15 02 25 00 08 30.0000000  0  8G16G18G21G22G25G27G29G31
  21969201.940   115448945.35609  21969198.200    89960207.00547
  22430320.140   117872234.41609  22430317.460    91848524.45547
  21205446.380   111435596.27209  21205442.180    86833009.70648
  23880732.660   125494169.51108  23880730.180    97787679.19546
  24640346.820   129486212.98708  24640347.600   100898487.95845
  23224015.100   122043036.03208  23224014.800    95098470.20547
  23651432.940   124289464.48208  23651432.280    96849078.64647
  22851075.500   120083218.07009  22851072.620    93571326.52947
 15 02 25 00 09  0.0000000  0  8G16G18G21G22G25G27G29G31
  21954779.220   115373154.02909  21954775.580    89901148.83948
  22418647.900   117810896.53109  22418645.220    91800728.72747
  21212268.500   111471446.41009  21212264.260    86860944.87848
  23862647.460   125399131.77708  23862644.740    97713624.09046
  24659637.020   129587582.02408  24659637.700   100977476.56545
  23211418.200   121976838.18208  23211417.740    95046887.48547
  23664736.980   124359376.72509  23664736.460    96903555.67747
  22867593.280   120170019.72909  22867590.400    93638964.13847
 15 02 25 00 09 30.0000000  0  8G16G18G21G22G25G27G29G31
  21940403.660   115297610.29509  21940400.100    89842283.59047
  22407032.920   117749859.23609  22407030.120    91753167.21547
  21219151.880   111507618.39809  21219147.580    86889130.84348
  23844563.920   125304103.20708  23844561.160    97639576.16746
  24678954.680   129689095.28408  24678954.960   101056577.54845
  23198836.020   121910717.62808  23198835.360    94995365.00247
  23678048.020   124429326.46308  23678046.720    96958061.92346
  22884149.040   120257020.79809  22884146.140    93706757.14447
 15 02 25 00 10  0.0000000  0  8G16G18G21G22G25G27G29G31
  21926075.460   115222315.34609  21926071.940    89783612.20747
  22395475.520   117689124.36309  22395472.620    91705841.36547
  21226095.940   111544109.35109  21226091.560    86917565.34848
  23826482.640   125209085.84108  23826479.760    97565536.94046
  24698299.240   129790750.07208  24698299.340   101135788.78344
  23186268.280   121844673.16508  23186267.500    94943901.80247
  23691366.040   124499312.86808  23691364.500    97012596.75547
  22900742.000   120344217.20209  22900739.100    93774702.35747
 15 02 25 00 10 30.0000000  0  8G16G18G21G22G25G27G29G31
  21911795.140   115147271.71009  21911791.560    89725136.64948
  22383976.100   117628694.24809  22383973.140    91658752.97647
  21233100.380   111580917.77209  21233095.980    86946247.23848
  23808403.960   125114082.23908  23808400.860    97491508.43146
  24717670.480   129892545.13308  24717670.520   101215109.33345
  23173714.980   121778705.09208  23173714.180    94892498.12547
  23704691.040   124569335.52709  23704689.420    97067159.78546
  22917371.640   120431606.31709  22917368.740    93842797.72647
 15 02 25 00 11  0.0000000  0  8G16G18G21G22G25G27G29G31
  21897562.560   115072479.11109  21897558.960    89666856.70148
  22372534.600   117568568.31609  22372531.600    91611901.61747
  21240164.420   111618039.45009  21240160.000    86975173.21148
  23790327.900   125019092.42508  23790324.820    97417490.63446
  24737067.780   129994476.18608  24737067.760   101294535.84345
  23161175.660   121712810.72008  23161174.900    94841151.86847
  23718022.520   124639392.48608  23718020.480    97121749.61646
  22934036.920   120519182.35809  22934033.940    93911038.75247
 15 02 25 00 11 30.0000000  0  8G16G18G21G22G25G27G29G31
  21883379.080   114997944.49109  21883375.580    89608777.78948
  22361152.340   117508753.73709  22361149.160    91565292.87647
  21247288.600   111655477.42109  21247284.260    87004345.65648
  23772255.860   124924123.77108  23772252.720    97343489.34946
  24756491.560   130096546.55308  24756491.520   101374070.86845
  23148651.240   121646994.87408  23148650.580    94789866.81347
  23731361.380   124709488.50009  23731358.820    97176369.84646
  22950738.080   120606947.17009  22950735.020    93979426.88547
 15 02 25 00 12  0.0000000  0  8G16G18G21G22G25G27G29G31
  21869244.400   114923666.47509  21869240.920    89550898.82948
  22349829.080   117449249.55409  22349825.900    91518926.00947
  21254472.040   111693226.57909  21254467.760    87033760.58548
  23754187.500   124829174.72308  23754184.160    97269503.30646
  24775940.600   130198750.81308  24775940.660   101453710.27544
  23136141.040   121581253.68708  23136140.480    94738639.94147
  23744707.020   124779619.74908  23744704.660    97231017.57746
  22967473.900   120694894.08309  22967470.760    94047956.90747
 15 02 25 00 12 30.0000000  0  8G16G18G21G22G25G27G29G31
  21855160.320   114849654.28509  21855156.860    89493226.98948
  22338566.600   117390064.83209  22338563.380    91472808.06747
  21261715.580   111731291.55509  21261711.380    87063421.60748
  23736124.760   124734255.68208  23736121.400    97195540.67246
  24795415.920   130301094.25308  24795416.660   101533458.05844
  23123646.340   121515594.03708  23123645.900    94687476.60447
  23758060.260   124849793.12308  23758058.620    97285698.02646
  22984244.980   120783026.62109  22984241.860    94116631.58247
 15 02 25 00 13  0.0000000  0  8G16G18G21G22G25G27G29G31
  21841125.420   114775900.77109  21841122.080    89435756.73548
  22327363.560   117331192.47309  22327360.240    91426933.52347
  21269017.160   111769661.64809  21269013.040    87093320.38748
  23718066.400   124639359.44008  23718062.960    97121595.74746
  24814915.600   130403565.92007  24814916.600   101613305.79345
  23111165.440   121450006.56208  23111165.020    94636369.49347
  23771419.860   124919999.27208  23771417.640    97340404.17146
  23001049.080   120871332.85509  23001046.100    94185441.60447
 15 02 25 00 13 30.0000000  0  7G16G18G21G22G27G29G31
  21827142.420   114702419.76509  21827139.120    89378498.81248
  22316222.640   117272646.05509  22316219.020    91381312.95447
  21276378.560   111808346.30809  21276374.500    87123464.28248
  23700014.920   124544499.76708  23700011.660    97047679.34646
  23098700.440   121384502.65008  23098700.040    94585327.49147
  23784787.760   124990249.18008  23784786.120    97395144.31646
  23017887.820   120959821.19109  23017884.980    94254393.50947
 15 02 25 00 14  0.0000000  0  7G16G18G21G22G27G29G31
  21813209.400   114629201.20109  21813206.040    89321445.39048
  22305141.880   117214415.85309  22305138.120    91335938.80347
  21283797.200   111847331.80309  21283793.140    87153842.59348
  23681968.620   124449667.28108  23681965.480    96973784.09546
  23086249.020   121319070.12708  23086248.640    94534341.13747
  23798161.840   125060531.65408  23798160.580    97449909.82146
  23034758.280   121048476.09909  23034755.580    94323475.21647
 15 02 25 00 14 30.0000000  0  7G16G18G21G22G27G29G31
  21799326.420   114556245.41009  21799323.020    89264596.72748
  22294121.400   117156502.28009  22294117.400    91290811.35647
  21291272.400   111886614.48909  21291268.320    87184452.47248
  23663927.580   124354862.97108  23663924.720    96899910.81546
  23073810.800   121253707.01908  23073810.480    94483408.85747
  23811541.980   125130844.01008  23811540.180    97504698.68846
  23051659.560   121137292.75709  23051656.960    94392682.95447
 15 02 25 00 15  0.0000000  0 15G16G18G21G22G27G29G31R02R03R09R15R16
                                R17R18R19
  21785496.140   114483566.27009  21785492.580    89207963.63148
  22283163.680   117098918.78609  22283159.540    91245941.11847
  21298805.980   111926203.83209  21298801.840    87215301.30548
  23645894.500   124260100.51908  23645891.780    96826070.14446
  23061387.960   121188424.73308  23061387.620    94432539.55547
  23824929.820   125201198.09408  23824927.940    97559519.99746
  23068593.300   121226279.72209  23068590.700    94462023.40047
  22321554.120   119112103.80509  22321557.360    92642759.51007
  22705576.320   121544739.43108  22705577.620    94534828.83007
  22536602.640   120344193.09808  22536603.280    93601043.49904
  21561031.140   115215619.10808  21561034.720    89612163.58607
  19886608.760   106230695.35008  19886610.580    82623889.44208
  21882022.640   117095381.80608  21882021.920    91074277.37608
  20121867.920   107412114.72809  20121870.460    83542872.12408
  22587582.900   120828350.21508  22587582.900    93977611.57707
 15 02 25 00 15 30.0000000  0 15G16G18G21G22G27G29G31R02R03R09R15R16
                                R17R18R19
  21771717.580   114411159.00409  21771713.900    89151542.38348
  22272267.920   117041660.95209  22272263.780    91201324.64247
  21306396.280   111966091.34309  21306392.120    87246382.47848
  23627868.620   124165375.52208  23627865.980    96752258.64746
  23048979.160   121123216.28808  23048978.860    94381727.80047
  23838324.520   125271586.87108  23838322.920    97614368.37247
  23085557.580   121315427.20009  23085554.940    94531488.91447
  22317762.900   119091872.56309  22317765.680    92627024.09807
  22686825.440   121444364.42208  22686826.520    94456759.39507
  22518446.860   120247241.57008  22518447.480    93525636.75604
  21583506.700   115335721.30408  21583510.200    89705576.34507
  19887486.060   106235381.87309  19887487.940    82627534.51008
  21895200.380   117165899.42908  21895200.140    91129124.37108
  20123709.760   107421946.42709  20123712.200    83550518.99608
  22575695.080   120764758.55408  22575695.160    93928151.41507
 15 02 25 00 16  0.0000000  0 15G16G18G21G22G27G29G31R02R03R09R15R16
                                R17R18R19
  21757991.820   114339029.64309  21757988.120    89095337.69048
  22261435.160   116984734.77709  22261431.000    91156966.60847
  21314043.740   112006279.17409  21314039.580    87277697.66748
  23609851.220   124070694.59208  23609848.580    96678481.48346
  23036585.160   121058085.31008  23036584.900    94330976.40147
  23851726.460   125342014.30508  23851724.900    97669246.82446
  23102552.500   121404735.55009  23102549.800    94601079.77747
  22314103.460   119072345.18909  22314105.720    92611836.16507
  22668120.840   121344237.13408  22668121.820    94378882.67607
  22500385.320   120150793.57808  22500385.920    93450621.66704
  21606044.860   115456157.82908  21606048.260    89799249.15807
  19888521.840   106240914.96508  19888523.740    82631838.02008
  21908380.920   117236431.33208  21908380.960    91183982.49308
  20125591.820   107431992.67909  20125594.080    83558332.74408
  22563842.420   120701355.26808  22563842.620    93878837.77207
 15 02 25 00 16 30.0000000  0 15G16G18G21G22G27G29G31R02R03R09R15R16
                                R17R18R19
  21744318.300   114267174.92609  21744314.600    89039347.01248
  22250664.840   116928136.95409  22250660.800    91112864.43147
  21321746.880   112046759.60809  21321742.740    87309240.86348
  23591841.720   123976054.92108  23591839.080    96604736.47346
  23024204.900   120993026.45708  23024204.600    94280281.20047
  23865134.820   125412474.62708  23865132.940    97724150.99046
  23119576.420   121494196.37009  23119573.680    94670789.44747
  22310575.240   119053517.76809  22310576.820    92597192.64007
  22649462.380   121244356.81108  22649463.300    94301198.01407
  22482417.740   120054847.44408  22482418.380    93375996.95004
  21628643.800   115576919.25608  21628647.120    89893174.64507
  19889715.020   106247288.76708  19889716.940    82636795.41208
  21921563.000   117306971.67408  21921563.020    91238847.16807
  20127512.740   107442246.61109  20127514.960    83566308.03008
  22552023.900   120638134.24608  22552024.100    93829665.88107
 15 02 25 00 17  0.0000000  0 15G16G18G21G22G27G29G31R02R03R09R15R16
                                R17R18R19
  21730699.120   114195605.92309  21730695.480    88983578.96448
  22239959.120   116871878.37609  22239955.100    91069026.59747
  21329507.060   112087539.85809  21329502.920    87341017.69348
  23573842.280   123881467.70108  23573839.440    96531032.34546
  23011840.080   120928048.45608  23011839.640    94229649.00547
  23878550.860   125482976.82408  23878549.140    97779087.71446
  23136630.480   121583815.55109  23136627.680    94740622.52647
  22307180.040   119035400.51409  22307181.420    92583101.46807
  22630852.440   121144736.68808  22630853.340    94223715.77107
  22464546.560   119959416.08908  22464547.000    93301772.54004
  21651304.360   115698009.95008  21651307.560    89987356.24407
  19891067.140   106254511.63508  19891069.060    82642413.19008
  21934748.060   117377528.50408  21934748.160    91293724.70208
  20129474.040   107452715.82209  20129476.220    83574450.75208
  22540241.020   120575103.68708  22540241.140    93780642.12707
 15 02 25 00 17 30.0000000  0 15G16G18G21G22G27G29G31R02R03R09R15R16
                                R17R18R19
  21717133.020   114124315.78609  21717129.420    88928028.20648
  22229316.660   116815951.96609  22229312.660    91025447.58247
  21337322.300   112128609.32109  21337318.160    87373019.86248
  23555851.680   123786926.45508  23555848.560    96457364.00146
  22999488.860   120863142.00708  22999488.240    94179072.55647
  23891973.220   125553511.61508  23891971.860    97834049.82947
  23153712.280   121673580.68709  23153709.460    94810569.32247
  22303916.420   119017986.36209  22303918.280    92569557.13807
  22612290.300   121045371.88008  22612291.040    94146432.04807
  22446770.660   119864493.64608  22446771.280    93227943.98004
  21674023.880   115819416.00508  21674027.240    90081783.11607
  19892576.380   106262573.88908  19892578.340    82648683.80808
  21947934.400   117448091.51608  21947934.940    91348607.03908
  20131473.620   107463389.66709  20131475.840    83582752.62408
  22528491.860   120512253.69708  22528491.920    93731758.81707
 15 02 25 00 18  0.0000000  0 15G16G18G21G22G27G29G31R02R03R09R15R16
                                R17R18R19
  21703621.960   114053314.86209  21703618.340    88872702.80948
  22218739.360   116760367.92909  22218735.420    90982135.36247
  21345193.700   112169973.94109  21345189.540    87405252.03748
  23537871.820   123692441.50808  23537868.640    96383739.52947
  22987152.720   120798314.97308  22987152.000    94128557.99647
  23905403.280   125624086.87008  23905402.120    97889043.48546
  23170822.800   121763496.78809  23170819.960    94880633.75647
  22300786.260   119001284.49609  22300787.940    92556566.82107
  22593778.240   120946274.91308  22593778.900    94069356.67507
  22429092.160   119770091.90508  22429092.760    93154520.40704
  21696802.920   115941140.34208  21696806.440    90176457.54407
  19894244.180   106271483.00408  19894246.200    82655613.11308
  21961123.120   117518668.17708  21961123.840    91403499.97207
  20133512.660   107474274.65509  20133514.940    83591218.73608
  22516777.840   120449591.35608  22516777.820    93683021.47607
 15 02 25 00 18 30.0000000  0 15G16G18G21G22G27G29G31R02R03R09R15R16
                                R17R18R19
  21690165.400   113982600.73509  21690161.880    88817600.90348
  22208226.760   116705123.81209  22208222.920    90939088.02047
  21353120.100   112211627.66708  21353116.000    87437709.47448
  23519902.320   123598011.08008  23519898.980    96310157.52946
  22974830.860   120733562.98308  22974830.180    94078101.91247
  23918840.280   125694698.35908  23918839.080    97944065.42547
  23187960.580   121853556.21909  23187957.680    94950809.87547
  22297789.220   118985292.14309  22297790.600    92544128.34907
  22575316.240   120847445.77408  22575316.840    93992489.61207
  22411511.100   119676210.30808  22411511.740    93081501.39804
  21719640.040   116063175.00308  21719643.720    90271373.32107
  19896069.580   106281233.95608  19896071.560    82663197.18008
  21974313.640   117589253.09708  21974314.260    91458399.32308
  20135590.100   107485364.96609  20135592.540    83599844.54008
  22505098.060   120387111.84408  22505097.920    93634426.32307
 15 02 25 00 19  0.0000000  0 15G16G18G21G22G27G29G31R02R03R09R15R16
                                R17R18R19
  21676764.520   113912178.93009  21676761.060    88762726.77148
  22197780.000   116650225.85709  22197776.300    90896310.40547
  21361101.860   112253572.17309  21361097.800    87470393.50848
  23501944.460   123503641.55509  23501940.920    96236622.98946
  22962523.920   120668889.63208  22962523.300    94027707.10347
  23932284.820   125765349.75208  23932283.900    97999118.38446
  23205125.720   121943759.77809  23205122.880    95021098.30147
  22294926.300   118970014.69409  22294927.500    92532245.93407
  22556905.720   120748892.62308  22556906.280    93915837.20807
  22394028.840   119582856.06008  22394029.660    93008892.56005
  21742535.220   116185519.58308  21742538.920    90366530.14607
  19898053.200   106291830.12708  19898055.160    82671438.63408
  21987506.560   117659849.61908  21987507.120    91513307.72108
  20137706.500   107496663.04009  20137709.200    83608631.94308
  22493452.940   120324817.99708  22493452.800    93585975.58007
 15 02 25 00 19 30.0000000  0 15G16G18G21G22G27G29G31R02R03R09R15R16
                                R17R18R19
  21663419.260   113842049.51709  21663415.840    88708080.47848
  22187398.980   116595673.50409  22187395.380    90853802.09347
  21369138.160   112295803.19909  21369134.140    87503300.79548
  23483998.060   123409332.82308  23483994.260    96163135.80146
  22950231.380   120604292.20508  22950230.820    93977371.45347
  23945736.400   125836038.51808  23945735.240    98054200.54646
  23222317.140   122034101.47108  23222314.380    95091494.35847
  22292196.920   118955450.63109  22292198.360    92520918.31707
  22538546.980   120650617.26308  22538547.840    93839400.86207
  22376645.560   119490030.35208  22376646.200    92936694.79504
  21765487.000   116308166.68008  21765490.800    90461922.26207
  19900194.380   106303268.00409  19900196.340    82680334.74808
  22000700.860   117730454.33608  22000701.560    91568222.45508
  20139861.240   107508164.85809  20139863.960    83617577.79308
  22481841.880   120262706.38508  22481841.740    93537666.56908
 15 02 25 00 20  0.0000000  0 15G16G18G21G22G27G29G31R02R03R09R15R16
                                R17R18R19
  21650130.220   113772215.38209  21650126.840    88653664.27148
  22177084.160   116541469.26109  22177080.640    90811565.03947
  21377228.660   112338318.86309  21377224.640    87536429.88948
  23466063.880   123315088.32108  23466059.980    96089698.67446
  22937953.480   120539771.58908  22937952.900    93927095.66447
  23959195.080   125906764.84208  23959193.960    98109311.93946
  23239534.480   122124579.44209  23239531.840    95161996.61447
  22289601.500   118941602.41109  22289603.380    92510147.50007
  22520241.080   120552625.32108  22520242.000    93763184.94907
  22359362.140   119397737.88608  22359362.780    92864911.79904
  21788494.600   116431112.00308  21788498.500    90557546.34407
  19902493.200   106315547.63608  19902495.140    82689885.55708
  22013896.660   117801067.44908  22013897.440    91623143.76708
  20142054.060   107519869.77009  20142056.640    83626681.60508
  22470264.960   120200777.42908  22470264.840    93489499.64708
 15 02 25 00 20 30.0000000  0 15G16G18G21G22G27G29G31R02R03R09R15R16
                                R17R18R19
  21636897.400   113702676.51009  21636894.040    88599478.13848
  22166835.640   116487613.28209  22166832.120    90769599.35747
  21385372.740   112381115.97209  21385368.740    87569778.28748
  23448141.880   123220908.32609  23448137.860    96016311.82546
  22925689.720   120475325.38508  22925689.180    93876877.85047
  23972660.740   125977527.05308  23972659.600    98164451.26946
  23256776.740   122215188.24308  23256774.160    95232600.81547
  22287140.160   118928469.07709  22287142.540    92499932.66408
  22501988.500   120454918.53008  22501989.500    93687190.83007
  22342178.640   119305979.77708  22342179.340    92793544.40804
  21811556.760   116554349.01808  21811560.660    90653397.27607
  19904949.080   106328665.97809  19904950.940    82700088.70308
  22027093.220   117871685.49808  22027094.000    91678068.90008
  20144284.200   107531774.09709  20144286.620    83635940.52608
  22458721.520   120139027.85408  22458721.420    93441472.22507
 15 02 25 00 21  0.0000000  0 15G16G18G21G22G27G29G31R02R03R09R15R16
                                R17R18R19
  21623721.840   113633438.39009  21623718.540    88545526.36348
  22156654.340   116434110.65209  22156650.920    90727909.01247
  21393570.560   112424195.62009  21393566.640    87603346.84648
  23430233.240   123126798.61108  23430229.180    95942979.69946
  22913440.660   120410956.70708  22913440.160    93826720.45247
  23986133.940   126048328.36108  23986132.620    98219621.11146
  23274043.880   122305927.71308  23274041.400    95303306.83047
  22284813.660   118916055.18309  22284816.200    92490277.46907
  22483790.540   120357504.69108  22483791.640    93611424.54907
  22325096.600   119214762.94908  22325097.420    92722597.97304
  21834673.340   116677876.93208  21834677.280    90749474.48107
  19907562.380   106342625.31709  19907564.160    82710945.95608
  22040291.200   117942311.35808  22040292.340    91733000.07408
  20146552.020   107543879.87409  20146554.300    83645356.14108
  22447212.060   120077460.11608  22447211.940    93393586.21907
 15 02 25 00 21 30.0000000  0 15G16G18G21G22G27G29G31R02R03R09R15R16
                                R17R18R19
  21610603.480   113564500.67809  21610600.200    88491808.66348
  22146540.200   116380960.88709  22146536.880    90686493.62147
  21401821.340   112467553.40509  21401817.340    87637132.12248
  23412338.060   123032759.54308  23412333.800    95869702.61547
  22901205.820   120346663.08008  22901205.480    93776621.54047
  23999614.060   126119166.11908  23999612.720    98274819.31646
  23291334.920   122396792.51308  23291332.480    95374110.50047
  22282622.140   118904359.62209  22282624.140    92481180.89207
  22465647.740   120260385.60408  22465649.120    93535887.52007
  22308116.220   119124088.62708  22308117.080    92652073.48805
  21857843.060   116801688.65808  21857847.000    90845772.43007
  19910332.460   106357422.35208  19910334.200    82722454.74508
  22053490.080   118012941.81108  22053491.580    91787934.82608
  20148856.860   107556183.10609  20148859.100    83654925.31908
  22435736.000   120016070.92508  22435735.780    93345839.08907
 15 02 25 00 22  0.0000000  0 15G16G18G21G22G27G29G31R02R03R09R15R16
                                R17R18R19
  21597543.580   113495870.26709  21597540.280    88438330.42348
  22136494.600   116328170.89209  22136491.300    90645358.56547
  21410125.480   112511192.04409  21410121.460    87671136.26148
  23394457.600   122938797.86209  23394453.320    95796485.86146
  22888986.200   120282448.86708  22888985.960    93726584.49947
  24013101.800   126190044.71308  24013100.740    98330049.30646
  23308650.040   122487783.97509  23308647.680    95445012.86747
  22280566.060   118893387.89209  22280567.280    92472647.36207
  22447561.840   120163570.53408  22447563.160    93460586.97707
  22291239.060   119033964.86408  22291239.960    92581977.25105
  21881065.880   116925784.05808  21881069.820    90942290.99907
  19913259.980   106373060.56908  19913261.700    82734617.79008
  22066690.380   118083580.74108  22066692.160    91842876.18908
  20151199.320   107568687.05009  20151201.540    83664650.60008
  22424294.020   119954864.46208  22424293.840    93298234.08507
 15 02 25 00 22 30.0000000  0 15G16G18G21G22G27G29G31R02R03R09R15R16
                                R17R18R19
  21584541.580   113427543.88309  21584538.180    88385089.08948
  22126516.860   116275737.33109  22126513.560    90604501.27147
  21418481.760   112555104.65009  21418477.760    87705353.88448
  23376591.440   122844911.11908  23376587.180    95723327.48047
  22876780.800   120218309.03608  22876780.640    93676605.43047
  24026596.380   126260958.91008  24026594.980    98385307.15646
  23325987.780   122578894.03808  23325985.440    95516007.65547
  22278645.080   118883136.37109  22278645.820    92464674.00907
  22429532.680   120067058.54408  22429533.560    93385522.09207
  22274464.660   118944390.02308  22274465.600    92512307.95705
  21904340.040   117050153.81508  21904344.080    91039022.95107
  19916343.900   106389534.26808  19916345.660    82747430.66108
  22079891.240   118154222.21808  22079893.140    91897819.55508
  20153578.220   107581385.20609  20153580.280    83674526.94608
  22412885.120   119893834.65008  22412884.980    93250766.48907
 15 02 25 00 23  0.0000000  0 15G16G18G21G22G27G29G31R02R03R09R15R16
                                R17R18R19
  21571598.800   113359528.83909  21571595.380    88332090.35448
  22116608.280   116223667.29709  22116605.100    90563927.22647
  21426890.800   112599294.39508  21426886.800    87739787.44448
  23358741.020   122751106.65508  23358736.700    95650233.21346
  22864590.560   120154248.45908  22864590.260    93626688.10447
  24040098.640   126331914.04408  24040097.360    98440596.80546
  23343348.400   122670124.30408  23343346.020    95587096.10347
  22276860.340   118873611.22409  22276861.100    92457265.52608
  22411561.900   119970859.28708  22411562.720    93310700.49707
  22257794.680   118855372.68608  22257795.240    92443072.22205
  21927665.580   117174798.30608  21927669.700    91135968.57707
  19919584.880   106406847.14008  19919586.720    82760896.20308
  22093093.680   118224870.83908  22093095.220    91952768.49107
  20155994.140   107594281.24909  20155996.100    83684557.19408
  22401510.000   119832985.63908  22401509.880    93203439.49707
 15 02 25 00 23 30.0000000  0 15G16G18G21G22G27G29G31R02R03R09R15R16
                                R17R18R19
  21558715.220   113291824.83809  21558711.740    88279333.98748
  22106768.740   116171960.06309  22106765.580    90523635.88947
  21435351.640   112643756.35409  21435347.600    87774433.12048
  23340906.320   122657384.72709  23340901.980    95577203.25547
  22852414.860   120090264.36308  22852414.400    93576830.38547
  24053608.120   126402907.21908  24053607.020    98495916.10346
  23360730.820   122761469.13908  23360728.380    95658273.80647
  22275210.920   118864810.69708  22275212.900    92450420.74608
  22393649.720   119874974.20708  22393650.460    93236123.23407
  22241229.200   118766913.89608  22241229.720    92374270.96104
  21951041.280   117299710.89008  21951045.480    91233122.72607
  19922982.120   106424995.16008  19922984.100    82775011.32608
  22106296.720   118295523.08008  22106298.160    92007720.17807
  20158446.340   107607371.00009  20158448.260    83694738.11308
  22390167.940   119772314.02108  22390167.980    93156250.51507
 15 02 25 00 24  0.0000000  0 15G16G18G21G22G27G29G31R02R03R09R15R16
                                R17R18R19
  21545891.540   113224435.73009  21545888.040    88226823.00848
  22096998.880   116120619.23809  22096995.740    90483630.07747
  21443864.240   112688490.67209  21443860.240    87809291.03648
  23323087.980   122563749.12509  23323083.640    95504240.56647
  22840254.020   120026358.34508  22840253.460    93527033.50048
  24067125.220   126473940.04808  24067124.140    98551266.35446
  23378134.740   122852926.89808  23378132.260    95729539.51347
  22273697.480   118856737.47609  22273700.220    92444141.61408
  22375797.300   119779409.48808  22375798.200    93161795.18507
  22224769.120   118679018.48708  22224769.520    92305907.88405
  21974466.360   117424887.03808  21974470.460    91330481.87107
  19926535.820   106443978.94908  19926537.940    82789776.47608
  22119500.800   118366180.02008  22119502.360    92062675.54807
  20160934.960   107620654.96609  20160936.960    83705070.08308
  22378859.220   119711820.67908  22378859.360    93109200.17707
 15 02 25 00 24 30.0000000  0 15G16G18G21G22G27G29G31R02R03R09R15R16
                                R17R18R19
  21533127.060   113157357.75009  21533123.500    88174554.44948
  22087297.940   116069640.68609  22087294.780    90443906.53647
  21452427.220   112733489.90309  21452423.360    87844355.36248
  23305285.520   122470196.91908  23305281.100    95431342.85147
  22828106.940   119962524.71409  22828106.380    93477293.02147
  24080648.960   126545006.86208  24080647.820    98606643.03846
  23395558.560   122944489.07808  23395555.940    95800886.58047
  22272319.680   118849386.88308  22272322.720    92438424.47307
  22358004.420   119684163.73708  22358005.360    93087715.18207
  22208414.180   118591684.46008  22208414.580    92237981.41204
  21997939.000   117550317.24008  21997943.040    91428038.59507
  19930244.740   106463791.81708  19930246.920    82805186.45808
  22132704.420   118436835.35908  22132705.800    92117629.63207
  20163458.520   107634125.84009  20163460.620    83715547.42908
  22367582.660   119651499.01008  22367582.800    93062283.36107
 15 02 25 00 25  0.0000000  0 15G16G18G21G22G27G29G31R02R03R09R15R16
                                R17R18R19
  21520423.380   113090599.44609  21520419.820    88122534.98648
  22077667.580   116019033.26009  22077664.500    90404472.18847
  21461041.360   112778758.06909  21461037.600    87879629.25148
  23287500.600   122376736.98509  23287496.120    95358517.03746
  22815974.780   119898769.58809  22815974.220    93427613.71147
  24094180.440   126616113.86908  24094179.240    98662051.04346
  23413002.860   123036158.77308  23413000.120    95872317.41547
  22271079.020   118842766.16109  22271081.780    92433275.03507
  22340273.220   119589247.68208  22340274.100    93013891.60807
  22192166.220   118504921.57308  22192166.900    92170499.17905
  22021459.680   117676003.99208  22021463.600    91525794.86807
  19934109.840   106484438.58408  19934112.080    82821245.03708
  22145908.860   118507494.39108  22145910.120    92172586.68007
  20166017.940   107647788.74509  20166020.180    83726174.13308
  22356339.200   119591354.63708  22356339.360    93015504.41507
 15 02 25 00 25 30.0000000  0 15G16G18G21G22G27G29G31R02R03R09R15R16
                                R17R18R19
  21507780.920   113024162.52809  21507777.300    88070765.96048
  22068108.080   115968798.12909  22068104.960    90365327.94747
  21469706.300   112824292.96409  21469702.620    87915110.99448
  23269733.640   122283371.58708  23269729.280    95285764.88547
  22803857.560   119835092.62608  22803856.860    93377995.31548
  24107719.380   126687260.48808  24107717.880    98717489.95046
  23430466.960   123127932.60008  23430464.200    95943829.40847
  22269975.660   118836876.01409  22269977.620    92428693.79507
  22322604.420   119494665.27308  22322604.960    92940327.56507
  22176025.800   118418732.88708  22176026.600    92103463.54104
  22045027.240   117801941.45408  22045031.120    91623746.13007
  19938130.840   106505917.86009  19938133.040    82837951.12408
  22159113.840   118578156.52408  22159114.960    92227546.09807
  20168612.980   107661641.87209  20168615.300    83736948.78708
  22345128.760   119531386.32408  22345128.820    92968862.42807
 15 02 25 00 26  0.0000000  0 15G16G18G21G22G27G29G31R02R03R09R15R16
                                R17R18R19
  21495200.360   112958051.01309  21495196.680    88019250.50048
  22058620.140   115918938.81809  22058617.040    90326476.55547
  21478422.060   112870094.58709  21478418.360    87950800.57448
  23251985.460   122190105.00009  23251981.040    95213089.72946
  22791755.440   119771495.50909  22791754.660    93328439.14447
  24121266.080   126758448.56408  24121264.500    98772961.16846
  23447950.580   123219808.97008  23447947.760    96015421.29147
  22269009.580   118831719.17409  22269012.060    92424682.98608
  22304999.300   119400422.74808  22304999.440    92867027.83807
  22159993.980   118333123.77408  22159995.060    92036878.69005
  22068641.360   117928127.66008  22068645.260    91721890.87607
  19942307.740   106528229.73309  19942309.920    82855304.78708
  22172319.580   118648822.76908  22172320.760    92282508.71007
  20171243.780   107675685.81909  20171246.200    83747871.85508
  22333951.500   119471595.01708  22333951.380    92922358.12007
 15 02 25 00 26 30.0000000  0 15G16G18G21G22G27G29G31R02R03R09R15R16
                                R17R18R19
  21482681.020   112892261.30109  21482677.320    87967985.79148
  22049203.060   115869451.80709  22049199.960    90287915.26547
  21487187.100   112916155.16409  21487183.340    87986691.92748
  23234255.480   122096933.92009  23234251.080    95140489.00446
  22779667.320   119707972.46408  22779666.540    93278940.68447
  24134819.700   126829672.41208  24134818.100    98828460.21546
  23465452.040   123311779.23509  23465449.180    96087086.32646
  22268179.760   118827290.51409  22268182.560    92421238.46708
  22287457.500   119306518.58808  22287457.300    92793991.30007
  22144070.200   118248091.78908  22144071.200    91970742.69605
  22092300.100   118054552.33608  22092303.980    91820221.06707
  19946639.160   106551367.07008  19946641.260    82873300.48108
  22185524.920   118719486.93008  22185525.960    92337469.68907
  20173909.000   107689913.36609  20173911.480    83758937.71608
  22322806.020   119411974.10708  22322805.840    92875986.33507
 15 02 25 00 27  0.0000000  0 15G16G18G21G22G27G29G31R02R03R09R15R16
                                R17R18R19
  21470224.440   112826801.47109  21470220.680    87916978.12948
  22039858.260   115820344.67809  22039855.180    90249649.98047
  21496002.260   112962478.78509  21495998.400    88022788.25148
  23216545.280   122003866.84708  23216540.900    95067969.30647
  22767594.420   119644529.26508  22767593.660    93229504.43947
  24148381.200   126900937.79208  24148379.440    98883991.64546
  23482971.900   123403846.02708  23482969.060    96158826.59947
  22267487.680   118823596.84209  22267490.440    92418365.63407
  22269980.840   119212963.28308  22269980.540    92721226.09907
  22128256.160   118163646.12508  22128257.120    91905062.74105
  22116003.640   118181216.52808  22116007.540    91918737.57207
  19951126.000   106575334.49708  19951128.020    82891941.80008
  22198731.020   118790154.27408  22198731.680    92392433.14207
  20176609.540   107704329.19709  20176612.060    83770150.02808
  22311693.320   119352528.54608  22311693.080    92829750.91507
 15 02 25 00 27 30.0000000  0 15G16G18G21G22G27G29G31R02R03R09R15R16
                                R17R18R19
  21457830.260   112761669.88609  21457826.580    87866226.25148
  22030585.400   115771615.53009  22030582.380    90211679.22947
  21504866.360   113009059.34609  21504862.360    88059084.79248
  23198854.680   121910902.24308  23198850.280    94995529.43647
  22755535.980   119581162.03708  22755535.240    93180127.38547
  24161949.880   126972240.80408  24161947.820    98939552.39746
  23500508.760   123496002.27108  23500505.900    96230636.54046
  22266933.000   118820635.13609  22266935.440    92416062.06308
  22252569.240   119119756.87608  22252568.720    92648732.22807
  22112551.780   118079786.38408  22112552.820    91839838.51405
  22139750.440   118308111.90708  22139754.240    92017433.86907
  19955767.220   106600126.63409  19955769.180    82911224.56508
  22211936.980   118860819.96008  22211937.200    92447395.39007
  20179344.380   107718927.98009  20179346.860    83781504.64308
  22300612.560   119293254.05608  22300612.340    92783648.56307
 15 02 25 00 28  0.0000000  0 15G16G18G21G22G27G29G31R02R03R09R15R16
                                R17R18R19
  21445499.500   112696871.70209  21445495.860    87815734.16148
  22021385.440   115723269.37409  22021382.460    90174006.92347
  21513779.660   113055898.53909  21513775.520    88095582.85848
  23181184.560   121818045.48309  23181180.220    94923173.62747
  22743492.580   119517874.04708  22743491.860    93130812.08247
  24175526.280   127043584.66008  24175524.240    98995144.95946
  23518062.620   123588248.18808  23518059.740    96302516.39047
  22266515.780   118818409.26609  22266518.520    92414330.86708
  22235224.280   119026907.50508  22235223.940    92576516.11807
  22096958.380   117996519.16008  22096959.380    91775075.11204
  22163540.200   118435236.94408  22163544.060    92116308.79607
  19960563.100   106625745.08909  19960565.040    82931150.01608
  22225142.860   118931487.24408  22225143.400    92502358.79707
  20182113.920   107733711.89209  20182116.360    83793003.24608
  22289564.080   119234152.71508  22289563.920    92737680.88707
 15 02 25 00 28 30.0000000  0 15G16G18G21G22G27G29G31R02R03R09R15R16
                                R17R18R19
  21433233.020   112632411.44809  21433229.440    87765505.39848
  22012259.200   115675310.50509  22012256.240    90136636.38547
  21522742.220   113102996.69209  21522738.020    88132282.71348
  23163536.180   121725302.78509  23163531.760    94850906.68747
  22731464.640   119454667.41308  22731463.920    93081560.16647
  24189110.860   127114971.62708  24189108.880    99050771.13646
  23535633.360   123680582.73208  23535630.420    96374465.26146
  22266236.780   118816922.22709  22266239.660    92413174.26807
  22217947.100   118934421.56108  22217946.700    92504582.63407
  22081476.940   117913849.91908  22081478.100    91710776.81105
  22187372.560   118562589.61808  22187376.440    92215360.77607
  19965513.760   106652190.63908  19965515.700    82951718.75608
  22238349.500   119002157.59308  22238350.140    92557324.57207
  20184918.320   107748681.69009  20184920.660    83804646.40508
  22278548.320   119175226.03608  22278548.220    92691849.05207
 15 02 25 00 29  0.0000000  0 15G16G18G21G22G27G29G31R02R03R09R15R16
                                R17R18R19
  21421030.380   112568286.23409  21421026.800    87715537.69448
  22003206.000   115627735.33109  22003203.020    90099564.83447
  21531752.620   113150346.67709  21531748.500    88169178.80148
  23145908.880   121632670.93509  23145904.400    94778726.11047
  22719451.220   119391537.08808  22719450.540    93032367.70747
  24202702.580   127186396.57908  24202700.680    99106426.90446
  23553219.420   123772998.01208  23553216.480    96446477.05446
  22266095.420   118816169.66109  22266098.400    92412588.97907
  22200737.780   118842298.40708  22200736.960    92432931.29507
  22066107.320   117831777.12608  22066108.460    91646942.41604
  22211245.920   118690161.23008  22211249.880    92314583.03107
  19970618.000   106679456.61308  19970619.960    82972925.60008
  22251555.540   119072825.29408  22251555.660    92612288.29407
  20187756.380   107763831.06509  20187758.740    83816429.24008
  22267564.120   119116468.17908  22267564.040    92646148.51307
 15 02 25 00 29 30.0000000  0 15G16G18G21G22G27G29G31R02R03R09R15R16
                                R17R18R19
  21408892.540   112504501.28309  21408888.880    87665835.12948
  21994226.740   115580548.84409  21994223.620    90062796.15047
  21540811.140   113197949.85209  21540807.100    88206272.17648
  23128303.720   121540155.42909  23128299.260    94706636.19147
  22707453.000   119328486.20808  22707452.300    92983237.15347
  24216302.120   127257862.75408  24216300.340    99162114.79846
  23570820.880   123865493.99109  23570817.980    96518551.73246
  22266092.660   118816155.17409  22266095.380    92412577.72907
  22183597.280   118750545.12008  22183596.800    92361567.68307
  22050850.760   117750307.14308  22050851.980    91583576.88004
  22235159.800   118817949.31908  22235163.860    92413973.65707
  19975876.100   106707544.25309  19975878.020    82994771.52308
  22264761.560   119143492.95208  22264761.580    92667252.00307
  20190628.420   107779162.02309  20190630.880    83828353.33208
  22256611.920   119057881.43808  22256611.900    92600581.09007
 15 02 25 00 30  0.0000000  0 15G16G18G21G22G27G29G31R02R03R09R15R16
                                R17R18R19
  21396819.100   112441054.64109  21396815.400    87616396.19048
  21985321.000   115533748.98209  21985317.880    90026328.74047
  21549916.460   113245799.30409  21549912.600    88243557.45948
  23110720.380   121447754.64509  23110715.980    94634635.67947
  22695469.200   119265510.59308  22695468.480    92934165.26447
  24229908.740   127329365.80208  24229907.080    99217831.42246
  23588436.340   123958063.51108  23588433.520    96590683.71446
  22266227.260   118816875.15708  22266229.100    92413137.70607
  22166525.940   118659162.06708  22166525.800    92290492.00507
  22035706.880   117669439.15608  22035707.980    91520679.56504
  22259112.720   118945945.80608  22259116.840    92513526.38307
  19981286.900   106736447.81009  19981288.800    83017252.06108
  22277966.940   119214156.10408  22277966.760    92722212.18807
  20193533.360   107794668.87009  20193535.920    83840414.20308
  22245690.840   118999460.90408  22245690.660    92555142.93407
 15 02 25 00 30 30.0000000  0 15G16G18G21G22G27G29G31R02R03R09R15R16
                                R17R18R19
  21384811.620   112377954.78409  21384807.880    87567227.47048
  21976490.360   115487343.69309  21976487.240    89990168.78347
  21559069.800   113293900.97908  21559066.120    88281039.28448
  23093160.600   121355477.53109  23093156.180    94562731.50847
  22683500.960   119202616.56608  22683500.200    92885156.93947
  24243523.540   127400911.85908  24243521.700    99273581.59246
  23606066.440   124050709.70208  23606063.640    96662875.43246
  22266501.060   118818336.61709  22266502.520    92414274.38007
  22149525.880   118568160.18008  22149526.200    92219712.80107
  22020677.380   117589182.54508  22020678.220    91458257.76504
  22283104.820   119074152.18608  22283109.020    92613242.33307
  19986851.280   106766171.76409  19986853.140    83040370.68008
  22291172.400   119284820.58608  22291172.080    92777173.38507
  20196472.240   107810356.96909  20196474.820    83852616.06408
  22234801.780   118941211.85008  22234801.600    92509838.13807
 15 02 25 00 31  0.0000000  0 15G16G18G21G22G27G29G31R02R03R09R15R16
                                R17R18R19
  21372870.040   112315201.40809  21372866.320    87518328.75248
  21967734.660   115441332.32309  21967731.520    89954315.79247
  21568270.280   113342250.38509  21568266.700    88318714.15248
  23075624.420   121263324.43809  23075620.000    94490923.99947
  22671547.740   119139801.77908  22671546.960    92836210.38047
  24257146.180   127472499.08408  24257144.280    99329363.78846
  23623710.040   124143427.11508  23623707.300    96735122.66047
  22266913.720   118820537.70008  22266915.540    92415986.35708
  22132597.420   118477541.00908  22132597.880    92149231.27107
  22005762.520   117509538.50508  22005763.420    91396312.44205
  22307134.880   119202561.19908  22307139.060    92713115.92307
  19992568.500   106796712.03009  19992570.300    83064124.22108
  22304377.340   119355483.30208  22304376.320    92832133.31707
  20199444.380   107826222.60809  20199446.960    83864956.02508
  22223944.280   118883131.39108  22223944.040    92464664.46607
 15 02 25 00 31 30.0000000  0 15G16G18G21G22G27G29G31R02R03R09R15R16
                                R17R18R19
  21360994.460   112252794.92909  21360990.780    87469700.32348
  21959053.920   115395714.72709  21959050.720    89918769.61947
  21577517.140   113390843.09409  21577513.540    88356578.58448
  23058111.900   121171295.90809  23058107.480    94419213.50147
  22659609.160   119077064.24608  22659608.460    92787324.00648
  24270776.200   127544124.91508  24270774.360    99385176.09346
  23641366.260   124236210.77808  23641363.580    96807421.47146
  22267464.360   118823476.73809  22267467.120    92418272.31708
  22115740.860   118387307.22808  22115741.180    92079049.46607
  21990962.740   117430508.14808  21990963.320    91334844.37004
  22331201.780   119331166.91108  22331205.940    92813142.47107
  19998437.860   106828064.91109  19998439.640    83088509.77808
