     2.11           OBSERVATION DATA    G                   RINEX VERSION / TYPE
SPIDER V4,0,0,3554                      2015 03 31 05:00    PGM / RUN BY / DATE 
EADB                                                        MARKER NAME         
EADB                                                        MARKER NUMBER       
                                                            OBSERVER / AGENCY   
462408              LEICA GRX1200PRO    3.00/2.127          REC # / TYPE / VERS 
103310              LEIAT504                                ANT # / TYPE        
  5238464.6656   142765.3090  3625629.6523                  APPROX POSITION XYZ 
        0.0770        0.0000        0.0000                  ANTENNA: DELTA H/E/N
     1     1                                                WAVELENGTH FACT L1/2
     4    C1    L1    P2    L2                              # / TYPES OF OBSERV 
    30.000                                                  INTERVAL            
  2015    02    25    00    00    0.0000000     GPS         TIME OF FIRST OBS   
  2015    02    25    23    59   30.0000000     GPS         TIME OF LAST OBS    
    16                                                      LEAP SECONDS        
    30                                                      # OF SATELLITES     
   G 1   836   836   836   836                              PRN / # OF OBS      
   G 2   926   926   926   926                              PRN / # OF OBS      
   G 3   844   844   844   844                              PRN / # OF OBS      
   G 4   849   849   849   849                              PRN / # OF OBS      
   G 5   673   673   673   673                              PRN / # OF OBS      
   G 6   729   729   729   729                              PRN / # OF OBS      
   G 7   648   648   648   648                              PRN / # OF OBS      
   G 9   788   788   788   788                              PRN / # OF OBS      
   G10   784   784   784   784                              PRN / # OF OBS      
   G11   799   799   799   799                              PRN / # OF OBS      
   G12   818   818   818   818                              PRN / # OF OBS      
   G13   824   824   824   824                              PRN / # OF OBS      
   G14   931   931   931   931                              PRN / # OF OBS      
   G15   732   732   732   732                              PRN / # OF OBS      
   G16   691   691   691   691                              PRN / # OF OBS      
   G17   930   930   930   930                              PRN / # OF OBS      
   G18   934   934   934   934                              PRN / # OF OBS      
   G19   776   776   776   776                              PRN / # OF OBS      
   G20   808   808   808   808                              PRN / # OF OBS      
   G21   702   702   702   702                              PRN / # OF OBS      
   G22   785   785   785   785                              PRN / # OF OBS      
   G23   731   731   731   731                              PRN / # OF OBS      
   G24   843   843   843   843                              PRN / # OF OBS      
   G25   853   853   853   853                              PRN / # OF OBS      
   G27   833   833   833   833                              PRN / # OF OBS      
   G28   907   907   907   907                              PRN / # OF OBS      
   G29   746   746   746   746                              PRN / # OF OBS      
   G30   695   695   695   695                              PRN / # OF OBS      
   G31   781   781   781   781                              PRN / # OF OBS      
   G32   743   743   743   743                              PRN / # OF OBS      
BIT 2 OF LLI FLAGS DATA COLLECTED UNDER A/S CONDITION       COMMENT             
SNR is mapped to RINEX snr flag value [2-9]                 COMMENT             
Lx:     = 25dBHz -> 1; 26-27dBHz -> 2; 28-31dBHz -> 3       COMMENT             
       32-35dBHz -> 4; 36-38dBHz -> 5; 39-41dBHz -> 6       COMMENT             
       42-44dBHz -> 7; 45-48dBHz -> 8; >=49dBHz -> 9        COMMENT             
                                                            END OF HEADER       
 15 02 25 00 00  0.0000000  0  8G16G18G21G22G25G27G29G31
  21920308.184   115192012.08109  21920306.140    89760004.43847
  22996099.404   120845398.75708  22996098.163    94165291.46946
  21234962.629   111590488.10009  21234960.150    86953620.77249
  24322581.599   127816053.33406  24322585.074    99596946.40644
  24746185.717   130042053.84106  24746189.422   101331468.42944
  22948272.218   120593996.95007  22948273.866    93969368.12147
  23893610.694   125561759.48207  23893610.178    97840324.66845
  22392101.573   117671278.26108  22392100.062    91691894.68247
 15 02 25 00 00 30.0000000  0  8G16G18G21G22G25G27G29G31
  21906327.881   115118545.75309  21906325.836    89702757.96347
  22983891.198   120781244.10808  22983889.909    94115300.86746
  21241359.934   111624106.13409  21241357.488    86979816.64549
  24305353.521   127725520.61207  24305356.109    99526402.04644
  24764570.580   130138665.63806  24764574.046   101406750.20444
  22936215.881   120530640.75107  22936217.409    93919999.69546
  23907855.974   125636619.46607  23907856.116    97898657.05746
  22408396.526   117756908.04008  22408395.083    91758619.16247
 15 02 25 00 01  0.0000000  0  8G16G18G21G22G25G27G29G31
  21892385.930   115045280.17609  21892383.869    89645667.90947
  22971725.489   120717313.75008  22971724.652    94065485.04646
  21247826.488   111658088.48209  21247824.191    87006296.39949
  24288113.977   127634925.60307  24288115.892    99455809.18144
  24782982.599   130235420.41905  24782985.725   101482143.42044
  22924181.782   120467400.32208  22924183.101    93870721.46847
  23922101.077   125711477.11007  23922100.893    97956987.66346
  22424740.469   117842796.69308  22424739.211    91825545.35247
 15 02 25 00 01 30.0000000  0  8G16G18G21G22G25G27G29G31
  21878484.613   114972228.23609  21878482.701    89588744.32448
  22959605.134   120653620.91608  22959604.371    94015854.30146
  21254363.978   111692443.81609  21254361.724    87033066.78849
  24270864.890   127544281.47706  24270866.474    99385178.07144
  24801423.326   130332327.53206  24801427.056   101557655.24344
  22912171.559   120404286.10908  22912172.667    93821541.59447
  23936347.751   125786343.04407  23936347.555    98015324.70546
  22441135.468   117928952.02708  22441134.162    91892679.34247
 15 02 25 00 02  0.0000000  0  7G16G18G21G22G27G29G31
  21864621.926   114899379.01009  21864619.933    89531978.69948
  22947528.140   120590155.54308  22947527.122    93966400.80146
  21260969.798   111727157.82409  21260967.626    87060116.66549
  24253604.172   127453577.60006  24253605.689    99314500.44744
  22900182.770   120341285.00508  22900183.928    93772449.86647
  23950593.047   125861204.11207  23950593.068    98073657.92045
  22457577.869   118015357.83508  22457576.414    91960008.52547
 15 02 25 00 02 30.0000000  0  7G16G18G21G22G27G29G31
  21850800.703   114826748.93209  21850798.828    89475383.83847
  22935497.541   120526934.50708  22935496.415    93917137.68945
  21267646.447   111762243.32009  21267644.381    87087456.01749
  24236335.467   127362831.47507  24236336.562    99243789.76044
  22888218.285   120278411.43408  22888219.530    93723457.50047
  23964840.523   125936074.54007  23964840.349    98131998.49646
  22474070.248   118102025.80608  22474068.772    92027541.97047
 15 02 25 00 03  0.0000000  0  7G16G18G21G22G27G29G31
  21837021.564   114754338.03409  21837019.501    89418959.76447
  22923513.553   120463958.47308  22923512.243    93868065.47845
  21274392.946   111797696.84609  21274390.987    87115082.14649
  24219058.378   127272043.25907  24219059.580    99173046.18845
  22876277.771   120215663.29508  22876278.804    93674562.87747
  23979089.357   126010952.26207  23979089.109    98190344.72545
  22490611.834   118188951.30608  22490610.495    92095276.09447
 15 02 25 00 03 30.0000000  0  7G16G18G21G22G27G29G31
  21823282.533   114682139.53509  21823280.684    89362701.19948
  22911574.913   120401220.52508  22911573.516    93819178.79346
  21281207.585   111833507.48509  21281205.425    87142986.53749
  24201771.144   127181206.48305  24201773.324    99102264.82746
  22864359.312   120153031.46208  22864360.328    93625758.86747
  23993337.708   126085827.79107  23993337.274    98248689.26546
  22507199.911   118276122.30208  22507198.553    92163201.51247
 15 02 25 00 04  0.0000000  0  7G16G18G21G22G27G29G31
  21809585.162   114610159.45509  21809583.117    89306612.82748
  22899682.961   120338727.46108  22899681.451    93770482.93346
  21288090.506   111869677.92009  21288088.476    87171171.29049
  24184476.211   127090327.99606  24184479.773    99031451.03346
  22852463.862   120090520.01508  22852464.771    93577048.67846
  24007586.646   126160705.30607  24007586.335    98307035.34945
  22523834.981   118363540.21508  22523833.746    92231319.31747
 15 02 25 00 04 30.0000000  0  7G16G18G21G22G27G29G31
  21795929.311   114538397.78509  21795927.372    89250694.64748
  22887837.624   120276479.98408  22887836.484    93721978.42846
  21295041.355   111906204.71909  21295039.195    87199633.73249
  24167175.096   126999408.08507  24167177.461    98960604.83345
  22840590.646   120028126.49708  22840591.708    93528430.37647
  24021835.418   126235582.89007  24021835.017    98365381.44846
  22540516.257   118451200.03708  22540514.674    92299625.64647
 15 02 25 00 05  0.0000000  0  7G16G18G21G22G27G29G31
  21782315.871   114466858.92909  21782314.135    89194950.09248
  22876039.841   120214482.55508  22876038.821    93673668.78446
  21302059.985   111943087.93109  21302057.761    87228373.89749
  24149866.713   126908451.29407  24149867.855    98889729.86144
  22828740.330   119965853.16908  22828741.365    93479905.73347
  24036084.456   126310462.53107  24036084.379    98423729.14046
  22557243.093   118539100.84208  22557241.475    92368119.75747
 15 02 25 00 05 30.0000000  0  7G16G18G21G22G27G29G31
  21768745.621   114395546.93809  21768743.877    89139382.31148
  22864290.437   120152739.86508  22864289.640    93625557.63046
  21309146.533   111980327.92809  21309144.480    87257392.07649
  24132551.493   126817462.41806  24132552.024    98818829.89444
  22816913.267   119903701.87808  22816914.450    93431476.17847
  24050334.018   126385345.82907  24050333.525    98482079.72845
  22574015.688   118627241.76208  22574014.156    92436800.95647
 15 02 25 00 06  0.0000000  0  7G16G18G21G22G27G29G31
  21755217.989   114324458.81509  21755216.061    89083988.97748
  22852589.176   120091249.44808  22852588.447    93577643.04645
  21316299.873   112017918.32809  21316297.580    87286683.29349
  24115230.320   126726439.16707  24115231.049    98747903.17845
  22805108.572   119841667.69008  22805109.551    93383137.87347
  24064583.984   126460227.81207  24064583.668    98540429.27845
  22590832.753   118715615.19108  22590831.326    92505663.33047
 15 02 25 00 06 30.0000000  0  7G16G18G21G22G27G29G31
  21741733.994   114253599.94309  21741732.226    89028774.27148
  22840937.042   120030016.69708  22840936.026    93529929.23645
  21323520.024   112055860.29109  21323517.627    87316248.46149
  24097903.649   126635387.17707  24097904.331    98676954.04245
  22793326.643   119779753.29908  22793327.528    93334892.92647
  24078834.033   126535111.47907  24078833.199    98598780.16145
  22607693.779   118804221.14108  22607692.525    92574706.87447
 15 02 25 00 07  0.0000000  0  7G16G18G21G22G27G29G31
  21728294.333   114182973.07809  21728292.382    88973740.35548
  22829334.747   119969045.66108  22829333.477    93482419.36346
  21330806.994   112094153.91809  21330804.577    87346087.64949
  24080571.969   126544310.04806  24080572.350    98605985.31845
  22781567.689   119717959.98308  22781568.830    93286742.30847
  24093084.253   126609997.95107  24093084.074    98657133.17346
  22624598.931   118893057.87608  22624597.582    92643930.28847
 15 02 25 00 07 30.0000000  0  7G16G18G21G22G27G29G31
  21714899.194   114112581.83809  21714897.468    88918890.04648
  22817782.766   119908339.28308  22817781.282    93435115.71146
  21338160.680   112132797.86209  21338158.260    87376199.81349
  24063235.825   126453211.21506  24063235.927    98534999.62644
  22769832.000   119656288.49408  22769833.028    93238686.62947
  24107335.416   126684888.22507  24107335.073    98715489.19745
  22641547.620   118982123.43308  22641546.114    92713332.00447
 15 02 25 00 08  0.0000000  0  7G16G18G21G22G27G29G31
  21701548.578   114042423.56309  21701546.725    88864221.26748
  22806280.517   119847895.58608  22806279.266    93388016.75546
  21345580.046   112171786.11509  21345577.630    87406580.26949
  24045895.477   126362088.73207  24045894.916    98463995.42945
  22758118.733   119594734.20408  22758119.632    93190722.25847
  24121586.033   126759777.50607  24121585.817    98773844.42346
  22658538.179   119071410.57808  22658537.068    92782906.33847
 15 02 25 00 08 30.0000000  0  7G16G18G21G22G27G29G31
  21688242.487   113972499.80009  21688240.638    88809735.22248
  22794828.787   119787716.43408  22794827.568    93341123.93446
  21353064.283   112211116.35709  21353061.956    87437227.20849
  24028551.190   126270944.97907  24028550.707    98392974.73146
  22746427.511   119533296.60508  22746428.312    93142848.82247
  24135837.189   126834664.83707  24135836.583    98832198.17645
  22675570.592   119160915.70008  22675569.350    92852650.55947
 15 02 25 00 09  0.0000000  0  7G16G18G21G22G27G29G31
  21674982.449   113902817.11309  21674980.548    88755437.02848
  22783428.676   119727808.85208  22783427.640    93294442.72846
  21360614.126   112250791.11509  21360611.697    87468142.60348
  24011204.249   126179786.37907  24011203.961    98321942.45545
  22734759.290   119471979.56508  22734760.255    93095069.33047
  24150088.177   126909554.65707  24150087.879    98890553.82146
  22692644.505   119250639.90408  22692643.298    92922565.49447
 15 02 25 00 09 30.0000000  0  7G16G18G21G22G27G29G31
  21661768.994   113833380.06409  21661767.088    88701330.24148
  22772081.162   119668177.76308  22772080.038    93247976.97446
  21368229.614   112290811.58509  21368227.399    87499327.38149
  23993855.206   126088618.10406  23993854.906    98250902.63345
  22723114.371   119410785.81708  22723115.324    93047385.90947
  24164340.091   126984449.53306  24164340.268    98948913.37645
  22709760.217   119340583.23608  22709759.139    92992651.15647
 15 02 25 00 10  0.0000000  0  7G16G18G21G22G27G29G31
  21648601.426   113764184.77509  21648599.464    88647411.83548
  22760785.981   119608820.18508  22760784.434    93201724.33346
  21375909.453   112331169.88009  21375907.328    87530775.40348
  23976503.466   125997437.18707  23976503.048    98179852.95544
  22711491.888   119349709.22608  22711492.911    92999793.78947
  24178591.959   127059343.66707  24178591.534    99007272.39945
  22726915.916   119430736.76208  22726914.721    93062900.61647
 15 02 25 00 10 30.0000000  0  7G16G18G21G22G27G29G31
  21635480.096   113695231.31609  21635478.011    88593681.86748
  22749542.575   119549736.18808  22749540.998    93155684.87746
  21383653.030   112371862.24409  21383650.789    87562483.73848
  23959150.204   125906244.12107  23959149.182    98108793.68044
  22699891.187   119288747.66708  22699892.430    92952291.28947
  24192843.746   127134234.28407  24192843.157    99065628.66046
  22744110.740   119521095.63908  22744109.309    93133310.11147
 15 02 25 00 11  0.0000000  0  7G16G18G21G22G27G29G31
  21622405.945   113626526.21709  21622403.975    88540145.43548
  22738352.507   119490932.20408  22738351.023    93109863.61246
  21391460.585   112412891.31909  21391458.475    87594454.44148
  23941795.276   125815045.69907  23941795.005    98037730.32145
  22688313.295   119227905.40008  22688314.430    92904881.75147
  24207095.253   127209126.27007  24207094.136    99123986.03945
  22761344.963   119611661.06208  22761343.386    93203880.52547
 15 02 25 00 11 30.0000000  0  7G16G18G21G22G27G29G31
  21609380.343   113558076.40809  21609378.289    88486807.92848
  22727217.029   119432415.68308  22727215.828    93064266.34746
  21399332.883   112454260.27409  21399330.626    87626689.98648
  23924440.566   125723849.43007  23924440.838    97966668.69046
  22676759.039   119167187.22008  22676760.064    92857568.89847
  24221347.836   127284024.32106  24221347.626    99182348.07245
  22778618.660   119702435.11008  22778617.305    93274613.49147
 15 02 25 00 12  0.0000000  0  7G16G18G21G22G27G29G31
  21596402.172   113489875.46809  21596400.243    88433664.34648
  22716135.293   119374180.79908  22716134.134    93018888.53946
  21407268.034   112495959.05309  21407265.731    87659182.54048
  23907085.397   125632648.96107  23907085.602    97895603.74445
  22665226.724   119106584.42908  22665227.647    92810345.95547
  24235600.262   127358919.79407  24235599.750    99240708.13845
  22795929.774   119793406.28208  22795928.495    93345500.07746
 15 02 25 00 12 30.0000000  0  7G16G18G21G22G27G29G31
  21583472.875   113421931.74209  21583471.014    88380721.19048
  22705108.992   119316236.03708  22705107.604    92973736.80446
  21415266.533   112537991.54209  21415264.330    87691935.12448
  23889731.975   125541454.02107  23889731.181    97824542.94745
  22653717.688   119046103.06808  22653718.491    92763217.63447
  24249852.601   127433818.77407  24249852.411    99299070.90345
  22813279.125   119884577.45408  22813277.555    93416542.51747
 15 02 25 00 13  0.0000000  0  7G16G18G21G22G27G29G31
  21570591.896   113354241.08709  21570589.904    88327975.22848
  22694136.843   119258577.47508  22694135.579    92928808.07346
  21423327.196   112580350.17509  21423324.741    87724941.84748
  23872378.019   125450260.45806  23872377.882    97753483.30745
  22642230.227   118985736.83808  22642231.296    92716179.02247
  24264104.992   127508714.84407  24264104.861    99357431.42745
  22830664.946   119975939.90408  22830663.478    93487733.99347
 15 02 25 00 13 30.0000000  0  7G16G18G21G22G27G29G31
  21557760.344   113286811.66909  21557758.399    88275432.82948
  22683220.830   119201213.31408  22683219.172    92884108.73946
  21431450.454   112623038.87109  21431448.114    87758205.76248
  23855025.505   125359076.60307  23855025.997    97682431.33246
  22630765.859   118925491.58108  22630766.859    92669234.69247
  24278357.628   127583613.54707  24278357.482    99415794.02745
  22848087.478   120067496.61808  22848086.240    93559076.82546
 15 02 25 00 14  0.0000000  0  7G16G18G21G22G27G29G31
  21544978.497   113219642.83009  21544976.671    88223093.47648
  22672360.697   119144143.40008  22672359.182    92839638.70846
  21439635.899   112666053.36309  21439633.522    87791723.54748
  23837676.008   125267902.72307  23837675.854    97611386.99146
  22619324.045   118865364.57108  22619325.141    92622382.48947
  24292611.011   127658512.98808  24292611.024    99474157.14945
  22865546.085   120159241.65608  22865544.957    93630566.41247
 15 02 25 00 14 30.0000000  0  7G16G18G21G22G27G29G31
  21532246.491   113152735.87009  21532244.724    88170958.18748
  22661556.950   119087369.42008  22661555.517    92795399.25846
  21447882.849   112709391.12909  21447880.500    87825493.23248
  23820328.281   125176740.80306  23820327.982    97540351.97945
  22607904.367   118805354.91408  22607905.590    92575621.74347
  24306863.454   127733411.83307  24306862.824    99532519.88946
  22883039.914   120251171.37808  22883038.287    93702199.92746
 15 02 25 00 15  0.0000000  0  7G16G18G21G22G27G29G31
  21519564.996   113086093.13609  21519562.872    88119028.78048
  22650809.822   119030893.50708  22650808.635    92751392.07346
  21456190.833   112753050.19309  21456188.505    87859513.27848
  23802983.053   125085593.17007  23802982.281    97469328.10844
  22596507.359   118745462.57408  22596508.473    92528952.39347
  24321116.562   127808310.07506  24321116.232    99590882.15045
  22900568.179   120343283.06508  22900566.586    93773975.22646
 15 02 25 00 15 30.0000000  0  7G16G18G21G22G27G29G31
  21506934.623   113019720.82609  21506932.818    88067310.10348
  22640120.830   118974722.44508  22640119.628    92707622.43746
  21464560.494   112797033.15009  21464558.084    87893785.71148
  23785642.190   124994466.66608  23785641.106    97398320.64546
  22585133.325   118685691.53108  22585134.351    92482377.57547
  24335369.744   127883212.05307  24335369.529    99649247.26645
  22918131.205   120435578.04508  22918130.071    93845893.32247
 15 02 25 00 16  0.0000000  0  7G16G18G21G22G27G29G31
  21494355.439   112953616.05009  21494353.362    88015799.89348
  22629489.284   118918853.57408  22629488.257    92664088.28246
  21472990.504   112841333.34109  21472988.237    87928305.34248
  23768304.979   124903359.10007  23768304.226    97327328.02346
  22573781.402   118626036.67608  22573782.489    92435893.28647
  24349622.679   127958112.66706  24349623.139    99707611.29245
  22935727.623   120528047.96608  22935726.606    93917947.75247
 15 02 25 00 16 30.0000000  0  7G16G18G21G22G27G29G31
  21481827.427   112887781.15209  21481825.398    87964499.97748
  22618915.744   118863289.39908  22618914.521    92620791.53746
  21481480.438   112885948.74609  21481478.221    87963070.59248
  23750971.431   124812273.31307  23750970.462    97256352.37245
  22562451.688   118566498.28308  22562452.661    92389499.75547
  24363875.764   128033011.98007  24363875.634    99765974.37845
  22953356.986   120620690.30308  22953355.911    93990136.52946
 15 02 25 00 17  0.0000000  0  7G16G18G21G22G27G29G31
  21469352.330   112822224.29609  21469350.358    87913416.71148
  22608401.821   118808038.14408  22608400.492    92577738.62846
  21490031.293   112930883.76009  21490029.022    87998084.88548
  23733644.219   124721217.94907  23733642.188    97185400.24045
  22551145.276   118507082.21808  22551146.203    92343201.54147
  24378129.374   128107916.04706  24378129.281    99824341.14845
  22971019.590   120713508.19708  22971018.587    94062462.10846
 15 02 25 00 17 30.0000000  0  7G16G18G21G22G27G29G31
  21456929.002   112756939.98609  21456927.168    87862545.82348
  22597946.452   118753094.34208  22597945.115    92534925.29446
  21498641.308   112976129.25409  21498639.160    88033341.11448
  23716321.771   124630187.90207  23716319.586    97114467.95446
  22539860.540   118447780.65508  22539861.416    92296992.53947
  24392382.538   128182816.99306  24392382.053    99882705.55245
  22988713.465   120806490.82108  22988712.622    94134916.03646
 15 02 25 00 18  0.0000000  0  7G16G18G21G22G27G29G31
  21444559.023   112691934.14909  21444556.961    87811891.92448
  22587550.504   118698463.98708  22587549.255    92492356.20446
  21507310.470   113021686.82309  21507308.391    88068840.51148
  23699004.956   124539189.23807  23699003.412    97043560.17746
  22528598.331   118388597.06608  22528599.188    92250875.47347
  24406636.275   128257718.38807  24406636.196    99941070.20045
  23006439.166   120899638.91708  23006438.079    94207498.91647
 15 02 25 00 18 30.0000000  0  7G16G18G21G22G27G29G31
  21432242.687   112627211.08409  21432240.701    87761458.36748
  22577215.259   118644151.62608  22577213.754    92450034.90146
  21516039.445   113067557.27109  21516037.216    88104583.71348
  23681695.676   124448227.23508  23681693.223    96972680.84945
  22517358.744   118329533.89108  22517359.836    92204852.23447
  24420889.915   128332622.83607  24420890.058    99999437.28845
  23024196.130   120992951.80108  23024195.537    94280210.17447
 15 02 25 00 19  0.0000000  0  7G16G18G21G22G27G29G31
  21419979.748   112562769.87309  21419977.916    87711244.43748
  22566940.530   118590157.27608  22566939.121    92407961.40046
  21524826.826   113113735.89409  21524824.881    88140567.04748
  23664392.895   124357301.84807  23664390.382    96901830.01245
  22506141.870   118270588.28508  22506142.713    92158920.61747
  24435143.880   128407527.55207  24435143.649   100057804.51845
  23041983.156   121086424.06408  23041982.414    94353045.61746
 15 02 25 00 19 30.0000000  0  7G16G18G21G22G27G29G31
  21407771.272   112498613.55409  21407769.306    87661252.50348
  22556726.658   118536483.58108  22556725.255    92366137.76346
  21533672.864   113160221.48009  21533670.695    88176789.58048
  23647097.453   124266416.06507  23647095.820    96831010.17446
  22494947.243   118211760.56508  22494948.112    92113080.84947
  24449397.936   128482433.08907  24449398.033   100116172.40045
  23059800.279   121180052.80008  23059799.135    94426003.05046
 15 02 25 00 20  0.0000000  0  7G16G18G21G22G27G29G31
  21395616.836   112434741.19109  21395614.692    87611481.83048
  22546573.734   118483129.50908  22546572.446    92324563.17846
  21542576.165   113207008.45409  21542573.860    88213246.96248
  23629809.911   124175569.88307  23629808.477    96760221.11445
  22483774.363   118153047.89908  22483775.476    92067330.74147
  24463651.529   128557335.85207  24463651.099   100174538.19445
  23077646.190   121273832.60408  23077644.969    94499078.16146
 15 02 25 00 20 30.0000000  0  7G16G18G21G22G27G29G31
  21383518.298   112371163.60109  21383516.258    87561940.85848
  22536483.734   118430106.26308  22536482.394    92283246.38246
  21551538.276   113254104.51309  21551536.110    88249945.18948
  23612532.012   124084774.38007  23612530.195    96689471.50046
  22472625.213   118094458.75608  22472626.237    92021676.87547
  24477906.193   128632245.14406  24477906.352   100232909.04445
  23095521.553   121367769.02207  23095520.916    94572275.27147
 15 02 25 00 21  0.0000000  0  7G16G18G21G22G27G29G31
  21371474.046   112307870.75409  21371472.062    87512621.76548
  22526454.670   118377403.64508  22526453.423    92242179.42546
  21560556.463   113301495.30809  21560554.278    88286873.07848
  23595261.289   123994019.96607  23595259.957    96618753.91645
  22461497.229   118035980.73908  22461498.220    91976109.60247
  24492160.010   128707148.68006  24492160.329   100291275.38345
  23113423.885   121461846.56708  23113423.490    94645582.35246
 15 02 25 00 21 30.0000000  0  7G16G18G21G22G27G29G31
  21359486.843   112244877.63609  21359485.025    87463536.22648
  22516489.438   118325036.72108  22516488.380    92201374.04946
  21569632.699   113349191.88009  21569630.594    88324039.23448
  23578002.428   123903322.63107  23578001.112    96548080.83146
  22450392.819   117977626.79608  22450393.975    91930639.00947
  24506414.850   128782059.24407  24506414.464   100349647.30946
  23131355.442   121556075.40708  23131354.200    94719007.39246
 15 02 25 00 22  0.0000000  0  7G16G18G21G22G27G29G31
  21347555.049   112182175.29509  21347553.167    87414677.26248
  22506586.531   118272996.87108  22506585.337    92160823.52846
  21578764.929   113397181.19309  21578762.610    88361433.50048
  23560752.757   123812673.43507  23560751.362    96477445.27246
  22439309.918   117919385.51008  22439311.007    91885256.20247
  24520669.032   128856965.50808  24520669.248   100408015.67144
  23149312.810   121650441.26508  23149311.637    94792539.15846
 15 02 25 00 22 30.0000000  0  7G16G18G21G22G27G29G31
  21335680.943   112119776.34909  21335678.951    87366054.70848
  22496748.240   118221296.86508  22496747.137    92120537.83546
  21587954.460   113445472.32009  21587951.977    88399062.95148
  23543514.478   123722085.91707  23543512.503    96406857.71345
  22428250.478   117861267.76108  22428251.493    91839969.65447
  24534924.022   128931878.20607  24534924.993   100466389.12646
  23167297.575   121744952.15308  23167296.559    94866183.90847
 15 02 25 00 23  0.0000000  0  7G16G18G21G22G27G29G31
  21323862.759   112057671.03209  21323860.672    87317660.95448
  22486972.898   118169926.93908  22486971.862    92080509.34247
  21597198.723   113494051.43409  21597196.290    88436916.80448
  23526285.716   123631550.50407  23526283.795    96336310.78446
  22417212.262   117803261.38908  22417213.220    91794769.89847
  24549178.685   129006785.55807  24549179.130   100524758.55946
  23185307.004   121839592.78108  23185306.263    94939929.75746
 15 02 25 00 23 30.0000000  0  6G16G18G21G22G27G31
  21312092.719   111995819.71009  21312090.971    87269465.12248
  22477252.928   118118847.31208  22477251.712    92040707.04846
  21606489.407   113542874.34209  21606487.010    88474960.62548
  23509060.091   123541028.36108  23509058.110    96265774.17146
  22406187.217   117745324.35408  22406188.325    91749624.17147
  23203332.808   121934318.36308  23203331.929    95013741.81746
 15 02 25 00 24  0.0000000  0  6G16G18G21G22G27G31
  21300393.113   111934337.67709  21300391.337    87221557.04748
  22467610.029   118068173.25108  22467608.610    92001220.78246
  21615847.643   113592052.70209  21615845.447    88513281.42248
  23491858.781   123450634.83708  23491856.498    96195337.78746
  22395196.893   117687569.68508  22395197.834    91704620.54048
  23221395.662   122029238.83608  23221394.594    95087705.75546
 15 02 25 00 24 30.0000000  0  6G16G18G21G22G27G31
  21288749.419   111873149.03009  21288747.396    87173877.58448
  22458029.696   118017828.73008  22458028.508    91961991.30246
  21625258.614   113641507.03109  21625256.406    88551817.26048
  23474667.806   123360295.02907  23474665.283    96124943.26146
  22384226.489   117629919.63508  22384227.429    91659698.43947
  23239480.412   122124273.80408  23239479.295    95161758.89246
 15 02 25 00 25  0.0000000  0  6G16G18G21G22G27G31
  21277163.783   111812266.91309  21277161.792    87126436.97348
  22448514.752   117967827.49008  22448513.561    91923029.31346
  21634723.467   113691245.98609  21634721.323    88590574.88448
  23457489.050   123270022.55707  23457486.700    96054601.21045
  22373277.966   117572384.91408  22373279.015    91614866.20247
  23257588.166   122219431.13007  23257587.336    95235907.35846
 15 02 25 00 25 30.0000000  0  6G16G18G21G22G27G31
  21265636.481   111751690.71809  21265634.572    87079234.74848
  22439064.907   117918168.59508  22439063.886    91884334.09547
  21644241.908   113741265.16809  21644239.701    88629550.86548
  23440323.778   123179817.66008  23440320.784    95984311.77945
  22362350.898   117514962.91308  22362351.851    91570121.79447
  23275718.181   122314705.31608  23275717.546    95310146.87946
 15 02 25 00 26  0.0000000  0  6G16G18G21G22G27G31
  21254169.903   111691433.91309  21254168.168    87032281.39448
  22429682.856   117868865.33308  22429681.538    91845915.98046
  21653815.355   113791574.06509  21653813.196    88668752.60048
  23423173.997   123089694.14107  23423170.486    95914085.73845
  22351447.533   117457664.84008  22351448.362    91525473.95547
  23293872.173   122410104.37808  23293871.384    95384483.71946
 15 02 25 00 26 30.0000000  0  6G16G18G21G22G27G31
  21242764.231   111631496.26509  21242762.344    86985576.73348
  22420368.412   117819917.72608  22420367.298    91807775.00646
  21663443.064   113842168.33209  21663440.849    88708176.70248
  23406038.933   122999652.20907  23406036.420    95843923.35246
  22340567.272   117400488.30608  22340568.025    91480920.82248
  23312049.183   122505623.21008  23312048.195    95458913.87546
 15 02 25 00 27  0.0000000  0  6G16G18G21G22G27G31
  21231417.943   111571871.96509  21231416.331    86939116.23948
  22411120.551   117771319.76308  22411119.210    91769906.47746
  21673123.338   113893038.26009  21673121.004    88747815.60048
  23388918.886   122909686.72208  23388916.376    95773820.47746
  22329708.578   117343425.20308  22329709.424    91436456.07548
  23330246.343   122601250.77107  23330245.609    95533428.74346
 15 02 25 00 27 30.0000000  0  6G16G18G21G22G27G31
  21220132.203   111512564.43509  21220130.406    86892902.57448
  22401939.802   117723074.84808  22401938.626    91732313.05047
  21682855.840   113944182.84509  21682853.487    88787668.52248
  23371814.413   122819801.32808  23371811.199    95703779.98045
  22318871.479   117286476.70808  22318872.334    91392080.62948
  23348463.940   122696985.20207  23348463.302    95608026.87146
 15 02 25 00 28  0.0000000  0  6G16G18G21G22G27G31
  21208910.463   111453593.23209  21208908.468    86846950.98948
  22392830.075   117675202.66308  22392828.864    91695010.06647
  21692643.906   113995618.26009  21692641.512    88827748.06548
  23354728.396   122730015.98507  23354725.485    95633817.46446
  22308059.618   117229660.55808  22308060.690    91347808.31548
  23366705.119   122792841.27708  23366704.176    95682719.82746
 15 02 25 00 28 30.0000000  0  6G16G18G21G22G27G31
  21197749.341   111394941.54909  21197747.553    86801248.37748
  22383788.053   117627686.35608  22383786.738    91657984.38547
  21702483.062   114047323.49609  21702480.560    88868037.85548
  23337658.576   122640315.63207  23337656.379    95563921.20146
  22297269.308   117172957.53708  22297270.428    91303624.15248
  23384965.122   122888796.73908  23384964.024    95757490.22546
 15 02 25 00 29  0.0000000  0  7G16G18G19G21G22G27G31
  21186648.384   111336605.12309  21186646.463    86755791.42648
  22374812.919   117580521.27308  22374811.448    91621232.38747
  24448395.958   128477183.50416  24448392.509   100112089.82154
  21712371.968   114099290.20709  21712369.687    88908531.39348
  23320604.968   122550696.06608  23320602.588    95494087.87246
  22286499.460   117116361.28908  22286500.536    91259523.18448
  23403242.195   122984842.59307  23403241.228    95832331.03946
 15 02 25 00 29 30.0000000  0  7G16G18G19G21G22G27G31
  21175606.975   111278582.97309  21175605.216    86710579.36548
  22365904.291   117533706.42808  22365902.929    91584753.30247
  24433638.300   128399635.58006  24433636.861   100051662.97044
  21722309.523   114151513.53509  21722307.430    88949224.88548
  23303566.063   122461156.61407  23303563.659    95424316.96546
  22275749.191   117059868.68108  22275750.170    91215502.98148
  23421534.816   123080972.84007  23421534.371    95907237.56046
 15 02 25 00 30  0.0000000  0  7G16G18G19G21G22G27G31
  21164633.314   111220915.77309  21164631.377    86665643.89048
  22357070.163   117487282.68208  22357068.605    91548578.97247
  24418902.065   128322197.20406  24418901.146    99991321.43345
  21732302.859   114204029.30809  21732300.971    88990146.26548
  23286550.062   122371738.48607  23286547.446    95354640.57345
  22265026.204   117003518.25208  22265027.201    91171593.56048
  23439850.880   123177222.90908  23439850.321    95982237.50046
 15 02 25 00 30 30.0000000  0  7G16G18G19G21G22G27G31
  21153721.500   111163573.49409  21153719.581    86620961.59848
  22348304.617   117441219.67608  22348303.094    91512685.73247
  24404180.922   128244836.04706  24404178.725    99931039.98545
  21742345.620   114256804.96809  21742343.882    89031270.14848
  23269551.777   122282412.27108  23269549.121    95285035.80646
  22254323.925   116947277.77308  22254324.989    91127769.82148
  23458183.014   123273557.70307  23458182.137    96057303.47146
 15 02 25 00 31  0.0000000  0  7G16G18G19G21G22G27G31
  21142873.466   111106566.28409  21142871.462    86576540.39648
  22339609.681   117395527.53808  22339608.310    91477081.48347
  24389475.746   128167560.51206  24389473.810    99870825.31645
  21752439.308   114309846.52809  21752437.346    89072601.23048
  23252573.629   122193189.03408  23252571.101    95215511.27446
  22243644.314   116891155.41408  22243645.422    91084038.12148
  23476532.084   123369982.47007  23476531.271    96132439.51546
 15 02 25 00 31 30.0000000  0  7G16G18G19G21G22G27G31
  21132089.373   111049895.14909  21132087.357    86532381.07048
  22330985.308   117350206.90508  22330984.009    91441766.72247
  24374786.780   128090369.38206  24374784.831    99810676.43244
  21762582.842   114363150.22409  21762580.603    89114136.57648
  23235614.366   122104069.94208  23235612.361    95146067.94446
  22232986.761   116835149.78408  22232987.853    91040397.37748
  23494897.338   123466492.87307  23494896.892    96207642.28746
 15 02 25 00 32  0.0000000  0  7G16G18G19G21G22G27G31
  21121369.206   110993560.28909  21121366.999    86488483.77748
  22322431.963   117305258.30408  22322430.532    91406741.85346
  24360113.545   128013260.54306  24360111.610    99750591.63845
  21772775.407   114416712.57709  21772773.202    89155873.47048
  23218676.019   122015056.13708  23218673.436    95076706.59746
  22222351.251   116779259.14308  22222352.234    90996846.23548
  23513278.217   123563084.23307  23513277.808    96282908.12746
 15 02 25 00 32 30.0000000  0  7G16G18G19G21G22G27G31
  21110715.428   110937574.24909  21110713.334    86444858.29848
  22313951.571   117260693.76008  22313950.176    91372016.24647
  24345457.611   127936244.74505  24345455.935    99690579.38445
  21783018.900   114470542.09009  21783016.578    89197818.54148
  23201759.481   121926160.69508  23201756.840    95007437.49746
  22211739.405   116723493.92408  22211740.268    90953392.82248
  23531676.055   123659764.02207  23531675.155    96358242.90646
 15 02 25 00 33  0.0000000  0  7G16G18G19G21G22G27G31
  21100126.536   110881929.52509  21100124.412    86401498.77848
  22305542.899   117216505.89508  22305541.540    91337584.16147
  24330817.744   127859311.90906  24330815.812    99630631.74445
  21793310.847   114524627.22809  21793308.553    89239962.80048
  23184864.645   121837376.76208  23184862.119    94938255.28446
  22201149.734   116667844.60608  22201150.541    90910029.72148
  23550087.696   123756519.84907  23550087.438    96433636.87846
 15 02 25 00 33 30.0000000  0  7G16G18G19G21G22G27G31
  21089602.710   110826626.22709  21089600.667    86358405.30048
  22297205.937   117172694.39109  22297204.422    91303445.33647
  24316193.527   127782460.04006  24316191.573    99570747.21344
  21803650.766   114578964.08909  21803648.710    89282303.20548
  23167991.118   121748705.21608  23167988.427    94869160.64646
  22190581.639   116612309.08308  22190582.538    90866755.29748
  23568513.438   123853346.68307  23568513.067    96509086.21846
 15 02 25 00 34  0.0000000  0  7G16G18G19G21G22G27G31
  21079146.232   110771677.63009  21079144.366    86315588.21648
  22288942.857   117129271.95609  22288941.396    91269609.69047
  24301586.468   127705700.45506  24301584.619    99510934.61444
  21814040.217   114633561.99109  21814038.435    89324847.01348
  23151141.067   121660159.57008  23151138.862    94800164.12146
  22180037.197   116556898.44408  22180038.237    90823578.17648
  23586954.237   123950252.51907  23586953.728    96584597.14046
 15 02 25 00 34 30.0000000  0  7G16G18G19G21G22G27G31
  21068755.590   110717074.90609  21068753.724    86273040.64648
  22280752.421   117086230.24009  22280750.771    91236070.70047
  24286995.049   127629022.18906  24286993.185    99451185.31945
  21824477.327   114688408.65509  21824475.276    89367584.66648
  23134313.837   121571731.66108  23134311.237    94731259.30946
  22169514.499   116501601.85708  22169515.349    90780489.92848
  23605407.209   124047223.85507  23605407.289    96660159.04446
 15 02 25 00 35  0.0000000  0  7G16G18G19G21G22G27G31
  21058431.572   110662821.07409  21058429.486    86230764.93148
  22272634.675   117043571.73008  22272633.129    91202830.31247
  24272419.382   127552426.13506  24272417.457    99391500.11945
  21834961.481   114743502.63309  21834959.478    89410515.03348
  23117509.577   121483425.11708  23117506.938    94662449.07746
  22159013.760   116446420.13108  22159014.784    90737491.18548
  23623872.233   124144258.39607  23623872.715    96735770.15846
 15 02 25 00 35 30.0000000  0  7G16G18G19G21G22G27G31
  21048175.623   110608926.04209  21048173.633    86188768.80248
  22264591.874   117001306.39509  22264590.308    91169896.30347
  24257860.339   127475919.50206  24257858.381    99331884.60345
  21845493.724   114798849.34709  21845491.546    89453642.34248
  23100730.307   121395250.77208  23100727.651    94593741.85446
  22148536.435   116391361.13508  22148537.414    90694588.07548
  23642350.383   124241360.94707  23642350.722    96811434.32145
 15 02 25 00 36  0.0000000  0  7G16G18G19G21G22G27G31
  21037988.034   110555390.36909  21037986.171    86147052.69449
  22256623.967   116959434.45209  22256622.152    91137268.81947
  24243318.330   127399501.10706  24243316.248    99272337.81545
  21856073.470   114854446.47809  21856071.236    89496964.77748
  23083976.611   121307209.56408  23083974.065    94525138.37846
  22138082.100   116336423.51508  22138082.988    90651779.54148
  23660840.858   124338527.29807  23660840.835    96887148.21345
 15 02 25 00 36 30.0000000  0  7G16G18G19G21G22G27G31
  21027868.584   110502212.04909  21027866.819    86105615.04449
  22248730.394   116917953.38009  22248728.639    91104945.92047
  24228792.396   127323167.05606  24228790.222    99212856.79145
  21866699.558   114910287.60409  21866697.477    89540477.33148
  23067248.010   121219300.17208  23067245.472    94456637.64846
  22127650.186   116281603.19008  22127651.082    90609062.41048
  23679341.880   124435750.54807  23679341.889    96962906.40246
 15 02 25 00 37  0.0000000  0  7G16G18G19G21G22G27G31
  21017816.728   110449389.87709  21017814.850    86064454.91448
  22240910.999   116876862.12109  22240909.412    91072926.77547
  24214281.876   127246913.91906  24214279.929    99153438.81745
  21877370.947   114966366.40809  21877368.941    89584175.10248
  23050544.688   121131522.12408  23050541.535    94388239.19646
  22117239.813   116226896.86908  22117240.878    90566434.11348
  23697852.641   124533024.28207  23697852.565    97038703.90245
 15 02 25 00 37 30.0000000  0  7G16G18G19G21G22G27G31
  21007834.518   110396932.91609  21007832.729    86023579.35949
  22233167.371   116836169.08409  22233165.726    91041217.92847
  24199788.208   127170748.27006  24199786.604    99094089.01145
  21888088.768   115022689.40609  21888086.827    89628063.14448
  23033867.762   121043884.78508  23033864.487    94319950.40746
  22106852.698   116172311.27608  22106853.448    90523899.88848
  23716373.613   124630352.30407  23716373.759    97114543.68946
 15 02 25 00 38  0.0000000  0  7G16G18G19G21G22G27G31
  20997921.941   110344841.44109  20997919.953    85982988.60449
  22225499.448   116795874.56309  22225498.045    91009819.61547
  24185310.818   127094668.72706  24185308.933    99034806.27345
  21898852.397   115079252.94209  21898850.371    89672138.62248
  23017217.751   120956389.42108  23017214.873    94251772.27246
  22096488.188   116117845.00208  22096488.947    90481458.64448
  23734904.523   124727730.20507  23734904.301    97190422.38045
 15 02 25 00 38 30.0000000  0  7G16G18G19G21G22G27G31
  20988079.021   110293116.01809  20988077.040    85942683.08149
  22217907.443   116755978.33609  22217905.972    90978731.65947
  24170849.493   127018673.39306  24170847.498    98975589.18045
  21909661.199   115136052.89109  21909659.148    89716398.31748
  23000595.458   120869037.30308  23000592.220    94183705.72547
  22086145.961   116063496.51608  22086146.941    90439109.17248
  23753443.794   124825153.70107  23753443.445    97266336.60745
 15 02 25 00 39  0.0000000  0  7G16G18G19G21G22G27G31
  20978306.492   110241761.40309  20978304.498    85902666.50149
  22210392.214   116716485.38809  22210390.495    90947957.94447
  24156404.452   126942765.03406  24156402.301    98916439.91646
  21920515.332   115193090.93309  21920513.141    89760843.54548
  22984000.843   120781833.73108  22983998.036    94115754.96946
  22075826.696   116009268.47208  22075827.613    90396853.56148
  23771991.428   124922622.52107  23771991.643    97342286.06546
 15 02 25 00 39 30.0000000  0  7G16G18G19G21G22G27G31
  20968604.358   110190776.69209  20968602.499    85862938.15649
  22202953.427   116677394.70509  22202951.782    90917497.68747
  24141975.578   126866941.00506  24141973.500    98857356.29745
  21931413.666   115250361.81709  21931411.557    89805470.20348
  22967434.734   120694778.58608  22967431.619    94047919.82746
  22065529.934   115955158.09108  22065530.759    90354689.63548
  23790546.762   125020130.70607  23790547.103    97418266.19645
 15 02 25 00 40  0.0000000  0  7G16G18G19G21G22G27G31
  20958973.770   110140167.98209  20958971.791    85823502.79649
  22195592.468   116638712.04109  22195590.787    90887355.36447
  24127563.329   126791204.50007  24127560.927    98798340.84445
  21942356.576   115307867.41509  21942354.361    89850279.75048
  22950897.948   120607878.34508  22950894.920    93980205.40346
  22055256.194   115901169.38208  22055257.060    90312620.52448
  23809110.103   125117679.37707  23809109.965    97494277.91845
 15 02 25 00 40 30.0000000  0  7G16G18G19G21G22G27G31
  20949414.374   110089932.76909  20949412.453    85784358.46749
  22188308.164   116600433.82509  22188306.764    90857528.19647
  24113167.094   126715551.02606  24113164.599    98739390.10145
  21953342.791   115365601.45809  21953340.888    89895267.30548
  22934390.298   120521130.80908  22934387.477    93912609.96246
  22045004.666   115847297.61208  22045005.596    90270642.52248
  23827679.333   125215260.84107  23827679.391    97570315.14645
 15 02 25 00 41  0.0000000  0  7G16G18G19G21G22G27G31
  20939926.913   110040075.82609  20939924.891    85745508.89349
  22181102.099   116562565.13909  22181100.613    90828020.14747
  24098786.982   126639983.84106  24098784.607    98680506.62546
  21964372.882   115423565.04009  21964370.852    89940433.72448
  22917913.125   120434542.33908  22917910.681    93845138.48647
  22034776.020   115793545.90108  22034777.149    90228758.08548
  23846255.111   125312875.30607  23846254.911    97646378.10744
 15 02 25 00 41 30.0000000  0  7G16G18G19G21G22G27G31
  20930511.164   109990595.51009  20930509.130    85706952.80249
  22173973.332   116525103.86809  22173971.920    90798829.56047
  24084422.776   126564499.36406  24084420.345    98621687.59145
  21975445.612   115481752.09609  21975443.562    89985774.27748
  22901465.614   120348111.51908  22901463.204    93777789.84946
  22024569.663   115739910.57408  22024570.580    90186964.32848
  23864835.719   125410516.30907  23864835.587    97722461.71345
 15 02 25 00 42  0.0000000  0  7G16G18G19G21G22G27G31
  20921170.016   109941507.07209  20921168.156    85668702.07449
  22166924.987   116488064.37809  22166923.550    90769967.63347
  24070076.467   126489109.87606  24070074.127    98562942.57045
  21986563.138   115540174.33909  21986561.006    90031298.10248
  22885051.350   120261854.07308  22885048.820    93710576.28646
  22014387.811   115686404.79608  22014388.626    90145271.52548
  23883423.655   125508194.07507  23883423.278    97798573.95246
 15 02 25 00 42 30.0000000  0  7G16G18G19G21G22G27G31
  20911900.077   109892793.61809  20911898.201    85630743.53449
  22159953.746   116451430.54209  22159952.267    90741421.79947
  24055745.098   126413797.40007  24055742.853    98504257.58545
  21997721.478   115598811.25109  21997719.200    90076989.19748
  22868667.207   120175754.01308  22868664.477    93643485.35747
  22004227.021   115633009.83108  22004227.949    90103665.06248
  23902014.073   125605886.59707  23902014.026    97874697.67346
 15 02 25 00 43  0.0000000  0  7G16G18G19G21G22G27G31
  20902703.767   109844466.78109  20902702.001    85593086.25749
  22153061.711   116415212.93409  22153060.334    90713200.30047
  24041430.009   126338570.81907  24041427.556    98445639.49345
  22008921.942   115657670.05309  22008919.701    90122853.19148
  22852315.304   120089824.05408  22852312.838    93576527.00447
  21994089.305   115579735.33508  21994090.044    90062152.47648
  23920608.487   125703600.77806  23920608.880    97950838.24245
 15 02 25 00 43 30.0000000  0  7G16G18G19G21G22G27G31
  20893581.854   109796530.05009  20893579.770    85555732.96349
  22146249.595   116379414.61809  22146248.000    90685305.52547
  24027131.525   126263431.68206  24027128.988    98387089.55945
  22020164.393   115716750.47109  22020162.215    90168889.87548
  22835996.463   120004068.15408  22835993.949    93509704.25547
  21983974.535   115526582.92008  21983975.596    90020735.03048
  23939207.136   125801335.15007  23939207.005    98026994.58445
 15 02 25 00 44  0.0000000  0  7G16G18G19G21G22G27G31
  20884534.748   109748987.21909  20884532.784    85518686.60049
  22139517.988   116344039.19109  22139516.213    90657740.26547
  24012849.805   126188381.80406  24012847.767    98328609.19145
  22031449.101   115776052.85609  22031447.204    90215099.51648
  22819711.388   119918490.66308  22819709.192    93443020.55547
  21973883.593   115473554.38108  21973884.564    89979414.09948
  23957809.358   125899088.58407  23957809.322    98103165.74245
 15 02 25 00 44 30.0000000  0  7G16G18G19G21G22G27G31
  20875560.461   109701827.95909  20875558.790    85481939.12649
  22132864.594   116309075.80609  22132862.951    90630496.07947
  23998583.142   126113409.07707  23998580.608    98270188.90645
  22042773.723   115835563.02009  22042771.709    90261471.06648
  22803458.792   119833081.79008  22803456.408    93376468.21547
  21963813.771   115420637.57908  21963814.795    89938180.23348
  23976412.482   125996846.19107  23976412.682    98179340.14045
 15 02 25 00 45  0.0000000  0  7G16G18G19G21G22G27G31
  20866662.890   109655070.97409  20866661.216    85445505.11249
  22126293.335   116274543.01409  22126291.529    90603587.42247
  23984333.905   126038529.67206  23984331.449    98211841.35646
  22054140.424   115895295.03309  22054138.186    90308015.48348
  22787241.782   119747861.16908  22787239.198    93310062.57647
  21953768.512   115367849.23308  21953769.420    89897046.47648
  23995018.401   126094621.48606  23995018.963    98255528.28445
 15 02 25 00 45 30.0000000  0  7G16G18G19G21G22G27G31
  20857840.088   109608706.30609  20857838.144    85409376.79549
  22119801.852   116240430.38209  22119800.243    90577006.16247
  23970100.400   125963732.00507  23970098.003    98153557.49245
  22065546.692   115955235.65809  22065544.490    90354722.45648
  22771059.091   119662819.99408  22771056.208    93243796.75246
  21943745.354   115315177.68108  21943746.311    89856003.71048
  24013625.073   126192400.02107  24013625.795    98331718.89845
 15 02 25 00 46  0.0000000  0  7G16G18G19G21G22G27G31
  20849093.414   109562742.47409  20849091.473    85373560.82549
  22113391.740   116206745.64509  22113390.255    90550758.33447
  23955883.559   125889022.40807  23955881.330    98095342.24945
  22076993.567   116015389.42209  22076991.355    90401595.51648
  22754911.936   119577966.74308  22754909.196    93177677.37546
  21933745.870   115262629.37808  21933746.642    89815056.98748
  24032233.561   126290185.16007  24032233.984    98407914.76045
 15 02 25 00 46 30.0000000  0  7G16G18G19G21G22G27G31
  20840423.078   109517179.58009  20840421.250    85338057.27449
  22107063.100   116173488.63309  22107061.567    90524843.79047
  23941683.012   125814398.87507  23941680.988    98037194.06646
  22088480.119   116075752.75309  22088478.052    90448631.87148
  22738800.657   119493302.65208  22738798.256    93111705.42247
  21923769.418   115210202.58608  21923770.179    89774204.94348
  24050842.259   126387972.09007  24050842.637    98484111.95945
 15 02 25 00 47  0.0000000  0  7G16G18G19G21G22G27G31
  20831829.257   109472018.05709  20831827.228    85302866.47149
  22100815.944   116140659.32509  22100814.431    90499262.52847
  23927498.861   125739860.03107  23927496.397    97979111.88145
  22100006.144   116136322.26709  22100004.167    90495828.88548
  22722725.906   119408828.98708  22722723.174    93045881.80846
  21913815.671   115157895.88308  21913816.630    89733446.48048
  24069450.074   126485756.81506  24069451.041    98560307.38545
 15 02 25 00 47 30.0000000  0  7G16G18G19G21G22G27G31
  20823312.290   109427261.40809  20823310.365    85267991.15749
  22094650.669   116108260.71509  22094649.015    90474016.86847
  23913330.880   125665407.19407  23913328.430    97921096.70545
  22111571.276   116197097.07009  22111569.303    90543185.87048
  22706688.100   119324549.49708  22706685.151    92980209.50047
  21903885.201   115105710.72608  21903886.064    89692782.72348
  24088057.424   126583537.41207  24088058.583    98636499.56545
 15 02 25 00 48  0.0000000  0  7G16G18G19G21G22G27G31
  20814872.591   109382910.05209  20814870.469    85233431.65849
  22088567.390   116076292.71009  22088565.631    90449106.74347
  23899178.982   125591038.71807  23899176.576    97863147.26245
  22123174.924   116258074.56109  22123173.009    90590700.79548
  22690687.318   119240465.62908  22690684.481    92914689.65447
  21893977.548   115053645.84408  21893978.479    89652212.69448
  24106663.126   126681309.81707  24106664.553    98712685.37345
 15 02 25 00 48 30.0000000  0  7G16G18G19G21G22G27G31
  20806510.886   109338969.18109  20806508.966    85199192.01749
  22082566.990   116044760.20909  22082565.177    90424535.97947
  23885043.713   125516757.94107  23885041.386    97805266.14745
  22134817.390   116319255.91209  22134815.509    90638374.57148
  22674725.280   119156583.45908  22674722.180    92849326.94847
  21884093.493   115001704.88008  21884094.513    89611739.22548
  24125267.849   126779075.01707  24125269.029    98788865.52845
 15 02 25 00 49  0.0000000  0  7G16G18G19G21G22G27G31
  20798227.190   109295438.75209  20798225.386    85165272.20449
  22076649.176   116013662.75709  22076647.631    90400304.20947
  23870924.797   125442562.91507  23870922.396    97747451.86545
  22146497.963   116380637.02109  22146495.759    90686203.99548
  22658801.533   119072903.60708  22658798.388    92784121.90247
  21874232.669   114949885.71208  21874233.533    89571360.66148
  24143869.977   126876827.76407  24143871.234    98865035.98045
 15 02 25 00 49 30.0000000  0  7G16G18G19G21G22G27G31
  20790022.486   109252322.93309  20790020.689    85131675.46549
  22070814.868   115983003.95309  22070813.357    90376414.23947
  23856822.773   125368455.71306  23856820.596    97689706.00845
  22158216.160   116442217.81209  22158214.436    90734189.01548
  22642917.218   118989430.90408  22642914.229    92719078.26847
  21864395.436   114898190.73508  21864396.241    89531078.87448
  24162469.893   126974567.20407  24162470.929    98941196.08944
 15 02 25 00 50  0.0000000  0  7G16G18G19G21G22G27G31
  20781896.373   109209619.88709  20781894.592    85098400.36449
  22065063.732   115952781.34009  22065062.233    90352864.16247
  23842736.599   125294432.59106  23842734.193    97632025.67146
  22169971.906   116503994.14209  22169969.971    90782326.40548
  22627072.201   118906164.46408  22627069.038    92654195.36147
  21854581.266   114846616.45509  21854582.128    89490891.12748
  24181065.515   127072287.07206  24181066.519    99017340.89245
 15 02 25 00 50 30.0000000  0  7G16G18G19G21G22G27G31
  20773849.234   109167331.73109  20773847.415    85065448.55149
  22059395.866   115922996.53409  22059394.313    90329655.22847
  23828666.514   125220493.98007  23828664.319    97574411.16946
  22181764.269   116565963.74109  22181762.363    90830614.40348
  22611267.122   118823107.15108  22611263.725    92589475.40247
  21844790.109   114795163.23308  21844790.785    89450797.71748
  24199656.761   127169984.88606  24199658.713    99093468.41345
 15 02 25 00 51  0.0000000  0  7G16G18G19G21G22G27G31
  20765882.204   109125464.26909  20765880.310    85032824.55349
  22053812.318   115893654.88809  22053810.688    90306791.62047
  23814613.274   125146643.36506  23814611.000    97516865.26845
  22193593.984   116628128.43409  22193591.963    90879054.41948
  22595502.933   118740265.50208  22595499.604    92524923.49447
  21835022.693   114743835.02108  21835023.345    89410801.71348
  24218244.752   127267661.50207  24218246.857    99169579.41246
 15 02 25 00 51 30.0000000  0  7G16G18G19G21G22G27G31
  20757994.967   109084016.46309  20757993.055    85000527.56249
  22048312.943   115864754.75709  22048311.423    90284272.04947
  23800576.239   125072878.09207  23800573.650    97459385.85746
  22205459.836   116690483.00209  22205457.724    90927642.38548
  22579779.669   118657639.12808  22579776.459    92460539.34247
  21825278.497   114692629.04809  21825279.061    89370900.96748
  24236827.780   127365311.15907  24236829.590    99245669.41045
 15 02 25 00 52  0.0000000  0  7G16G18G19G21G22G27G31
  20750187.992   109042990.72309  20750186.115    84968559.45049
  22042897.739   115836297.91809  22042896.064    90262097.90547
  23786555.397   124999198.44506  23786553.001    97401973.14345
  22217361.352   116753026.57709  22217359.376    90976377.62648
  22564097.840   118575231.31008  22564094.659    92396325.49147
  21815557.524   114641545.99208  21815558.480    89331096.00048
  24255404.880   127462931.70006  24255406.496    99321736.70244
 15 02 25 00 52 30.0000000  0  7G16G18G19G21G22G27G31
  20742463.067   109002395.43709  20742461.035    84936926.75949
  22037568.486   115808292.37809  22037566.927    90240275.41747
  23772552.000   124925610.87606  23772549.768    97344632.21345
  22229299.933   116815764.15309  22229298.075    91025264.04248
  22548459.568   118493051.29208  22548456.195    92332289.12747
  21805861.459   114590592.54409  21805862.303    89291392.02748
  24273976.635   127560526.96305  24273978.325    99397784.33044
 15 02 25 00 53  0.0000000  0  7G16G18G19G21G22G27G31
  20734817.977   108962220.55909  20734816.017    84905621.65649
  22032322.982   115780727.57109  22032321.614    90218796.36247
  23758564.071   124852103.40907  23758561.617    97287353.69746
  22241272.590   116878681.85609  22241270.654    91074290.81348
  22532862.722   118411089.81408  22532859.605    92268423.07647
  21796187.598   114539756.93808  21796188.382    89251779.87648
  24292541.369   127658082.01607  24292543.256    99473800.52645
 15 02 25 00 53 30.0000000  0  7G16G18G19G21G22G27G31
  20727254.346   108922473.88009  20727252.589    84874650.21249
  22027162.750   115753610.55509  22027161.391    90197666.23647
  23744592.583   124778682.18107  23744590.213    97230142.38245
  22253280.549   116941783.73509  22253278.677    91123461.09748
  22517309.223   118329355.34008  22517305.868    92204733.90147
  21786537.665   114489045.32308  21786538.389    89212264.33048
  24311099.051   127755599.91707  24311101.370    99549787.77646
 15 02 25 00 54  0.0000000  0  7G16G18G19G21G22G27G31
  20719772.778   108883157.97509  20719770.996    84844014.43649
  22022088.144   115726943.44609  22022086.552    90176886.68247
  23730637.626   124705348.04107  23730635.088    97172998.91846
  22265323.407   117005068.88109  22265321.377    91172774.19348
  22501799.415   118247851.56308  22501796.354    92141224.50447
  21776911.224   114438458.59808  21776912.147    89172846.10448
  24329649.437   127853078.76007  24329652.057    99625744.51746
 15 02 25 00 54 30.0000000  0  7G16G18G19G21G22G27G31
  20712373.960   108844276.67309  20712372.146    84813717.31749
  22017099.754   115700729.74709  22017098.193    90156460.43747
  23716699.271   124632102.61707  23716696.969    97115924.58745
  22277401.199   117068537.19909  22277399.034    91222230.02348
  22486334.438   118166582.93508  22486331.169    92077898.31247
  21767309.201   114387999.15409  21767310.089    89133527.06348
  24348192.132   127950518.15606  24348195.042    99701670.50445
 15 02 25 00 55  0.0000000  0  7G16G18G19G21G22G27G31
  20705057.392   108805827.65909  20705055.595    84783757.04649
  22012197.331   115674966.15109  22012195.393    90136384.91547
  23702777.025   124558941.75007  23702774.928    97058916.15446
