     2.11           OBSERVATION DATA    G                   RINEX VERSION / TYPE
SPIDER V4,0,0,3554                      2015 03 13 02:03    PGM / RUN BY / DATE 
EMHD                                                        MARKER NAME         
EMHD                                                        MARKER NUMBER       
                                                            OBSERVER / AGENCY   
462397              LEICA GRX1200PRO    8.20/0.000          REC # / TYPE / VERS 
103297              LEIAT504                                ANT # / TYPE        
  5146535.6892   265261.6083  3747697.6292                  APPROX POSITION XYZ 
        0.0470        0.0000        0.0000                  ANTENNA: DELTA H/E/N
     1     1                                                WAVELENGTH FACT L1/2
     4    C1    L1    P2    L2                              # / TYPES OF OBSERV 
    30.000                                                  INTERVAL            
  2015    02    25    16    36   30.0000000     GPS         TIME OF FIRST OBS   
  2015    02    25    23    59   30.0000000     GPS         TIME OF LAST OBS    
    16                                                      LEAP SECONDS        
    16                                                      # OF SATELLITES     
   G 2   335   335   335   335                              PRN / # OF OBS      
   G 6    85    85    85    85                              PRN / # OF OBS      
   G12   665   665   665   665                              PRN / # OF OBS      
   G13   163   163   163   163                              PRN / # OF OBS      
   G14   453   453   450   450                              PRN / # OF OBS      
   G15   282   282   282   282                              PRN / # OF OBS      
   G16   174   174   174   174                              PRN / # OF OBS      
   G17   181   181   181   181                              PRN / # OF OBS      
   G18   286   286   286   286                              PRN / # OF OBS      
   G21   314   314   314   314                              PRN / # OF OBS      
   G22   138   138   138   138                              PRN / # OF OBS      
   G24   457   457   457   457                              PRN / # OF OBS      
   G25   816   816   816   816                              PRN / # OF OBS      
   G27   121   121   121   121                              PRN / # OF OBS      
   G29   677   677   677   677                              PRN / # OF OBS      
   G31   500   500   500   500                              PRN / # OF OBS      
BIT 2 OF LLI FLAGS DATA COLLECTED UNDER A/S CONDITION       COMMENT             
SNR is mapped to RINEX snr flag value [2-9]                 COMMENT             
Lx:     = 25dBHz -> 1; 26-27dBHz -> 2; 28-31dBHz -> 3       COMMENT             
       32-35dBHz -> 4; 36-38dBHz -> 5; 39-41dBHz -> 6       COMMENT             
       42-44dBHz -> 7; 45-48dBHz -> 8; >=49dBHz -> 9        COMMENT             
                                                            END OF HEADER       
 15 02 25 16 36 30.0000000  0  6G12G13G15G17G18G24
  21745549.320   114273631.05007  21745551.060    89044395.50148
  21492834.020   112945603.90807  21492835.340    88009567.07047
  20373439.860   107063148.68708  20373440.060    83425831.09449
  23049619.780   121126570.27706  23049622.200    94384346.72247
  23372451.360   122823058.62205  23372452.580    95706291.96445
  21245228.240   111644427.31407  21245231.680    86995671.98348
 15 02 25 16 37  0.0000000  0  6G12G13G15G17G18G24
  21730126.480   114192582.87207  21730128.160    88981241.16048
  21506706.240   113018503.00807  21506707.620    88066371.48547
  20375684.140   107074942.48408  20375684.360    83435021.05949
  23051479.620   121136343.21106  23051481.800    94391962.01847
  23369127.360   122805592.80505  23369129.300    95692682.27145
  21237519.260   111603916.30607  21237522.660    86964104.98048
 15 02 25 16 37 30.0000000  0  6G12G13G15G17G18G24
  21714776.680   114111918.81007  21714778.260    88918386.13348
  21520654.560   113091801.79507  21520655.900    88123487.34447
  20378025.900   107087248.46908  20378026.160    83444610.13449
  23053441.840   121146654.33206  23053443.760    94399996.68846
  23365898.500   122788626.77005  23365900.720    95679461.99446
  21229845.240   111563589.02407  21229848.680    86932681.14748
 15 02 25 16 38  0.0000000  0  6G12G13G15G17G18G24
  21699497.040   114031624.17807  21699498.680    88855818.98647
  21534675.780   113165483.65907  21534677.120    88180901.70847
  20380462.240   107100051.57208  20380462.520    83454586.57249
  23055503.380   121157487.44306  23055505.080    94408438.10046
  23362762.040   122772144.86905  23362764.140    95666618.96745
  21222203.220   111523429.80707  21222206.660    86901388.27548
 15 02 25 16 38 30.0000000  0  6G12G13G15G17G18G24
  21684289.380   113951708.14507  21684291.120    88793546.85648
  21548771.080   113239554.79807  21548772.480    88238619.40047
  20382994.600   107113359.30508  20382994.920    83464956.22849
  23057665.660   121168850.23306  23057667.200    94417292.24946
  23359719.320   122756154.73205  23359721.120    95654159.12445
  21214594.740   111483446.88807  21214598.120    86870232.77648
 15 02 25 16 39  0.0000000  0  6G12G13G15G17G18G24
  21669154.060   113872172.05807  21669155.840    88731570.78948
  21562940.260   113314014.21207  21562941.760    88296639.64647
  20385623.100   107127172.13508  20385623.420    83475719.46649
  23059928.700   121180742.97706  23059930.160    94426559.33846
  23356770.180   122740656.48105  23356771.820    95642082.58545
  21207019.820   111443640.39607  21207023.180    86839214.75948
 15 02 25 16 39 30.0000000  0  6G12G13G15G17G18G24
  21654091.660   113793019.00107  21654093.480    88669893.19148
  21577183.560   113388862.90407  21577185.120    88354963.22447
  20388348.120   107141492.14608  20388348.440    83486877.91449
  23062293.000   121193167.74906  23062294.380    94436241.00647
  23353914.820   122725651.95205  23353916.400    95630390.73245
  21199478.980   111404012.97807  21199482.340    86808336.28648
 15 02 25 16 40  0.0000000  0  6G12G13G15G17G18G24
  21639101.520   113714246.05907  21639103.440    88608511.79447
  21591499.920   113464095.60307  21591501.500    88413586.03647
  20391168.920   107156315.41008  20391169.240    83498428.51249
  23064757.660   121206119.78506  23064759.060    94446333.52446
  23351152.760   122711137.15205  23351154.440    95619080.50745
  21191971.460   111364560.72807  21191974.800    86777594.31048
 15 02 25 16 40 30.0000000  0  6G12G13G15G17G18G24
  21624184.500   113635857.39607  21624186.480    88547429.82848
  21605889.660   113539713.79507  21605891.220    88472509.23147
  20394086.100   107171645.30508  20394086.420    83510373.88249
  23067323.320   121219602.47706  23067324.740    94456839.54846
  23348484.380   122697114.77105  23348486.120    95608153.98046
  21184497.780   111325286.27207  21184501.100    86746990.87148
 15 02 25 16 41  0.0000000  0  6G12G13G15G17G18G24
  21609340.620   113557852.62707  21609342.580    88486646.99848
  21620352.200   113615714.83207  21620353.720    88531730.74347
  20397099.320   107187479.98608  20397099.660    83522712.59249
  23069989.560   121233613.91206  23069991.040    94467757.57247
  23345909.440   122683583.35705  23345911.060    95597610.03144
  21177057.720   111286188.80307  21177061.060    86716525.33948
 15 02 25 16 41 30.0000000  0  6G12G13G15G17G18G24
  21594569.980   113480232.81307  21594571.880    88426164.13448
  21634887.460   113692097.57707  21634888.880    88591249.68947
  20400208.700   107203819.78808  20400208.980    83535444.90649
  23072756.420   121248154.15106  23072757.940    94479087.66647
  23343427.900   122670542.20805  23343429.300    95587448.09345
  21169651.380   111247268.47807  21169654.740    86686197.85248
 15 02 25 16 42  0.0000000  0  6G12G13G15G17G18G24
  21579872.800   113402999.05707  21579874.660    88365982.09348
  21649495.060   113768860.28907  21649496.420    88651064.71847
  20403414.100   107220664.46508  20403414.360    83548570.62649
  23075623.920   121263222.54806  23075625.280    94490829.30646
  23341039.640   122657991.13405  23341041.120    95577668.02345
  21162278.720   111208525.19607  21162282.160    86656008.32748
 15 02 25 16 42 30.0000000  0  6G12G13G15G17G18G24
  21565249.960   113326155.84607  21565251.760    88306104.36447
  21664175.380   113846005.18707  21664176.780    88711177.55247
  20406716.260   107238017.51508  20406716.500    83562092.48349
  23078592.460   121278822.13106  23078593.680    94502984.85447
  23338745.160   122645933.58405  23338746.820    95568272.54644
  21154940.400   111169962.57407  21154943.940    86625959.57348
 15 02 25 16 43  0.0000000  0  6G12G13G15G17G18G24
  21550701.060   113249701.04707  21550702.780    88246529.29048
  21678927.440   113923527.66807  21678928.960    88771584.61147
  20410114.560   107255875.73908  20410114.780    83576007.97849
  23081661.400   121294949.59906  23081662.640    94515551.74147
  23336543.960   122634365.96905  23336545.600    95559258.79945
  21147636.000   111131577.77407  21147639.540    86596049.38748
 15 02 25 16 43 30.0000000  0  6G12G13G15G17G18G24
  21536227.100   113173640.13607  21536228.780    88187261.14548
  21693751.860   114001430.80707  21693753.560    88832288.28947
  20413609.800   107274243.32208  20413610.020    83590320.37749
  23084831.460   121311608.79106  23084832.860    94528532.96147
  23334436.600   122623291.88005  23334438.160    95550629.62745
  21140366.260   111093375.24007  21140369.800    86566281.22049
 15 02 25 16 44  0.0000000  0  6G12G13G15G17G18G24
  21521827.380   113097969.50907  21521829.040    88128297.11448
  21708647.700   114079708.76407  21708649.400    88893284.03046
  20417201.180   107293115.99908  20417201.360    83605026.35149
  23088101.900   121328795.15106  23088103.400    94541924.96447
  23332422.340   122612707.06205  23332423.860    95542381.67944
  21133130.420   111055350.64207  21133133.920    86536651.70548
 15 02 25 16 44 30.0000000  0  6G12G13G15G17G18G24
  21507502.560   113022692.60307  21507504.240    88069639.87748
  21723615.060   114158362.31707  21723616.620    88954572.43146
  20420889.120   107312495.98208  20420889.280    83620127.62749
  23091473.040   121346510.27006  23091474.500    94555728.99347
  23330501.480   122602613.30505  23330503.200    95534516.41545
  21125928.940   111017506.72407  21125932.380    86507162.98248
 15 02 25 16 45  0.0000000  0  6G12G13G15G17G18G24
  21493252.560   112947809.09907  21493254.280    88011289.18648
  21738653.400   114237389.03307  21738654.840    89016151.62947
  20424673.340   107332381.78708  20424673.460    83635623.05049
  23094944.540   121364752.85206  23094945.940    94569944.03847
  23328673.800   122593009.06805  23328675.580    95527032.57345
  21118761.680   110979842.42207  21118765.040    86477814.21749
 15 02 25 16 45 30.0000000  0  6G12G13G15G17G18G24
  21479077.700   112873320.26707  21479079.380    87953246.03148
  21753762.460   114316787.48707  21753763.900    89078020.48147
  20428553.800   107352773.50808  20428553.920    83651512.69349
  23098516.340   121383522.69606  23098517.720    94584569.92947
  23326939.300   122583894.07305  23326941.140    95519929.98345
  21111628.640   110942358.00107  21111631.920    86448605.62149
 15 02 25 16 46  0.0000000  0  6G12G13G15G17G18G24
  21464978.660   112799229.66607  21464980.280    87895513.18748
  21768942.560   114396559.04107  21768944.080    89140180.05547
  20432531.000   107373673.78808  20432531.160    83667798.61549
  23102188.660   121402821.93206  23102190.280    94599608.32147
  23325298.340   122575270.58805  23325300.060    95513210.36945
  21104530.480   110905056.83707  21104533.680    86419539.81848
 15 02 25 16 46 30.0000000  0  6G12G13G15G17G18G24
  21450955.100   112725535.58407  21450956.640    87838089.31748
  21784192.820   114476699.40407  21784194.440    89202627.01647
  20436604.400   107395079.58708  20436604.560    83684478.44649
  23105961.060   121422647.34905  23105962.920    94615056.72747
  23323750.300   122567135.13905  23323751.740    95506871.04145
  21097466.600   110867935.78207  21097469.740    86390614.35349
 15 02 25 16 47  0.0000000  0  6G12G13G15G17G18G24
  21437007.580   112652241.12407  21437009.080    87780976.83948
  21799513.340   114557209.20907  21799515.020    89265361.85547
  20440774.420   107416993.05308  20440774.600    83701553.86249
  23109833.860   121443000.27005  23109835.940    94630916.16647
  23322295.500   122559490.02905  23322297.020    95500913.81945
  21090437.380   110830997.40707  21090440.560    86361831.23648
 15 02 25 16 47 30.0000000  0  6G12G13G15G17G18G24
  21423135.980   112579345.52107  21423137.440    87724175.15548
  21814903.540   114638085.72107  21814905.400    89328382.43247
  20445040.700   107439412.41908  20445040.900    83719023.48749
  23113806.720   121463879.34305  23113808.960    94647185.58247
  23320933.640   122552333.38605  23320935.440    95495337.21645
  21083442.720   110794240.55707  21083445.940    86333189.56449
 15 02 25 16 48  0.0000000  0  6G12G13G15G17G18G24
  21409340.580   112506850.18107  21409341.960    87667685.36348
  21830363.400   114719327.62407  21830365.240    89391687.73447
  20449403.220   107462337.85308  20449403.500    83736887.45149
  23117879.660   121485284.17705  23117882.000    94663864.68446
  23319664.520   122545664.21205  23319666.320    95490140.45745
  21076482.760   110757665.89407  21076485.980    86304689.85548
 15 02 25 16 48 30.0000000  0  6G12G13G15G17G18G24
  21395620.820   112434752.13507  21395622.080    87611505.15448
  21845891.960   114800929.83807  21845893.660    89455273.79346
  20453861.260   107485765.23208  20453861.600    83755142.54449
  23122052.080   121507210.27105  23122054.280    94680949.96846
  23318487.660   122539478.79705  23318489.220    95485320.62845
  21069556.780   110721269.74707  21069560.000    86276329.24348
 15 02 25 16 49  0.0000000  0  6G12G13G15G17G18G24
  21381978.180   112363059.89907  21381979.400    87555641.15348
  21861490.060   114882897.86307  21861491.740    89519144.88947
  20458416.180   107509701.71608  20458416.560    83773794.34149
  23126325.100   121529664.39706  23126327.060    94698446.71446
  23317403.960   122533783.58105  23317405.500    95480882.81246
  21062666.240   110685059.74907  21062669.460    86248113.68349
 15 02 25 16 49 30.0000000  0  6G12G13G15G17G18G24
  21368412.520   112291772.66007  21368413.800    87500092.72948
  21877157.020   114965228.63507  21877158.900    89583298.65846
  20463067.700   107534145.69008  20463068.100    83792841.58949
  23130698.260   121552644.30406  23130699.900    94716353.16446
  23316413.120   122528576.63705  23316414.720    95476825.46745
  21055810.840   110649034.67307  21055814.080    86220042.21849
 15 02 25 16 50  0.0000000  0  6G12G13G15G17G18G24
  21354923.680   112220889.00507  21354925.000    87444858.79048
  21892892.340   115047918.63307  21892894.440    89647732.34547
  20467815.240   107559094.26708  20467815.660    83812282.03349
  23135170.940   121576147.30106  23135172.240    94734667.24946
  23315514.720   122523855.19505  23315516.160    95473146.42845
  21048990.240   110613192.31707  21048993.440    86192113.13848
 15 02 25 16 50 30.0000000  0  6G12G13G15G17G18G24
  21341511.820   112150409.57807  21341513.120    87389939.84048
  21908695.880   115130966.44207  21908698.020    89712444.83746
  20472658.820   107584547.24708  20472659.200    83832115.51449
  23139743.040   121600172.76606  23139743.980    94753388.44246
  23314708.600   122519618.54605  23314709.940    95469845.14544
  21042204.540   110577533.18907  21042207.680    86164326.83148
 15 02 25 16 51  0.0000000  0  6G12G13G15G17G18G24
  21328178.260   112080341.75507  21328179.580    87335341.60648
  21924568.560   115214376.78507  21924570.520    89777439.81146
  20477599.540   107610510.92408  20477599.920    83852346.94349
  23144415.660   121624726.60606  23144416.340    94772521.36246
  23313995.480   122515872.45205  23313997.000    95466926.13344
  21035455.080   110542064.21707  21035458.140    86136688.69749
 15 02 25 16 51 30.0000000  0  6G12G13G15G17G18G24
  21314921.900   112010679.62207  21314923.200    87281059.49648
  21940508.560   115298141.04907  21940510.300    89842710.58546
  20482636.080   107636978.06808  20482636.460    83872970.68549
  23149187.280   121649801.32106  23149188.000    94792060.14947
  23313374.300   122512609.42705  23313376.080    95464383.50445
  21028740.440   110506778.57207  21028743.460    86109193.42248
 15 02 25 16 52  0.0000000  0  6G12G13G15G17G18G24
  21301743.120   111941425.02607  21301744.400    87227094.95148
  21956515.620   115382258.53307  21956517.360    89908256.58446
  20487768.460   107663948.98308  20487768.860    83893986.98049
  23154057.880   121675396.71706  23154058.760    94812004.65947
  23312845.360   122509830.02605  23312847.280    95462217.77245
  21022060.800   110471677.12907  21022063.800    86081841.68848
 15 02 25 16 52 30.0000000  0  6G12G13G15G17G18G24
  21288642.400   111872580.23607  21288643.580    87173449.74048
  21972590.040   115466729.94907  21972591.820    89974078.37446
  20492997.040   107691425.25908  20492997.420    83915397.05549
  23159027.820   121701514.06506  23159028.840    94832355.87447
  23312408.580   122507535.04705  23312410.680    95460429.46645
  21015416.700   110436762.57007  21015419.720    86054635.57349
 15 02 25 16 53  0.0000000  0  6G12G13G15G17G18G24
  21275620.060   111804147.49307  21275621.200    87120125.60148
  21988731.660   115551554.59507  21988733.520    90040175.40946
  20498322.060   107719408.23108  20498322.420    83937201.96649
  23164097.160   121728154.05706  23164098.340    94853114.33047
  23312064.200   122505725.44105  23312066.420    95459019.42343
  21008808.460   110402036.08507  21008811.460    86027576.01948
 15 02 25 16 53 30.0000000  0  6G12G13G15G17G18G24
  21262676.000   111736126.62907  21262677.200    87067122.40848
  22004940.140   115636730.35907  22004942.060    90106546.04746
  20503743.140   107747896.29408  20503743.520    83959400.45049
  23169265.520   121755315.03905  23169266.860    94874278.76447
  23311811.720   122504399.15205  23311814.020    95457985.96145
  21002235.920   110367497.30107  21002238.900    86000662.71848
 15 02 25 16 54  0.0000000  0  6G12G13G15G17G18G24
  21249809.680   111668514.38107  21249810.940    87014437.61348
  22021214.260   115722251.10607  22021216.220    90173185.49346
  20509259.440   107776884.64808  20509259.840    83981988.76949
  23174532.000   121782991.76105  23174533.580    94895845.06347
  23311650.480   122503551.40405  23311652.440    95457325.36244
  20995698.380   110333142.37007  20995701.340    85973892.67949
 15 02 25 16 54 30.0000000  0  6G12G13G15G17G18G24
  21237022.220   111601316.18007  21237023.460    86962075.45848
  22037554.740   115808120.32007  22037556.760    90240096.47746
  20514871.820   107806377.79708  20514872.200    84004970.43249
  23179897.460   121811188.56005  23179899.240    94917816.60347
  23311581.060   122503186.11605  23311582.640    95457040.72846
  20989196.760   110298976.30008  20989199.740    85947269.81049
 15 02 25 16 55  0.0000000  0  6G12G13G15G17G18G24
  21224313.720   111534532.80107  21224314.920    86910036.53748
  22053961.160   115894335.82407  22053963.140    90307277.29346
  20520580.220   107836375.33408  20520580.520    84028345.12849
  23185361.860   121839904.73306  23185363.740    94940192.85647
  23311603.200   122503302.67005  23311605.040    95457131.58044
  20982731.200   110264999.65508  20982734.200    85920794.55348
 15 02 25 16 55 30.0000000  0  6G12G13G15G17G18G24
  21211684.260   111468165.11307  21211685.500    86858321.53848
  22070433.260   115980896.56607  22070435.160    90374727.13446
  20526384.540   107866876.93608  20526384.740    84052112.59949
  23190925.080   121869139.28306  23190926.940    94962973.03847
  23311716.800   122503900.44605  23311718.920    95457597.38345
  20976301.720   110231212.69107  20976304.720    85894467.09649
 15 02 25 16 56  0.0000000  0  6G12G13G15G17G18G24
  21199133.280   111402209.92207  21199134.560    86806927.96348
  22086970.000   116067797.18507  22086971.860    90442441.80846
  20532283.860   107897878.11908  20532284.040    84076269.35449
  23196586.120   121898887.83406  23196587.880    94986153.75847
  23311921.200   122504974.87205  23311923.200    95458434.62545
  20969907.580   110197611.84508  20969910.620    85868284.65948
 15 02 25 16 56 30.0000000  0  6G12G13G15G17G18G24
  21186662.120   111336673.81007  21186663.420    86755860.95048
  22103572.040   116155041.39207  22103573.940    90510424.22447
  20538279.300   107929384.70608  20538279.540    84100819.93149
  23202345.840   121929154.83106  23202347.360    95009738.44946
  23312217.260   122506530.63105  23312219.280    95459646.89245
  20963550.180   110164203.65007  20963553.180    85842252.34149
 15 02 25 16 57  0.0000000  0  6G12G13G15G17G18G24
  21174269.840   111271552.19907  21174271.140    86705116.91648
  22120238.240   116242622.64107  22120240.180    90578669.26546
  20544369.760   107961390.43108  20544370.040    84125759.44349
  23208203.180   121959934.41706  23208204.320    95033722.57146
  23312603.860   122508562.05705  23312605.860    95461229.79945
  20957228.520   110130983.03707  20957231.480    85816366.17749
 15 02 25 16 57 30.0000000  0  6G12G13G15G17G18G24
  21161957.620   111206851.24407  21161958.860    86654700.66648
  22136969.240   116330544.92007  22136971.340    90647180.03446
  20550556.220   107993900.49208  20550556.520    84151091.94649
  23214158.860   121991231.04106  23214159.700    95058109.58946
  23313081.840   122511073.62705  23313084.000    95463186.87345
  20950943.640   110097955.89308  20950946.620    85790630.78449
 15 02 25 16 58  0.0000000  0  6G12G13G15G17G18G24
  21149724.960   111142568.58407  21149726.160    86604610.37048
  22153764.260   116418803.11706  22153766.420    90715952.56146
  20556837.920   108026911.03808  20556838.240    84176814.43349
  23220212.060   122023040.81406  23220212.720    95082896.45646
  23313650.360   122514061.25405  23313652.600    95465514.86145
  20944695.000   110065119.59907  20944698.040    85765044.09449
 15 02 25 16 58 30.0000000  0  6G12G13G15G17G18G24
  21137573.060   111078710.58307  21137574.300    86554850.97348
  22170623.960   116507401.02107  22170626.140    90784989.78946
  20563215.800   108060427.10308  20563216.140    84202930.83449
  23226363.820   122055368.65206  23226364.340    95108087.01446
  23314310.340   122517529.29905  23314312.580    95468217.22445
  20938483.740   110032479.72807  20938486.780    85739610.46349
 15 02 25 16 59  0.0000000  0  7G12G13G15G17G18G24G25
  21125499.500   111015264.26107  21125500.840    86505412.35948
  22187545.600   116596324.06707  22187547.820    90854280.38446
  20569687.380   108094435.27508  20569687.680    84229430.68849
  23232611.500   122088200.72106  23232612.020    95133670.47946
  23315059.360   122521464.45105  23315061.500    95471283.57245
  20932307.620   110000023.96708  20932310.640    85714320.29449
  24404051.120   128244156.96104  24404065.280    99930566.82945
 15 02 25 16 59 30.0000000  0  6G12G13G15G17G18G24
  21113505.100   110952233.84507  21113506.500    86456297.83248
  22204529.360   116685573.97906  22204531.660    90923825.68746
  20576253.060   108128938.19308  20576253.400    84256316.06949
  23238955.400   122121538.70806  23238956.060    95159648.16446
  23315897.700   122525868.92505  23315899.780    95474715.60145
  20926167.280   109967756.20708  20926170.300    85689176.62049
 15 02 25 17 00  0.0000000  0  7G12G13G15G17G18G24G25
  21101593.860   110889639.80907  21101595.200    86407523.33948
  22221578.680   116775168.66806  22221581.160    90993639.64146
  20582916.480   108163954.72808  20582916.860    84283601.66649
  23245398.980   122155400.96105  23245399.860    95186034.34546
  23316828.680   122530761.28705  23316830.720    95478527.83544
  20920066.460   109935695.99008  20920069.440    85664194.67349
  24366268.760   128045607.96004  24366280.040    99775845.83744
 15 02 25 17 00 30.0000000  0  7G12G13G15G17G18G24G25
  21089761.640   110827460.99207  21089762.860    86359072.38848
  22238689.160   116865084.83406  22238691.660    91063704.09646
  20589673.440   108199462.83708  20589673.880    84311270.31249
  23251938.220   122189765.89205  23251939.360    95212812.23447
  23317848.060   122536118.26205  23317850.000    95482702.09145
  20914001.140   109903822.33908  20914004.060    85639358.09949
  24347427.820   127946598.76704  24347439.760    99698696.44944
 15 02 25 17 01  0.0000000  0  7G12G13G15G17G18G24G25
  21078009.960   110765705.55207  21078011.060    86310951.32948
  22255861.980   116955328.08406  22255864.420    91134023.41946
  20596525.300   108235469.63308  20596525.760    84339327.54649
  23258574.380   122224639.61306  23258575.660    95239986.57947
  23318957.220   122541947.22105  23318959.060    95487244.13144
  20907972.840   109872143.52708  20907975.700    85614673.34149
  24328620.360   127847765.88904  24328632.540    99621684.40244
 15 02 25 17 01 30.0000000  0  7G12G13G15G17G18G24G25
  21066338.680   110704372.44008  21066339.660    86263159.37248
  22273096.460   117045895.26506  22273098.840    91204595.14246
  20603471.520   108271972.40208  20603472.040    84367771.25249
  23265306.960   122260019.32406  23265308.280    95267555.21147
  23320155.780   122548245.52805  23320157.540    95492151.89045
  20901981.300   109840657.80908  20901984.120    85590139.05449
  24309846.240   127749108.79304  24309858.600    99544809.36845
 15 02 25 17 02  0.0000000  0  7G12G13G15G17G18G24G25
  21054748.140   110643463.82608  21054749.080    86215698.18448
  22290392.640   117136786.18006  22290394.780    91275419.13846
  20610512.400   108308972.29508  20610512.920    84396602.32949
  23272136.080   122295905.89006  23272137.340    95295518.81047
  23321443.880   122555014.00605  23321445.480    95497426.03545
  20896027.020   109809367.94308  20896029.840    85565757.37849
  24291105.980   127650630.53704  24291118.620    99468073.68745
 15 02 25 17 02 30.0000000  0  7G12G13G15G17G18G24G25
  21043238.800   110582981.71008  21043239.660    86168569.33648
  22307750.300   117228000.39806  22307752.320    91346495.04146
  20617648.000   108346470.03408  20617648.500    84425821.33249
  23279061.600   122332299.37006  23279062.840    95323877.39547
  23322821.420   122562252.97205  23322822.960    95503066.77645
  20890110.260   109778275.44308  20890113.100    85541529.49649
  24272400.200   127552333.53604  24272412.860    99391479.27846
 15 02 25 17 03  0.0000000  0  7G12G13G15G17G18G24G25
  21031810.220   110522924.27108  21031811.040    86121771.40648
  22325168.680   117319534.11606  22325170.760    91417819.91646
  20624877.760   108384462.43708  20624878.200    84455425.79649
  23286082.960   122369196.37706  23286084.100    95352628.35247
  23324287.820   122569958.32505  23324289.160    95509070.93346
  20884230.640   109747378.23908  20884233.540    85517453.78649
  24253728.620   127454216.56104  24253741.400    99315025.10247
 15 02 25 17 03 30.0000000  0  7G12G13G15G17G18G24G25
  21020462.720   110463293.05307  21020463.480    86075305.60548
  22342647.560   117411386.48506  22342649.820    91489393.07346
  20632201.680   108422949.99408  20632202.160    84485416.09049
  23293200.040   122406596.81106  23293201.140    95381771.57447
  23325842.820   122578130.31605  23325844.220    95515438.72345
  20878388.560   109716677.94608  20878391.420    85493531.51849
  24235091.840   127356281.91204  24235104.760    99238713.02044
 15 02 25 17 04  0.0000000  0  7G12G13G15G17G18G24G25
  21009196.480   110404089.26707  21009197.300    86029172.86948
  22360186.960   117503556.52206  22360189.440    91561213.76746
  20639619.820   108461932.79808  20639620.380    84515792.30149
  23300412.880   122444500.38906  23300413.880    95411306.86746
  23327486.460   122586768.58805  23327487.900    95522169.82645
  20872584.160   109686175.69108  20872586.980    85469763.56749
  24216490.180   127258531.65504  24216503.020    99162544.56341
 15 02 25 17 04 30.0000000  0  6G12G13G15G17G18G24
  20998011.380   110345311.64808  20998012.240    85983372.21948
  22377786.100   117596040.45106  22377788.680    91633279.05446
  20647131.660   108501408.01508  20647132.280    84546552.20049
  23307720.840   122482903.91806  23307721.660    95441231.72946
  23329218.360   122595870.41405  23329219.800    95529262.12644
  20866817.320   109655870.74308  20866820.080    85446149.35249
 15 02 25 17 05  0.0000000  0  6G12G13G15G17G18G24
  20986908.760   110286967.17508  20986909.640    85937909.08148
  22395445.980   117688843.20006  22395448.480    91705592.76346
  20654738.360   108541381.43308  20654738.920    84577700.30949
  23315124.860   122521812.91806  23315125.740    95471550.47146
  23331039.520   122605441.33705  23331041.320    95536719.95145
  20861089.260   109625769.48408  20861091.960    85422693.86349
 15 02 25 17 05 30.0000000  0  6G12G13G15G17G18G24
  20975886.280   110229043.69608  20975887.100    85892773.98948
  22413163.780   117781950.36106  22413166.280    91778143.68145
  20662437.320   108581839.70108  20662437.820    84609226.22749
  23322622.280   122561213.21905  23322623.380    95502252.02945
  23332947.380   122615467.33705  23332949.480    95544532.43945
  20855397.700   109595859.98708  20855400.400    85399387.79649
 15 02 25 17 06  0.0000000  0  6G12G13G15G17G18G24
  20964946.020   110171552.54708  20964946.840    85847975.78148
  22430941.140   117875370.57406  22430943.720    91850938.52746
  20670230.480   108622792.84208  20670230.920    84641137.75249
  23330215.140   122601115.09405  23330216.400    95533344.42847
  23334943.520   122625957.87305  23334945.740    95552706.86045
  20849744.740   109566153.49808  20849747.420    85376239.92149
 15 02 25 17 06 30.0000000  0  7G12G13G15G17G18G24G25
  20954088.160   110114494.54908  20954088.980    85803515.08148
  22448777.840   117969102.77606  22448780.420    91923976.48646
  20678117.660   108664240.52808  20678118.200    84673434.65549
  23337903.400   122641517.41806  23337904.640    95564826.77946
  23337028.040   122636912.61405  23337030.380    95561243.02644
  20844130.560   109536651.02208  20844133.180    85353251.01649
  24124014.200   126772548.46804  24124024.240    98783846.39945
 15 02 25 17 07  0.0000000  0  8G12G13G15G17G18G22G24G25
  20943309.120   110057850.90208  20943309.960    85759377.26148
  22466670.000   118063126.06306  22466672.580    91997241.25446
  20686095.120   108706162.56908  20686095.740    84706101.17249
  23345683.080   122682399.74106  23345684.320    95596683.16746
  23339197.080   122648310.76805  23339199.300    95570124.65944
  24695379.360   129775096.19704  24695380.160   101123452.79844
  20838551.580   109507333.85408  20838554.240    85330406.51749
  24105625.220   126675913.67304  24105635.200    98708547.19645
 15 02 25 17 07 30.0000000  0  8G12G13G15G17G18G22G24G25
  20932614.120   110001648.89708  20932614.940    85715583.57248
  22484622.340   118157465.34206  22484624.880    92070752.26446
  20694167.880   108748585.16708  20694168.500    84739157.72749
  23353558.980   122723787.61206  23353560.160    95628933.47747
  23341455.440   122660178.19105  23341457.540    95579371.97944
  24689284.220   129743066.88904  24689285.360   101098494.92344
  20833013.060   109478229.28408  20833015.780    85307727.67849
  24087274.700   126579482.40404  24087284.860    98633406.57546
 15 02 25 17 08  0.0000000  0  8G12G13G15G17G18G22G24G25
  20922001.360   109945878.96908  20922002.160    85672126.56148
  22502632.520   118252108.79106  22502635.060    92144500.26546
  20702333.860   108791497.31308  20702334.400    84772595.75349
  23361528.940   122765670.08006  23361530.120    95661569.19946
  23343800.920   122672503.50105  23343803.200    95588976.11744
  24683277.980   129711503.89804  24683279.200   101073900.42545
  20827513.220   109449327.80108  20827515.980    85285207.09049
  24068960.060   126483236.62304  24068969.980    98558410.54946
 15 02 25 17 08 30.0000000  0  8G12G13G15G17G18G22G24G25
  20911470.640   109890540.07408  20911471.460    85629005.42448
  22520700.040   118347053.21706  22520702.520    92218482.79946
  20710592.520   108834896.62008  20710593.000    84806413.38749
  23369592.480   122808043.95306  23369593.600    95694587.82446
  23346232.980   122685283.86205  23346235.460    95598934.81845
  24677360.280   129680406.06504  24677361.420   101049668.43744
  20822051.840   109420628.47008  20822054.660    85262844.02149
  24050682.260   126387183.98204  24050692.200    98483561.73544
 15 02 25 17 09  0.0000000  0  8G12G13G15G17G18G22G24G25
  20901021.820   109835631.49608  20901022.660    85586219.59348
  22538824.060   118442295.30606  22538826.580    92292697.29546
  20718943.460   108878781.06708  20718943.940    84840609.04949
  23377749.160   122850907.24906  23377750.280    95727987.81747
  23348751.400   122698517.17905  23348753.760    95609246.50245
  24671530.960   129649773.02304  24671531.900   101025798.53042
  20816628.820   109392130.73908  20816631.680    85240638.04149
  24032442.900   126291335.57404  24032453.300    98408875.23744
 15 02 25 17 09 30.0000000  0  8G12G13G15G17G18G22G24G25
  20890655.160   109781154.81108  20890656.040    85543770.28948
  22557004.660   118537835.09306  22557007.260    92367143.74345
  20727386.860   108923151.37008  20727387.340    84875183.30149
  23385998.940   122894259.87306  23386000.000    95761769.10147
  23351355.900   122712203.59905  23351358.240    95619911.23445
  24665790.320   129619606.54404  24665790.780   101002292.26745
  20811244.540   109363836.56608  20811247.420    85218590.67949
  24014240.840   126195683.97004  24014251.220    98334342.12444
 15 02 25 17 10  0.0000000  0  8G12G13G15G17G18G22G24G25
  20880371.060   109727111.82908  20880371.920    85501658.93848
  22575241.880   118633671.69606  22575244.520    92441821.46445
  20735922.760   108968007.57008  20735923.200    84910136.17649
  23394341.700   122938101.83006  23394342.860    95795931.67746
  23354046.580   122726342.81805  23354048.660    95630928.77946
  24660138.720   129589908.26804  24660139.240   100979150.75843
  20805899.400   109335747.83108  20805902.220    85196703.39449
  23996076.400   126100231.51104  23996086.720    98259964.18244
 15 02 25 17 10 30.0000000  0  8G12G13G15G17G18G22G24G25
  20870169.120   109673500.45408  20870169.940    85459883.90448
  22593534.840   118729801.05306  22593537.400    92516727.31145
  20744550.480   109013346.56308  20744550.920    84945465.25349
  23402776.780   122982429.17005  23402778.060    95830472.47047
  23356822.740   122740931.36205  23356824.560    95642296.45045
  24654576.040   129560676.54204  24654576.820   100956372.86944
  20800593.060   109307862.80308  20800595.800    85174974.84049
  23977949.740   126004977.01504  23977960.020    98185740.41745
 15 02 25 17 11  0.0000000  0  8G12G13G15G17G18G22G24G25
  20860049.400   109620321.16108  20860050.220    85418445.54748
  22611883.200   118826221.62906  22611885.740    92591860.07646
  20753269.880   109059167.47408  20753270.320    84981169.84949
  23411304.040   123027241.13105  23411305.500    95865390.87747
  23359684.080   122755968.15205  23359686.080    95654013.43644
  24649102.360   129531911.75804  24649103.040   100933958.80141
  20795325.600   109280182.01408  20795328.300    85153405.43049
  23959861.040   125909921.60004  23959871.180    98111671.81344
 15 02 25 17 11 30.0000000  0  8G12G13G15G17G18G22G24G25
  20850012.540   109567577.50708  20850013.420    85377346.66048
  22630287.080   118922934.18506  22630289.720    92667220.34745
  20762081.320   109105472.25908  20762081.840    85017251.48949
  23419923.780   123072539.01905  23419925.300    95900687.95146
  23362631.020   122771454.80405  23362633.240    95666080.95745
  24643718.120   129503617.44104  24643718.660   100911911.33843
  20790097.680   109252709.09808  20790100.360    85131997.99749
  23941810.980   125815069.54704  23941821.060    98037761.60045
 15 02 25 17 12  0.0000000  0  8G12G13G15G17G18G22G24G25
  20840058.060   109515266.73208  20840058.980    85336585.07348
  22648745.580   119019934.20706  22648748.340    92742804.62946
  20770984.200   109152257.31408  20770984.760    85053707.36449
  23428635.300   123118318.74905  23428636.740    95936360.48447
  23365662.960   122787386.98905  23365665.020    95678495.61645
  24638422.920   129475791.35504  24638423.520   100890228.75844
  20784908.920   109225442.05708  20784911.580    85110750.98049
  23923799.320   125720419.29005  23923809.480    97964008.61845
 15 02 25 17 12 30.0000000  0  8G12G13G15G17G18G22G24G25
  20830186.280   109463390.48608  20830187.200    85296162.08548
  22667258.740   119117221.22506  22667261.620    92818612.52745
  20779978.560   109199523.03408  20779979.120    85090537.78549
  23437438.540   123164580.16605  23437439.860    95972408.37247
  23368779.660   122803764.39105  23368781.420    95691257.21444
  24633217.040   129448434.78104  24633217.900   100868912.01344
  20779759.700   109198382.64208  20779762.340    85089665.75249
  23905826.560   125625972.87404  23905836.660    97890414.46645
 15 02 25 17 13  0.0000000  0  8G12G13G15G17G18G22G24G25
  20820397.060   109411947.65308  20820397.860    85256076.82648
  22685826.000   119214791.80306  22685828.920    92894641.37646
  20789063.840   109247266.36608  20789064.380    85127740.37249
  23446333.020   123211320.32806  23446334.200    96008829.30447
  23371980.480   122820584.75405  23371982.180    95704363.97145
  24628100.400   129421546.72704  24628101.500   100847960.29745
  20774649.760   109171529.72608  20774652.360    85068741.42649
  23887892.460   125531729.97904  23887902.580    97816978.87345
 15 02 25 17 13 30.0000000  0  8G12G13G15G17G18G22G24G25
  20810690.660   109360940.13008  20810691.380    85216330.77048
  22704447.180   119312645.55006  22704450.040    92970890.89045
  20798240.220   109295488.30608  20798240.740    85165315.89749
  23455318.760   123258539.78306  23455319.760    96045623.71146
  23375265.440   122837847.74505  23375267.240    95717815.62245
  24623073.360   129395129.30704  24623074.340   100827375.36145
  20769579.600   109144885.88608  20769582.180    85047980.03049
  23869997.580   125437693.61104  23870007.740    97743704.21046
 15 02 25 17 14  0.0000000  0  8G12G13G15G17G18G22G24G25
  20801067.100   109310368.22808  20801067.800    85176924.16848
  22723121.880   119410780.70206  22723124.760    93047359.66845
  20807507.440   109344187.83608  20807507.960    85203263.57049
  23464395.300   123306236.85506  23464396.220    96082790.29146
  23378634.520   122855552.07205  23378636.460    95731611.16545
  24618135.980   129369182.81604  24618136.740   100807157.37043
  20764549.320   109118451.97308  20764551.940    85027382.20249
  23852142.180   125343864.74704  23852152.060    97670591.19145
 15 02 25 17 14 30.0000000  0  8G12G13G15G17G18G22G24G25
  20791526.620   109260232.91408  20791527.280    85137857.76848
  22741849.800   119509196.22106  22741852.700    93124046.90945
  20816865.460   109393364.68408  20816866.020    85241583.17649
  23473562.480   123354410.70006  23473563.320    96120328.38646
  23382087.260   122873697.16105  23382089.520    95745750.16245
  24613288.340   129343708.54804  24613289.260   100787307.39344
  20759559.180   109092229.02308  20759561.860    85006948.76149
  23834326.720   125250245.25004  23834336.100    97597641.31245
 15 02 25 17 15  0.0000000  0  8G12G13G15G17G18G22G24G25
  20782069.120   109210533.79208  20782069.760    85099131.26348
  22760630.500   119607889.55506  22760633.500    93200950.61745
  20826314.000   109443016.99408  20826314.560    85280273.27549
  23482819.880   123403058.79706  23482820.720    96158236.01646
  23385623.480   122892280.83905  23385625.840    95760230.90744
  24608530.460   129318706.13504  24608531.460   100767825.02445
  20754609.240   109066217.03908  20754611.920    84986679.71549
  23816551.160   125156835.53404  23816560.220    97524854.90545
 15 02 25 17 15 30.0000000  0  8G12G13G15G17G18G22G24G25
  20772694.140   109161268.39408  20772694.740    85060742.72148
  22779463.320   119706856.16906  22779466.400    93278067.29145
  20835852.360   109493141.27808  20835852.940    85319331.14849
  23492167.000   123452178.13406  23492167.800    96196510.85947
  23389242.540   122911299.29905  23389244.880    95775050.46645
  24603861.880   129294173.11004  24603862.780   100748708.44344
  20749699.060   109040414.17908  20749701.760    84966573.61949
  23798815.220   125063634.09804  23798824.220    97452230.75144
 15 02 25 17 16  0.0000000  0  7G12G13G15G17G18G24G25
  20763402.740   109112442.29308  20763403.300    85022696.48948
  22798348.900   119806099.65206  22798351.960    93355399.70446
  20845481.300   109543741.62008  20845481.900    85358759.97449
  23501604.440   123501772.17605  23501605.240    96235155.57347
  23392945.340   122930756.53305  23392947.560    95790211.92244
  20744829.840   109014826.42008  20744832.520    84946635.13549
  23781120.120   124970647.45704  23781129.000    97379773.96445
 15 02 25 17 16 30.0000000  0  8G12G13G15G17G18G22G24G25
  20754193.300   109064046.78008  20754193.820    84984985.77748
  22817285.080   119905608.95706  22817288.200    93432939.23146
  20855198.920   109594808.05308  20855199.560    85398551.98749
  23511130.060   123551830.37505  23511131.060    96274161.98446
  23396729.580   122950641.86505  23396731.800    95805706.95644
  24594793.980   129246515.21404  24594794.700   100711571.69743
  20739999.880   108989445.13808  20740002.540    84926857.54549
  23763464.340   124877867.61704  23763473.100    97307478.33945
 15 02 25 17 17  0.0000000  0  8G12G13G15G17G18G22G24G25
  20745067.600   109016091.24708  20745068.080    84947617.90948
  22836273.240   120005391.37806  22836276.400    93510691.58346
  20865006.760   109646348.72108  20865007.420    85438713.53349
  23520745.480   123602360.39205  23520746.720    96313536.00347
  23400596.600   122970962.87705  23400598.680    95821541.45145
  24590395.240   129223399.40604  24590396.100   100693559.45741
  20735211.200   108964280.57508  20735213.840    84907248.82449
  23745849.980   124785305.03804  23745858.800    97235351.96644
 15 02 25 17 17 30.0000000  0  8G12G13G15G17G18G22G24G25
  20736025.100   108968572.88308  20736025.580    84910590.68248
  22855312.360   120105441.78106  22855315.640    93588652.73545
  20874904.040   109698359.35708  20874904.740    85479241.28749
  23530449.840   123653357.45005  23530451.220    96353273.97747
  23404545.620   122991714.85205  23404547.500    95837711.77444
  24586086.280   129200756.41204  24586087.560   100675915.61345
  20730463.300   108939330.22108  20730465.940    84887807.02649
  23728276.580   124692957.61404  23728285.480    97163393.25446
 15 02 25 17 18  0.0000000  0  8G12G13G15G17G18G22G24G25
  20727065.440   108921489.71208  20727065.920    84873902.57748
  22874401.800   120205756.50306  22874405.200    93666819.84646
  20884890.200   109750836.66108  20884890.880    85520132.67849
  23540242.620   123704818.15705  23540243.820    96393373.23147
  23408575.940   123012894.27905  23408577.680    95854215.20845
  24581867.040   129178584.61904  24581868.480   100658638.93441
  20725755.980   108914593.06108  20725758.660    84868531.35049
  23710743.880   124600824.30904  23710752.800    97091601.37945
 15 02 25 17 18 30.0000000  0  8G12G13G15G17G18G22G24G25
  20718188.920   108874843.17208  20718189.300    84837554.69748
  22893541.500   120306335.12606  22893544.900    93745192.61146
  20894965.220   109803780.97308  20894965.860    85561387.96849
  23550123.580   123756742.36106  23550124.600    96433833.66047
  23412687.680   123034501.31205  23412689.280    95871051.82144
  24577737.800   129156885.40804  24577739.120   100641730.48841
  20721089.540   108890070.62508  20721092.140    84849422.99149
  23693252.520   124508907.63204  23693261.400    97019978.30644
 15 02 25 17 19  0.0000000  0  8G12G13G15G17G18G22G24G25
  20709395.760   108828634.79908  20709396.060    84801548.25148
  22912731.120   120407176.54006  22912734.620    93823770.12546
  20905129.080   109857192.18708  20905129.660    85603007.08549
  23560092.600   123809129.77306  23560093.480    96474655.04947
  23416880.640   123056535.21305  23416882.140    95888221.08144
  24573698.840   129135660.58004  24573700.140   100625191.62245
  20716464.340   108865764.93008  20716466.860    84830483.51949
  23675802.860   124417209.84104  23675811.500    96948525.78045
 15 02 25 17 19 30.0000000  0  8G12G13G15G17G18G22G24G25
  20700685.680   108782863.19308  20700685.940    84765882.14048
  22931969.940   120508277.07705  22931973.400    93902549.55745
  20915381.200   109911067.38308  20915381.760    85644987.74549
  23570149.060   123861977.09806  23570149.900    96515834.77847
  23421154.280   123078992.93005  23421155.680    95905720.56445
  24569749.900   129114908.30604  24569751.080   100609021.06043
  20711880.200   108841675.13808  20711882.640    84811712.27749
  23658394.780   124325730.31204  23658403.200    96877243.35046
 15 02 25 17 20  0.0000000  0  8G12G13G15G17G18G22G24G25
  20692058.760   108737528.83208  20692059.060    84730556.74248
  22951257.920   120609635.65206  22951261.320    93981530.05245
  20925721.500   109965406.13908  20925722.060    85687329.61949
  23580292.880   123915283.19706  23580293.740    96557372.02546
  23425508.320   123101873.52005  23425509.720    95923549.57445
  24565891.040   129094629.24504  24565891.800   100593219.22144
  20707337.380   108817802.59908  20707339.800    84793110.32549
  23641028.440   124234470.81504  23641036.860    96806132.40147
 15 02 25 17 20 30.0000000  0  8G12G13G15G17G18G22G24G25
  20683515.000   108692631.59308  20683515.360    84695571.96248
  22970594.660   120711250.21005  22970598.140    94060710.00845
  20936149.700   110020206.91608  20936150.320    85730031.50649
  23590523.600   123969046.04706  23590524.500    96599265.17546
  23429942.340   123125174.82805  23429944.100    95941706.43245
  24562122.140   129074823.44404  24562122.760   100577786.17145
  20702835.940   108794147.53608  20702838.360    84774677.83349
  23623704.040   124143432.10704  23623712.520    96735193.47645
 15 02 25 17 21  0.0000000  0  8G12G13G15G17G18G22G24G25
  20675054.720   108648172.70808  20675055.020    84660928.76148
  22989980.000   120813119.69206  22989983.400    94140088.59545
  20946665.820   110075469.63808  20946666.500    85773093.35649
  23600841.140   124023265.46605  23600842.080    96641514.07546
  23434456.340   123148896.53705  23434458.180    95960190.84345
  24558443.480   129055492.13104  24558444.080   100562722.80446
  20698376.300   108770712.22108  20698378.760    84756416.57549
  23606422.140   124052616.11405  23606430.700    96664428.12546
 15 02 25 17 21 30.0000000  0  8G12G13G15G17G18G22G24G25
  20666677.660   108604151.43908  20666678.000    84626626.55148
  23009413.100   120915240.48906  23009416.480    94219663.01644
  20957269.280   110131191.44608  20957270.040    85816512.93249
  23611244.880   124077938.15105  23611245.920    96684116.18247
  23439049.760   123173035.45305  23439051.680    95979000.36344
  24554854.860   129036633.57004  24554855.620   100548027.88845
  20693958.220   108747495.27208  20693960.720    84738325.46349
  23589182.520   123962022.48904  23589191.000    96593836.05746
 15 02 25 17 22  0.0000000  0  8G12G13G15G17G18G22G24G25
  20658383.700   108560566.97608  20658384.080    84592664.70848
  23028893.940   121017611.49905  23028897.300    94299432.40745
  20967960.020   110187371.73308  20967960.820    85860289.76049
  23621734.680   124133063.27305  23621735.900    96727070.82546
  23443722.340   123197590.39705  23443724.340    95998134.06845
  24551356.240   129018248.48604  24551357.080   100533701.88646
  20689582.060   108724498.47008  20689584.540    84720405.90549
  23571985.580   123871652.75105  23571993.760    96523418.46045
 15 02 25 17 22 30.0000000  0  8G12G13G15G17G18G22G24G25
  20650173.260   108517421.19908  20650173.620    84559044.69548
  23048422.100   121120231.94206  23048425.600    94379396.16245
  20978738.020   110244010.50008  20978738.860    85904423.85449
  23632310.520   124188640.08205  23632311.740    96770377.44346
  23448474.060   123222560.93505  23448475.960    96017591.59744
  24547947.880   129000338.45604  24547948.700   100519746.06744
  20685248.160   108701723.76408  20685250.600    84702659.40149
  23554831.620   123781509.24105  23554839.580    96453177.12045
 15 02 25 17 23  0.0000000  0  8G12G13G15G17G18G22G24G25
  20642045.860   108474711.58108  20642046.200    84525764.54348
  23067996.880   121223097.35705  23068000.620    94459550.78045
  20989602.460   110301103.39608  20989603.300    85948911.81348
  23642971.520   124244664.19905  23642972.700    96814032.59147
  23453304.180   123247942.98305  23453305.860    96037369.77944
  24544629.520   128982900.89004  24544630.480   100506158.37645
  20680956.160   108679169.25408  20680958.580    84685084.47549
  23537720.160   123691590.30305  23537728.160    96383110.78245
 15 02 25 17 23 30.0000000  0  8G12G13G15G17G18G22G24G25
  20634001.540   108432438.24408  20634001.740    84492824.34948
  23087617.820   121326205.45905  23087621.820    94539894.52344
  21000553.180   110358649.78708  21000554.000    85993753.14249
  23653717.560   124301134.65205  23653718.700    96858035.52747
  23458212.260   123273734.87005  23458214.020    96057467.35044
  24541401.300   128965935.51204  24541402.160   100492938.67544
  20676706.280   108656835.91308  20676708.660    84667681.89049
  23520651.660   123601897.09204  23520659.840    96313220.33945
 15 02 25 17 24  0.0000000  0  8G12G13G15G17G18G22G24G25
  20626040.800   108390604.32108  20626040.880    84460226.55348
  23107285.100   121429557.16905  23107289.160    94620428.05045
  21011590.380   110416650.64908  21011591.180    86038948.60649
  23664548.520   124358051.78605  23664549.720    96902386.53346
  23463198.600   123299937.57805  23463200.260    96077885.01144
  24538263.460   128949445.23204  24538264.240   100480089.13145
  20672499.020   108634726.45208  20672501.380    84650453.76549
  23503626.900   123512433.15105  23503635.160    96243508.52746
 15 02 25 17 24 30.0000000  0  8G12G13G15G17G18G22G24G25
  20618163.220   108349207.44008  20618163.200    84427969.30548
  23126997.940   121533148.27505  23127001.960    94701148.15545
  21022713.500   110475102.92608  21022714.300    86084495.82349
  23675463.840   124415412.09105  23675465.100    96947082.87647
  23468262.320   123326547.16705  23468263.740    96098619.71945
  24535215.640   128933428.06004  24535216.280   100467608.23845
  20668334.200   108612840.18308  20668336.580    84633399.54849
  23486645.640   123423197.45604  23486653.880    96173974.54544
 15 02 25 17 25  0.0000000  0  8G12G13G15G17G18G22G24G25
  20610368.700   108308247.04508  20610368.660    84396052.17849
  23146756.080   121636976.75606  23146760.020    94782053.21145
  21033922.160   110534004.60308  21033922.940    86130393.22648
  23686463.020   124473213.05105  23686464.280    96992122.59747
  23473402.780   123353561.63404  23473404.340    96119669.95545
  24532257.720   128917883.67805  24532258.300   100455495.74545
  20664211.860   108591177.21108  20664214.240    84616519.33349
  23469707.960   123334190.48505  23469716.000    96104618.81146
 15 02 25 17 25 30.0000000  0  8G12G13G15G17G18G22G24G25
  20602657.460   108267724.44208  20602657.460    84364476.18148
  23166559.260   121741041.60305  23166563.140    94863142.41645
  21045216.260   110593355.50708  21045217.060    86176640.66349
  23697546.080   124531454.69805  23697547.260    97037505.70547
  23478620.000   123380980.17805  23478621.860    96141035.00744
  24529389.940   128902812.92004  24529390.580   100443752.34245
  20660132.460   108569739.77508  20660134.800    84599814.86149
  23452814.300   123245414.59605  23452822.060    96035443.12346
 15 02 25 17 26  0.0000000  0  8G12G13G15G17G18G22G24G25
  20595029.360   108227639.13908  20595029.460    84333240.93749
  23186406.800   121845340.04005  23186410.600    94944413.63645
  21056595.480   110653153.67008  21056596.280    86223236.62648
  23708712.580   124590134.89406  23708713.700    97083230.56446
  23483913.940   123408800.52205  23483916.040    96162713.17144
  24526612.080   128888215.19304  24526612.840   100432377.54744
  20656095.960   108548528.00008  20656098.320    84583286.22649
  23435964.760   123156870.17005  23435972.180    95966447.77246
 15 02 25 17 26 30.0000000  0  8G12G13G15G17G18G22G24G25
  20587484.300   108187990.41408  20587484.520    84302345.88449
  23206298.520   121949870.20505  23206302.300    95025865.44245
  21068059.560   110713397.58308  21068060.300    86270179.92048
  23719962.120   124649251.01705  23719963.020    97129295.07946
  23489284.040   123437020.51505  23489286.340    96184702.77845
  24523923.860   128874090.09104  24523924.920   100421371.01544
  20652102.480   108527542.33908  20652104.880    84566933.79049
  23419159.320   123068557.73605  23419166.540    95897633.18745
 15 02 25 17 27  0.0000000  0  8G12G13G15G17G18G22G24G25
  20580022.720   108148780.13208  20580023.000    84271792.48148
  23226234.240   122054631.29105  23226238.080    95107497.14146
  21079608.460   110774087.09408  21079609.120    86317470.43849
  23731294.500   124708802.67105  23731295.300    97175698.98646
  23494730.240   123465639.98905  23494732.600    96207003.63445
  24521325.860   128860438.42604  24521326.600   100410733.37241
  20648152.460   108506784.77608  20648154.840    84550759.09649
  23402398.320   122980479.74405  23402405.480    95829001.27946
 15 02 25 17 27 30.0000000  0  8G12G13G15G17G18G22G24G25
  20572644.100   108110005.67208  20572644.420    84241578.66749
  23246212.980   122159619.05205  23246216.920    95189305.48645
  21091241.460   110835218.73008  21091242.060    86365105.46548
  23742709.040   124768786.19705  23742709.860    97222439.42246
  23500251.660   123494654.87204  23500254.280    96229612.63445
  24518817.940   128847258.66004  24518818.000   100400463.41744
  20644245.580   108486254.20308  20644248.000    84534761.27649
  23385681.740   122892635.02105  23385688.760    95760551.12346
 15 02 25 17 28  0.0000000  0  8G12G13G15G17G18G22G24G25
  20565348.500   108071667.39708  20565348.860    84211704.74249
  23266234.640   122264831.93005  23266238.580    95271289.24645
  21102958.320   110896791.08408  21102958.880    86413083.90548
  23754205.400   124829200.16005  23754206.380    97269515.27146
  23505848.080   123524064.07605  23505850.640    96252528.86645
  24516399.700   128834550.72104  24516399.220   100390561.12644
  20640382.060   108465951.43708  20640384.540    84518940.96949
  23369009.920   122805024.71405  23369016.740    95692283.59645
 15 02 25 17 28 30.0000000  0  8G12G13G15G17G18G22G24G25
  20558136.560   108033768.49708  20558136.880    84182173.18548
  23286299.140   122370271.51305  23286303.320    95353449.65145
  21114759.420   110958806.42308  21114759.980    86461407.53048
  23765783.880   124890046.11405  23765784.900    97316927.71745
  23511519.880   123553868.76405  23511522.360    96275753.30246
  24514071.780   128822317.95704  24514071.200   100381029.17044
  20636562.780   108445881.06708  20636565.280    84503301.74449
  23352383.520   122717653.31205  23352390.240    95624202.27445
 15 02 25 17 29  0.0000000  0  8G12G13G15G17G18G22G24G25
  20551007.120   107996302.95508  20551007.360    84152979.31449
  23306405.320   122475929.95505  23306409.740    95435780.58545
  21126643.500   111021257.85808  21126644.100    86510070.97448
  23777443.240   124951316.62505  23777444.140    97364670.99445
  23517265.720   123584061.47505  23517267.940    96299280.06844
  24511833.260   128810554.66004  24511833.060   100371862.98844
  20632786.840   108426038.44908  20632789.340    84487839.98749
  23335801.660   122630516.23505  23335808.400    95556303.50946
 15 02 25 17 29 30.0000000  0  8G12G13G15G17G18G22G24G25
  20543961.040   107959275.28208  20543961.140    84124126.63449
  23326553.680   122581809.48905  23326558.180    95518283.78345
  21138611.020   111084147.76308  21138611.700    86559076.07748
  23789183.760   125013013.71505  23789184.620    97412746.68246
  23523085.560   123614644.12105  23523087.760    96323110.70945
  24509684.780   128799264.49204  24509684.960   100363065.48746
  20629055.060   108406427.86308  20629057.580    84472559.04149
  23319265.360   122543618.40105  23319271.920    95488591.16746
 15 02 25 17 30  0.0000000  0  8G12G13G15G17G18G22G24G25
  20536997.740   107922682.86408  20536997.780    84095613.11549
  23346743.360   122687905.40805  23346747.760    95600955.59945
  21150661.260   111147472.32808  21150662.020    86608419.87948
  23801004.800   125075133.32205  23801005.520    97461151.59546
  23528978.900   123645613.16205  23528981.080    96347242.40745
  24507625.620   128788444.78704  24507626.360   100354634.65245
  20625367.240   108387048.31708  20625369.740    84457458.12749
  23302774.300   122456958.27305  23302780.800    95421064.05946
 15 02 25 17 30 30.0000000  0  8G12G13G15G17G18G22G24G25
  20530117.080   107886524.87308  20530117.060    84067438.10249
  23366973.840   122794215.41405  23366978.240    95683794.21345
  21162793.800   111211229.35008  21162794.600    86658100.65749
  23812905.780   125137673.15205  23812906.460    97509883.94846
  23534945.160   123676965.67305  23534947.260    96371672.90845
  24505655.960   128778094.55604  24505656.880   100346569.55145
  20621723.340   108367899.77208  20621725.820    84442537.20949
  23286328.560   122370536.33505  23286334.900    95353722.56145
 15 02 25 17 31  0.0000000  0  8G12G13G15G17G18G22G24G25
  20523319.700   107850804.57308  20523319.640    84039604.14849
  23387245.180   122900740.46105  23387249.440    95766800.41445
  21175009.020   111275420.49708  21175009.760    86708119.71248
  23824886.920   125200634.58305  23824887.620    97558944.82646
  23540984.360   123708702.91305  23540986.620    96396403.21344
  24503776.420   128768217.17804  24503777.340   100338872.94445
  20618124.180   108348986.34708  20618126.660    84427799.50549
  23269929.000   122284356.67305  23269935.200    95286569.84046
 15 02 25 17 31 30.0000000  0  8G12G13G15G17G18G22G24G25
  20516605.280   107815519.99508  20516605.120    84012109.71849
  23407556.640   123007476.96305  23407560.900    95849971.34545
  21187306.280   111340042.91308  21187307.020    86758474.82548
  23836947.620   125264014.23405  23836948.460    97608331.57146
  23547096.120   123740821.49805  23547098.540    96421430.65545
  24501986.300   128758810.48804  24501987.260   100331543.06545
  20614569.640   108330307.32408  20614572.100    84413244.44049
  23253575.400   122198418.57905  23253581.520    95219605.34146
 15 02 25 17 32  0.0000000  0  8G12G13G15G17G18G22G24G25
  20509973.320   107780669.06708  20509973.120    83984953.20049
  23427907.640   123114421.31005  23427911.980    95933304.25045
  21199684.920   111405093.06608  21199685.680    86809163.23648
  23849087.200   125327808.08405  23849088.080    97658041.07146
  23553279.860   123773317.57404  23553282.100    96446752.24145
  24500285.460   128749872.52705  24500286.220   100324578.45843
