     2.11           OBSERVATION DATA    M                   RINEX VERSION / TYPE
SPIDER V4,0,0,3554                      2015 03 19 01:17    PGM / RUN BY / DATE 
OBHM                                                        MARKER NAME         
OBHM                                                        MARKER NUMBER       
                                                            OBSERVER / AGENCY   
496638              LEICA GRX1200+GNSS  8.20/4.007          REC # / TYPE / VERS 
10321015            LEIAR25         NONE                    ANT # / TYPE        
  5268006.0133   -44062.8765  3585543.8986                  APPROX POSITION XYZ 
        0.1200        0.0000        0.0000                  ANTENNA: DELTA H/E/N
     1     1                                                WAVELENGTH FACT L1/2
     4    C1    L1    P2    L2                              # / TYPES OF OBSERV 
    30.000                                                  INTERVAL            
  2015    02    25    00    00    0.0000000     GPS         TIME OF FIRST OBS   
  2015    02    25    23    59   30.0000000     GPS         TIME OF LAST OBS    
    16                                                      LEAP SECONDS        
    54                                                      # OF SATELLITES     
   G 1   844   844   844   844                              PRN / # OF OBS      
   G 2   918   918   918   918                              PRN / # OF OBS      
   G 3   842   842   842   842                              PRN / # OF OBS      
   G 4   854   854   854   854                              PRN / # OF OBS      
   G 5   683   682   682   682                              PRN / # OF OBS      
   G 6   645   645   645   645                              PRN / # OF OBS      
   G 7   742   742   742   742                              PRN / # OF OBS      
   G 9   780   780   780   780                              PRN / # OF OBS      
   G10   795   795   795   795                              PRN / # OF OBS      
   G11   810   810   810   810                              PRN / # OF OBS      
   G12   811   811   811   811                              PRN / # OF OBS      
   G13   834   834   834   834                              PRN / # OF OBS      
   G14   929   929   929   929                              PRN / # OF OBS      
   G15   743   743   743   743                              PRN / # OF OBS      
   G16   703   703   703   703                              PRN / # OF OBS      
   G17   924   924   924   924                              PRN / # OF OBS      
   G18   945   945   944   944                              PRN / # OF OBS      
   G19   794   794   794   794                              PRN / # OF OBS      
   G20   819   818   818   818                              PRN / # OF OBS      
   G21   708   708   708   708                              PRN / # OF OBS      
   G22   817   817   817   817                              PRN / # OF OBS      
   G23   723   723   723   723                              PRN / # OF OBS      
   G24   853   853   853   853                              PRN / # OF OBS      
   G25   862   862   862   862                              PRN / # OF OBS      
   G27   843   843   843   843                              PRN / # OF OBS      
   G28   916   916   916   916                              PRN / # OF OBS      
   G29   747   747   747   747                              PRN / # OF OBS      
   G30   687   687   687   687                              PRN / # OF OBS      
   G31   745   745   744   744                              PRN / # OF OBS      
   G32   736   736   736   736                              PRN / # OF OBS      
   R 1   705   705   705   705                              PRN / # OF OBS      
   R 2   754   754   754   754                              PRN / # OF OBS      
   R 3   944   944   944   944                              PRN / # OF OBS      
   R 4   929   929   929   928                              PRN / # OF OBS      
   R 5   874   874   874   874                              PRN / # OF OBS      
   R 6   658   658   658   658                              PRN / # OF OBS      
   R 7   761   761   761   761                              PRN / # OF OBS      
   R 8   790   790   790   789                              PRN / # OF OBS      
   R 9  1011  1011  1011  1011                              PRN / # OF OBS      
   R10   852   852   852   852                              PRN / # OF OBS      
   R11   647   647   647   646                              PRN / # OF OBS      
   R12   650   650   650   650                              PRN / # OF OBS      
   R13   760   760   760   760                              PRN / # OF OBS      
   R14   787   787   786   786                              PRN / # OF OBS      
   R15   798   798   798   798                              PRN / # OF OBS      
   R16   961   961   961   959                              PRN / # OF OBS      
   R17   728   728   728   728                              PRN / # OF OBS      
   R18   926   926   926   926                              PRN / # OF OBS      
   R19  1001  1001   997   997                              PRN / # OF OBS      
   R20   802   802   801   801                              PRN / # OF OBS      
   R21   421   421   421   419                              PRN / # OF OBS      
   R22   740   740   740   740                              PRN / # OF OBS      
   R23   822   822   821   821                              PRN / # OF OBS      
   R24   804   804   804   804                              PRN / # OF OBS      
BIT 2 OF LLI FLAGS DATA COLLECTED UNDER A/S CONDITION       COMMENT             
SNR is mapped to RINEX snr flag value [2-9]                 COMMENT             
Lx:     = 25dBHz -> 1; 26-27dBHz -> 2; 28-31dBHz -> 3       COMMENT             
       32-35dBHz -> 4; 36-38dBHz -> 5; 39-41dBHz -> 6       COMMENT             
       42-44dBHz -> 7; 45-48dBHz -> 8; >=49dBHz -> 9        COMMENT             
                                                            END OF HEADER       
 15 02 25 00 00  0.0000000  0  7G16G18G21G22G27G29G31
  21858702.440   114868270.34509  21858698.960    89507732.54548
  23093546.500   121357498.74908  23093543.980    94564318.18846
  21305824.020   111963128.82208  21305820.100    87244105.61448
  24320749.180   127806431.70608  24320751.600    99589449.64046
  22794414.660   119785495.61709  22794414.280    93339359.69148
  24078064.940   126531456.55308  24078063.300    98596104.93746
  22296631.020   117169603.66409  22296628.060    91300986.89348
 15 02 25 00 00 30.0000000  0  7G16G18G21G22G27G29G31
  21845090.340   114796738.24809  21845086.880    89451993.25348
  23081654.460   121295006.22708  23081652.060    94515622.75946
  21312625.880   111998873.21608  21312622.020    87271958.38048
  24303891.820   127717849.43008  24303894.220    99520425.27345
  22782821.880   119724575.05309  22782821.480    93291889.14148
  24092510.280   126607367.40108  24092508.640    98655256.20046
  22312909.760   117255149.17209  22312906.840    91367645.69848
 15 02 25 00 01  0.0000000  0  7G16G18G21G22G27G29G31
  21831516.040   114725404.68109  21831512.560    89396408.67348
  23069804.780   121232736.65508  23069802.500    94467101.06646
  21319498.580   112034989.73409  21319494.740    87300101.12848
  24287022.940   127629206.69908  24287025.340    99451353.78245
  22771254.600   119663788.63609  22771254.200    93244523.13148
  24106953.480   126683266.95508  24106951.920    98714398.67346
  22329240.580   117340968.24509  22329237.700    91434517.67448
 15 02 25 00 01 30.0000000  0  7G16G18G21G22G27G29G31
  21817980.480   114654274.65209  21817976.920    89340982.67448
  23057998.500   121170695.44608  23057996.440    94418757.31246
  21326442.300   112071479.23508  21326438.420    87328534.50148
  24270143.660   127540508.92308  24270145.860    99382239.44146
  22759713.240   119603138.96608  22759712.940    93197263.67648
  24121395.100   126759157.99408  24121393.500    98773534.49246
  22345623.520   117427060.93409  22345620.640    91501602.84948
 15 02 25 00 02  0.0000000  0  7G16G18G21G22G27G29G31
  21804483.000   114583344.77109  21804479.360    89285712.64848
  23046235.240   121108880.18608  23046233.360    94370589.60746
  21333455.680   112108334.99008  21333451.820    87357253.27148
  24253253.420   127451753.12908  24253255.380    99313079.91346
  22748196.800   119542620.52708  22748196.620    93150106.48448
  24135834.060   126835035.02008  24135832.400    98832659.40546
  22362056.920   117513418.70309  22362054.040    91568894.58648
 15 02 25 00 02 30.0000000  0  7G16G18G21G22G27G29G31
  21791024.540   114512619.93409  21791020.820    89230602.38748
  23034516.100   121047296.24108  23034514.280    94322602.15946
  21340538.980   112145558.26608  21340535.180    87386258.41948
  24236353.280   127362945.13908  24236354.960    99243879.66746
  22736705.860   119482236.14908  22736705.820    93103053.75348
  24150270.860   126910900.75308  24150269.160    98891775.49946
  22378540.780   117600041.78009  22378537.900    91636393.04748
 15 02 25 00 03  0.0000000  0  7G16G18G21G22G27G29G31
  21777605.280   114442101.31509  21777601.520    89175652.82848
  23022841.420   120985945.48909  23022839.520    94274796.41346
  21347691.800   112183146.81209  21347688.080    87415548.20248
  24219443.480   127274086.42308  24219444.740    99174639.86845
  22725240.320   119421984.96808  22725240.320    93056104.82048
  24164705.380   126986754.25808  24164703.500    98950882.09546
  22395074.500   117686926.79709  22395071.600    91704095.62348
 15 02 25 00 03 30.0000000  0  7G16G18G21G22G27G29G31
  21764225.480   114371789.99709  21764221.680    89120864.79448
  23011211.400   120924828.95609  23011209.440    94227173.16746
  21354913.600   112221097.59609  21354909.900    87445120.23748
  24202524.360   127185178.49308  24202525.260    99105361.67246
  22713799.920   119361865.69708  22713799.920    93009258.65747
  24179137.360   127062594.05808  24179135.300    99009977.99445
  22411657.340   117774069.66809  22411654.320    91771999.12648
 15 02 25 00 04  0.0000000  0  7G16G18G21G22G27G29G31
  21750886.160   114301691.50709  21750882.340    89066242.60348
  22999627.180   120863952.94108  22999625.160    94179737.35046
  21362204.800   112259412.86409  21362201.080    87474976.28848
  24185597.080   127096227.76408  24185597.700    99036050.17545
  22702385.400   119301881.89708  22702385.360    92962518.05847
  24193567.380   127138423.83808  24193565.160    99069066.09245
  22428289.420   117861471.40509  22428286.320    91840104.33548
 15 02 25 00 04 30.0000000  0  7G16G18G21G22G27G29G31
  21737587.100   114231804.54109  21737583.240    89011785.21848
  22988088.620   120803317.04908  22988086.520    94132488.63246
  21369564.480   112298087.90709  21369560.700    87505112.67748
  24168661.320   127007233.05508  24168661.760    98966704.36946
  22690995.980   119242029.88409  22690995.900    92915880.13648
  24207994.860   127214240.46108  24207992.520    99128143.92445
  22444969.560   117949125.79809  22444966.380    91908406.41548
 15 02 25 00 05  0.0000000  0  7G16G18G21G22G27G29G31
  21724329.260   114162134.40009  21724325.380    88957496.80748
  22976596.740   120742926.62009  22976594.540    94085431.18446
  21376992.820   112337123.70809  21376989.000    87535530.18448
  24151718.320   126918200.10808  24151718.580    98897328.72946
  22679632.280   119182312.86109  22679632.120    92869347.41648
  24222420.260   127290046.78808  24222417.960    99187213.75145
  22461697.800   118037032.96409  22461694.500    91976905.47648
 15 02 25 00 05 30.0000000  0  7G16G18G21G22G27G29G31
  21711112.420   114092679.89209  21711108.520    88903376.41348
  22965151.500   120682781.16309  22965149.180    94038564.62846
  21384488.840   112376515.39909  21384485.000    87566225.00848
  24134767.900   126829128.49708  24134768.020    98827922.94846
  22668293.600   119122727.31509  22668293.380    92822917.14248
  24236842.980   127365839.24808  24236840.820    99246272.75145
  22478472.920   118125186.77309  22478469.620    92045596.72148
 15 02 25 00 06  0.0000000  0  7G16G18G21G22G27G29G31
  21697937.300   114023444.79409  21697933.440    88849426.99948
  22953753.720   120622885.11209  22953751.260    93991892.41846
  21392052.600   112416263.46209  21392048.800    87597197.53348
  24117811.000   126740022.72808  24117811.060    98758490.53346
  22656980.220   119063275.17509  22656980.080    92776590.83048
  24251263.420   127441619.87308  24251261.480    99305322.55245
  22495294.800   118213586.62009  22495291.580    92114479.67548
 15 02 25 00 06 30.0000000  0  7G16G18G21G22G27G29G31
  21684804.300   113954430.89209  21684800.480    88795649.94248
  22942403.760   120563240.29109  22942401.120    93945415.96746
  21399683.680   112456365.43709  21399679.980    87628445.82548
  24100848.080   126650884.83308  24100848.040    98689033.03246
  22645692.040   119003955.55209  22645691.960    92730367.78048
  24265681.460   127517387.93607  24265679.860    99364362.55645
  22512162.820   118302228.93409  22512159.700    92183551.56948
 15 02 25 00 07  0.0000000  0  7G16G18G21G22G27G29G31
  21671713.680   113885639.52909  21671709.920    88742046.28348
  22931102.100   120503849.35209  22931099.220    93899137.33346
  21407381.920   112496820.05309  21407378.240    87659968.90748
  24083879.540   126561717.16008  24083879.320    98619552.30646
  22634429.060   118944768.29209  22634429.020    92684247.85648
  24280097.120   127593143.27407  24280095.780    99423392.64845
  22529076.500   118391110.69309  22529073.440    92252810.03848
 15 02 25 00 07 30.0000000  0  7G16G18G21G22G27G29G31
  21658665.540   113817070.96709  21658661.820    88688616.23548
  22919848.580   120444711.97008  22919845.660    93853056.29646
  21415146.360   112537622.64409  21415142.680    87691763.13248
  24066905.520   126472519.85608  24066905.080    98550048.45845
  22623190.780   118885710.83709  22623190.700    92638229.08748
  24294510.000   127668883.41408  24294508.740    99482410.86645
  22546034.760   118480226.66509  22546031.740    92322251.00648
 15 02 25 00 08  0.0000000  0  7G16G18G21G22G27G29G31
  21645660.500   113748728.77609  21645656.780    88635362.58248
  22908644.100   120385832.53808  22908641.140    93807176.24746
  21422977.100   112578773.51309  21422973.400    87723828.74248
  24049926.660   126383297.25508  24049925.960    98480524.87345
  22611977.540   118826784.80809  22611977.400    92592312.72748
  24308920.500   127744610.03908  24308919.120    99541418.57446
  22563037.420   118569575.91809  22563034.360    92391873.75348
 15 02 25 00 08 30.0000000  0  7G16G18G21G22G27G29G31
  21632699.200   113680616.68309  21632695.500    88582288.23148
  22897489.380   120327215.09508  22897486.400    93761500.35446
  21430874.120   112620272.46309  21430870.380    87756165.59048
  24032943.900   126294053.89908  24032943.000    98410985.11446
  22600789.620   118767991.81609  22600789.400    92546500.02848
  24323328.740   127820324.48208  24323327.220    99600416.81146
  22580084.200   118659157.12509  22580081.160    92461677.24748
 15 02 25 00 09  0.0000000  0  7G16G18G21G22G27G29G31
  21619781.660   113612734.50409  21619777.940    88529393.02348
  22886384.600   120268860.00409  22886381.640    93716028.88046
  21438836.620   112662115.35409  21438832.840    87788770.43848
  24015957.120   126204789.62508  24015956.020    98341429.00845
  22589626.460   118709329.00909  22589626.180    92500788.77448
  24337734.220   127896024.24808  24337732.440    99659403.58646
  22597174.060   118748964.75109  22597171.100    92531657.16248
 15 02 25 00 09 30.0000000  0  7G16G18G21G22G27G29G31
  21606908.780   113545086.76409  21606904.960    88476680.49448
  22875330.740   120210772.21409  22875327.780    93670765.68746
  21446864.740   112704303.33309  21446860.940    87821644.18848
  23998967.360   126115509.64408  23998966.060    98271860.64446
  22578488.540   118650799.07309  22578488.200    92455181.04848
  24352137.380   127971712.08808  24352135.420    99718381.07646
  22614307.040   118838998.86909  22614304.100    92601813.56248
 15 02 25 00 10  0.0000000  0  7G16G18G21G22G27G29G31
  21594080.660   113477674.19109  21594076.800    88424151.21948
  22864328.100   120152953.38108  22864325.160    93625712.08246
  21454957.920   112746833.14709  21454954.100    87854784.30748
  23981974.960   126026215.61908  23981973.600    98202281.32046
  22567375.600   118592400.46809  22567375.240    92409675.67148
  24366537.940   128047386.75308  24366535.840    99777348.30346
  22631482.360   118929255.21009  22631479.380    92672143.13148
 15 02 25 00 10 30.0000000  0  7G16G18G21G22G27G29G31
  21581297.880   113410499.96909  21581294.000    88371807.67548
  22853377.400   120095406.77809  22853374.320    93580870.60546
  21463116.000   112789704.18909  21463112.160    87888190.31648
  23964980.560   125936911.14908  23964979.140    98132693.86246
  22556287.900   118534134.25309  22556287.440    92364273.44048
  24380935.940   128123048.71208  24380933.820    99836305.61046
  22648699.680   119019732.15609  22648696.600    92742644.60148
 15 02 25 00 11  0.0000000  0  7G16G18G21G22G27G29G31
  21568560.920   113343566.57209  21568557.040    88319651.78348
  22842479.020   120038134.90809  22842475.700    93536243.19746
  21471338.700   112832915.12709  21471334.940    87921861.17448
  23947984.780   125847599.17008  23947983.240    98063100.52046
  22545225.460   118476000.57009  22545224.940    92318974.48248
  24395331.580   128198698.81008  24395329.620    99895253.67146
  22665958.400   119110426.99509  22665955.340    92813315.85148
 15 02 25 00 11 30.0000000  0  7G16G18G21G22G27G29G31
  21555869.900   113276874.47809  21555865.980    88267683.92648
  22831633.080   119981138.70709  22831629.560    93491830.59546
  21479625.460   112876462.61509  21479621.760    87955794.28648
  23930987.780   125758280.77208  23930986.100    97993502.15946
  22534187.920   118417997.82509  22534187.400    92273777.56248
  24409724.500   128274335.46008  24409722.820    99954191.27146
  22683257.720   119201335.36509  22683254.660    92884153.49048
 15 02 25 00 12  0.0000000  0  7G16G18G21G22G27G29G31
  21543225.020   113210425.09609  21543221.060    88215905.19048
  22820839.960   119924420.34709  22820836.320    93447634.49946
  21487975.860   112920344.51009  21487972.220    87989987.96848
  23913989.860   125668957.45608  23913988.120    97923899.96246
  22523175.060   118360125.05209  22523174.540    92228681.90848
  24424114.700   128349957.82008  24424113.320   100013117.73046
  22700596.900   119292453.72809  22700593.940    92955154.75448
 15 02 25 00 12 30.0000000  0  7G16G18G21G22G27G29G31
  21530627.200   113144223.18109  21530623.200    88164319.27548
  22810100.620   119867984.73409  22810096.920    93403658.71946
  21496390.040   112964561.13809  21496386.380    88024442.48248
  23896992.120   125579635.37708  23896990.380    97854298.71846
  22512187.380   118302384.79809  22512186.900    92183689.52448
  24438502.720   128425568.30307  24438501.620   100072034.91946
  22717975.920   119383781.39709  22717973.040    93026319.11048
 15 02 25 00 13  0.0000000  0  7G16G18G21G22G27G29G31
  21518076.240   113078267.52009  21518072.240    88112925.25348
  22799414.860   119811830.94109  22799411.100    93359902.53346
  21504867.080   113009107.83509  21504863.340    88059154.19548
  23879994.380   125490313.51008  23879992.580    97784697.62046
  22501224.140   118244773.60208  22501223.820    92138797.70048
  24452887.920   128501163.74007  24452886.960   100130940.40846
  22735393.720   119475312.71409  22735390.920    93097642.15747
 15 02 25 00 13 30.0000000  0  7G16G18G21G22G27G29G31
  21505572.660   113012560.76309  21505568.660    88061725.18748
  22788783.200   119755961.73708  22788779.360    93316368.10746
  21513406.680   113053983.06509  21513402.880    88094121.91048
  23862997.200   125400994.66608  23862995.380    97715098.86946
  22490285.540   118187291.86508  22490285.340    92094006.76048
  24467270.460   128576743.96207  24467269.480   100189834.02645
  22752849.800   119567045.16709  22752847.060    93169121.93448
 15 02 25 00 14  0.0000000  0  7G16G18G21G22G27G29G31
  21493116.400   112947102.72009  21493112.440    88010718.91848
  22778205.680   119700377.46208  22778201.940    93273055.71746
  21522008.000   113099183.03109  21522004.200    88129342.65448
  23846000.720   125311679.49708  23845998.780    97645502.95146
  22479371.200   118129937.26408  22479371.040    92049314.87848
  24481650.120   128652307.78307  24481648.780   100248714.84845
  22770343.180   119658973.39209  22770340.500    93240754.24948
 15 02 25 00 14 30.0000000  0  7G16G18G21G22G27G29G31
  21480708.400   112881898.19009  21480704.500    87959910.19148
  22767683.420   119645083.38408  22767679.740    93229969.44046
  21530671.260   113144708.73809  21530667.520    88164817.22748
  23829006.100   125222373.77108  23829004.140    97575914.40146
  22468481.680   118072712.45609  22468481.380    92004724.12948
  24496027.140   128727857.20807  24496025.360   100307584.47244
  22787873.880   119751097.35609  22787871.160    93312539.09548
 15 02 25 00 15  0.0000000  0 15G16G18G21G22G27G29G31R02R03R09R15R16
                                R17R18R19
  21468349.100   112816949.40909  21468345.240    87909300.75348
  22757216.800   119590081.59509  22757213.220    93187110.92946
  21539396.040   113190558.10809  21539392.380    88200544.00948
  23812013.800   125133079.71208  23812011.680    97506334.91246
  22457616.940   118015617.23409  22457616.460    91960234.35748
  24510401.400   128803392.46507  24510399.160   100366443.06745
  22805441.320   119843414.26709  22805438.560    93384474.28648
  22956305.020   122499249.42508  22956307.220    95277208.16207
  23314275.940   124803150.54206  23314277.640    97069128.39906
  22176022.940   118418726.63408  22176024.180    92103460.06404
  21499008.560   114884198.66708  21499012.060    89354395.34808
  19532888.680   104341196.01509  19532890.160    81154273.92908
  22345991.720   119578226.93508  22345992.000    93005387.17007
  19994964.620   106734779.77409  19994967.060    83016040.61208
  21918936.340   117251610.95908  21918936.840    91195728.13508
 15 02 25 00 15 30.0000000  0 15G16G18G21G22G27G29G31R02R03R09R15R16
                                R17R18R19
  21456039.460   112752261.54609  21456035.620    87858894.63148
  22746806.920   119535377.91308  22746803.480    93144484.70046
  21548182.700   113236732.74109  21548179.120    88236524.24448
  23795024.840   125043803.08408  23795022.620    97436769.00546
  22446777.460   117958654.59609  22446776.840    91915847.90148
  24524773.400   128878916.66507  24524770.900   100425293.06745
  22823045.560   119935924.52109  22823042.740    93456560.13948
  22951041.340   122471161.64108  22951043.600    95255362.12707
  23296128.880   124706009.28206  23296130.760    96993574.18106
  22157047.080   118317396.93108  22157048.340    92024648.08404
  21521382.140   115003756.13708  21521385.600    89447384.43808
  19533257.860   104343168.36709  19533259.420    81155807.96808
  22361521.500   119661329.67908  22361521.840    93070022.62307
  19999891.200   106761078.12809  19999893.660    83036494.89408
  21907777.460   117191918.37408  21907777.920    91149300.59308
 15 02 25 00 16  0.0000000  0 15G16G18G21G22G27G29G31R02R03R09R15R16
                                R17R18R19
  21443779.000   112687832.48109  21443775.220    87808690.16648
  22736453.420   119480970.50008  22736450.120    93102089.34046
  21557030.140   113283226.78009  21557026.640    88272753.36448
  23778038.960   124954542.60408  23778036.600    97367215.64246
  22435962.360   117901820.16309  22435961.640    91871561.33848
  24539142.320   128954425.59708  24539139.720   100484131.16544
  22840685.100   120028620.63709  22840682.320    93528790.80648
  22945899.320   122443723.43208  22945901.740    95234021.31907
  23278016.000   124609051.03906  23278017.980    96918162.30106
  22138157.900   118216529.76608  22138159.080    91946195.83804
  21543822.160   115123668.88808  21543825.620    89540649.84708
  19533784.720   104345982.89509  19533786.340    81157997.03908
  22377046.700   119744407.65708  22377046.980    93134638.82207
  20004864.160   106787623.87809  20004866.540    83057141.59208
  21896669.240   117132496.68108  21896669.600    91103083.72908
 15 02 25 00 16 30.0000000  0 15G16G18G21G22G27G29G31R02R03R09R15R16
                                R17R18R19
  21431569.040   112623668.72409  21431565.300    87758692.43748
  22726157.640   119426866.09509  22726154.420    93059930.08646
  21565938.760   113330042.37509  21565935.360    88309233.04448
  23761057.480   124865305.42008  23761055.020    97297680.44846
  22425172.480   117845118.37309  22425171.700    91827378.12448
  24553509.020   129029923.63608  24553506.460   100542960.78445
  22858360.280   120121504.28309  22858357.560    93601167.59448
  22940880.220   122416941.40708  22940882.800    95213190.86707
  23259939.100   124512285.08007  23259941.080    96842899.97206
  22119356.960   118116133.69408  22119358.140    91868110.00904
  21566328.800   115243937.90408  21566332.320    89634192.34607
  19534470.120   104349644.31009  19534471.780    81160844.79408
  22392567.980   119827464.76508  22392568.220    93199238.78507
  20009883.980   106814419.74109  20009886.260    83077982.81208
  21885612.480   117073350.04608  21885612.720    91057080.81108
 15 02 25 00 17  0.0000000  0 14G16G18G21G22G27G31R02R03R09R15R16R17
                                R18R19
  21419407.380   112559758.90909  21419403.680    87708892.59148
  22715917.480   119373053.44909  22715914.280    93017998.18546
  21574905.720   113377164.41809  21574902.360    88345951.53148
  23744078.360   124776080.53008  23744075.860    97228154.83046
  22414405.160   117788535.55109  22414404.380    91783287.63848
  22876068.020   120214559.18709  22876065.360    93673677.84447
  22935981.920   122390803.69408  22935984.580    95192861.56407
  23241896.600   124415701.92707  23241898.360    96767779.81106
  22100642.460   118016199.19108  22100643.720    91790383.20005
  21588898.840   115364545.23408  21588902.420    89727997.99508
  19535311.520   104354138.84309  19535313.160    81164340.54208
  22408082.540   119910486.07408  22408082.800    93263810.89507
  20014947.760   106841450.21109  20014949.920    83099006.51808
  21874604.400   117014464.05908  21874604.520    91011280.61408
 15 02 25 00 17 30.0000000  0 14G16G18G21G22G27G31R02R03R09R15R16R17
                                R18R19
  21407298.420   112496126.40709  21407294.800    87659308.82648
  22705737.320   119319556.03209  22705734.020    92976311.89846
  21583934.820   113424612.65809  21583931.400    88382924.18248
  23727106.140   124686891.82908  23727103.500    97158657.38346
  22403664.380   117732092.70709  22403663.660    91739306.20848
  22893811.860   120307803.43809  22893809.200    93746335.61847
  22931208.980   122365334.55308  22931211.560    95173052.26707
  23223893.300   124319327.60807  23223894.600    96692822.06106
  22082019.160   117916751.51108  22082020.480    91713035.00705
  21611535.500   115485508.20108  21611539.080    89822080.23407
  19536312.940   104359488.20609  19536314.560    81168501.14908
  22423594.260   119993491.90508  22423594.420    93328370.96107
  20020059.100   106868735.00609  20020061.240    83120228.01908
  21863648.960   116955859.81808  21863649.020    90965699.56007
 15 02 25 00 18  0.0000000  0 14G16G18G21G22G27G31R02R03R09R15R16R17
                                R18R19
  21395240.600   112432762.54709  21395237.080    87609934.39848
  22695615.540   119266365.29909  22695612.120    92934864.60446
  21593023.580   113472374.11009  21593020.060    88420140.89548
  23710139.220   124597730.97208  23710136.480    97089181.62646
  22392948.100   117675778.75109  22392947.480    91695425.23048
  22911589.140   120401223.28909  22911586.480    93819130.23547
  22926559.660   122340524.59208  22926562.140    95153755.66207
  23205927.900   124223155.41807  23205928.680    96618021.53606
  22063485.700   117817783.54608  22063487.060    91636059.94104
  21634235.760   115606810.85608  21634239.260    89916426.68507
  19537472.340   104365681.22709  19537473.860    81173317.94708
  22439100.780   120076470.21508  22439100.920    93392909.62307
  20025215.600   106896261.00409  20025217.800    83141637.12808
  21852743.920   116897525.33808  21852743.960    90920328.33607
 15 02 25 00 18 30.0000000  0 14G16G18G21G22G27G31R02R03R09R15R16R17
                                R18R19
  21383234.760   112369671.83409  21383231.340    87560772.81648
  22685553.040   119213486.05209  22685549.500    92893660.01547
  21602172.160   113520449.79909  21602168.520    88457602.47348
  23693178.640   124508603.32708  23693175.820    97019731.75246
  22382256.820   117619596.25509  22382256.320    91651646.68048
  22929399.780   120494818.29709  22929397.060    93892061.33347
  22922034.860   122316378.69908  22922037.120    95134975.56607
  23188001.480   124127192.51007  23188001.920    96543383.79306
  22045043.420   117719302.17708  22045044.620    91559463.33205
  21656999.460   115728452.78208  21657003.020    90011037.02008
  19538790.180   104372720.52009  19538791.640    81178792.94908
  22454602.440   120159422.57308  22454602.500    93457428.11407
  20030417.400   106924029.04609  20030419.740    83163234.49908
  21841889.760   116839463.07008  21841889.780    90875168.82507
 15 02 25 00 19  0.0000000  0 14G16G18G21G22G27G31R02R03R09R15R16R17
                                R18R19
  21371280.440   112306851.69009  21371277.060    87511822.06048
  22675549.460   119160916.72409  22675545.860    92852696.91646
  21611379.380   113568833.38909  21611375.620    88495303.97048
  23676224.060   124419507.29808  23676221.100    96950306.50246
  22371589.720   117563540.74209  22371589.400    91607967.07248
  22947242.360   120588581.43309  22947239.780    93965123.43148
  22917634.060   122292894.65308  22917636.180    95116710.22807
  23170114.060   124031438.94807  23170114.280    96468908.88106
  22026692.120   117621306.72308  22026693.320    91483244.65505
  21679825.180   115850425.78808  21679828.760    90105904.84708
  19540265.660   104380601.95209  19540267.140    81184922.94708
  22470098.280   120242343.97508  22470098.240    93521922.51307
  20035663.420   106952033.01509  20035665.880    83185015.36308
  21831085.520   116781667.91708  21831085.500    90830217.05807
 15 02 25 00 19 30.0000000  0 15G16G18G19G21G22G27G31R02R03R09R15R16
                                R17R18R19
  21359378.320   112244305.45409  21359374.940    87463084.72948
  22665605.360   119108660.28909  22665601.740    92811977.63346
  24547721.140   128999145.03508  24547717.880   100518801.05246
  21620645.000   113617523.97509  21620641.120    88533244.68048
  23659276.200   124330446.35508  23659273.080    96880908.59646
  22360946.900   117507612.83709  22360946.760    91564386.89848
  22965116.460   120682510.22909  22965114.020    94038314.61048
  22913357.660   122270075.00308  22913359.860    95098961.63907
  23152266.720   123935899.97907  23152266.720    96394600.86306
  22008432.700   117523802.11008  22008433.880    91407407.74405
  21702712.180   115972726.30108  21702715.760    90201027.39508
  19541898.880   104389325.93509  19541900.400    81191708.24508
  22485588.240   120325234.08608  22485588.260    93586392.58707
  20040953.480   106980271.85609  20040956.000    83206978.90808
  21820331.280   116724139.92808  21820331.160    90785473.08607
 15 02 25 00 20  0.0000000  0 15G16G18G19G21G22G27G31R02R03R09R15R16
                                R17R18R19
  21347526.180   112182021.92509  21347522.820    87414552.12148
  22655718.700   119056705.55809  22655715.020    92771493.44546
  24532885.960   128921185.94808  24532882.940   100458053.80946
  21629965.980   113666505.73809  21629962.060    88571412.28348
  23642333.020   124241410.05508  23642329.740    96811529.87246
  22350325.940   117451799.40509  22350325.860    91520895.93548
  22983019.100   120776589.11109  22983016.740    94111622.73847
  22909203.580   122247908.60708  22909205.960    95081721.12707
  23134457.880   123840567.09307  23134457.720    96320453.12407
  21990263.480   117426779.15308  21990264.580    91331945.45505
  21725657.040   116095336.16308  21725660.600    90296390.54708
  19543687.260   104398878.92409  19543688.760    81199138.33108
  22501069.680   120408078.73608  22501069.820    93650827.29807
  20046284.740   107008730.32409  20046287.320    83229113.27008
  21809624.420   116666865.47608  21809624.200    90740926.29407
 15 02 25 00 20 30.0000000  0 15G16G18G19G21G22G27G31R02R03R09R15R16
                                R17R18R19
  21335730.740   112120036.53509  21335727.360    87366251.82048
  22645896.220   119005088.36909  22645892.540    92731272.27546
  24518073.320   128843345.54808  24518070.360   100397399.01645
  21639348.440   113715810.99509  21639344.580    88609831.95848
  23625401.300   124152434.33508  23625397.940    96742198.34346
  22339733.100   117396133.46809  22339733.020    91477519.89048
  23000956.100   120870848.20409  23000953.720    94185071.28747
  22905178.480   122226431.13208  22905181.160    95065016.43307
  23116694.560   123745478.14707  23116694.400    96246495.12107
  21972191.480   117330275.35208  21972192.500    91256886.95405
  21748665.420   116218285.35808  21748668.940    90392017.61707
  19545637.120   104409294.56609  19545638.640    81207239.37308
  22516548.660   120490910.39608  22516549.000    93715251.90507
  20051663.160   107037440.39909  20051665.740    83251443.32408
  21798971.120   116609877.62508  21798970.820    90696602.42907
 15 02 25 00 21  0.0000000  0 15G16G18G19G21G22G27G31R02R03R09R15R16
                                R17R18R19
  21323988.400   112058330.26909  21323985.020    87318169.02548
  22636134.380   118953789.63509  22636130.640    92691299.25246
  24503279.160   128765602.28308  24503276.240   100336819.93446
  21648787.980   113765416.43809  21648784.180    88648485.55048
  23608477.540   124063500.65308  23608474.240    96672899.58346
  22329164.260   117340593.72109  22329164.160    91434242.19248
  23018922.780   120965263.17709  23018920.400    94258641.31247
  22901278.820   122205623.02708  22901281.840    95048832.36307
  23098973.620   123650616.19107  23098973.480    96172713.68107
  21954213.400   117234273.13608  21954214.280    91182218.56905
  21771732.500   116341548.61208  21771735.960    90487888.95007
  19547744.360   104420550.86109  19547745.880    81215994.26508
  22532021.040   120573706.84208  22532021.540    93779649.13307
  20057084.400   107066378.87609  20057086.840    83273951.02908
  21788367.200   116553154.05208  21788366.880    90652484.10207
 15 02 25 00 21 30.0000000  0 15G16G18G19G21G22G27G31R02R03R09R15R16
                                R17R18R19
  21312300.240   111996908.47109  21312296.800    87270307.89048
  22626434.140   118902814.81709  22626430.420    92651578.63746
  24488504.260   128687960.05108  24488501.320   100276319.56145
  21658284.940   113815323.45009  21658281.180    88687374.13148
  23591563.000   123974615.30408  23591559.700    96603638.45647
  22318620.020   117285183.39709  22318619.880    91391065.33948
  23036919.260   121059834.61409  23036916.800    94332333.24947
  22897505.640   122185489.48508  22897508.900    95033172.95007
  23081296.520   123555988.95307  23081296.340    96099114.79307
  21936330.620   117138779.94208  21936331.420    91107946.10805
  21794858.180   116465125.10408  21794861.640    90584003.91607
  19550009.560   104432650.93109  19550011.040    81225405.42208
  22547487.260   120656470.53308  22547487.860    93844020.87407
  20062548.720   107095547.16309  20062550.900    83296637.46808
  21777813.160   116496697.51508  21777812.840    90608573.50007
 15 02 25 00 22  0.0000000  0 15G16G18G19G21G22G27G31R02R03R09R15R16
                                R17R18R19
  21300665.980   111935769.98009  21300662.500    87222667.51448
  22616795.360   118852163.11709  22616791.800    92612109.80046
  24473747.880   128610414.89508  24473744.680   100215894.81845
  21667838.300   113865526.81609  21667834.580    88726493.63948
  23574657.520   123885777.27208  23574654.140    96534414.19346
  22308099.680   117229898.82909  22308099.480    91347986.48148
  23054944.300   121154556.06309  23054941.760    94406142.07847
  22893858.680   122166028.75208  22893861.980    95018036.84507
  23063663.480   123461597.64707  23063663.200    96025699.40806
  21918543.160   117043796.06608  21918543.880    91034069.76805
  21818041.060   116589006.98708  21818044.440    90680356.41707
  19552431.980   104445590.74009  19552433.380    81235469.71008
  22562946.580   120739196.98008  22562947.220    93908363.66007
  20068055.080   107124939.99009  20068057.040    83319498.54308
  21767308.340   116440504.09008  21767308.020    90564867.51707
 15 02 25 00 22 30.0000000  0 15G16G18G19G21G22G27G31R02R03R09R15R16
                                R17R18R19
  21289086.620   111874919.75109  21289083.040    87175251.75148
  22607219.100   118801839.75709  22607215.660    92572896.81546
  24459010.640   128532970.44208  24459007.100   100155548.56246
  21677448.380   113916027.98309  21677444.660    88765845.19848
  23557762.160   123796992.51208  23557758.780    96465231.45046
  22297603.880   117174743.25909  22297603.640    91305008.14248
  23072997.940   121249427.95909  23072995.360    94480068.13247
  22890338.900   122147246.10708  22890342.120    95003428.14807
  23046075.840   123367449.87407  23046075.480    95952473.43506
  21900852.380   116949328.68008  21900853.040    90960595.15805
  21841280.980   116713193.77708  21841284.300    90776946.07207
  19555012.160   104459373.69009  19555013.580    81246189.77608
  22578399.460   120821888.55908  22578400.160    93972679.31807
  20073603.760   107154558.94609  20073605.540    83342535.50508
  21756853.260   116384576.49108  21756853.000    90521368.32108
 15 02 25 00 23  0.0000000  0 15G16G18G19G21G22G27G31R02R03R09R15R16
                                R17R18R19
  21277562.100   111814357.70409  21277558.440    87128060.55148
  22597705.380   118751844.66809  22597702.040    92533939.61146
  24444292.020   128455624.13408  24444288.320   100095278.75145
  21687114.320   113966822.75909  21687110.600    88805425.53648
  23540877.020   123708261.19308  23540873.480    96396090.32546
  22287132.180   117119714.13609  22287131.900    91262128.32848
  23091079.120   121344444.75409  23091076.540    94554107.09847
  22886946.140   122129140.82208  22886949.160    94989346.28107
  23028534.160   123273547.82107  23028533.640    95879438.57306
  21883258.600   116855379.21008  21883259.260    90887523.35205
  21864576.620   116837678.75308  21864580.060    90873767.62207
  19557749.560   104473996.51509  19557751.000    81257563.07808
  22593845.340   120904542.15808  22593845.940    94036965.42707
  20079193.920   107184399.75709  20079195.740    83365745.02208
  21746447.220   116328911.41808  21746447.080    90478073.28308
 15 02 25 00 23 30.0000000  0 15G16G18G19G21G22G27G31R02R03R09R15R16
                                R17R18R19
  21266093.100   111754087.29709  21266089.300    87081096.60448
  22588254.800   118702181.25709  22588251.500    92495240.86546
  24429592.300   128378377.14308  24429588.520   100035086.34046
  21696835.980   114017910.10909  21696832.180    88845233.85348
  23524002.920   123619587.54908  23523999.120    96326994.14046
  22276684.780   117064812.54409  22276684.440    91219347.88548
  23109187.580   121439604.82909  23109185.000    94628257.70447
  22883680.900   122111715.84308  22883683.700    94975793.55507
  23011039.420   123179897.02707  23011038.660    95806599.11906
  21865762.800   116761952.99108  21865763.500    90814858.52705
  21887927.620   116962459.54008  21887931.160    90970819.26007
  19560644.280   104489459.69109  19560645.760    81269589.99008
  22609284.280   120987157.95008  22609284.580    94101222.13807
  20084825.440   107214461.74809  20084827.460    83389126.57808
  21736090.400   116273509.47408  21736090.380    90434982.90308
 15 02 25 00 24  0.0000000  0 15G16G18G19G21G22G27G31R02R03R09R15R16
                                R17R18R19
  21254680.780   111694114.96709  21254676.880    87034364.91848
  22578868.500   118652855.94109  22578865.340    92456805.57947
  24414912.280   128301233.53808  24414908.420    99974974.49146
  21706613.840   114069292.81609  21706610.000    88885272.32248
  23507141.060   123530978.18708  23507137.040    96257948.04546
  22266262.480   117010042.62809  22266262.060    91176670.04748
  23127323.500   121534909.31109  23127320.960    94702520.83347
  22880544.280   122094977.16308  22880546.920    94962774.59607
  22993593.240   123086506.35907  22993592.340    95733961.98906
  21848366.460   116669057.90608  21848367.280    90742606.80705
  21911333.740   117087534.64408  21911337.320    91068099.79507
  19563697.020   104505767.07509  19563698.520    81282273.50508
  22624716.840   121069739.55908  22624716.840    94165452.25907
  20090498.900   107244747.65809  20090501.140    83412682.28108
  21725783.480   116218374.38608  21725783.540    90392100.05508
 15 02 25 00 24 30.0000000  0 15G16G18G19G21G22G27G31R02R03R09R15R16
                                R17R18R19
  21243324.700   111634438.43709  21243320.780    86987863.72448
  22569546.120   118603866.45609  22569542.980    92418631.97346
  24400251.060   128224189.20508  24400247.380    99914940.00146
  21716446.820   114120965.06509  21716442.940    88925536.40848
  23490291.200   123442431.89508  23490287.020    96188951.08946
  22255864.440   116955400.22309  22255863.940    91134091.55748
  23145485.620   121630351.54609  23145483.100    94776891.29347
  22877535.680   122078922.25408  22877538.240    94950287.46107
  22976195.600   122993376.15307  22976194.780    95661527.43406
  21831069.580   116576693.90808  21831070.460    90670768.15305
  21934793.540   117212896.55608  21934797.180    91165603.39207
  19566906.980   104522914.25709  19566908.500    81295610.20308
  22640142.060   121152282.02108  22640141.860    94229651.91407
  20096213.240   107275251.40409  20096215.580    83436407.41708
  21715525.560   116163501.32408  21715525.600    90349421.03308
 15 02 25 00 25  0.0000000  0 15G16G18G19G21G22G27G31R02R03R09R15R16
                                R17R18R19
  21232025.180   111575058.99809  21232021.220    86941594.03448
  22560288.020   118555214.68609  22560284.800    92380721.52146
  24385608.600   128147243.23708  24385605.080    99854982.13446
  21726334.220   114172923.64509  21726330.340    88966023.60548
  23473453.700   123353950.51108  23473449.440    96120004.71446
  22245490.440   116900884.17009  22245489.860    91091611.53048
  23163673.180   121725927.53509  23163670.780    94851365.97647
  22874655.200   122063551.74608  22874657.860    94938332.64207
  22958847.200   122900509.85307  22958846.600    95589298.14406
  21813872.720   116484863.79308  21813873.540    90599344.71905
  21958306.180   117338540.83608  21958309.880    91263326.61907
  19570273.840   104540899.21309  19570275.340    81309598.49108
  22655559.560   121234783.17908  22655559.200    94293819.45107
  20101967.920   107305970.36509  20101970.320    83460299.94008
  21705316.380   116108888.66408  21705316.320    90306944.54708
 15 02 25 00 25 30.0000000  0 15G16G18G19G21G22G27G31R02R03R09R15R16
                                R17R18R19
  21220783.160   111515981.80609  21220779.200    86895559.86448
  22551095.100   118506905.52109  22551091.800    92343078.03846
  24370985.540   128070398.87708  24370982.140    99795103.45746
  21736276.380   114225169.92509  21736272.460    89006734.98948
  23456629.660   123265539.97908  23456625.440    96051113.52946
  22235141.060   116846497.60009  22235140.420    91049232.39848
  23181886.260   121821637.59409  23181883.960    94925945.13347
  22871903.860   122048870.48008  22871906.580    94926913.89807
  22941549.600   122807915.11507  22941549.160    95517280.06206
  21796777.160   116393574.59008  21796778.040    90528342.01605
  21981871.300   117464465.53508  21981875.080    91361267.95007
  19573798.040   104559724.72609  19573799.500    81324240.55108
  22670969.720   121317245.74308  22670969.360    94357956.96907
  20107763.180   107336905.87209  20107765.620    83484360.89408
  21695156.340   116054538.80108  21695156.180    90264672.45008
 15 02 25 00 26  0.0000000  0 15G16G18G19G21G22G27G31R02R03R09R15R16
                                R17R18R19
  21209598.140   111457204.52609  21209594.260    86849759.38648
  22541966.900   118458936.49509  22541963.680    92305699.59147
  24356381.020   127993651.39308  24356377.560    99735300.27046
  21746272.040   114277697.58809  21746268.100    89047665.62648
  23439818.760   123177198.45508  23439814.600    95982276.10947
  22224815.460   116792235.88609  22224814.700    91006950.54448
  23200123.360   121917474.04609  23200121.120    95000622.77447
  22869281.020   122034875.49308  22869283.820    94916028.91307
  22924302.700   122715591.80207  22924302.320    95445473.07506
  21779782.840   116302825.63708  21779783.720    90457759.48705
  22005487.480   117590662.70108  22005491.340    91459421.19107
  19577478.580   104579385.12309  19577479.940    81339531.95808
  22686371.540   121399664.17208  22686371.360    94422060.16906
  20113597.840   107368051.67009  20113600.260    83508585.39908
  21685044.440   116000446.45708  21685044.220    90222600.64408
 15 02 25 00 26 30.0000000  0 15G16G18G19G21G22G27G31R02R03R09R15R16
                                R17R18R19
  21198471.440   111398733.87409  21198467.700    86804197.84148
  22532904.800   118411314.66809  22532901.660    92268591.68847
  24341795.900   127917005.91508  24341792.380    99675576.57947
  21756321.700   114330509.25709  21756317.800    89088817.57648
  23423022.300   123088933.11608  23423018.240    95913498.06247
  22214514.480   116738103.54709  22214513.580    90964769.50548
  23218384.880   122013438.79709  23218382.740    95075400.37947
  22866787.980   122021572.85308  22866790.760    94905682.44207
  22907108.260   122623549.12207  22907107.900    95373884.36506
  21762891.200   116212625.44908  21762892.160    90387603.78505
  22029154.800   117717132.94808  22029158.740    91557786.82707
  19581316.100   104599884.34609  19581317.420    81355475.78608
  22701765.800   121482042.62808  22701765.900    94486132.28806
  20119472.440   107399410.70509  20119474.820    83532975.75208
  21674981.440   115946615.70809  21674981.180    90180732.30708
 15 02 25 00 27  0.0000000  0 15G16G18G19G21G22G27G31R02R03R09R15R16
                                R17R18R19
  21187403.020   111340569.38909  21187399.400    86758874.86648
  22523908.680   118364039.40409  22523905.560    92231753.83346
  24327229.500   127840459.09508  24327225.980    99615929.76746
  21766424.540   114383600.56809  21766420.680    89130187.41848
  23406240.380   123000744.21408  23406236.460    95844779.56247
  22204237.540   116684097.80209  22204236.580    90922687.11548
  23236669.720   122109526.13009  23236667.680    95150273.50147
  22864424.560   122008961.48108  22864427.200    94895873.62907
  22889966.560   122531788.97907  22889966.280    95302515.41906
  21746102.520   116122974.92808  21746103.580    90317875.61005
  22052871.840   117843869.02608  22052875.880    91656359.21707
  19585309.980   104621218.96309  19585311.320    81372069.35608
  22717151.780   121564377.55108  22717152.340    94550170.54806
  20125386.220   107430978.60309  20125388.520    83557528.55708
  21664966.620   115893043.00008  21664966.340    90139064.67408
 15 02 25 00 27 30.0000000  0 15G16G18G19G21G22G27G31R02R03R09R15R16
                                R17R18R19
  21176394.240   111282718.45309  21176390.760    86713796.22748
  22514979.880   118317118.15209  22514976.860    92195191.84647
  24312682.800   127764016.23908  24312679.340    99556363.96846
  21776581.160   114436974.52109  21776577.360    89171777.50548
  23389474.420   122912639.42008  23389470.620    95776126.62147
  22193985.620   116630223.81709  22193984.740    90880707.39748
  23254978.300   122205738.25509  23254976.340    95225243.86647
  22862192.060   121997048.11908  22862194.460    94886607.70507
  22872879.300   122440320.79407  22872879.260    95231373.55807
  21729418.540   116033883.37608  21729419.680    90248582.19305
  22076638.860   117970872.27508  22076642.940    91755139.41207
  19589461.040   104643393.45309  19589462.480    81389316.18108
  22732530.480   121646673.22908  22732531.360    94614178.30206
  20131339.760   107462758.83609  20131342.060    83582246.51608
  21655000.840   115839733.33209  21655000.700    90097601.63208
 15 02 25 00 28  0.0000000  0 15G16G18G19G21G22G27G31R02R03R09R15R16
                                R17R18R19
  21165443.900   111225174.51409  21165440.540    86668956.79248
  22506117.300   118270544.51209  22506114.300    92158900.70947
  24298154.280   127687669.18908  24298151.020    99496872.81646
  21786789.740   114490621.13109  21786786.020    89213580.05348
  23372723.380   122824612.64108  23372719.620    95707534.44847
  22183757.140   116576473.08409  22183756.340    90838823.71248
  23273308.500   122302063.90109  23273306.600    95300302.67647
  22860089.080   121985825.54208  22860091.220    94877879.04907
  22855845.940   122349140.96607  22855846.080    95160455.95707
  21712838.380   115945345.90208  21712839.360    90179719.70105
  22100453.360   118098129.60408  22100457.540    91854117.21407
  19593767.460   104666398.13109  19593768.980    81407208.69808
  22747900.200   121728920.73008  22747901.320    94678148.56606
  20137331.200   107494741.29809  20137333.500    83607121.76008
  21645082.440   115786676.97109  21645082.400    90056335.58408
 15 02 25 00 28 30.0000000  0 15G16G18G19G21G22G27G31R02R03R09R15R16
                                R17R18R19
  21154553.360   111167944.78209  21154550.120    86624362.19548
  22497322.300   118224325.73609  22497319.240    92122886.09547
  24283644.980   127611422.62608  24283641.740    99437459.94946
  21797050.800   114544543.45709  21797047.120    89255597.44348
  23355988.960   122736672.97809  23355985.160    95639010.15447
  22173552.940   116522850.47309  22173552.280    90797039.87248
  23291660.720   122398504.89809  23291658.880    95375451.37647
  22858116.740   121975300.07508  22858118.640    94869692.60707
  22838868.140   122258258.71807  22838868.460    95089769.82907
  21696363.680   115857371.18608  21696364.400    90111294.92605
  22124315.540   118225642.11308  22124319.860    91953293.47507
  19598230.080   104690237.16109  19598231.700    81425750.15808
  22763261.840   121811124.14608  22763262.960    94742084.54706
  20143361.140   107526929.10909  20143363.360    83632156.71808
  21635212.280   115733878.38509  21635212.200    90015270.04808
 15 02 25 00 29  0.0000000  0 15G16G18G19G21G22G27G31R02R03R09R15R16
                                R17R18R19
  21143722.580   111111029.01409  21143719.400    86580012.24248
  22488594.680   118178461.21909  22488591.560    92087147.52447
  24269154.420   127535274.21608  24269151.180    99378123.56946
  21807363.540   114598737.14809  21807359.880    89297826.29248
  23339271.080   122648820.14609  23339267.200    95570553.52747
  22163372.600   116469353.55509  22163372.120    90755353.97448
  23310033.940   122495056.29009  23310032.180    95450686.08447
  22856274.800   121965470.90908  22856276.620    94862047.72907
  22821946.380   122167676.26907  22821946.880    95019316.86107
  21679994.660   115769960.83308  21679995.140    90043309.10405
  22148224.460   118353404.22808  22148228.860    92052663.86607
  19602848.300   104714907.18109  19602849.960    81444937.93708
  22778614.700   121893280.40608  22778615.760    94805983.85206
  20149428.820   107559318.31609  20149430.960    83657348.32808
  21625389.760   115681334.59109  21625389.640    89974402.69008
 15 02 25 00 29 30.0000000  0 15G16G18G19G21G22G27G31R02R03R09R15R16
                                R17R18R19
  21132952.580   111054432.66809  21132949.500    86535911.19648
  22479935.520   118132956.48509  22479932.280    92051689.30647
  24254683.260   127459227.53108  24254679.960    99318866.47347
  21817728.240   114653203.80409  21817724.600    89340267.83748
  23322570.860   122561060.05508  23322566.920    95502169.15447
  22153216.840   116415985.65109  22153216.500    90713768.61348
  23328428.260   122591718.50509  23328426.520    95526007.14347
  22854564.120   121956342.55008  22854565.980    94854947.90507
  22805082.140   122077401.18807  22805082.680    94949102.97007
  21663732.640   115683121.88908  21663732.860    89975767.72405
  22172179.780   118481414.12908  22172184.220    92152226.98407
  19607622.500   104740410.27409  19607624.180    81464773.67808
  22793959.420   121975392.21708  22793960.180    94869848.56706
  20155534.520   107591910.77309  20155536.620    83682698.02508
  21615615.400   115629048.21609  21615615.200    89933735.54708
 15 02 25 00 30  0.0000000  0 15G16G18G19G21G22G27G31R02R03R09R15R16
                                R17R18R19
  21122243.820   110998157.82809  21122240.780    86492060.66548
  22471345.240   118087813.82509  22471341.920    92016513.21847
  24240231.340   127383282.07208  24240228.000    99259688.23246
  21828144.300   114707940.63709  21828140.680    89382919.90748
  23305888.800   122473395.34108  23305884.800    95433859.09147
  22143085.680   116362746.63209  22143085.420    90672283.67548
  23346843.120   122688488.55409  23346841.420    95601412.22047
  22852985.000   121947916.23108  22852986.960    94848394.10607
  22788276.040   121987438.02607  22788276.760    94879131.68207
  21647578.260   115596858.10708  21647578.260    89908673.67805
  22196180.840   118609668.21408  22196185.300    92251980.01207
  19612552.400   104766745.44208  19612554.200    81485256.56708
  22809295.780   122057459.04008  22809296.280    94933678.29306
  20161677.880   107624704.50809  20161679.980    83708204.26908
  21605889.020   115577018.59409  21605888.820    89893268.10308
 15 02 25 00 30 30.0000000  0 15G16G18G19G21G22G27G31R02R03R09R15R16
                                R17R18R19
  21111596.320   110942204.62309  21111593.320    86448460.76648
  22462823.800   118043033.12709  22462820.400    91981619.18047
  24225798.220   127307435.79508  24225794.920    99200587.27846
  21838611.320   114762945.25409  21838607.740    89425780.63948
  23289224.940   122385826.78608  23289220.960    95365623.95947
  22132978.840   116309634.43009  22132978.500    90630897.55048
  23365277.580   122785361.50208  23365275.860    95676897.46847
  22851537.260   121940191.16508  22851539.460    94842385.73407
  22771528.640   121897789.39807  22771529.580    94809405.02707
  21631531.820   115511170.91408  21631531.680    89842028.08705
  22220226.420   118738159.85908  22220230.820    92351917.80707
  19617637.460   104793909.30409  19617639.400    81506383.99508
  22824623.220   122139478.14408  22824623.480    94997470.89807
  20167858.240   107657696.03109  20167860.380    83733864.33008
  21596210.000   115525242.56409  21596209.880    89852997.88208
 15 02 25 00 31  0.0000000  0 15G16G18G19G21G22G27G31R02R03R09R15R16
                                R17R18R19
  21101011.040   110886578.16709  21101008.000    86405115.47748
  22454372.140   117998619.49809  22454368.740    91947011.17647
  24211384.600   127231692.06608  24211381.280    99141566.23546
  21849129.480   114818218.65709  21849125.860    89468850.82048
  23272580.460   122298360.44308  23272576.560    95297468.48147
  22122896.820   116256652.09009  22122896.300    90589612.61648
  23383731.640   122882337.55008  23383729.920    95752463.05747
  22850221.780   121933171.83208  22850224.240    94836926.26907
  22754841.460   121808462.54807  22754842.460    94739928.62807
  21615594.660   115426067.47008  21615594.460    89775836.52005
  22244316.240   118866887.75708  22244320.540    92452039.36007
  19622878.100   104821903.90509  19622880.100    81528157.55708
  22839942.200   122221451.81608  22839942.180    95061228.17207
  20174075.960   107690886.77809  20174078.020    83759679.36208
  21586578.860   115473722.94609  21586578.820    89812927.10008
 15 02 25 00 31 30.0000000  0 15G16G18G19G21G22G27G31R02R03R09R15R16
                                R17R18R19
  21090487.340   110831275.36409  21090484.280    86362022.39148
  22445989.640   117954569.53709  22445986.300    91912686.54147
  24196989.440   127156045.45708  24196986.120    99082620.84446
  21859697.280   114873752.95009  21859693.620    89512124.29048
  23255954.900   122210993.51308  23255951.140    95229390.45247
  22112838.480   116203794.11909  22112837.740    90548424.58448
  23402203.680   122979408.35008  23402202.060    95828102.46347
  22849037.680   121926853.64808  22849040.340    94832012.13007
  22738214.300   121719456.76507  22738215.380    94670701.95207
  21599766.360   115341545.73908  21599766.220    89710097.41405
  22268448.700   118995842.78408  22268452.820    92552337.56207
  19628273.120   104850722.56509  19628275.040    81550572.05708
  22855251.460   122303373.96907  22855251.240    95124945.36307
  20180329.660   107724269.65609  20180331.700    83785643.82108
  21576994.460   115422453.11208  21576994.420    89773050.58308
 15 02 25 00 32  0.0000000  0 15G16G18G19G21G22G27G31R02R03R09R15R16
                                R17R18R19
  21080026.720   110776303.93309  21080023.600    86319187.51848
  22437677.900   117910891.40809  22437674.620    91878651.65647
  24182613.880   127080501.55808  24182610.460    99023755.50346
  21870315.520   114929552.21209  21870311.860    89555604.23348
  23239349.940   122123734.62408  23239346.200    95161396.61047
  22102804.820   116151066.28909  22102803.980    90507337.97648
  23420694.320   123076576.81208  23420692.760    95903817.96747
  22847986.300   121921243.75508  22847989.180    94827648.89207
  22721649.140   121630782.19607  22721650.240    94601732.88807
  21584048.760   115257615.31508  21584048.640    89644818.20605
  22292624.020   119125026.68908  22292627.960    92652813.78107
  19633823.260   104880369.69009  19633825.020    81573630.92608
  22870552.060   122385250.07308  22870551.840    95188626.74507
  20186620.160   107757848.77309  20186622.140    83811760.90908
  21567457.780   115371438.44909  21567457.700    89733372.55108
 15 02 25 00 32 30.0000000  0 15G16G18G19G21G22G27G31R02R03R09R15R16
                                R17R18R19
  21069628.340   110721659.70709  21069625.140    86276607.60248
  22429436.000   117867580.39409  22429432.800    91844902.82647
  24168256.720   127005054.39608  24168253.300    98964965.54446
  21880982.660   114985608.22209  21880978.940    89599284.23448
  23222764.960   122036580.27909  23222761.200    95093484.23047
  22092794.640   116098462.22509  22092793.740    90466347.79648
  23439201.820   123173833.75008  23439200.260    95979602.40447
  22847066.680   121916336.78508  22847069.620    94823832.37207
  22705145.480   121542437.02407  22705146.620    94533020.01207
  21568441.420   115174273.51608  21568441.380    89579996.81505
  22316840.160   119254429.00908  22316844.060    92753459.86407
  19639526.960   104910837.36709  19639528.580    81597327.99808
