     2.11           OBSERVATION DATA    M                   RINEX VERSION / TYPE
SPIDER V4,0,0,3554                      2015 03 24 03:54    PGM / RUN BY / DATE 
OJGS                                                        MARKER NAME         
OJGS                                                        MARKER NUMBER       
                                                            OBSERVER / AGENCY   
496552              LEICA GRX1200+GNSS  8.20/4.007          REC # / TYPE / VERS 
10401003            LEIAR25         NONE                    ANT # / TYPE        
  5198100.9450    88691.2920  3684205.7148                  APPROX POSITION XYZ 
        0.1200        0.0000        0.0000                  ANTENNA: DELTA H/E/N
     1     1                                                WAVELENGTH FACT L1/2
     4    C1    L1    P2    L2                              # / TYPES OF OBSERV 
    30.000                                                  INTERVAL            
  2015    02    25    00    00    0.0000000     GPS         TIME OF FIRST OBS   
  2015    02    25    23    59   30.0000000     GPS         TIME OF LAST OBS    
    16                                                      LEAP SECONDS        
    54                                                      # OF SATELLITES     
   G 1   833   833   833   833                              PRN / # OF OBS      
   G 2   925   925   925   925                              PRN / # OF OBS      
   G 3   839   839   838   838                              PRN / # OF OBS      
   G 4   845   845   845   845                              PRN / # OF OBS      
   G 5   674   674   674   674                              PRN / # OF OBS      
   G 6   731   731   731   731                              PRN / # OF OBS      
   G 7   726   724   724   724                              PRN / # OF OBS      
   G 9   783   783   783   783                              PRN / # OF OBS      
   G10   784   783   783   783                              PRN / # OF OBS      
   G11   798   798   798   798                              PRN / # OF OBS      
   G12   811   811   810   810                              PRN / # OF OBS      
   G13   821   821   821   821                              PRN / # OF OBS      
   G14   933   933   933   933                              PRN / # OF OBS      
   G15   733   733   733   733                              PRN / # OF OBS      
   G16   694   694   694   694                              PRN / # OF OBS      
   G17   930   929   928   928                              PRN / # OF OBS      
   G18   939   939   939   939                              PRN / # OF OBS      
   G19   782   782   782   782                              PRN / # OF OBS      
   G20   806   806   806   806                              PRN / # OF OBS      
   G21   712   712   712   712                              PRN / # OF OBS      
   G22   804   804   804   804                              PRN / # OF OBS      
   G23   726   726   726   726                              PRN / # OF OBS      
   G24   842   842   842   842                              PRN / # OF OBS      
   G25   855   854   854   854                              PRN / # OF OBS      
   G27   832   831   831   831                              PRN / # OF OBS      
   G28   913   912   912   912                              PRN / # OF OBS      
   G29   752   752   751   751                              PRN / # OF OBS      
   G30   692   692   691   691                              PRN / # OF OBS      
   G31   794   794   794   794                              PRN / # OF OBS      
   G32   740   740   740   740                              PRN / # OF OBS      
   R 1   694   694   694   694                              PRN / # OF OBS      
   R 2   758   758   758   758                              PRN / # OF OBS      
   R 3   956   956   956   956                              PRN / # OF OBS      
   R 4   927   927   927   927                              PRN / # OF OBS      
   R 5   872   872   872   872                              PRN / # OF OBS      
   R 6   663   663   663   663                              PRN / # OF OBS      
   R 7   761   761   760   760                              PRN / # OF OBS      
   R 8   780   780   780   779                              PRN / # OF OBS      
   R 9  1012  1012  1011  1010                              PRN / # OF OBS      
   R10   854   854   854   853                              PRN / # OF OBS      
   R11   646   646   646   636                              PRN / # OF OBS      
   R12   656   656   656   655                              PRN / # OF OBS      
   R13   760   760   759   759                              PRN / # OF OBS      
   R14   777   777   777   776                              PRN / # OF OBS      
   R15   782   782   782   782                              PRN / # OF OBS      
   R16   973   973   973   972                              PRN / # OF OBS      
   R17   740   740   740   740                              PRN / # OF OBS      
   R18   927   927   927   927                              PRN / # OF OBS      
   R19   992   992   992   992                              PRN / # OF OBS      
   R20   781   781   781   781                              PRN / # OF OBS      
   R21   412   412   412   410                              PRN / # OF OBS      
   R22   759   759   759   759                              PRN / # OF OBS      
   R23   826   826   826   825                              PRN / # OF OBS      
   R24   804   804   803   802                              PRN / # OF OBS      
BIT 2 OF LLI FLAGS DATA COLLECTED UNDER A/S CONDITION       COMMENT             
SNR is mapped to RINEX snr flag value [2-9]                 COMMENT             
Lx:     = 25dBHz -> 1; 26-27dBHz -> 2; 28-31dBHz -> 3       COMMENT             
       32-35dBHz -> 4; 36-38dBHz -> 5; 39-41dBHz -> 6       COMMENT             
       42-44dBHz -> 7; 45-48dBHz -> 8; >=49dBHz -> 9        COMMENT             
                                                            END OF HEADER       
 15 02 25 00 00  0.0000000  0  7G16G18G21G22G27G29G31
  21854043.740   114843785.76609  21854040.180    89488665.15547
  23073896.980   121254213.08109  23073894.580    94483822.67046
  21238688.120   111610063.35509  21238684.220    86968867.79748
  24402971.500   128238509.00108  24402972.480    99926121.27245
  22890504.980   120290433.94808  22890504.460    93732819.53747
  23915407.220   125676299.70508  23915405.140    97929569.76845
  22427966.180   117859748.62309  22427963.200    91838749.03347
 15 02 25 00 00 30.0000000  0  7G16G18G21G22G27G29G31
  21840280.360   114771459.01809  21840277.000    89432306.66047
  23061524.220   121189193.84408  23061521.820    94433158.35246
  21244902.300   111642719.15409  21244898.340    86994313.87448
  24385756.660   128148047.43308  24385757.440    99855632.42645
  22878334.800   120226479.73008  22878334.180    93682985.12247
  23929902.880   125752474.48108  23929900.260    97988926.75546
  22444489.460   117946578.73509  22444486.520    91906408.82647
 15 02 25 00 01  0.0000000  0  7G16G18G21G22G27G29G31
  21826558.360   114699349.49009  21826554.900    89376117.41547
  23049194.520   121124400.98309  23049192.160    94382670.44146
  21251188.680   111675754.45909  21251184.760    87020055.67048
  24368530.480   128057525.80608  24368531.060    99785096.75245
  22866189.720   120162657.26908  22866188.980    93633253.36147
  23944399.600   125828656.54608  23944397.440    98048289.31146
  22461062.880   118033672.48509  22461059.980    91974274.05747
 15 02 25 00 01 30.0000000  0  7G16G18G21G22G27G29G31
  21812876.680   114627451.93109  21812873.340    89320093.34547
  23036906.920   121059829.55008  23036904.580    94332355.07446
  21257545.440   111709159.88609  21257541.660    87046085.87248
  24351292.040   127966939.17308  24351292.320    99714510.39145
  22854068.260   120098958.90108  22854067.420    93583618.29447
  23958896.440   125904838.21008  23958894.740    98107651.56646
  22477684.480   118121019.55309  22477681.600    92042336.67147
 15 02 25 00 02  0.0000000  0  7G16G18G21G22G27G29G31
  21799236.740   114555773.57309  21799233.460    89264240.09247
  23024663.100   120995487.75308  23024660.740    94282218.64546
  21263973.380   111742939.31208  21263969.660    87072407.51248
  24334042.680   127876295.11608  24334042.680    99643879.27246
  22841971.340   120035389.73508  22841970.740    93534083.92047
  23973394.400   125981024.47908  23973392.680    98167017.45546
  22494354.640   118208621.88309  22494351.760    92110598.21047
 15 02 25 00 02 30.0000000  0  7G16G18G21G22G27G29G31
  21785638.760   114484316.22909  21785635.540    89208559.06347
  23012463.420   120931377.83608  23012461.000    94232262.88446
  21270472.160   111777090.97608  21270468.500    87099019.19648
  24316782.880   127785596.28908  24316782.720    99573205.45146
  22829898.920   119971949.59908  22829898.500    93484650.07847
  23987892.940   126057214.98908  23987890.940    98226386.63546
  22511072.840   118296476.62209  22511069.960    92179056.41547
 15 02 25 00 03  0.0000000  0  7G16G18G21G22G27G29G31
  21772082.860   114413079.52809  21772079.580    89153049.94747
  23000307.860   120867500.07608  23000305.440    94182488.03546
  21277041.060   111811611.08308  21277037.420    87125917.99148
  24299512.660   127694842.60608  24299512.240    99502488.85145
  22817850.620   119908636.08308  22817850.220    93435314.90447
  24002391.780   126133407.17808  24002389.720    98285757.15546
  22527838.140   118384578.75209  22527835.260    92247707.39847
 15 02 25 00 03 30.0000000  0  7G16G18G21G22G27G29G31
  21758569.460   114342065.79009  21758566.080    89097714.55547
  22988196.880   120803856.71208  22988194.440    94132895.83046
  21283679.740   111846497.86008  21283676.140    87153102.48148
  24282232.540   127604036.73108  24282231.760    99431731.57045
  22805826.500   119845449.18508  22805826.180    93386078.37047
  24016891.060   126209600.68608  24016889.140    98345128.70646
  22544649.940   118472925.35009  22544647.100    92316548.86747
 15 02 25 00 04  0.0000000  0  7G16G18G21G22G27G29G31
  21745099.180   114271278.53909  21745095.780    89042555.66647
  22976131.340   120740452.08209  22976128.920    94083489.65146
  21290388.300   111881751.57608  21290384.740    87180572.91948
  24264943.280   127513183.13008  24264942.280    99360937.07445
  22793826.860   119782390.58808  22793826.520    93336941.84147
  24031390.940   126285797.19808  24031389.160    98404502.54946
  22561508.060   118561515.36309  22561505.300    92385580.01647
 15 02 25 00 04 30.0000000  0  7G16G18G21G22G27G29G31
  21731672.360   114200719.87609  21731668.980    88987574.89447
  22964111.860   120677289.07808  22964109.440    94034271.75146
  21297166.480   111917370.94508  21297162.960    87208328.26148
  24247645.400   127422283.90208  24247644.360    99290106.97646
  22781851.580   119719459.96408  22781851.180    93287905.02547
  24045891.200   126361996.93808  24045889.680    98463878.86246
  22578411.960   118650345.89709  22578409.220    92454798.58147
 15 02 25 00 05  0.0000000  0  7G16G18G21G22G27G29G31
  21718289.420   114130391.74209  21718285.960    88932773.75448
  22952138.740   120614369.65809  22952136.320    93985243.66046
  21304013.780   111953353.57008  21304010.280    87236366.67748
  24230339.320   127331341.28808  24230337.920    99219243.08945
  22769900.580   119656657.14608  22769900.240    93238967.78248
  24060391.960   126438199.24808  24060390.440    98523257.21046
  22595361.020   118739413.63009  22595358.260    92524201.97847
 15 02 25 00 05 30.0000000  0  7G16G18G21G22G27G29G31
  21704950.320   114060293.95209  21704946.780    88878152.09948
  22940212.000   120551694.31608  22940209.600    93936405.75647
  21310929.480   111989695.64608  21310925.960    87264685.17548
  24213025.080   127240356.00008  24213023.360    99148345.91346
  22757973.400   119593979.77808  22757973.200    93190128.29748
  24074892.880   126514401.50108  24074891.280    98582635.54546
  22612354.220   118828713.39309  22612351.420    92593786.17947
 15 02 25 00 06  0.0000000  0  7G16G18G21G22G27G29G31
  21691655.880   113990431.03209  21691652.280    88823713.46948
  22928332.700   120489268.20209  22928330.340    93887762.05546
  21317913.820   112026398.41408  21317910.260    87293284.73048
  24195703.700   127149333.10808  24195701.820    99077419.42246
  22746070.660   119531430.54408  22746070.440    93141388.67547
  24089394.260   126590606.35708  24089392.740    98642015.94147
  22629391.540   118918245.23509  22629388.700    92663551.21547
 15 02 25 00 06 30.0000000  0  7G16G18G21G22G27G29G31
  21678406.740   113920806.25309  21678403.180    88769460.40948
  22916501.480   120427094.59009  22916499.060    93839315.10946
  21324966.620   112063460.88108  21324963.020    87322164.57348
  24178375.740   127058276.07608  24178373.860    99006466.31646
  22734192.480   119469010.08908  22734192.140    93092749.37647
  24103896.160   126666814.58208  24103894.720    98701398.86946
  22646472.640   119008006.96409  22646469.820    92733495.39347
 15 02 25 00 07  0.0000000  0  7G16G18G21G22G27G29G31
  21665202.360   113851416.56809  21665198.720    88715390.53548
  22904718.000   120365171.77509  22904715.560    93791063.59246
  21332086.820   112100877.49508  21332083.160    87351320.37848
  24161040.900   126967182.86408  24161039.000    98935485.02246
  22722337.940   119406713.80608  22722337.580    93044206.85347
  24118397.760   126743021.52708  24118396.360    98760780.86746
  22663596.080   119097991.19309  22663593.300    92803612.94347
 15 02 25 00 07 30.0000000  0  7G16G18G21G22G27G29G31
  21652044.460   113782270.87209  21652040.740    88661510.76747
  22892983.800   120303507.98209  22892981.240    93743013.90246
  21339275.200   112138652.17509  21339271.520    87380755.19148
  24143700.860   126876062.16508  24143698.820    98864482.26946
  22710508.120   119344547.96108  22710507.860    92995765.95147
  24132900.440   126819233.29908  24132898.800    98820166.63545
  22680762.500   119188201.21309  22680759.800    92873906.42047
 15 02 25 00 08  0.0000000  0  7G16G18G21G22G27G29G31
  21638932.180   113713364.98609  21638928.360    88607817.86548
  22881298.240   120242099.82409  22881295.580    93695163.41746
  21346530.280   112176777.49408  21346526.620    87410463.22848
  24126354.940   126784910.48408  24126352.740    98793455.38146
  22698701.860   119282506.41308  22698701.620    92947421.89648
  24147402.920   126895443.67608  24147401.120    98879551.32946
  22697970.240   119278628.26609  22697967.600    92944369.02247
 15 02 25 00 08 30.0000000  0  7G16G18G21G22G27G29G31
  21625866.460   113644704.39009  21625862.660    88554316.12148
  22869662.460   120180953.11409  22869659.760    93647516.65546
  21353852.360   112215255.10308  21353848.740    87440445.78348
  24109004.360   126693734.19808  24109002.100    98722409.31745
  22686919.920   119220592.56008  22686919.720    92899177.37048
  24161905.620   126971655.86108  24161904.080    98938937.35146
  22715219.360   119369272.78709  22715216.700    93015001.08447
 15 02 25 00 09  0.0000000  0  7G16G18G21G22G27G29G31
  21612847.720   113576290.48109  21612843.940    88501006.57748
  22858076.760   120120069.67909  22858074.060    93600075.03846
  21361241.000   112254082.34509  21361237.340    87470700.78048
  24091649.260   126602534.46508  24091647.220    98651344.96546
  22675162.200   119158805.20408  22675161.920    92851031.38248
  24176408.500   127047868.64908  24176407.180    98998323.88047
  22732509.120   119460130.64309  22732506.420    93085799.38047
 15 02 25 00 09 30.0000000  0  7G16G18G21G22G27G29G31
  21599875.820   113508122.45309  21599871.960    88447888.63148
  22846541.020   120059449.16909  22846538.300    93552838.29946
  21368695.400   112293255.16108  21368691.700    87501225.04648
  24074289.720   126511311.22008  24074287.420    98580262.26446
  22663428.140   119097141.73508  22663427.760    92802981.94448
  24190911.100   127124079.41508  24190909.800    99057708.83346
  22749838.460   119551196.59809  22749835.680    93156759.82647
 15 02 25 00 10  0.0000000  0  7G16G18G21G22G27G29G31
  21586952.460   113440209.51209  21586948.540    88394969.46248
  22835057.220   119999101.72609  22835054.500    93505814.34246
  21376216.520   112332778.78209  21376212.780    87532022.67348
  24056927.620   126420074.52908  24056925.320    98509169.09146
  22651719.060   119035609.18408  22651718.640    92755034.52348
  24205414.580   127200295.44608  24205413.180    99117097.91846
  22767208.180   119642474.82409  22767205.340    93227885.68047
 15 02 25 00 10 30.0000000  0  7G16G18G21G22G27G29G31
  21574077.100   113372548.93309  21574073.200    88342246.93748
  22823624.940   119939024.66809  22823622.240    93459001.06546
  21383803.120   112372646.71309  21383799.360    87563088.59148
  24039562.460   126328822.02008  24039560.200    98438063.55646
  22640033.920   118974202.72108  22640033.360    92707185.34547
  24219917.820   127276511.19408  24219916.500    99176486.73646
  22784616.840   119733957.70309  22784614.000    93299170.99947
 15 02 25 00 11  0.0000000  0  7G16G18G21G22G27G29G31
  21561249.560   113305140.33909  21561245.780    88289720.77848
  22812244.020   119879217.59809  22812241.340    93412398.17846
  21391454.420   112412854.78909  21391450.680    87594419.55848
  24022194.320   126237553.78608  24022192.120    98366945.78546
  22628372.300   118912919.69508  22628371.540    92659432.34848
  24234420.700   127352724.48708  24234419.480    99235873.63447
  22802063.380   119825639.60309  22802060.540    93370611.40847
 15 02 25 00 11 30.0000000  0  7G16G18G21G22G27G29G31
  21548470.880   113237988.35009  21548467.260    88237394.56248
  22800915.440   119819685.62409  22800912.780    93366009.65546
  21399170.580   112453403.83808  21399166.900    87626016.22448
  24004824.240   126146274.94708  24004821.960    98295819.73446
  22616734.580   118851762.63608  22616733.780    92611777.51348
  24248923.860   127428937.81708  24248922.560    99295260.60746
  22819547.720   119917520.25709  22819544.900    93442206.68347
 15 02 25 00 12  0.0000000  0  7G16G18G21G22G27G29G31
  21535742.040   113171097.79009  21535738.320    88185272.02948
  22789640.220   119760434.27709  22789637.560    93319839.78247
  21406951.880   112494295.10308  21406948.240    87657879.54548
  23987453.060   126054990.34308  23987450.700    98224689.18346
  22605121.200   118790734.13008  22605120.440    92564222.84548
  24263427.520   127505153.79008  24263425.860    99354649.64545
  22837069.840   120009599.44509  22837067.020    93513956.64947
 15 02 25 00 12 30.0000000  0  7G16G18G21G22G27G29G31
  21523063.460   113104471.36509  21523059.800    88133355.34248
  22778418.960   119701466.42809  22778416.380    93273890.82846
  21414797.980   112535526.95508  21414794.360    87690008.26148
  23970081.600   125963704.07608  23970079.160    98153557.30846
  22593532.340   118729834.72708  22593531.560    92516768.78048
  24277931.420   127581372.71507  24277929.400    99414040.97345
  22854629.200   120101874.45809  22854626.400    93585859.21747
 15 02 25 00 13  0.0000000  0  7G16G18G21G22G27G29G31
  21510434.520   113038105.84809  21510430.800    88081641.95548
  22767251.160   119642779.09109  22767248.480    93228160.44947
  21422707.660   112577092.70109  21422704.040    87722397.14548
  23952709.220   125872413.02008  23952706.720    98082421.69245
  22581967.000   118669058.99108  22581966.200    92469411.06948
  24292434.860   127657589.22108  24292432.840    99473430.41445
  22872224.380   120194337.53709  22872221.560    93657908.32147
 15 02 25 00 13 30.0000000  0  7G16G18G21G22G27G29G31
  21497856.080   112972006.01209  21497852.420    88030135.59548
  22756137.640   119584377.11509  22756134.840    93182652.43746
  21430681.000   112618992.94008  21430677.380    87755046.67348
  23935336.860   125781122.11008  23935334.440    98011286.19846
  22570425.800   118608409.46808  22570424.960    92422151.71948
  24306938.360   127733805.27108  24306936.540    99532819.49446
  22889855.300   120286988.25009  22889852.360    93730103.63947
 15 02 25 00 14  0.0000000  0  7G16G18G21G22G27G29G31
  21485328.360   112906172.71509  21485324.760    87978836.92648
  22745078.660   119526261.86409  22745075.760    93137367.85046
  21438717.480   112661224.96708  21438713.740    87787954.73748
  23917964.900   125689832.94508  23917962.540    97940152.02446
  22558908.400   118547884.96508  22558907.520    92374989.77948
  24321441.780   127810020.55108  24321440.160    99592207.95246
  22907521.080   120379822.20909  22907518.060    93802441.74647
 15 02 25 00 14 30.0000000  0  7G16G18G21G22G27G29G31
  21472852.700   112840612.95509  21472849.180    87927751.40748
  22734075.640   119468440.84309  22734072.800    93092312.51946
  21446817.760   112703792.06309  21446813.920    87821123.89948
  23900594.740   125598553.43608  23900592.500    97869025.38746
  22547415.680   118487490.41408  22547414.820    92327929.10448
  24335945.760   127886239.33808  24335944.460    99651599.13146
  22925222.120   120472841.60309  22925219.080    93874924.33747
 15 02 25 00 15  0.0000000  0  7G16G18G21G22G27G29G31
  21460428.200   112775321.90909  21460424.740    87876875.26548
  22723127.680   119410909.06909  22723124.880    93047482.59446
  21454980.020   112746685.10308  21454976.140    87854547.04648
  23883225.580   125507278.74908  23883223.220    97797902.49246
  22535946.300   118427218.56508  22535945.460    92280964.03548
  24350449.120   127962454.66008  24350447.740    99710987.63046
  22942956.540   120566036.46909  22942953.560    93947543.66447
 15 02 25 00 15 30.0000000  0 15G16G18G21G22G27G29G31R02R03R09R15R16
                                R17R18R19
  21448055.880   112710305.07309  21448052.500    87826212.80148
  22712235.940   119353672.68709  22712233.140    93002882.82646
  21463204.700   112789905.99609  21463200.820    87888225.66448
  23865858.520   125416014.91508  23865856.040    97726788.03446
  22524500.940   118367072.85808  22524500.240    92234097.27748
  24364952.540   128038669.92908  24364950.920    99770376.16045
  22960724.480   120659407.54309  22960721.600    94020300.30247
  22787679.900   121599429.41308  22787683.340    94577345.50307
  23235018.840   124378872.12507  23235019.000    96739126.31706
  22131683.120   118181951.22708  22131683.680    91919300.87305
  21625026.380   115557584.60108  21625030.400    89878137.99807
  19589520.020   104643699.75809  19589521.660    81389550.22008
  22197260.540   118782029.65908  22197260.560    92386021.67606
  19953076.720   106510878.42509  19953078.980    82841804.36408
  22029038.200   117840500.19008  22029038.140    91653722.61607
 15 02 25 00 16  0.0000000  0 15G16G18G21G22G27G29G31R02R03R09R15R16
                                R17R18R19
  21435736.300   112645565.76309  21435733.060    87775766.58848
  22701401.100   119296735.23409  22701398.280    92958515.99846
  21471491.740   112833454.37009  21471487.780    87922159.46248
  23848494.300   125324766.03008  23848491.660    97655685.22146
  22513079.720   118307054.37808  22513079.020    92187329.63648
  24379456.020   128114886.26208  24379454.240    99829765.48446
  22978525.560   120752952.69509  22978522.700    94093192.57547
  22782355.260   121571015.56908  22782358.280    94555245.86107
  23216412.520   124279270.02507  23216412.460    96661658.08406
  22113207.820   118083292.57508  22113208.240    91842566.34704
  21647808.420   115679324.01808  21647812.380    89972824.16707
  19590747.440   104650256.32209  19590749.060    81394649.76808
  22212539.040   118863786.32708  22212539.140    92449610.16407
  19957221.540   106533003.85209  19957223.780    82859013.03308
  22017292.700   117777670.40709  22017292.940    91604855.00707
 15 02 25 00 16 30.0000000  0 15G16G18G21G22G27G29G31R02R03R09R15R16
                                R17R18R19
  21423470.280   112581107.93909  21423467.100    87725539.72548
  22690623.940   119240100.90709  22690621.140    92914385.37446
  21479841.040   112877329.86709  21479837.000    87956348.15948
  23831133.780   125233536.71008  23831131.080    97584597.65646
  22501683.040   118247165.06408  22501682.360    92140662.65948
  24393959.960   128191105.40708  24393958.360    99889156.94646
  22996359.600   120846671.00809  22996356.700    94166219.78147
  22777155.960   121543270.26208  22777158.820    94533666.20507
  23197842.400   124179863.22207  23197842.520    96584341.71906
  22094824.480   117985126.53608  22094825.060    91766215.03104
  21670653.580   115801401.11608  21670657.560    90067772.95907
  19592133.760   104657661.79209  19592135.380    81400409.56108
  22227817.440   118945542.03708  22227817.520    92513197.92806
  19961415.200   106555389.70209  19961417.440    82876424.26208
  22005595.960   117715100.31008  22005596.080    91556189.40707
 15 02 25 00 17  0.0000000  0 15G16G18G21G22G27G29G31R02R03R09R15R16
                                R17R18R19
  21411257.300   112516928.91409  21411254.220    87675530.09248
  22679904.000   119183767.13709  22679901.200    92870488.93846
  21488251.340   112921526.06809  21488247.200    87990786.75648
  23813776.540   125142324.50708  23813773.800    97513523.40346
  22490310.020   118187400.00308  22490309.340    92094092.48948
  24408463.580   128267322.47908  24408462.120    99948546.81246
  23014225.220   120940554.83909  23014222.180    94239375.96347
  22772081.360   121516190.53308  22772084.100    94512604.22907
  23179308.680   124080651.16707  23179308.980    96507176.85406
  22076533.260   117887452.35609  22076533.760    91690246.21805
  21693560.200   115923806.68608  21693564.220    90162977.22907
  19593678.080   104665910.91409  19593679.760    81406825.53508
  22243094.260   119027290.74708  22243094.280    92576780.23306
  19965656.340   106578029.35509  19965658.600    82894032.88308
  21993946.700   117652784.37609  21993946.740    91507721.47407
 15 02 25 00 17 30.0000000  0 15G16G18G21G22G27G29G31R02R03R09R15R16
                                R17R18R19
  21399097.600   112453029.37509  21399094.560    87625738.24048
  22669241.420   119127734.67809  22669238.580    92826827.30446
  21496722.080   112966040.09209  21496717.900    88025473.00448
  23796422.840   125051130.67108  23796420.040    97442463.46946
  22478960.340   118127757.56508  22478959.620    92047617.89448
  24422966.640   128343535.81408  24422965.160   100007933.79446
  23032121.420   121034599.55209  23032118.300    94312657.50547
  22767131.660   121489777.48708  22767134.220    94492060.76707
  23160811.860   123981636.64207  23160812.200    96430165.60506
  22058334.420   117790272.10508  22058334.960    91614661.61604
  21716527.120   116046534.91908  21716531.180    90258432.46107
  19595380.060   104675002.15609  19595381.760    81413896.49208
  22258369.220   119109029.65408  22258369.000    92640354.92606
  19969944.440   106600919.61509  19969946.780    82911836.41508
  21982344.580   117590720.65109  21982344.640    91459449.71307
 15 02 25 00 18  0.0000000  0 15G16G18G21G22G27G29G31R02R03R09R15R16
                                R17R18R19
  21386992.300   112389415.50709  21386989.260    87576168.99648
  22658637.340   119072009.82509  22658634.440    92783405.36146
  21505253.660   113010873.83909  21505249.440    88060408.38348
  23779073.820   124959961.57608  23779070.880    97371422.80246
  22467634.780   118068241.59808  22467633.940    92001241.81748
  24437469.780   128419749.23108  24437467.960   100067320.85045
  23050048.420   121128806.26109  23050045.260    94386065.26847
  22762307.800   121464036.80608  22762310.440    94472040.28107
  23142353.560   123882828.21407  23142353.900    96353314.66806
  22040229.560   117693593.75808  22040230.260    91539467.36305
  21739554.300   116169584.88208  21739558.240    90354137.94207
  19597240.280   104684939.10109  19597242.000    81421625.22308
  22273642.880   119190761.80708  22273642.520    92703924.36806
  19974279.880   106624062.55009  19974282.200    82929836.47908
  21970790.180   117528912.33009  21970790.220    91411376.59807
 15 02 25 00 18 30.0000000  0 15G16G18G21G22G27G29G31R02R03R09R15R16
                                R17R18R19
  21374942.520   112326093.53309  21374939.500    87526827.20048
  22648093.060   119016599.09609  22648090.060    92740228.19346
  21513846.660   113056030.06209  21513842.400    88095595.04848
  23761730.840   124868824.31308  23761727.880    97300406.91146
  22456334.180   118008856.45208  22456333.320    91954967.68848
  24451973.560   128495967.24108  24451971.620   100126711.51745
  23068006.460   121223176.16409  23068003.220    94459600.19747
  22757611.220   121438975.07008  22757613.960    94452547.84707
  23123935.440   123784234.71307  23123935.880    96276630.87706
  22022220.400   117597425.86708  22022221.040    91464670.10005
  21762641.900   116292957.82108  21762645.800    90450094.61207
  19599259.540   104695725.88209  19599261.240    81430014.93108
  22288915.880   119272490.50708  22288915.580    92767491.11607
  19978663.180   106647460.90009  19978665.460    82948035.18808
  21959284.340   117467363.74508  21959284.340    91363505.49507
 15 02 25 00 19  0.0000000  0 15G16G18G21G22G27G29G31R02R03R09R15R16
                                R17R18R19
  21362947.040   112263056.84709  21362944.020    87477707.69948
  22637607.480   118961496.90909  22637604.420    92697291.43846
  21522499.040   113101498.42309  21522494.760    88131024.93848
  23744392.840   124777713.27208  23744389.780    97229411.45346
  22445056.900   117949593.70409  22445056.000    91908788.94848
  24466476.640   128572181.33308  24466474.740   100186099.07646
  23085993.420   121317698.19509  23085990.180    94533253.67247
  22753040.640   121414586.02508  22753043.480    94433578.61807
  23105556.600   123685852.06607  23105557.160    96200111.10106
  22004305.960   117501763.57808  22004306.580    91390266.09704
  21785787.680   116416641.41108  21785791.640    90546292.90807
  19601436.300   104707354.00709  19601438.020    81439059.02108
  22304186.380   119354206.61708  22304186.160    92831048.07406
  19983092.380   106671104.53509  19983094.720    82966424.69008
  21947825.320   117406065.72308  21947825.240    91315829.26007
 15 02 25 00 19 30.0000000  0 15G16G18G21G22G27G29G31R02R03R09R15R16
                                R17R18R19
  21351007.220   112200312.73009  21351004.160    87428816.18148
  22627181.880   118906710.21709  22627178.840    92654600.52946
  21531211.440   113147282.02909  21531207.160    88166700.47348
  23727061.240   124686635.71508  23727058.160    97158442.09746
  22433803.840   117890457.97809  22433802.900    91862709.17348
  24480979.900   128648396.29508  24480978.080   100245487.29645
  23104009.600   121412373.80009  23104006.400    94607026.80947
  22748597.300   121390876.12208  22748600.360    94415137.60207
  23087219.000   123587689.63107  23087219.560    96123762.60506
  21986487.860   117406615.75308  21986488.520    91316262.25404
  21808991.600   116540636.01208  21808995.700    90642733.09907
  19603771.360   104719827.64209  19603773.140    81448760.71408
  22319455.160   119435913.82408  22319455.300    92894598.09607
  19987568.180   106694996.51709  19987570.520    82985007.34708
  21936413.960   117345022.44908  21936413.820    91268351.18507
 15 02 25 00 20  0.0000000  0 15G16G18G21G22G27G29G31R02R03R09R15R16
                                R17R18R19
  21339122.800   112137859.88409  21339119.820    87380151.62748
  22616816.040   118852237.59609  22616812.980    92612154.35046
  21539982.660   113193374.96709  21539978.440    88202617.03848
  23709735.940   124595591.14008  23709732.760    97087498.41046
  22422574.360   117831446.07609  22422573.400    91816725.88648
  24495482.560   128724608.12208  24495480.960   100304873.09345
  23122053.920   121507197.21509  23122050.760    94680915.12547
  22744281.160   121367844.31908  22744284.260    94397223.98507
  23068922.840   123489748.88107  23068923.380    96047586.50406
  21968766.220   117311983.12809  21968766.840    91242659.11405
  21832252.200   116664933.49408  21832256.360    90739408.86007
  19606264.020   104733143.01109  19606265.840    81459117.10508
  22334721.640   119517607.97008  22334721.980    92958137.97606
  19992089.520   106719131.74009  19992091.900    83003779.18508
  21925049.560   117284230.41208  21925049.240    91221068.52907
 15 02 25 00 20 30.0000000  0 15G16G18G21G22G27G29G31R02R03R09R15R16
                                R17R18R19
  21327294.880   112075703.86009  21327291.940    87331718.36648
  22606511.140   118798085.11809  22606508.040    92569957.62846
  21548813.200   113239779.72609  21548809.040    88238776.58848
  23692418.020   124504585.53108  23692414.880    97016585.09046
  22411369.080   117772561.28309  22411368.040    91770841.64648
  24509985.420   128800820.91808  24509983.860   100364259.67145
  23140126.440   121602168.73609  23140123.280    94754918.84247
  22740093.100   121345495.88908  22740096.120    94379841.87507
  23050669.440   123392037.25907  23050669.960    95971588.61707
  21951142.360   117217872.86708  21951142.860    91169462.24605
  21855569.420   116789533.38108  21855573.620    90836319.81707
  19608914.840   104747303.21009  19608916.540    81470130.57708
  22349986.080   119599291.14208  22349986.320    93021669.30206
  19996656.760   106743511.99109  19996659.120    83022741.59608
  21913732.600   117223692.33108  21913732.360    91173983.39207
 15 02 25 00 21  0.0000000  0 15G16G18G21G22G27G29G31R02R03R09R15R16
                                R17R18R19
  21315523.980   112013846.78809  21315520.980    87283518.04848
  22596267.540   118744254.78109  22596264.500    92528011.94046
  21557702.680   113286494.15109  21557698.580    88275177.44148
  23675108.060   124413621.51608  23675104.860    96945704.18246
  22400187.900   117713803.39709  22400186.760    91725056.28648
  24524488.320   128877034.55108  24524486.860   100423646.88046
  23158226.540   121697285.13309  23158223.400    94829035.45247
  22736033.420   121323832.68308  22736036.420    94362992.74007
  23032459.700   123294559.40507  23032460.420    95895772.57707
  21933617.040   117124288.74008  21933617.400    91096674.59404
  21878942.600   116914431.82008  21878946.680    90933462.98707
  19611723.660   104762307.39009  19611725.280    81481800.49308
  22365248.420   119680962.58608  22365248.520    93085191.52607
  20001269.580   106768135.61209  20001272.000    83041893.29708
  21902463.020   117163407.45008  21902462.780    91127095.16207
 15 02 25 00 21 30.0000000  0 15G16G18G21G22G27G29G31R02R03R09R15R16
                                R17R18R19
  21303809.840   111952288.38509  21303806.800    87235550.46848
  22586085.200   118690746.42609  22586082.200    92486317.11946
  21566650.280   113333514.09609  21566646.260    88311816.34748
  23657806.120   124322699.66808  23657802.900    96874856.11046
  22389030.460   117655170.20009  22389029.200    91679368.08048
  24538990.880   128953246.49608  24538989.540   100483032.73246
  23176353.220   121792541.30309  23176350.180    94903260.96347
  22732102.020   121302854.22708  22732104.980    94346676.16707
  23014293.900   123197317.26407  23014294.900    95820139.83607
  21916190.660   117031232.46108  21916191.080    91024297.48805
  21902370.380   117039622.24408  21902374.320    91030833.25407
  19614689.920   104778152.74209  19614691.540    81494124.64308
  22380507.920   119762619.08208  22380508.060    93148702.12407
  20005927.160   106792998.43709  20005929.620    83061231.03808
  21891240.180   117103372.98408  21891239.880    91080401.73007
 15 02 25 00 22  0.0000000  0 15G16G18G21G22G27G29G31R02R03R09R15R16
                                R17R18R19
  21292153.660   111891034.40409  21292150.520    87187820.09548
  22575965.280   118637566.18709  22575962.260    92444877.99446
  21575656.340   113380841.22909  21575652.380    88348694.63148
  23640513.280   124231825.85008  23640510.040    96804045.47647
  22377897.300   117596664.95409  22377895.980    91633779.59648
  24553493.840   129029460.01508  24553492.660   100542419.87545
  23194506.580   121887937.69109  23194503.600    94977595.74947
  22728299.940   121282565.70108  22728302.900    94330896.23807
  22996173.680   123100319.13207  22996174.720    95744696.90306
  21898864.360   116938711.17808  21898864.900    90952336.50705
  21925852.580   117165103.78708  21925856.400    91128429.96107
  19617814.220   104794842.01809  19617815.860    81507105.19108
  22395765.060   119844263.12008  22395765.440    93212203.02307
  20010629.940   106818102.33809  20010632.320    83080756.30408
  21880064.700   117043592.07008  21880064.380    91033905.49307
 15 02 25 00 22 30.0000000  0 14G16G18G21G22G27G31R02R03R09R15R16R17
                                R18R19
  21280555.760   111830086.79209  21280552.540    87140328.45148
  22565908.220   118584716.24509  22565905.240    92403696.24046
  21584720.540   113428474.02708  21584716.660    88385811.09648
  23623230.140   124141002.99908  23623226.780    96733274.54346
  22366788.540   117538287.99509  22366787.160    91588291.06648
  23212686.120   121983471.71809  23212683.220    95052037.77547
  22724627.620   121262969.34908  22724630.540    94315654.64107
  22978099.940   123003569.54808  22978100.980    95669447.26806
  21881639.000   116846728.95708  21881639.640    90880794.80005
  21949388.520   117290872.81608  21949392.420    91226250.26007
  19621096.520   104812375.24809  19621098.080    81520742.14008
  22411019.680   119925893.96208  22411020.060    93275693.65107
  20015377.620   106843445.91209  20015379.980    83100467.97308
  21868936.480   116984064.33308  21868936.200    90987606.15407
 15 02 25 00 23  0.0000000  0 14G16G18G21G22G27G31R02R03R09R15R16R17
                                R18R19
  21269015.660   111769443.21209  21269012.400    87093073.71648
  22555913.580   118532194.28309  22555910.640    92362770.05746
  21593841.660   113476406.09608  21593837.860    88423160.76148
  23605956.260   124050228.97208  23605952.920    96662541.66646
  22355703.280   117480034.56309  22355701.900    91542898.78848
  23230890.400   122079135.52709  23230887.560    95126580.92947
  22721084.320   121244062.15408  22721087.180    94300949.05407
  22960072.560   122907068.37207  22960073.740    95594390.85007
  21864514.380   116755284.84208  21864515.100    90809671.61605
  21972976.560   117416920.24608  21972980.640    91324287.08207
  19624535.680   104830746.65009  19624537.180    81535031.00208
  22426270.880   120007506.23508  22426271.260    93339169.86207
  20020169.020   106869022.72809  20020171.320    83120361.05808
  21857854.560   116924784.36208  21857854.360    90941499.52107
 15 02 25 00 23 30.0000000  0 14G16G18G21G22G27G31R02R03R09R15R16R17
                                R18R19
  21257535.600   111709115.17109  21257532.320    87046064.86548
  22545983.520   118480011.77809  22545980.620    92322108.38346
  21603021.100   113524644.49508  21603017.360    88460749.12148
  23588694.100   123959516.05508  23588690.660    96591856.39846
  22344643.300   117421913.90509  22344641.940    91497609.98848
  23249120.600   122174935.52509  23249117.760    95201230.21346
  22717672.260   121225855.15108  22717675.080    94286788.08607
  22942094.280   122810829.40608  22942095.300    95519538.37307
  21847493.120   116664392.33008  21847493.960    90738977.45905
  21996617.880   117543251.91608  21996622.020    91422544.97407
  19628133.320   104849964.64009  19628134.880    81549978.31908
  22441520.100   120089108.28208  22441520.740    93402638.08507
  20025005.580   106894840.42409  20025007.860    83140441.49308
  21846820.640   116865761.10408  21846820.700    90895592.56907
 15 02 25 00 24  0.0000000  0 15G16G18G19G21G22G27G31R02R03R09R15R16
                                R17R18R19
  21246113.060   111649089.03509  21246109.740    86999291.25648
  22536115.500   118428155.08609  22536112.580    92281700.58546
  24541461.840   128966251.29808  24541458.680   100493172.30645
  21612255.500   113573171.97008  21612251.880    88498562.72648
  23571441.000   123868850.76008  23571437.440    96521208.21246
  22333605.580   117363910.15309  22333604.240    91452412.26548
  23267373.160   122270852.82909  23267370.280    95275970.88347
  22714388.820   121208333.98208  22714391.660    94273160.51107
  22924162.920   122714841.00607  22924163.800    95444880.74907
  21830572.840   116574038.81108  21830573.760    90668702.50305
  22020308.220   117669845.82208  22020312.400    91521006.82407
  19631886.320   104870012.43909  19631887.880    81565571.03908
  22456764.420   120170683.22008  22456764.920    93466085.25307
  20029884.020   106920881.46009  20029886.380    83160695.62908
  21835831.560   116806977.90908  21835831.880    90849872.32907
 15 02 25 00 24 30.0000000  0 15G16G18G19G21G22G27G31R02R03R09R15R16
                                R17R18R19
  21234743.220   111589339.97509  21234740.000    86952733.56448
  22526304.760   118376599.32809  22526301.900    92241527.28146
  24526356.240   128886867.36008  24526351.920   100431314.69845
  21621539.480   113621960.14708  21621535.980    88536579.48148
  23554192.380   123778209.19408  23554188.800    96450578.53946
  22322585.060   117305996.64609  22322583.760    91407284.86548
  23285642.460   122366858.07009  23285639.540    95350780.08247
  22711229.140   121191473.11908  22711231.920    94260046.52207
  22906274.100   122619080.59907  22906275.020    95370400.47707
  21813749.200   116484201.14309  21813750.000    90598828.74105
  22044041.920   117796671.43608  22044046.140    91619648.89607
  19635789.500   104890862.40309  19635791.000    81581787.67308
  22471998.500   120252203.11608  22471998.640    93529489.60807
  20034798.880   106947116.90309  20034801.140    83181100.96308
  21824882.140   116748406.95708  21824882.660    90804317.17107
 15 02 25 00 25  0.0000000  0 15G16G18G19G21G22G27G31R02R03R09R15R16
                                R17R18R19
  21223440.240   111529942.54309  21223437.020    86906449.84548
  22516565.600   118325419.71509  22516562.680    92201647.08046
  24511274.080   128807609.79607  24511269.880   100369555.61145
  21630886.380   113671079.16108  21630882.920    88574854.03148
  23536962.620   123687666.50408  23536958.980    96380025.90246
  22311595.380   117248245.57709  22311594.100    91362284.04948
  23303941.640   122463020.60009  23303938.680    95425711.83546
  22708207.280   121175347.60708  22708209.980    94247504.48807
  22888442.460   122523626.24207  22888443.280    95296158.23807
  21797036.560   116394956.54108  21797037.240    90529416.28905
  22067832.060   117923798.85408  22067836.380    91718525.68907
  19639856.340   104912586.75409  19639857.820    81598684.37208
  22487235.780   120333740.48508  22487235.780    93592907.51407
  20039763.540   106973618.68009  20039765.760    83201713.45708
  21813986.120   116690121.40208  21813986.720    90758983.97207
 15 02 25 00 25 30.0000000  0 15G16G18G19G21G22G27G31R02R03R09R15R16
                                R17R18R19
  21212198.240   111470865.85709  21212195.100    86860416.08048
  22506892.100   118274585.11609  22506889.100    92162035.72546
  24496209.660   128728445.80608  24496205.640   100307869.45645
  21640289.680   113720494.39608  21640286.300    88613359.40348
  23519745.960   123597192.57208  23519742.180    96309526.83646
  22300630.340   117190624.12409  22300628.980    91317384.23148
  23322263.920   122559304.67909  23322261.000    95500738.31547
  22705317.220   121159925.69008  22705319.800    94235509.70007
  22870662.560   122428448.95107  22870663.380    95222131.50907
  21780429.420   116306275.35309  21780430.220    90460442.07805
  22091671.460   118051189.40908  22091675.940    91817607.14707
  19644080.480   104935151.45909  19644082.020    81616234.68108
  22502469.860   120415261.26108  22502470.080    93656312.56207
  20044771.540   107000351.67609  20044773.780    83222505.78908
  21803137.080   116632087.07908  21803137.720    90713846.19207
 15 02 25 00 26  0.0000000  0 15G16G18G19G21G22G27G31R02R03R09R15R16
                                R17R18R19
  21201016.540   111412105.73209  21201013.320    86814628.96948
  22497283.420   118224091.18109  22497280.380    92122689.82146
  24481161.760   128649368.78908  24481157.820   100246251.06144
  21649747.860   113770197.71108  21649744.500    88652089.24948
  23502541.700   123506783.67208  23502537.820    96239078.44246
  22289688.780   117133125.90609  22289687.300    91272580.43448
  23340607.500   122655700.72209  23340604.740    95575852.01647
  22702558.140   121145202.54508  22702560.520    94224058.38507
  22852934.060   122333546.60307  22852934.820    95148318.61307
  21763927.400   116218154.95809  21763928.160    90391903.98705
  22115558.300   118178833.22308  22115562.860    91916885.57907
  19648460.480   104958548.65109  19648462.020    81634432.48108
  22517699.560   120496758.03708  22517699.880    93719698.91607
  20049821.360   107027307.84609  20049823.560    83243471.69908
  21792333.760   116574296.86108  21792334.220    90668898.28507
 15 02 25 00 26 30.0000000  0 15G16G18G19G21G22G27G31R02R03R09R15R16
                                R17R18R19
  21189896.220   111353667.80409  21189892.860    86769092.92148
  22487740.720   118173943.88509  22487737.660    92083614.01546
  24466131.140   128570382.93107  24466127.080   100184703.66745
  21659261.180   113820190.65808  21659257.880    88691044.78848
  23485350.960   123416445.85508  23485347.020    96168685.43246
  22278771.380   117075754.41109  22278769.860    91227875.38548
  23358972.540   122752209.52409  23358969.900    95651053.58447
  22699930.880   121131183.04408  22699933.300    94213154.36007
  22835258.320   122238927.41607  22835259.000    95074725.94307
  21747531.640   116130602.59508  21747532.180    90323807.69405
  22139492.460   118306729.77008  22139497.100    92016360.58807
  19652996.820   104982780.95409  19652998.420    81653279.82008
  22532925.400   120578233.81408  22532925.600    93783068.95707
  20054913.340   107054489.12309  20054915.600    83264612.69008
  21781576.660   116516753.72608  21781577.060    90624142.53407
 15 02 25 00 27  0.0000000  0 15G16G18G19G21G22G27G31R02R03R09R15R16
                                R17R18R19
  21178837.320   111295552.73209  21178833.820    86723808.44648
  22478264.080   118124143.78209  22478261.080    92044808.75646
  24451117.300   128491485.91207  24451113.220   100123225.48945
  21668829.080   113870470.07808  21668825.720    88730223.55148
  23468174.040   123326180.48908  23468169.960    96098348.87946
  22267877.800   117018508.08809  22267876.140    91183267.86948
  23377358.240   122848826.54409  23377355.540    95726339.47746
  22697435.480   121117867.26908  22697437.860    94202797.68307
  22817636.020   122144594.41607  22817636.760    95001355.87407
  21731242.600   116043620.32908  21731243.180    90256154.82005
  22163472.800   118434872.92608  22163477.460    92116027.38807
  19657689.040   105007845.84709  19657690.660    81672774.72408
  22548146.780   120659686.21008  22548146.800    93846420.81007
  20060046.860   107081892.39109  20060049.000    83285926.34908
  21770865.420   116459455.50108  21770865.700    90579577.26207
 15 02 25 00 27 30.0000000  0 15G16G18G19G21G22G27G31R02R03R09R15R16
                                R17R18R19
  21167839.940   111237761.35209  21167836.540    86678776.21448
  22468853.660   118074691.71509  22468850.720    92006274.69846
  24436120.460   128412676.81508  24436116.420   100061815.86345
  21678450.800   113921032.42408  21678447.320    88769622.77748
  23451011.060   123235988.65708  23451006.900    96028069.62846
  22257007.720   116961385.60309  22257006.000    91138756.85048
  23395763.720   122945547.40008  23395760.960    95801706.27847
  22695071.920   121105255.25208  22695074.380    94192988.35307
  22800067.760   122050550.33707  22800068.440    94928210.51406
  21715060.740   115957210.64108  21715061.360    90188947.29005
  22187498.220   118563257.29908  22187503.000    92215881.79807
  19662536.620   105033740.86409  19662538.240    81692915.28608
  22563363.320   120741112.81508  22563363.400    93909752.58207
  20065221.420   107109514.61809  20065223.620    83307410.28908
  21760199.660   116402400.58808  21760199.840    90535201.25007
 15 02 25 00 28  0.0000000  0 15G16G18G19G21G22G27G31R02R03R09R15R16
                                R17R18R19
  21156905.880   111180302.41009  21156902.520    86634003.01948
  22459511.160   118025596.64909  22459508.240    91968018.82146
  24421141.440   128333962.49007  24421137.400   100000480.05046
  21688127.440   113971883.08509  21688123.740    88809246.67348
  23433863.860   123145879.53709  23433859.520    95957854.82546
  22246162.460   116904393.91609  22246160.840    91094347.75148
  23414189.700   123042376.12409  23414186.960    95877157.12946
  22692841.820   121093355.30408  22692844.360    94183732.86207
  22782555.720   121956807.21207  22782556.380    94855299.22107
  21698988.100   115871384.14808  21698988.760    90122193.35405
  22211569.280   118691885.38208  22211574.140    92315925.75907
  19667540.680   105060471.68709  19667542.340    81713705.90508
  22578576.280   120822520.21508  22578576.400    93973069.44107
  20070437.980   107137361.31409  20070440.260    83329068.83008
  21749580.560   116345594.94308  21749580.620    90491019.11707
 15 02 25 00 28 30.0000000  0 15G16G18G19G21G22G27G31R02R03R09R15R16
                                R17R18R19
  21146033.520   111123167.62109  21146030.160    86589482.40548
  22450235.060   117976850.29909  22450232.100    91930034.66446
  24406178.660   128255332.43208  24406174.600    99939209.93845
  21697856.620   114023009.63809  21697852.760    88849085.54747
  23416731.160   123055846.66108  23416726.660    95887699.41746
  22235340.080   116847522.38009  22235338.620    91050032.28048
  23432633.600   123139299.00808  23432630.800    95952681.35447
  22690743.360   121082157.96808  22690745.860    94175023.83907
  22765098.540   121863358.50207  22765099.300    94782616.93207
  21683023.420   115786133.66908  21683024.160    90055887.44705
  22235683.220   118820742.41108  22235688.100    92416147.78407
  19672698.940   105088026.45609  19672700.680    81735137.39808
  22593783.460   120903896.78908  22593783.480    94036362.28607
  20075694.160   107165419.99009  20075696.800    83350892.24308
  21739005.940   116289027.31408  21739005.720    90447022.12007
 15 02 25 00 29  0.0000000  0 15G16G18G19G21G22G27G31R02R03R09R15R16
                                R17R18R19
  21135224.660   111066366.53309  21135221.240    86545221.81248
  22441027.080   117928461.91909  22441024.060    91892329.45046
  24391233.380   128176794.02707  24391229.400    99878011.20846
  21707639.320   114074417.59208  21707635.380    88889143.68747
  23399614.840   122965899.59808  23399610.160    95817610.88546
  22224542.080   116790778.49909  22224540.540    91005816.27348
  23451096.300   123236320.93608  23451093.540    96028282.74147
  22688778.300   121071672.41808  22688780.820    94166868.44207
  22747698.760   121770216.41507  22747699.580    94710173.10907
  21667168.780   115701470.68208  21667169.520    89990038.45305
  22259840.820   118949832.84608  22259845.760    92516551.34607
  19678012.600   105116411.54109  19678014.500    81757214.67908
  22608986.120   120985249.38508  22608986.220    94099636.50607
  20080991.200   107193696.76309  20080994.060    83372885.27208
  21728477.120   116232704.74808  21728476.680    90403215.69407
 15 02 25 00 29 30.0000000  0 15G16G18G19G21G22G27G31R02R03R09R15R16
                                R17R18R19
  21124479.820   111009901.78909  21124476.220    86501223.30848
  22431887.720   117880434.20309  22431884.620    91854905.26646
  24376305.600   128098348.14508  24376301.760    99816884.63145
  21717475.320   114126105.76109  21717471.220    88929420.18348
  23382515.400   122876041.35609  23382510.660    95747591.55546
  22213768.520   116734162.85409  22213766.940    90961700.20348
  23469577.400   123333439.46208  23469574.700    96103959.41047
  22686946.980   121061900.23208  22686949.640    94159267.83607
  22730357.160   121677385.61408  22730358.040    94637971.41407
  21651424.760   115617399.22808  21651425.520    89924649.56105
  22284041.220   119079151.88508  22284046.180    92617132.71307
  19683481.520   105145625.90709  19683483.500    81779936.95908
  22624184.360   121066577.85708  22624184.500    94162891.94707
  20086329.020   107222190.72109  20086331.900    83395047.23508
  21717994.080   116176627.12508  21717993.440    90359599.78607
 15 02 25 00 30  0.0000000  0 15G16G18G19G21G22G27G31R02R03R09R15R16
                                R17R18R19
  21113799.140   110953774.03309  21113795.400    86457487.38548
  22422817.180   117832768.00109  22422814.060    91817762.79046
  24361395.060   128019992.83408  24361391.280    99755828.57845
  21727363.820   114178069.96909  21727359.620    88969911.77947
  23365433.080   122786273.12408  23365428.280    95677642.36146
  22203018.980   116677673.95309  22203017.460    90917682.88348
  23488076.060   123430650.21308  23488073.500    96179707.92547
  22685249.240   121052841.23308  22685251.960    94152221.95007
  22713074.360   121584869.28507  22713075.080    94566014.29707
  21635791.900   115533921.55908  21635792.740    89859722.50405
  22308283.400   119208694.51508  22308288.480    92717887.98007
  19689105.240   105175666.87309  19689107.260    81803302.13908
  22639377.640   121147880.18307  22639377.700    94226127.07507
  20091707.000   107250898.53009  20091709.840    83417375.52508
  21707556.480   116120792.47808  21707555.840    90316172.85107
 15 02 25 00 30 30.0000000  0 15G16G18G19G21G22G27G31R02R03R09R15R16
                                R17R18R19
  21103182.660   110897983.86709  21103178.940    86414014.52948
  22413815.500   117785463.73309  22413812.340    91780902.32546
  24346501.440   127941726.62208  24346497.540    99694841.91544
  21737304.420   114230308.36409  21737300.220    89010617.01847
  23348368.160   122696596.22509  23348363.160    95607764.32846
  22192293.320   116621310.32109  22192291.860    90873763.17848
  23506591.380   123527948.66908  23506588.960    96255524.78346
  22683685.200   121044494.99208  22683687.780    94145730.45007
  22695850.940   121492670.53307  22695851.460    94494304.18107
  21620270.680   115451039.47908  21620271.620    89795258.65605
  22332566.260   119338454.54808  22332571.400    92818812.32107
  19694883.160   105206531.32508  19694885.220    81827307.81108
  22654565.380   121229154.06507  22654565.640    94289340.04106
  20097124.520   107279817.33409  20097127.340    83439867.93008
  21697163.760   116065198.31708  21697163.320    90272932.96407
 15 02 25 00 31  0.0000000  0 15G16G18G19G21G22G27G31R02R03R09R15R16
                                R17R18R19
  21092632.680   110842543.26909  21092628.980    86370814.06148
  22404884.940   117738533.36309  22404881.780    91744333.21946
  24331626.700   127863559.77408  24331622.580    99633932.73745
  21747298.700   114282828.80708  21747294.540    89051542.03047
  23331323.040   122607023.45409  23331317.820    95537967.43546
  22181593.380   116565081.94609  22181592.020    90829948.88548
  23525124.780   123625341.91308  23525122.480    96331415.49947
  22682256.980   121036872.96808  22682259.420    94139802.24207
  22678689.420   121400803.58607  22678689.960    94422852.16407
  21604863.720   115368766.98808  21604864.580    89731268.94205
  22356890.900   119468437.61108  22356895.960    92919910.14207
  19700816.840   105238228.01009  19700818.960    81851960.77608
  22669749.800   121310408.79008  22669749.980    94352538.15606
  20102583.220   107308955.62609  20102585.880    83462531.04008
  21686817.800   116009854.41508  21686817.400    90229887.73408
 15 02 25 00 31 30.0000000  0 15G16G18G19G21G22G27G31R02R03R09R15R16
                                R17R18R19
  21082145.880   110787434.36909  21082142.160    86327872.05548
  22396022.080   117691958.75109  22396018.880    91708041.33247
  24316767.160   127785472.23808  24316762.560    99573085.30445
  21757342.360   114335608.72308  21757338.320    89092669.23547
  23314294.400   122517537.31609  23314289.060    95468238.04646
  22170915.300   116508968.65109  22170914.040    90786224.24348
  23543671.800   123722806.85608  23543669.560    96407362.08747
  22680960.820   121029955.63008  22680963.080    94134422.12007
  22661586.940   121309252.73407  22661587.660    94351645.98407
  21589567.740   115287087.02508  21589568.600    89667740.09105
  22381252.780   119598619.57208  22381257.780    93021162.65807
  19706902.180   105270735.04709  19706904.400    81877244.01908
  22684926.560   121391623.27907  22684926.880    94415704.96007
  20108078.960   107338291.40809  20108081.520    83485347.75908
  21676514.600   115954739.27708  21676514.120    90187020.43407
 15 02 25 00 32  0.0000000  0 15G16G18G19G21G22G27G31R02R03R09R15R16
                                R17R18R19
  21071725.480   110732674.65609  21071721.740    86285202.14848
  22387230.320   117645757.79509  22387227.160    91672040.60446
  24301925.380   127707479.24308  24301921.180    99512311.61145
  21767438.000   114388661.97908  21767434.120    89134009.42747
  23297285.680   122428156.07309  23297280.300    95398590.40446
  22160262.060   116452986.02709  22160261.020    90742601.43048
  23562234.880   123820356.13208  23562232.640    96483374.38146
  22679799.780   121023759.97608  22679802.040    94129603.28207
  22644547.320   121218038.07807  22644547.860    94280701.26707
  21574386.220   115206018.91008  21574387.180    89604687.13505
  22405654.040   119729012.08208  22405659.020    93122578.93607
  19713141.960   105304066.53309  19713144.160    81903168.48208
  22700098.620   121472812.89008  22700099.220    94478852.38307
  20113614.280   107367838.87109  20113616.840    83508329.11908
  21666257.040   115899868.34408  21666256.520    90144343.08308
 15 02 25 00 32 30.0000000  0 15G16G18G19G21G22G27G31R02R03R09R15R16
                                R17R18R19
  21061371.140   110678262.13709  21061367.420    86242802.78148
  22378509.180   117599928.02909  22378506.000    91636329.10446
  24287100.980   127629577.22308  24287096.920    99451608.75145
  21777584.500   114441982.55909  21777580.760    89175557.92247
  23280296.680   122338878.45109  23280291.340    95329023.49446
  22149632.980   116397130.03209  22149631.980    90699077.28648
  23580812.700   123917982.73308  23580810.520    96559446.92046
  22678773.380   121018282.79108  22678775.680    94125343.28707
  22627570.620   121127160.02707  22627570.900    94210018.37307
  21559319.220   115125562.12109  21559320.240    89542109.65305
  22430093.160   119859606.85408  22430098.120    93224152.51707
  19719535.000   105338216.51409  19719537.100    81929729.56808
  22715265.240   121553972.28308  22715265.860    94541976.34307
  20119188.220   107397592.32209  20119190.500    83531470.68808
  21656044.180   115845236.71608  21656043.700    90101851.83208
 15 02 25 00 33  0.0000000  0 15G16G18G19G21G22G27G31R02R03R09R15R16
                                R17R18R19
  21051082.900   110624196.76909  21051079.140    86200673.92548
  22369858.700   117554469.62109  22369855.540    91600906.98646
