     2.11           OBSERVATION DATA    M                   RINEX VERSION / TYPE
SPIDER V4,0,0,3554                      2015 03 16 01:21    PGM / RUN BY / DATE 
ADCK                                                        MARKER NAME         
ADCK                                                        MARKER NUMBER       
                                                            OBSERVER / AGENCY   
496498              LEICA GRX1200+GNSS  8.20/4.007          REC # / TYPE / VERS 
                    LEIAR25         NONE                    ANT # / TYPE        
  5227539.7664   314968.1794  3630496.8998                  APPROX POSITION XYZ 
        0.0480        0.0000        0.0000                  ANTENNA: DELTA H/E/N
     1     1                                                WAVELENGTH FACT L1/2
     4    C1    L1    P2    L2                              # / TYPES OF OBSERV 
    30.000                                                  INTERVAL            
  2015    02    19    00    00    0.0000000     GPS         TIME OF FIRST OBS   
  2015    02    19    05    25    0.0000000     GPS         TIME OF LAST OBS    
    16                                                      LEAP SECONDS        
    24                                                      # OF SATELLITES     
   G 1   274   273   273   273                              PRN / # OF OBS      
   G 3   153   153   153   153                              PRN / # OF OBS      
   G 4   429   429   429   429                              PRN / # OF OBS      
   G11   336   336   336   336                              PRN / # OF OBS      
   G14   264   264   264   264                              PRN / # OF OBS      
   G16   565   565   565   565                              PRN / # OF OBS      
   G18   498   498   498   498                              PRN / # OF OBS      
   G19   539   539   539   539                              PRN / # OF OBS      
   G21   375   375   375   375                              PRN / # OF OBS      
   G22   612   606   609   606                              PRN / # OF OBS      
   G25    60    60    60    60                              PRN / # OF OBS      
   G27   651   651   651   651                              PRN / # OF OBS      
   G28   105   105   105   105                              PRN / # OF OBS      
   G29   110   110   110   110                              PRN / # OF OBS      
   G31   174   174   174   174                              PRN / # OF OBS      
   G32   324   324   324   324                              PRN / # OF OBS      
   R 4    30    30    30    30                              PRN / # OF OBS      
   R 9    30    30    30    30                              PRN / # OF OBS      
   R10    30    30    30    30                              PRN / # OF OBS      
   R11    19    19    19    18                              PRN / # OF OBS      
   R16     3     3     3     3                              PRN / # OF OBS      
   R19    30    30    30    30                              PRN / # OF OBS      
   R20    30    30    30    30                              PRN / # OF OBS      
   R21    12    12    12    12                              PRN / # OF OBS      
BIT 2 OF LLI FLAGS DATA COLLECTED UNDER A/S CONDITION       COMMENT             
SNR is mapped to RINEX snr flag value [2-9]                 COMMENT             
Lx:     = 25dBHz -> 1; 26-27dBHz -> 2; 28-31dBHz -> 3       COMMENT             
       32-35dBHz -> 4; 36-38dBHz -> 5; 39-41dBHz -> 6       COMMENT             
       42-44dBHz -> 7; 45-48dBHz -> 8; >=49dBHz -> 9        COMMENT             
                                                            END OF HEADER       
 15 02 19 00 00  0.0000000  0 13G16G18G21G25G27G29G31R04R09R10R16R19
                                R20
  22727870.180   119435768.00409  22727866.420    93066817.93847
  23536522.400   123685312.38808  23536520.020    96378183.93845
  20967968.260   110187779.32408  20967964.200    85860766.80648
  23761443.920   124867426.82308  23761444.380    97299368.52946
  23730335.020   124703764.70508  23730335.180    97171770.70047
  23027964.820   121013221.55308  23027962.640    94296202.55347
  21739388.740   114241277.11309  21739385.340    89019172.02948
  23356184.200   125071306.64307  23356184.540    97277684.18106
  19940308.380   106480145.16409  19940308.960    82817907.31506
  19904263.840   106100938.90109  19904268.820    82522973.56307
  23541259.720   125753175.78007  23541265.820    97808043.84405
  20822997.760   111389455.14409  20822996.500    86636459.67908
  20089491.920   107427636.66808  20089493.740    83554881.80608
 15 02 19 00 00 30.0000000  0 13G16G18G21G25G27G29G31R04R09R10R16R19
                                R20
  22712080.480   119352792.20809  22712076.720    93002161.48447
  23522565.440   123611968.62508  23522563.060    96321033.02845
  20970295.580   110200009.49108  20970291.520    85870296.81748
  23778316.840   124956094.52108  23778317.260    97368460.21746
  23716944.120   124633395.60008  23716944.340    97116937.67246
  23041704.200   121085422.63509  23041702.020    94352463.12347
  21752575.680   114310574.92909  21752572.300    89073170.30348
  23342882.300   125000075.32808  23342882.480    97222282.07506
  19954634.600   106556646.27209  19954635.180    82877408.16006
  19894809.840   106050543.72609  19894814.840    82483777.31407
  23566735.980   125889263.51307  23566742.140    97913889.07105
  20836237.800   111460280.40309  20836236.520    86691545.98808
  20086780.540   107413138.15308  20086782.420    83543605.19808
 15 02 19 00 01  0.0000000  0 14G16G18G21G25G27G29G31R04R09R10R16R19
                                R20R21
  22696312.460   119269930.61409  22696308.740    92937594.02747
  23508629.240   123538733.67308  23508626.840    96263966.89346
  20972704.760   110212670.15908  20972700.760    85880162.28348
  23795229.180   125044969.43108  23795229.660    97437713.37546
  23703574.560   124563138.61308  23703574.840    97062192.02347
  23055449.100   121157652.53809  23055446.920    94408746.15247
  21765836.680   114380262.00509  21765833.320    89127471.89948
  23329658.580   124929262.61408  23329658.660    97167205.51106
  19969082.940   106633799.46009  19969083.520    82937416.17306
  19885496.320   106000897.35709  19885501.320    82445163.47107
  23592230.120   126025445.71907  23592236.220    98019807.57305
  20849504.360   111531247.68209  20849503.140    86746742.75008
  20084140.780   107399022.25008  20084142.680    83532626.16408
  22949315.160   122806418.55607  22949316.900    95516111.88206
 15 02 19 00 01 30.0000000  0 13G16G18G21G25G27G29G31R04R09R10R19R20
                                R21
  22680565.960   119187182.19309  22680562.260    92873114.74247
  23494713.940   123465608.26508  23494711.480    96206986.09445
  20975195.080   110225757.21508  20975191.120    85890359.98748
  23812180.260   125134048.01308  23812180.740    97507125.23146
  23690225.760   124492991.02108  23690226.100    97007531.61346
  23069198.860   121229907.79108  23069196.600    94465048.91847
  21779170.760   114450333.08109  21779167.420    89182072.70748
  23316513.380   124858870.26008  23316513.340    97112455.89206
  19983652.380   106711599.24409  19983652.900    82997927.10306
  19876323.320   105951999.90309  19876328.280    82407132.11607
  20862796.600   111602352.46009  20862795.380    86802046.45308
  20081571.860   107385284.92808  20081573.720    83521941.58508
  22934686.120   122728136.14808  22934687.900    95455225.64006
 15 02 19 00 02  0.0000000  0 12G16G18G21G25G27G29G31R04R09R10R19R20
  22664842.160   119104553.15809  22664838.400    92808728.49347
  23480820.760   123392599.17208  23480818.300    96150095.96345
  20977767.180   110239273.93608  20977763.260    85900892.51348
  23829170.780   125223333.70608  23829171.220    97576698.47446
  23676898.600   124422957.16308  23676898.960    96952959.83546
  23082954.360   121302193.22908  23082952.060    94521375.21947
  21792578.340   114520790.19809  21792574.940    89236974.33848
  23303448.240   124788906.82508  23303448.200    97058039.90406
  19998343.160   106790047.08509  19998343.680    83058942.08006
  19867292.180   105903858.72209  19867297.100    82369688.98607
  20876114.980   111673597.10909  20876113.880    86857458.95408
  20079074.320   107371929.38408  20079076.160    83511553.94808
 15 02 19 00 02 30.0000000  0 12G16G18G21G25G27G29G31R04R09R10R19R20
  22649141.240   119022044.53009  22649137.520    92744436.06847
  23466950.100   123319708.56608  23466947.600    96093298.14045
  20980420.780   110253218.82208  20980416.880    85911758.65248
  23846200.420   125312824.87908  23846200.780    97646431.83146
  23663592.960   124353036.20208  23663593.360    96898476.02346
  23096715.240   121374507.17508  23096712.920    94577723.69647
  21806058.760   114591630.21209  21806055.400    89292174.31348
  23290463.740   124719375.28108  23290463.660    97003959.81206
  20013154.680   106869139.45209  20013155.160    83120458.33906
  19858403.320   105856475.99209  19858408.240    82332835.74507
  20889458.940   111744978.64209  20889457.980    86912977.91008
  20076647.780   107358953.27708  20076649.560    83501461.41608
 15 02 19 00 03  0.0000000  0 12G16G18G21G25G27G29G31R04R09R10R19R20
  22633463.300   118939656.80609  22633459.620    92680237.84847
  23453102.100   123246937.07408  23453099.600    96036593.12746
  20983155.440   110267589.52608  20983151.560    85922956.61348
  23863268.700   125402518.96208  23863269.000    97716323.30846
  23650308.580   124283226.50308  23650308.940    96844078.88946
  23110481.260   121446848.04608  23110478.920    94634093.17347
  21819611.280   114662848.99909  21819607.880    89347669.44248
  23277560.380   124650278.29608  23277560.360    96950217.72706
  20028086.020   106948871.82009  20028086.500    83182472.37606
  19849656.980   105809852.99609  19849661.900    82296573.41707
  20902827.780   111816493.32809  20902826.940    86968600.44108
  20074291.540   107346353.46108  20074293.320    83491661.57008
 15 02 19 00 03 30.0000000  0 13G16G18G21G25G27G29G31R04R09R10R19R20
                                R21
  22617808.660   118857391.61209  22617805.040    92616135.11347
  23439277.420   123174288.12208  23439274.900    95979983.60845
  20985970.880   110282384.72108  20985967.040    85934485.35348
  23880375.400   125492415.23508  23880375.700    97786372.33346
  23637045.460   124213528.22908  23637045.680    96789768.60046
  23124252.360   121519215.41008  23124249.920    94690483.30647
  21833235.460   114734444.43509  21833232.080    89403458.06748
  23264738.900   124581620.11008  23264738.920    96896816.93706
  20043136.660   107029241.31809  20043137.160    83244981.96006
  19841053.640   105763992.28809  19841058.520    82260903.97707
  20916221.260   111888139.47109  20916220.420    87024325.22108
  20072005.440   107334128.78008  20072007.240    83482153.49708
  22876642.920   122417539.23408  22876644.820    95213646.34806
 15 02 19 00 04  0.0000000  0 13G16G18G21G25G27G29G31R04R09R10R19R20
                                R21
  22602177.780   118775251.29309  22602174.240    92552129.67847
  23425476.520   123101764.02908  23425473.980    95923471.37946
  20988866.840   110297603.21208  20988863.020    85946343.92548
  23897520.380   125582512.80008  23897520.840    97856578.20746
  23623803.580   124143941.28608  23623803.660    96735545.04246
  23138028.380   121591608.73208  23138025.920    94746893.65647
  21846930.780   114806413.72209  21846927.420    89459538.00148
  23252000.140   124513404.97208  23252000.320    96843760.73606
  20058306.100   107110245.19609  20058306.580    83307984.94906
  19832593.880   105718896.92209  19832598.740    82225829.79907
  20929639.000   111959915.02509  20929638.140    87080150.64608
  20069789.240   107322277.90708  20069791.080    83472936.16008
  22862249.880   122340519.26308  22862251.840    95153742.01407
 15 02 19 00 04 30.0000000  0 12G16G18G21G25G27G29G31R04R09R10R19R20
  22586571.360   118693239.44109  22586567.900    92488224.35147
  23411700.400   123029370.06608  23411697.860    95867060.55145
  20991843.620   110313246.30908  20991839.780    85958533.35648
  23914703.860   125672812.70708  23914704.420    97926941.72646
  23610583.240   124074467.67608  23610583.260    96681409.79846
  23151809.680   121664029.84908  23151807.220    94803325.67147
  21860697.200   114878756.59309  21860693.840    89515909.03848
  23239345.180   124445638.83007  23239345.460    96791053.76407
  20073594.100   107191882.42009  20073594.600    83371480.53906
  19824278.620   105674571.73909  19824283.480    82191354.65707
  20943080.940   112031820.03509  20943080.060    87136076.75608
  20067643.100   107310801.37708  20067644.900    83464009.97608
 15 02 19 00 05  0.0000000  0 12G16G18G21G25G27G29G31R04R09R10R19R20
  22570989.120   118611354.30309  22570985.660    92424417.77147
  23397948.720   122957104.91508  23397946.120    95810750.09945
  20994900.220   110329309.01608  20994896.380    85971049.75548
  23931924.940   125763310.18608  23931925.580    97997459.21346
  23597383.720   124005103.58008  23597383.680    96627359.90547
  23165595.540   121736474.89608  23165593.060    94859776.34747
  21874533.420   114951466.44309  21874530.120    89572566.03348
  23226774.040   124378321.62307  23226774.460    96738695.97907
  20088999.460   107274146.11109  20088999.960    83435463.38706
  19816107.580   105631015.19109  19816112.400    82157477.33807
  20956545.940   112103848.51009  20956544.980    87192098.89808
  20065566.000   107299693.94108  20065567.720    83455370.86908
 15 02 19 00 05 30.0000000  0 13G16G18G21G25G27G29G31R04R09R10R11R19
                                R20
  22555432.120   118529601.51709  22555428.600    92360714.31347
  23384222.780   122884975.01108  23384220.140    95754545.03146
  20998037.240   110345794.17008  20998033.400    85983895.33448
  23949184.200   125854008.22208  23949184.840    98068132.98146
  23584205.780   123935852.78108  23584205.640    96573398.29047
  23179386.500   121808946.94008  23179384.120    94916248.04747
  21888439.780   115024544.84009  21888436.520    89629510.21648
  23214288.280   124311461.54007  23214288.860    96686693.72307
  20104522.320   107357037.27009  20104522.840    83499934.26506
  19808082.000   105588234.23809  19808086.820    82124203.26107
  23597892.280   126099979.72907  23597894.980                  
  20970034.440   112176002.63109  20970033.420    87248218.76308
  20063558.320   107288957.86208  20063560.020    83447020.59208
 15 02 19 00 06  0.0000000  0 14G16G18G21G25G27G29G31R04R09R10R11R19
                                R20R21
  22539900.100   118447979.76509  22539896.540    92297112.96047
  23370522.520   122812980.02108  23370519.860    95698445.08746
  21001253.740   110362697.02908  21001249.900    85997066.39848
  23966480.800   125944902.44008  23966481.540    98138959.62046
  23571048.700   123866711.83508  23571048.580    96519522.28847
  23193181.960   121881442.64308  23193179.660    94972738.17647
  21902415.160   115097985.95709  21902411.980    89686737.03648
  23201888.020   124245059.17107  23201888.700    96635047.46707
  20120161.440   107440549.31109  20120161.980    83564888.04806
  19800201.800   105546227.98809  19800206.480    82091531.72507
  23575089.360   125978127.24206  23575091.520    97983000.18704
  20983545.400   112248276.77909  20983544.280    87304431.98308
  20061619.200   107278588.44608  20061620.900    83438955.50108
  22805150.140   122034964.87408  22805151.820    94916091.30406
 15 02 19 00 06 30.0000000  0 14G16G18G21G25G27G29G31R04R09R10R11R19
                                R20R21
  22524393.160   118366489.94009  22524389.560    92233614.40047
  23356848.220   122741121.48408  23356845.540    95642451.44846
  21004549.340   110380015.45808  21004545.480    86010561.28448
  23983814.380   126035990.68608  23983815.100    98209937.44146
  23557912.220   123797679.52108  23557912.100    96465730.93647
  23206981.620   121953960.18308  23206979.280    95029245.32147
  21916458.840   115171786.00409  21916455.680    89744243.53848
  23189573.760   124179117.17307  23189574.480    96583759.27607
  20135916.020   107524677.84409  20135916.560    83630321.32306
  19792467.100   105504997.63709  19792471.740    82059463.67207
  23552329.300   125856504.95106  23552331.460    97888405.07604
  20997078.200   112320668.08309  20997076.980    87360736.32608
  20059748.080   107268582.83408  20059749.820    83431173.34508
  22790992.540   121959205.13608  22790994.120    94857167.17106
 15 02 19 00 07  0.0000000  0 13G16G18G21G25G27G29G31R04R09R10R11R19
                                R20
  22508913.100   118285141.43709  22508909.420    92170225.97847
  23343201.880   122669409.71908  23343199.240    95586572.20046
  21007925.320   110397756.32908  21007921.420    86024385.35448
  24001186.220   126127279.77808  24001186.800    98281071.78446
  23544797.880   123728763.63508  23544797.820    96412030.32647
  23220786.920   122026507.30308  23220784.600    95085775.52947
  21930571.820   115245950.13309  21930568.660    89802033.75048
  23177347.720   124113647.57107  23177348.480    96532838.50507
  20151786.940   107609427.85009  20151787.560    83696237.97706
  19784879.940   105464553.87409  19784884.580    82028007.41607
  23529614.560   125735125.01106  23529616.700    97793998.47804
  21010634.000   112393182.24809  21010632.740    87417136.23208
  20057946.260   107258947.75908  20057948.020    83423679.40508
 15 02 19 00 07 30.0000000  0 13G16G18G21G25G27G29G31R04R09R10R11R19
                                R20
  22493458.840   118203928.59009  22493455.080    92106943.25247
  23329582.540   122597839.60708  23329579.920    95530803.31846
  21011379.940   110415910.41608  21011376.020    86038531.39848
  24018594.600   126218760.93608  24018595.000    98352355.77746
  23531704.160   123659956.28508  23531704.200    96358414.25347
  23234596.280   122099075.81408  23234594.000    95142322.39447
  21944752.100   115320467.83209  21944748.880    89860099.46048
  23165209.240   124048646.35008  23165209.840    96482282.03307
  20167772.200   107694788.39109  20167772.900    83762629.47406
  19777439.300   105424891.14809  19777443.940    81997158.61907
  23506944.600   125613983.50007  23506946.560    97699777.28704
  21024210.840   112465809.39509  21024209.680    87473623.99708
  20056211.920   107249673.73108  20056213.740    83416466.26208
 15 02 19 00 08  0.0000000  0 13G16G18G21G25G27G29G31R04R09R10R11R19
                                R20
  22478031.420   118122856.71909  22478027.580    92043770.37247
  23315991.360   122526417.58508  23315988.700    95475149.84746
  21014913.680   110434480.33508  21014909.740    86053001.46748
  24036039.960   126310436.81308  24036040.320    98423791.49746
  23518631.780   123591260.99508  23518631.940    96304885.50347
  23248410.240   122171668.79308  23248408.160    95198888.30047
  21958999.900   115395340.42909  21958996.680    89918441.71548
  23153159.700   123984121.12808  23153160.180    96432095.78107
  20183871.880   107780759.82109  20183872.580    83829496.11506
  19770146.360   105386015.69009  19770151.000    81966922.14907
  23484320.780   125493088.24607  23484322.640    97605747.61304
  21037809.140   112538551.49209  21037808.080    87530201.17708
  20054545.500   107240762.79508  20054547.300    83409535.54008
 15 02 19 00 08 30.0000000  0 14G16G18G21G25G27G29G31R04R09R10R11R19
                                R20R21
  22462631.280   118041928.56809  22462627.440    91980709.48647
  23302428.940   122455146.62608  23302426.280    95419614.07246
  21018526.380   110453465.14608  21018522.400    86067794.82848
  24053522.220   126402306.73308  24053522.580    98495378.40746
  23505580.760   123522678.17608  23505581.020    96251444.40347
  23262229.000   122244286.72208  23262226.980    95255473.65047
  21973314.780   115470565.65709  21973311.580    89977058.74348
  23141199.800   123920076.24608  23141200.220    96382283.12207
  20200085.460   107867339.27909  20200086.200    83896835.66606
  19763001.640   105347930.42109  19763006.280    81937300.26707
  23461743.920   125372443.71607  23461745.740    97511912.98504
  21051428.660   112611407.06409  21051427.660    87586866.61408
  20052946.780   107232213.82508  20052948.600    83402886.35108
  22734837.580   121658709.09108  22734838.420    94623445.10306
 15 02 19 00 09  0.0000000  0 14G16G18G21G25G27G29G31R04R09R10R11R19
                                R20R21
  22447258.140   117961142.49609  22447254.340    91917759.31647
  23288895.220   122384026.54208  23288892.520    95364195.87846
  21022217.180   110472860.47308  21022213.200    86082908.07848
  24071040.640   126494366.80408  24071041.000    98567113.49845
  23492550.580   123454204.77508  23492550.860    96198088.57747
  23276051.880   122316926.02108  23276049.820    95312075.69947
  21987695.760   115546138.15109  21987692.600    90035946.38348
  23129329.740   123856512.40808  23129330.060    96332844.60806
  20216411.720   107954520.68509  20216412.500    83964643.40106
  19756004.960   105310634.26709  19756009.640    81908292.15607
  23439214.140   125252050.79607  23439215.960    97418274.05905
  21065068.420   112684371.02709  21065067.500    87643616.35008
  20051414.960   107224022.71708  20051416.820    83396515.52308
  22720916.920   121584216.54108  22720917.840    94565506.50306
 15 02 19 00 09 30.0000000  0 13G16G18G21G25G27G29G31R04R09R10R11R19
                                R20
  22431912.480   117880500.97109  22431908.820    91854921.77647
  23275390.760   122313060.28808  23275388.020    95308897.52446
  21025985.980   110492665.63308  21025981.980    86098340.67448
  24088595.120   126586616.14108  24088595.500    98638996.06145
  23479541.260   123385840.92008  23479541.600    96144818.08847
  23289878.860   122389586.81608  23289876.720    95368694.47047
  22002142.260   115622055.02109  22002139.140    90095102.35048
  23117550.260   123793433.80608  23117550.580    96283783.48006
  20232850.140   108042300.96209  20232851.020    84032916.92406
  19749156.820   105274130.23509  19749161.580    81879900.12507
  23416732.240   125131913.90607  23416734.120    97324834.25605
  21078728.180   112757441.63609  21078727.220    87700449.03208
  20049949.780   107216187.82408  20049951.640    83390421.72908
 15 02 19 00 10  0.0000000  0 13G16G18G21G25G27G29G31R04R09R10R11R19
                                R20
  22416595.140   117800008.14509  22416591.580    91792200.11447
  23261916.500   122242252.70008  23261913.820    95253722.82146
  21029832.940   110512881.51208  21029828.920    86114093.31648
  24106185.840   126679055.88808  24106186.180    98711026.99846
  23466553.240   123317588.68508  23466553.520    96091634.58047
  23303710.320   122462271.20108  23303708.060    95425331.59747
  22016654.240   115698316.02509  22016651.160    90154526.48148
  23105862.560   123730846.51608  23105862.820    96235104.47406
  20249400.540   108130678.96209  20249401.400    84101655.33406
  19742458.100   105238422.59509  19742462.960    81852127.51607
  23394299.400   125012039.50907  23394301.340    97231598.62205
  21092407.960   112830619.21409  21092406.940    87757364.92508
  20048551.320   107208709.62208  20048553.180    83384605.36208
 15 02 19 00 10 30.0000000  0 13G16G18G21G25G27G29G31R04R09R10R11R19
                                R20
  22401306.140   117719664.17009  22401302.660    91729594.43847
  23248472.620   122171604.82108  23248469.920    95198672.55545
  21033757.500   110533505.19608  21033753.420    86130163.72748
  24123812.220   126771683.19208  24123812.580    98783204.09846
  23453586.240   123249446.29108  23453586.340    96038536.66547
  23317545.780   122534976.90508  23317543.500    95481985.35647
  22031230.840   115774916.55709  22031227.780    90214215.18648
  23094267.080   123668752.63908  23094267.160    96186809.24306
  20266061.940   108219649.61209  20266062.780    84170854.69706
  19735908.960   105203512.08609  19735913.860    81824974.90007
  23371915.960   124892429.35806  23371917.960    97138568.52305
  21106107.100   112903900.47209  21106106.120    87814361.44708
  20047219.020   107201585.03008  20047220.840    83379064.02608
 15 02 19 00 11  0.0000000  0 14G16G18G21G25G27G29G31R04R09R10R11R19
                                R20R21
  22386046.180   117639472.38909  22386042.640    91667107.34847
  23235059.860   122101120.56708  23235057.220    95143749.79946
  21037759.640   110554536.72809  21037755.580    86146551.94048
  24141474.380   126864498.51408  24141474.860    98855527.68245
  23440640.360   123181415.04808  23440640.300    95985525.34647
  23331385.520   122607705.06408  23331383.240    95538656.62647
  22045872.000   115851856.07209  22045868.900    90274168.03548
  23082764.640   123607157.32208  23082764.620    96138901.77806
  20282834.000   108309211.21509  20282834.820    84240513.68906
  19729509.960   105169401.99109  19729514.920    81798444.82207
  23349582.900   124773089.53606  23349585.160    97045748.72705
  21119825.540   112977284.67209  21119824.560    87871438.03908
  20045952.740   107194813.88408  20045954.580    83373797.58908
  22665705.320   121288767.40808  22665706.540    94335713.50307
 15 02 19 00 11 30.0000000  0 14G16G18G21G25G27G29G31R04R09R10R11R19
                                R20R21
  22370815.280   117559433.17309  22370811.660    91604739.12547
  23221678.480   122030801.12208  23221675.800    95088955.45946
  21041838.860   110575973.14009  21041834.780    86163255.63748
  24159171.780   126957498.88708  24159172.240    98927995.48546
  23427715.240   123113493.03908  23427715.060    95932599.14146
  23345229.080   122680453.48108  23345226.840    95595343.67647
  22060576.700   115929129.41409  22060573.560    90334381.00048
  23071355.620   123546062.57308  23071355.600    96091383.65706
  20299715.680   108399358.26509  20299716.500    84310628.02805
  19723261.240   105136092.78209  19723266.160    81772537.64907
  23327300.840   124654021.90107  23327303.260    96953140.57204
  21133562.620   113050768.23309  21133561.580    87928591.92008
  20044751.940   107188393.01208  20044753.840    83368803.58208
  22652020.320   121215535.85308  22652021.620    94278755.70607
 15 02 19 00 12  0.0000000  0 13G16G18G21G25G27G29G31R04R09R10R11R19
                                R20
  22355613.920   117479549.22109  22355610.220    91542491.89747
  23208329.120   121960650.05309  23208326.440    95034292.33646
  21045995.020   110597813.97409  21045990.960    86180274.47348
  24176904.420   127050684.29208  24176904.840    99000607.46245
  23414811.100   123045681.21608  23414810.840    95879758.78147
  23359076.680   122753222.92608  23359074.460    95652047.10547
  22075344.640   116006735.08709  22075341.440    90394852.92448
  23060040.940   123485473.14608  23060040.880    96044258.56006
  20316706.620   108490088.75009  20316707.440    84381196.15606
  19717163.400   105103587.73009  19717168.320    81747255.93607
  23305070.860   124535231.83607  23305073.340    96860748.30004
  21147318.040   113124350.32109  21147317.000    87985822.42908
  20043616.540   107182321.55208  20043618.440    83364081.34008
 15 02 19 00 12 30.0000000  0 13G16G18G21G25G27G29G31R04R09R10R11R19
                                R20
  22340442.440   117399822.62409  22340438.700    91480367.28047
  23195012.420   121890670.31709  23195009.700    94979762.70846
  21050227.940   110620058.17608  21050223.880    86197607.62448
  24194672.100   127144053.80508  24194672.560    99073362.90046
  23401927.940   122977979.72108  23401927.660    95827004.41747
  23372928.220   122826013.20008  23372926.000    95708766.77447
  22090175.340   116084670.67809  22090172.140    90455581.92848
  23048821.320   123425392.98708  23048821.340    95997529.55106
  20333806.220   108581399.30509  20333807.000    84452215.44306
  19711216.880   105071889.09609  19711221.720    81722601.45107
  23282893.640   124416723.45408  23282895.980    96768575.10504
  21161091.600   113198029.23809  21161090.520    88043128.24608
  20042546.260   107176598.37308  20042548.160    83359629.99008
 15 02 19 00 13  0.0000000  0 13G16G18G21G25G27G29G31R04R09R10R11R19
                                R20
  22325301.160   117320254.71809  22325297.460    91418366.32847
  23181728.640   121820863.63509  23181725.880    94925367.93246
  21054537.240   110642703.66409  21054533.140    86215253.47548
  24212474.500   127237605.52508  24212475.020    99146260.32846
  23389065.600   122910387.63408  23389065.300    95774335.31347
  23386783.580   122898823.53708  23386781.340    95765502.09647
  22105068.140   116162932.56909  22105064.880    90516565.19648
  23037697.400   123365825.12508  23037697.360    95951199.00006
  20351013.680   108673285.71909  20351014.420    84523682.62906
  19705421.820   105040998.08309  19705426.640    81698575.11607
  23260769.880   124298500.08607  23260771.900    96676623.54704
  21174882.760   113271802.46009  21174881.660    88100507.42108
  20041540.680   107171221.04408  20041542.500    83355447.64208
 15 02 19 00 13 30.0000000  0 14G16G18G21G25G27G29G31R04R09R10R11R19
                                R20R21
  22310190.680   117240848.74409  22310186.960    91356491.55347
  23168478.540   121751233.75509  23168475.660    94871110.91346
  21058922.880   110665750.30008  21058918.760    86233211.89648
  24230311.540   127331339.46708  24230312.080    99219299.72446
  23376224.200   122842905.95008  23376223.960    95721752.22247
  23400642.980   122971654.92408  23400640.660    95822253.77447
  22120022.720   116241519.23009  22120019.440    90577801.52748
  23026670.000   123306774.38608  23026669.960    95905270.66006
  20368328.520   108765745.64609  20368329.180    84595595.87305
  19699778.860   105010917.77909  19699783.720    81675179.31707
  23238700.380   124180566.69607  23238702.240    96584897.54704
  21188691.300   113345669.31909  21188690.280    88157959.40808
  20040599.680   107166189.07808  20040601.460    83351533.89108
  22597751.000   120925130.39308  22597752.100    94052884.05007
 15 02 19 00 14  0.0000000  0 14G16G18G21G25G27G29G31R04R09R10R11R19
                                R20R21
  22295111.120   117161605.44209  22295107.420    91294743.54047
  23155262.380   121681782.19209  23155259.400    94816992.84946
  21063384.400   110689195.55109  21063380.220    86251480.92348
  24248182.800   127425253.35708  24248183.320    99292479.33146
  23363403.600   122775533.43708  23363403.420    95669254.18847
  23414506.060   123044505.76408  23414503.720    95879020.62447
  22135038.320   116320426.75109  22135035.040    90639287.86848
  23015739.540   123248243.01907  23015739.620    95859746.28406
  20385749.900   108858774.51309  20385750.480    84667951.62006
  19694288.160   104981649.06109  19694293.040    81652414.75907
  23216685.780   124062926.81907  23216687.540    96493399.85105
  21202516.780   113419626.71309  21202515.840    88215481.80908
  20039722.720   107161499.70208  20039724.520    83347886.59608
  22584301.060   120853158.13108  22584302.500    93996905.70707
 15 02 19 00 14 30.0000000  0 13G16G18G21G25G27G29G31R04R09R10R11R19
                                R20
  22280063.080   117082527.74709  22280059.440    91233124.58247
  23142080.860   121612512.72909  23142077.880    94763016.69246
  21067921.640   110713038.78209  21067917.440    86270060.07348
  24266088.260   127519347.11808  24266088.780    99365799.11146
  23350604.000   122708271.01408  23350603.800    95616841.93547
  23428372.940   123117376.66808  23428370.580    95935803.14347
  22150114.680   116399653.48209  22150111.420    90701022.96348
  23004906.980   123190235.83507  23004907.200    95814629.62106
  20403277.300   108952369.88509  20403277.900    84740747.99706
  19688950.240   104953194.58309  19688955.060    81630283.50307
  23194726.960   123945585.18207  23194728.680    96402134.12905
  21216359.080   113493674.06709  21216358.240    88273074.18708
  20038909.680   107157152.31108  20038911.540    83344505.29208
 15 02 19 00 15  0.0000000  0  7G16G18G21G25G27G29G31
  22265046.680   117003616.34009  22265043.080    91171635.19047
  23128934.280   121543426.88809  23128931.220    94709183.58746
  21072534.220   110737277.84909  21072529.980    86288947.66148
  24284027.480   127613618.31608  24284028.020    99439257.16146
  23337825.080   122641117.38308  23337824.840    95564514.47247
  23442243.380   123190266.20408  23442240.960    95992600.13247
  22165251.060   116479195.60609  22165247.800    90763003.80048
 15 02 19 00 15 30.0000000  0  7G16G18G21G25G27G29G31
  22250062.680   116924875.28509  22250059.140    91110278.54447
  23115823.360   121474528.55909  23115820.260    94655496.60246
  21077222.160   110761913.09809  21077217.920    86308143.96548
  24302000.580   127708067.69208  24302001.200    99512854.03845
  23325067.180   122574074.30308  23325066.960    95512273.14947
  23456117.660   123263175.86408  23456115.200    96049412.84846
  22180447.220   116559051.99009  22180444.000    90825229.52048
 15 02 19 00 16  0.0000000  0  7G16G18G21G25G27G29G31
  22235111.000   116846304.01809  22235107.500    91049054.20547
  23102748.280   121405818.52409  23102745.120    94601956.34346
  21081984.680   110786940.28509  21081980.420    86327645.67648
  24320006.920   127802691.60708  24320007.560    99586586.92846
  23312329.760   122507139.13208  23312329.540    95460115.91647
  23469995.300   123336103.19408  23469992.820    96106239.29047
  22195702.180   116639217.39509  22195699.000    90887696.04448
 15 02 19 00 16 30.0000000  0  7G16G18G21G25G27G29G31
  22220192.860   116767908.72609  22220189.320    90987966.98147
  23089710.280   121337303.29509  23089707.060    94548567.89046
  21086822.340   110812362.40009  21086818.080    86347455.11648
  24338046.980   127897492.89408  24338047.520    99660458.03045
  23299613.640   122440315.77508  23299613.480    95408045.80347
  23483876.980   123409051.76308  23483874.500    96163082.29446
  22211016.180   116719693.06409  22211013.060    90950404.31848
 15 02 19 00 17  0.0000000  0  8G16G18G21G22G25G27G29G31
  22205307.440   116689685.28509  22205303.820    90927013.65647
  23076708.720   121268979.80209  23076705.500    94495328.83946
  21091733.760   110838172.40109  21091729.580    86367566.80748
  24552798.900   129025829.78908  24552797.400   100539596.94744
  24356119.560   127992464.65108  24356119.960    99734461.95845
  23286917.740   122373598.46508  23286917.560    95356058.32347
  23497761.540   123482015.34008  23497759.080    96219936.96547
  22226387.600   116800470.47609  22226384.500    91013347.71748
 15 02 19 00 17 30.0000000  0  8G16G18G21G22G25G27G29G31
  22190455.340   116611636.85709  22190451.700    90866196.70747
  23063744.300   121200851.62808  23063741.180    94442241.99346
  21096718.880   110864369.74108  21096714.780    86387980.32348
  24535488.220   128934861.29207  24535486.680   100468719.53645
  24374224.540   128087606.63708  24374224.840    99808598.54845
  23274242.160   122306987.98708  23274242.000    95304154.09247
  23511649.220   123554995.25708  23511646.740    96276804.39047
  22241816.100   116881547.84909  22241813.060    91076524.86048
 15 02 19 00 18  0.0000000  0  7G16G18G21G25G27G29G31
  22175638.020   116533771.04409  22175634.360    90805522.06747
  23050818.580   121132926.92609  23050815.560    94389313.68346
  21101778.460   110890958.40509  21101774.440    86408698.76048
  24392362.760   128182923.29608  24392363.040    99882871.24245
  23261587.920   122240489.86708  23261587.840    95252337.42047
  23525541.060   123627996.94608  23525538.500    96333688.80347
  22257302.220   116962928.07709  22257299.240    91139937.98848
 15 02 19 00 18 30.0000000  0  8G16G18G21G22G25G27G29G31
  22160855.020   116456085.48209  22160851.320    90744987.86647
  23037931.260   121065204.00108  23037928.340    94336542.61046
  21106911.420   110917932.80209  21106907.500    86429717.77348
  24500818.660                    24500815.720                  
  24410533.120   128278408.91908  24410533.420    99957275.58945
  23248954.180   122174099.52308  23248954.100    95200604.72347
  23539436.060   123701015.19808  23539433.420    96390586.09847
  22272844.680   117044604.01109  22272841.680    91203581.52848
 15 02 19 00 19  0.0000000  0  8G16G18G21G22G25G27G29G31
  22146106.780   116378582.81509  22146103.060    90684596.18447
  23025082.920   120997685.91809  23025080.040    94283931.14946
  21112117.640   110945291.89809  21112113.740    86451036.55348
  24483458.880                                                  
  24428735.480   128374062.99808  24428735.860   100031811.21145
  23236341.120   122107817.51908  23236340.980    95148956.44747
  23553334.360   123774050.99308  23553331.760    96447497.07747
  22288442.940   117126573.09709  22288439.920    91267453.51048
 15 02 19 00 19 30.0000000  0  8G16G18G21G22G25G27G29G31
  22131394.000   116301266.78209  22131390.320    90624349.92647
  23012274.460   120930377.27708  23012271.620    94231482.89346
  21117397.080   110973035.56409  21117393.160    86472654.99248
  24466085.900   128570146.30208  24466085.360   100184522.25641
  24446969.980   128469886.02408  24446970.480   100106478.45045
  23223749.000   122041645.46008  23223748.760    95097393.82947
  23567236.200   123847105.29708  23567233.680    96504422.47747
  22304096.780   117208834.39809  22304093.760    91331553.18048
 15 02 19 00 20  0.0000000  0  8G16G18G21G22G25G27G29G31
  22116716.760   116224137.61709  22116713.080    90564249.28947
  22999505.940   120863278.45909  22999503.080    94179198.11646
  21122749.160   111001160.72609  21122745.200    86494570.70748
  24448696.200                    24448695.220                  
  24465236.040   128565874.86208  24465236.640   100181274.91246
  23211177.440   121975581.31408  23211177.100    95045915.31247
  23581141.120   123920176.06908  23581138.700    96561360.69347
  22319805.320   117291383.25709  22319802.300    91395876.93148
 15 02 19 00 20 30.0000000  0  7G16G18G21G25G27G29G31
  22102075.320   116147196.63509  22102071.640    90504295.28747
  22986777.760   120796391.52708  22986774.880    94127078.45546
  21128173.500   111029665.67009  21128169.480    86516782.35848
  24483533.300   128662027.71508  24483534.040   100256199.16245
  23198626.260   121909624.36808  23198625.860    94994520.31447
  23595049.080   123993262.71908  23595046.680    96618311.26247
  22335567.960   117374216.43609  22335564.980    91460422.23348
 15 02 19 00 21  0.0000000  0  7G16G18G21G25G27G29G31
  22087470.360   116070447.23909  22087466.680    90444490.57547
  22974090.660   120729720.60308  22974087.820    94075127.12046
  21133670.020   111058550.02309  21133665.980    86539289.65448
  24501861.800   128758344.61608  24501862.620   100331251.25645
  23186095.700   121843775.86508  23186095.320    94943209.83147
  23608960.300   124066366.21908  23608957.800    96675274.95247
  22351384.380   117457332.19809  22351381.400    91525187.72548
 15 02 19 00 21 30.0000000  0  7G16G18G21G25G27G29G31
  22072902.380   115993892.10809  22072898.720    90384837.23547
  22961445.240   120663268.67008  22961442.440    94023346.41146
  21139238.500   111087812.78209  21139234.500    86562091.80848
  24520221.400   128854824.97408  24520222.280   100406430.69045
  23173585.900   121778036.34108  23173585.520    94891984.27147
  23622874.820   124139487.20708  23622872.320    96732252.31547
  22367254.200   117540728.25509  22367251.160    91590171.63348
 15 02 19 00 22  0.0000000  0  8G16G18G21G22G25G27G29G31
  22058371.480   115917531.81909  22058367.840    90325335.71947
  22948841.700   120597036.83008  22948838.980    93971737.20846
  21144878.440   111117450.82209  21144874.440    86585186.38748
  24378998.820                                                  
  24538611.580   128951465.95108  24538612.480   100481735.30545
  23161096.520   121712404.07508  23161096.100    94840842.28047
  23636792.200   124212623.57808  23636789.760    96789241.66846
  22383176.500   117624400.22009  22383173.460    91655370.51948
 15 02 19 00 22 30.0000000  0  8G16G18G21G22G25G27G29G31
  22043878.140   115841368.75809  22043874.500    90265987.88147
  22936280.660   120531028.05108  22936277.840    93920301.80446
  21150589.660   111147463.32109  21150585.660    86608572.74548
  24361541.900   128020763.59008  24361541.240    99756446.14946
  24557032.220   129048266.81808  24557033.220   100557164.47445
  23148627.600   121646879.47408  23148627.140    94789784.18647
  23650712.660   124285776.07508  23650710.180    96846243.56647
  22399150.840   117708345.61209  22399147.780    91720782.46048
 15 02 19 00 23  0.0000000  0  8G16G18G21G22G25G27G29G31
  22029422.840   115765405.73309  22029419.200    90206795.92647
  22923762.740   120465245.78808  22923759.720    93869042.92046
  21156372.000   111177849.48909  21156368.000    86632250.28148
  24344072.720   127928960.65607  24344070.360    99684902.42544
  24575483.260   129145227.02508  24575484.200   100632717.86845
  23136179.280   121581463.16008  23136178.840    94738810.47447
  23664636.280   124358945.16108  23664633.760    96903258.39846
  22415176.820   117792562.59009  22415173.820    91786406.04448
 15 02 19 00 23 30.0000000  0  7G16G18G21G25G27G29G31
  22015005.980   115689644.74609  22015002.380    90147761.39548
  22911288.400   120399692.41508  22911285.240    93817962.40146
  21162225.060   111208607.31909  21162221.040    86656217.41148
  24593964.240   129242344.90008  24593965.060   100708394.06845
  23123751.380   121516154.60208  23123751.000    94687920.72547
  23678562.920   124432130.01108  23678560.400    96960285.51046
  22431253.860   117877047.79509  22431250.880    91852238.62448
 15 02 19 00 24  0.0000000  0  8G16G18G21G22G25G27G29G31
  22000627.980   115614087.92209  22000624.460    90088885.95247
  22898858.060   120334370.55908  22898854.860    93767062.28046
  21168148.600   111239735.46409  21168144.580    86680473.11048
  24309099.800   127745178.92806  24309097.820    99541693.54645
  24612475.060   129339619.48708  24612475.760   100784192.40344
  23111344.020   121450954.03408  23111343.700    94637115.12947
  23692492.620   124505331.03208  23692490.160    97017325.24146
  22447381.460   117961798.74209  22447378.500    91918278.28148
 15 02 19 00 24 30.0000000  0  8G16G18G21G22G25G27G29G31
  21986288.320   115538732.55809  21986284.840    90030167.48448
  22886471.320   120269277.84508  22886468.120    93716340.72046
  21174141.340   111271227.14109  21174137.280    86705012.08248
  24291595.940   127653196.96005  24291594.300    99470019.41642
  24631014.540   129437044.60508  24631015.180   100860108.04445
  23098956.220   121385856.45208  23098955.960    94586389.77947
  23706424.300   124578542.96708  23706421.920    97074373.44146
  22463558.120   118046807.60109  22463555.140    91984518.90948
 15 02 19 00 25  0.0000000  0  8G16G18G21G22G25G27G29G31
  21971990.620   115463598.03709  21971987.180    89971621.10848
  22874131.940   120204434.35508  22874128.860    93665813.34346
  21180206.420   111303098.93709  21180202.320    86729847.25148
  24274084.180   127561175.09307  24274082.560    99398311.49044
  24649585.680   129534636.43107  24649586.240   100936153.55345
  23086591.360   121320879.22108  23086591.180    94535758.20747
  23720361.380   124651783.22608  23720359.100    97131443.73646
  22479786.640   118132088.85509  22479783.620    92050971.78548
 15 02 19 00 25 30.0000000  0  8G16G18G21G22G25G27G29G31
  21957731.460   115388665.80309  21957728.000    89913232.35747
  22861836.600   120139822.10408  22861833.520    93615466.16146
  21186339.560   111335328.44509  21186335.400    86754961.16048
  24256561.240                                                  
  24668184.340   129632373.02207  24668184.980   101012311.87545
  23074245.480   121256001.58508  23074245.360    94485204.22047
  23734300.040   124725031.23408  23734297.700    97188520.08346
  22496062.520   118217619.02109  22496059.480    92117618.62548
 15 02 19 00 26  0.0000000  0  8G16G18G21G22G25G27G29G31
  21943512.260   115313943.48709  21943508.760    89855007.17947
  22849586.800   120075449.07808  22849583.700    93565305.39046
  21192541.400   111367919.25509  21192537.240    86780356.60148
  24239029.240                    24239028.160                  
  24686811.320   129730258.48108  24686812.180   101088586.19145
  23061919.640   121191228.88308  23061919.520    94434732.01747
  23748241.160   124798292.04708  23748238.760    97245606.39846
  22512386.260   118303400.59109  22512383.240    92184461.35548
 15 02 19 00 26 30.0000000  0  8G16G18G21G22G25G27G29G31
  21929334.260   115239437.62609  21929330.760    89796950.68047
  22837383.800   120011322.21109  22837380.720    93515336.43646
  21198812.580   111400874.51509  21198808.420    86806036.02448
  24221488.000   127284777.11507  24221487.360    99182940.53943
  24705467.120   129828295.85007  24705468.020   101164978.88145
  23049614.580   121126565.34008  23049614.440    94384344.86947
  23762185.480   124871569.64108  23762183.160    97302705.78346
  22528758.160   118389435.24909  22528755.100    92251501.30948
 15 02 19 00 27  0.0000000  0  8G16G18G21G22G25G27G29G31
  21915196.180   115165141.59309  21915192.680    89739057.67447
  22825226.480   119947435.24509  22825223.360    93465554.40546
  21205151.100   111434183.83409  21205146.960    86831991.34948
  24203938.200   127192552.76409  24203936.060    99111074.49846
  24724150.060   129926475.28407  24724151.020   101241482.29645
  23037328.640   121062002.40508  23037328.540    94334036.14047
  23776131.460   124944855.74508  23776129.160    97359811.79346
  22545175.980   118475711.32309  22545172.920    92318729.37048
 15 02 19 00 27 30.0000000  0  8G16G18G21G22G25G27G29G31
  21901101.960   115091075.71409  21901098.480    89681344.00848
  22813118.700   119883808.69409  22813115.600    93415975.29146
  21211560.080   111467863.64009  21211556.000    86858235.35648
  24186381.760   127100294.46207  24186378.840    99039181.67446
  24742863.200   130024813.53207  24742864.360   101318109.40145
  23025065.220   120997557.94208  23025065.160    94283819.71147
  23790082.460   125018168.40308  23790080.180    97416938.51546
  22561642.640   118562244.00009  22561639.600    92386157.37948
 15 02 19 00 28  0.0000000  0  8G16G18G21G22G25G27G29G31
  21887047.580   115017219.49409  21887044.080    89623793.71148
  22801056.740   119820422.78809  22801053.700    93366583.70646
  21218034.900   111501889.43509  21218030.880    86884748.95648
  24168816.560   127007988.30107  24168814.440    98967253.94944
  24761602.080   130123286.49907  24761603.160   101394841.53345
  23012820.020   120933209.21108  23012819.920    94233677.86847
  23804034.020   125091484.15708  23804031.760    97474067.64146
  22578153.240   118649007.61509  22578150.260    92453765.33848
 15 02 19 00 28 30.0000000  0  8G16G18G21G22G25G27G29G31
  21873036.980   114943593.50109  21873033.480    89566422.81248
  22789044.580   119757298.49209  22789041.560    93317395.95546
  21224578.880   111536278.45809  21224574.860    86911545.60048
  24151245.900   126915653.52308  24151243.620    98895304.92745
  24780369.900   130221911.55407  24780370.960   101471692.15045
  23000596.580   120868974.71308  23000596.440    94183625.05247
  23817989.740   125164821.89508  23817987.560    97531213.91446
  22594710.820   118736018.06509  22594707.860    92521565.63948
 15 02 19 00 29  0.0000000  0  8G16G18G21G22G25G27G29G31
  21859069.660   114870194.65809  21859066.120    89509228.92848
  22777081.660   119694432.89409  22777078.620    93268409.81046
  21231190.700   111571024.01109  21231186.740    86938620.06148
  24133669.080   126823286.69507  24133666.560    98823330.62845
  24799165.380   130320682.01107  24799166.480   101548656.03645
  22988393.900   120804849.07108  22988393.760    94133657.05048
  23831948.620   125238176.35908  23831946.500    97588373.20447
  22611313.760   118823267.01409  22611310.880    92589551.79048
 15 02 19 00 29 30.0000000  0  8G16G18G21G22G25G27G29G31
  21845144.860   114797019.22709  21845141.280    89452209.11648
  22765167.320   119631822.63409  22765164.260    93219622.60846
  21237868.940   111606118.48109  21237864.940    86965966.40748
  24116085.700   126730882.12507  24116083.460    98751330.41041
  24817987.180   130419590.66208  24817988.220   101625727.63644
  22976210.740   120740826.25608  22976210.620    94083769.18347
  23845909.460   125311541.33908  23845907.440    97645540.69746
  22627960.460   118910745.82909  22627957.600    92657717.04747
 15 02 19 00 30  0.0000000  0  7G16G18G21G22G27G29G31
  21831264.660   114724078.36809  21831261.080    89395372.08748
  22753303.780   119569479.34909  22753300.720    93171043.44847
  21244614.980   111641569.21609  21244610.960    86993590.35848
  24098498.060   126638457.87508  24098495.380    98679314.31146
  22964048.920   120676915.44508  22964048.740    94033968.58047
  23859874.060   125384926.16008  23859872.260    97702723.64747
  22644652.080   118998460.67709  22644649.260    92726066.22647
 15 02 19 00 30 30.0000000  0  7G16G18G21G22G27G29G31
  21817425.840   114651354.85909  21817422.260    89338704.42848
  22741487.780   119507386.00309  22741484.720    93122659.03746
  21251424.720   111677354.74309  21251420.700    87021475.18748
  24080902.780   126545993.94708  24080900.380    98607264.42945
  22951904.660   120613096.96708  22951904.420    93984239.91647
  23873838.640   125458310.91208  23873836.960    97759906.52446
  22661384.360   119086389.03409  22661381.520    92794581.78647
 15 02 19 00 31  0.0000000  0  7G16G18G21G22G27G29G31
  21803632.960   114578872.67009  21803629.380    89282224.80648
  22729724.080   119445567.45509  22729721.020    93074488.76246
  21258302.060   111713495.95308  21258298.120    87049637.16348
  24063304.500   126453514.77309  24063302.420    98535202.84046
  22939782.180   120549392.84508  22939781.860    93934600.37147
  23887807.380   125531717.36208  23887805.700    97817106.32046
  22678160.880   119174549.97309  22678158.020    92863278.56847
 15 02 19 00 31 30.0000000  0  7G16G18G21G22G27G29G31
  21789885.380   114506628.48409  21789881.760    89225930.64848
  22718012.060   119384020.34009  22718009.000    93026529.99646
  21265245.720   111749985.71008  21265241.860    87078070.74248
  24045702.500   126361015.77808  24045700.500    98463125.21244
  22927680.360   120485797.23808  22927679.940    93885045.36947
  23901779.280   125605139.94008  23901777.560    97874318.69246
  22694980.060   119262935.13509  22694977.180    92932150.06347
 15 02 19 00 32  0.0000000  0  7G16G18G21G22G27G29G31
  21776182.800   114434620.71409  21776179.140    89169820.71448
  22706351.480   119322743.57109  22706348.440    92978781.88746
  21272254.640   111786818.29308  21272250.860    87106771.46648
  24028096.980   126268497.40308  24028095.100    98391032.46846
  22915598.460   120422306.52208  22915598.040    93835572.11547
  23915753.680   125678575.46108  23915751.900    97931541.14546
  22711840.600   119351537.85509  22711837.760    93001191.10548
 15 02 19 00 32 30.0000000  0  7G16G18G21G22G27G29G31
  21762525.940   114362853.24409  21762522.240    89113898.02248
  22694743.080   119261741.12509  22694740.020    92931247.52346
  21279328.860   111823994.10908  21279325.140    87135739.63048
  24010488.680   126175963.87408  24010486.960    98318928.02846
  22903536.740   120358922.14508  22903536.340    93786181.71747
  23929730.680   125752024.79508  23929728.980    97988774.37046
  22728742.340   119440356.93509  22728739.540    93070400.72147
 15 02 19 00 33  0.0000000  0  7G16G18G21G22G27G29G31
  21748915.060   114291327.37109  21748911.280    89058163.59248
  22683187.120   119201014.36109  22683184.080    92883927.98146
  21286467.840   111861510.06208  21286464.160    87164972.84248
  23992877.920   126083417.47108  23992876.360    98246813.84846
  22891495.140   120295643.32008  22891494.740    93736873.56747
  23943710.140   125825487.26308  23943708.400    98046017.82146
  22745684.480   119529388.27909  22745681.720    93139775.73747
 15 02 19 00 33 30.0000000  0  7G16G18G21G22G27G29G31
  21735350.640   114220045.86309  21735346.820    89002619.56448
  22671684.320   119140566.84109  22671681.260    92836826.03647
  21293671.460   111899365.44108  21293667.800    87194470.53448
  23975265.320   125990862.04708  23975263.900    98174693.30946
  22879473.720   120232470.53908  22879473.360    93687648.04847
  23957692.300   125898963.56108  23957690.460    98103272.04646
  22762666.640   119618629.73309  22762663.880    93209314.48147
 15 02 19 00 34  0.0000000  0  7G16G18G21G22G27G29G31
  21721833.140   114149011.22609  21721829.340    88947267.90948
  22660235.200   119080401.24109  22660232.160    92789943.76547
  21300939.380   111937558.41609  21300935.660    87224231.29848
  23957651.140   125898299.13808  23957649.620    98102567.09245
  22867472.580   120169404.10408  22867472.220    93638505.40247
  23971677.060   125972453.61908  23971675.080    98160536.99346
  22779688.280   119708078.67909  22779685.520    93279014.90347
 15 02 19 00 34 30.0000000  0  7G16G18G21G22G27G29G31
  21708363.220   114078226.60209  21708359.440    88892111.06948
  22648840.280   119020520.40109  22648837.200    92743283.38647
  21308271.600   111976089.04309  21308267.800    87254255.16148
  23940036.080   125805732.56808  23940034.320    98030438.00046
  22855491.800   120106444.77509  22855491.480    93589446.21147
  23985664.620   126045958.59508  23985662.500    98217813.58446
  22796749.040   119797733.02909  22796746.260    93348875.37647
 15 02 19 00 35  0.0000000  0  7G16G18G21G22G27G29G31
  21694940.980   114007692.58909  21694937.200    88837149.50848
  22637499.800   118960925.62709  22637496.680    92696845.91647
  21315667.360   112014953.49309  21315663.480    87284539.15248
  23922420.280   125713162.88508  23922418.400    97958306.46946
  22843531.100   120043590.89108  22843530.760    93540469.18947
  23999654.740   126119476.74108  23999652.500    98275100.40246
  22813848.020   119887588.39709  22813845.180    93418892.48247
 15 02 19 00 35 30.0000000  0  7G16G18G21G22G27G29G31
  21681567.080   113937412.44609  21681563.340    88782385.77548
  22626214.400   118901620.38109  22626211.260    92650634.04747
  21323126.580   112054151.56209  21323122.620    87315083.10848
  23904804.520   125620593.97208  23904802.460    97886175.55746
  22831590.720   119980843.61309  22831590.340    93491575.23347
  24013647.580   126193009.30208  24013645.280    98332398.47746
  22830984.900   119977643.03609  22830982.060    93489064.87547
 15 02 19 00 36  0.0000000  0  7G16G18G21G22G27G29G31
  21668241.740   113867387.15909  21668237.980    88727820.61948
  22614984.340   118842606.04909  22614981.200    92604648.86347
  21330648.740   112093680.17809  21330644.700    87345884.62948
  23887189.200   125528028.31408  23887187.140    97814047.57246
  22819670.420   119918201.73209  22819669.920    93442763.38647
  24027642.860   126266554.69208  24027640.560    98389706.55346
  22848158.880   120067892.88609  22848156.100    93559389.36047
 15 02 19 00 36 30.0000000  0  7G16G18G21G22G27G29G31
  21654965.520   113797620.04709  21654961.760    88673456.64648
  22603810.300   118783886.04109  22603807.080    92558893.02747
  21338233.680   112133538.73909  21338229.520    87376943.25448
  23869574.740   125435467.61208  23869572.600    97741923.00946
  22807770.340   119855666.16609  22807769.740    93394034.39847
  24041640.860   126340114.32108  24041638.600    98447025.71846
  22865369.620   120158335.90109  22865366.900    93629864.38147
 15 02 19 00 37  0.0000000  0  7G16G18G21G22G27G29G31
  21641738.760   113728112.79109  21641734.940    88619295.14748
  22592692.540   118725462.12809  22592689.400    92513367.91647
  21345880.980   112173724.88309  21345876.700    87408257.12948
  23851961.740   125342914.54208  23851959.600    97669804.15446
  22795890.320   119793236.22709  22795889.640    93345387.71947
  24055641.380   126413687.32708  24055639.180    98504355.27746
  22882616.380   120248968.28709  22882613.700    93700486.95047
 15 02 19 00 37 30.0000000  0  7G16G18G21G22G27G29G31
  21628562.340   113658870.15009  21628558.460    88565339.85148
  22581632.100   118667339.47809  22581629.020    92468077.55647
  21353590.800   112214239.91109  21353586.480    87439827.28548
  23834351.460   125250374.85008  23834349.300    97597695.66146
  22784030.960   119730914.88009  22784030.260    93296825.65748
  24069645.000   126487276.71808  24069642.840    98561697.61346
  22899899.240   120339790.32909  22899896.640    93771257.30347
 15 02 19 00 38  0.0000000  0  7G16G18G21G22G27G29G31
  21615435.380   113589887.40509  21615431.520    88511587.07948
  22570628.100   118609513.31709  22570625.020    92423018.23547
  21361361.480   112255074.98909  21361357.180    87471646.83248
  23816743.020   125157844.14308  23816740.760    97525594.14146
  22772190.880   119668694.94509  22772190.180    93248342.61948
  24083650.280   126560874.89308  24083648.280    98619046.76446
  22917216.320   120430792.01209  22917213.760    93842167.64847
 15 02 19 00 38 30.0000000  0  7G16G18G21G22G27G29G31
  21602359.720   113521174.50009  21602355.940    88458044.56248
  22559682.560   118551994.27709  22559679.520    92378198.22447
  21369194.160   112296236.13209  21369189.920    87503720.44848
  23799138.400   125065333.01908  23799136.000    97453507.85046
  22760371.580   119606584.24609  22760370.880    93199944.67847
  24097658.780   126634490.09708  24097656.980    98676409.20147
  22934568.520   120521978.17609  22934565.940    93913221.72647
 15 02 19 00 39  0.0000000  0  7G16G18G21G22G27G29G31
  21589334.580   113452726.95609  21589330.840    88404708.82348
  22548794.600   118494777.67709  22548791.580    92333613.87847
  21377087.260   112337714.85009  21377083.080    87536041.53548
  23781536.760   124972837.13508  23781534.180    97381433.43046
  22748571.760   119544575.94909  22748571.100    93151626.53147
  24111669.280   126708115.85008  24111667.660    98733779.86347
  22951953.980   120613339.08009  22951951.420    93984411.96947
 15 02 19 00 39 30.0000000  0  7G16G18G21G22G27G29G31
  21576361.380   113384552.53509  21576357.660    88351585.90648
  22537965.600   118437870.96309  22537962.520    92289270.99947
  21385041.460   112379514.83109  21385037.360    87568612.95348
  23763939.600   124880364.54908  23763936.900    97309377.15846
  22736792.460   119482675.34709  22736791.780    93103392.32448
  24125682.620   126781757.05308  24125681.160    98791162.55547
  22969373.140   120704876.95009  22969370.540    94055740.11247
 15 02 19 00 40  0.0000000  0  7G16G18G21G22G27G29G31
  21563440.060   113316650.64009  21563436.380    88298675.33848
  22527195.640   118381274.72009  22527192.540    92245170.04347
  21393056.040   112421632.19609  21393052.020    87601431.67648
  23746346.980   124787915.54508  23746344.080    97237339.23346
  22725033.200   119420880.06609  22725032.440    93055240.18647
  24139698.540   126855411.57508  24139697.160    98848555.63247
  22986824.980   120796586.69709  22986822.400    94127202.17247
 15 02 19 00 40 30.0000000  0  7G16G18G21G22G27G29G31
  21550571.020   113249023.32309  21550567.320    88245978.73048
  22516485.140   118324990.64109  22516481.960    92201312.33647
  21401130.580   112464064.36309  21401126.600    87634495.71348
