     2.11           OBSERVATION DATA    G                   RINEX VERSION / TYPE
SPIDER V4,0,0,3554                      2015 04 16 11:50    PGM / RUN BY / DATE 
CABS                                                        MARKER NAME         
CABS                                                        MARKER NUMBER       
                                                            OBSERVER / AGENCY   
462287              LEICA GRX1200PRO    8.10/2.127          REC # / TYPE / VERS 
103298              LEIAT504                                ANT # / TYPE        
  5116912.3402   671231.6412  3737143.4301                  APPROX POSITION XYZ 
        0.0600        0.0000        0.0000                  ANTENNA: DELTA H/E/N
     1     1                                                WAVELENGTH FACT L1/2
     4    C1    L1    P2    L2                              # / TYPES OF OBSERV 
    30.000                                                  INTERVAL            
  2015    02    19    00    00    0.0000000     GPS         TIME OF FIRST OBS   
  2015    02    19    23    59   30.0000000     GPS         TIME OF LAST OBS    
    16                                                      LEAP SECONDS        
    30                                                      # OF SATELLITES     
   G 1   801   801   801   801                              PRN / # OF OBS      
   G 2   941   941   941   941                              PRN / # OF OBS      
   G 3   847   847   847   847                              PRN / # OF OBS      
   G 4   831   831   831   831                              PRN / # OF OBS      
   G 5   632   632   632   632                              PRN / # OF OBS      
   G 6   824   824   824   824                              PRN / # OF OBS      
   G 7   673   673   673   673                              PRN / # OF OBS      
   G 9   806   806   806   806                              PRN / # OF OBS      
   G10   745   745   745   745                              PRN / # OF OBS      
   G11   443   443   443   443                              PRN / # OF OBS      
   G12   820   820   820   820                              PRN / # OF OBS      
   G13   792   792   792   792                              PRN / # OF OBS      
   G14   935   935   934   934                              PRN / # OF OBS      
   G15   687   687   687   687                              PRN / # OF OBS      
   G16   664   664   664   664                              PRN / # OF OBS      
   G17   941   941   941   941                              PRN / # OF OBS      
   G18   902   902   902   902                              PRN / # OF OBS      
   G19   750   750   750   750                              PRN / # OF OBS      
   G20   782   782   782   782                              PRN / # OF OBS      
   G21   735   735   735   735                              PRN / # OF OBS      
   G22   658   658   658   658                              PRN / # OF OBS      
   G23   755   755   755   755                              PRN / # OF OBS      
   G24   816   816   816   816                              PRN / # OF OBS      
   G25   855   855   855   855                              PRN / # OF OBS      
   G27   800   800   800   800                              PRN / # OF OBS      
   G28   867   867   867   867                              PRN / # OF OBS      
   G29   757   757   757   757                              PRN / # OF OBS      
   G30   719   719   719   719                              PRN / # OF OBS      
   G31   870   870   870   870                              PRN / # OF OBS      
   G32   771   771   771   771                              PRN / # OF OBS      
BIT 2 OF LLI FLAGS DATA COLLECTED UNDER A/S CONDITION       COMMENT             
SNR is mapped to RINEX snr flag value [2-9]                 COMMENT             
Lx:     = 25dBHz -> 1; 26-27dBHz -> 2; 28-31dBHz -> 3       COMMENT             
       32-35dBHz -> 4; 36-38dBHz -> 5; 39-41dBHz -> 6       COMMENT             
       42-44dBHz -> 7; 45-48dBHz -> 8; >=49dBHz -> 9        COMMENT             
                                                            END OF HEADER       
 15 02 19 00 00  0.0000000  0  7G16G18G21G25G27G29G31
  22856515.880   120111804.49907  22856517.060    93593609.09446
  23452786.760   123245272.14006  23452789.000    96035291.11945
  20904993.140   109856693.83608  20904993.920    85602715.97149
  23565294.760   123836615.07006  23565300.040    96496149.07445
  24070621.880   126491983.33305  24070626.860    98565198.33946
  22680361.900   119186417.38308  22680363.580    92872684.34647
  21985948.960   115536958.57708  21985950.200    90028810.68448
 15 02 19 00 00 30.0000000  0  7G16G18G21G25G27G29G31
  22840043.680   120025242.24307  22840044.760    93526158.00046
  23437997.140   123167553.57006  23437999.560    95974731.25845
  20906288.980   109863503.43708  20906289.740    85608022.15849
  23582759.940   123928394.19606  23582765.200    96567665.25446
  24056453.600   126417528.85305  24056458.560    98507181.88745
  22693503.800   119255478.21608  22693505.440    92926497.94347
  21999497.200   115608154.75908  21999498.360    90084288.20248
 15 02 19 00 01  0.0000000  0  7G16G18G21G25G27G29G31
  22823596.260   119938810.47307  22823597.320    93458808.58746
  23423229.700   123089951.77606  23423232.300    95914262.37345
  20907665.420   109870736.66508  20907666.180    85613658.43949
  23600266.460   124020390.30706  23600271.540    96639350.53445
  24042301.660   126343160.45805  24042306.580    98449232.53446
  22706657.420   119324600.59508  22706659.080    92980359.51347
  22013115.780   115679720.80108  22013116.940    90140053.92948
 15 02 19 00 01 30.0000000  0  7G16G18G21G25G27G29G31
  22807173.600   119852509.16407  22807174.780    93391560.82946
  23408484.960   123012468.43806  23408487.620    95853885.79345
  20909121.900   109878390.36908  20909122.640    85619622.36549
  23617813.640   124112600.49106  23617818.560    96711202.59646
  24028165.840   126268876.38305  24028170.740    98391348.86746
  22719822.220   119393782.00208  22719823.940    93034267.06847
  22026803.800   115751652.22008  22026805.080    90196104.36548
 15 02 19 00 02  0.0000000  0  7G16G18G21G25G27G29G31
  22790776.280   119766340.94507  22790777.580    93324416.79446
  23393763.440   122935106.53306  23393766.100    95793603.84445
  20910658.280   109886464.17108  20910659.020    85625913.64149
  23635401.340   124205024.23906  23635406.200    96783221.08545
  24014046.260   126194677.33705  24014051.140    98333531.49846
  22732998.480   119463023.52708  22733000.260    93088221.49747
  22040560.980   115823947.17008  22040562.440    90252438.07848
 15 02 19 00 02 30.0000000  0  7G16G18G21G25G27G29G31
  22774404.620   119680307.28307  22774405.940    93257377.59746
  23379065.700   122857868.55807  23379068.160    95733418.45045
  20912274.400   109894956.93408  20912275.160    85632531.38749
  23653029.300   124297660.07806  23653033.940    96855404.85345
  23999942.780   126120562.82805  23999947.620    98275779.99746
  22746185.900   119532323.86607  22746187.740    93142221.75747
  22054386.820   115896602.67308  22054388.400    90309052.73948
 15 02 19 00 03  0.0000000  0  7G16G18G21G25G27G29G31
  22758059.300   119594412.05207  22758060.580    93190446.27147
  23364392.400   122780758.33507  23364394.440    95673332.60345
  20913970.420   109903869.63408  20913971.180    85639476.35849
  23670697.600   124390508.39606  23670702.140    96927754.19444
  23985855.680   126046534.55206  23985860.500    98218095.68345
  22759384.820   119601684.60607  22759386.700    93196269.07847
  22068281.200   115969617.74408  22068282.760    90365947.57748
 15 02 19 00 03 30.0000000  0  7G16G18G21G25G27G29G31
  22741740.220   119508655.04707  22741741.520    93123622.64347
  23349743.620   122703777.38607  23349745.320    95613347.47744
  20915745.700   109913199.07508  20915746.520    85646746.06049
  23688405.720   124483566.32006  23688410.260    97000266.85544
  23971784.700   125972590.70105  23971789.420    98160477.15345
  22772594.780   119671103.36707  22772596.660    93250361.59547
  22082243.260   116042988.16808  22082244.720    90423119.31948
 15 02 19 00 04  0.0000000  0  7G16G18G21G25G27G29G31
  22725448.000   119423039.14707  22725449.300    93056908.96547
  23335119.740   122626928.35907  23335121.340    95553465.17245
  20917600.160   109922944.51208  20917601.000    85654339.91349
  23706153.720   124576833.14106  23706158.160    97072942.28445
  23957729.960   125898731.78506  23957734.420    98102924.81646
  22785815.720   119740580.07007  22785817.740    93304499.23447
  22096272.460   116116711.40208  22096273.740    90480565.96548
 15 02 19 00 04 30.0000000  0  7G16G18G21G25G27G29G31
  22709183.040   119337566.57607  22709184.400    92990306.97047
  23320521.600   122550215.03907  23320523.120    95493688.56244
  20919533.800   109933105.88008  20919534.640    85662257.87149
  23723941.400   124670308.22506  23723945.820    97145779.98945
  23943691.380   125824958.29206  23943695.660    98045439.03545
  22799047.840   119810115.16707  22799049.900    93358682.40047
  22110368.360   116190785.57308  22110369.500    90538286.07148
 15 02 19 00 05  0.0000000  0  7G16G18G21G25G27G29G31
  22692945.700   119252238.94907  22692947.120    92923817.92646
  23305949.540   122473639.42207  23305951.160    95434019.30744
  20921546.240   109943681.52308  20921547.140    85670498.63649
  23741768.480   124763989.80506  23741772.820    97218778.62345
  23929668.880   125751269.73305  23929673.060    97988019.42445
  22812290.960   119879707.98007  22812292.980    93412910.54447
  22124530.340   116265207.21408  22124531.360    90596276.93648
 15 02 19 00 05 30.0000000  0  7G16G18G21G25G27G29G31
  22676736.340   119167058.02407  22676737.720    92857443.19647
  23291404.080   122397203.75606  23291405.820    95374459.07145
  20923637.320   109954670.23808  20923638.200    85679061.27749
  23759634.660   124857876.60806  23759639.000    97291937.15745
  23915662.500   125677665.93805  23915666.580    97930665.87946
  22825544.880   119949357.59707  22825546.880    93467182.95447
  22138757.920   116339973.70208  22138758.900    90654536.51248
 15 02 19 00 06  0.0000000  0  7G16G18G21G25G27G29G31
  22660555.220   119082025.32807  22660556.500    92791183.95347
  23276885.760   122320910.58906  23276887.700    95315009.89745
  20925806.660   109966070.15508  20925807.520    85687944.32949
  23777539.560   124951966.77206  23777543.980    97365254.15445
  23901672.060   125604146.36205  23901676.180    97873377.95146
  22838809.540   120019063.39608  22838811.480    93521499.13347
  22153050.480   116415081.83508  22153051.520    90713062.30348
 15 02 19 00 06 30.0000000  0  7G16G18G21G25G27G29G31
  22644403.000   118997144.76107  22644404.240    92725043.26147
  23262395.500   122244764.20006  23262397.600    95255675.06945
  20928054.400   109977882.05908  20928055.220    85697148.41649
  23795483.180   125046260.85906  23795487.900    97438730.03445
  23887697.940   125530712.61205  23887702.180    97816156.89246
  22852085.080   120088826.40907  22852086.960    93575859.88347
  22167407.920   116490530.58908  22167409.040    90771853.51448
 15 02 19 00 07  0.0000000  0  7G16G18G21G25G27G29G31
  22628279.840   118912417.07707  22628281.080    92659021.69447
  23247933.540   122168766.15807  23247935.680    95196455.84645
  20930380.240   109990104.18808  20930380.980    85706672.16249
  23813465.160   125140756.62306  23813470.100    97512363.08346
  23873739.980   125457363.80705  23873744.400    97759002.06146
  22865371.240   120158645.68807  22865373.160    93630264.46747
  22181829.500   116566316.22708  22181830.720    90830907.23348
 15 02 19 00 07 30.0000000  0  7G16G18G21G25G27G29G31
  22612185.980   118827843.52507  22612187.300    92593120.22447
  23233500.240   122092918.08507  23233502.280    95137353.49045
  20932783.640   110002734.13808  20932784.360    85716513.68749
  23831485.240   125235451.91306  23831490.200    97586151.60245
  23859798.140   125384099.00105  23859802.620    97701912.64347
  22878667.820   120228519.88707  22878669.820    93684711.86447
  22196314.440   116642434.90108  22196315.800    90890220.46148
 15 02 19 00 08  0.0000000  0  7G16G18G21G25G27G29G31
  22596122.060   118743426.95807  22596123.420    92527341.08347
  23219096.240   122017223.91007  23219098.240    95078371.03746
  20935264.680   110015772.01808  20935265.360    85726673.07649
  23849543.300   125330346.54406  23849548.200    97660095.44846
  23845872.160   125310907.11705  23845877.180    97644881.40247
  22891974.900   120298449.50107  22891977.040    93739202.46247
  22210862.440   116718885.21508  22210863.960    90949792.11848
 15 02 19 00 08 30.0000000  0  7G16G18G21G25G27G29G31
  22580088.440   118659169.54808  22580089.760    92461685.97347
  23204721.960   121941685.78107  23204723.920    95019510.18645
  20937823.040   110029216.27208  20937823.700    85737149.12849
  23867638.960   125425438.92806  23867643.780    97734193.40245
  23831962.700   125237811.90205  23831967.480    97587924.13246
  22905292.440   120368434.24307  22905294.720    93793736.00247
  22225472.960   116795664.08908  22225474.600    91009619.79048
 15 02 19 00 09  0.0000000  0  7G16G18G21G25G27G29G31
  22564085.520   118575073.45208  22564086.800    92396156.55547
  23190377.920   121866307.17407  23190380.000    94960773.62745
  20940458.580   110043066.26508  20940459.240    85747941.33249
  23885771.960   125520728.64706  23885776.800    97808445.11446
  23818069.560   125164802.15905  23818074.120    97531033.46746
  22918620.520   120438474.18307  22918622.960    93848312.55147
  22240145.620   116872769.70608  22240147.380    91069702.06848
 15 02 19 00 09 30.0000000  0  7G16G18G21G25G27G29G31
  22548113.480   118491139.80508  22548114.740    92330753.72047
  23176064.420   121791089.72807  23176066.660    94902162.64945
  20943170.940   110057319.95208  20943171.600    85759048.10249
  23903942.020   125616213.10906  23903946.680    97882848.56845
  23804192.460   125091876.64206  23804196.780    97474208.45246
  22931958.960   120508568.09007  22931961.480    93902931.15547
  22254879.660   116950197.64008  22254881.420    91130035.49948
 15 02 19 00 10  0.0000000  0  7G16G18G21G25G27G29G31
  22532173.140   118407372.75008  22532174.380    92265480.70047
  23161782.440   121716037.97907  23161784.780    94843680.78545
  20945960.300   110071978.15908  20945960.960    85770470.08349
  23922149.140   125711893.14206  23922153.660    97957404.43344
  23790331.640   125019037.32106  23790335.860    97417450.59146
  22945308.040   120578717.95307  22945310.620    93957593.35347
  22269674.980   117027947.38008  22269676.660    91190619.68748
 15 02 19 00 10 30.0000000  0  7G16G18G21G25G27G29G31
  22516264.660   118323773.12608  22516265.900    92200338.13847
  23147532.340   121641153.57107  23147534.680    94785329.31945
  20948826.200   110087038.62008  20948826.860    85782205.50949
  23940392.960   125807766.27705  23940397.460    98032110.76144
  23776486.920   124946282.98406  23776491.140    97360758.95946
  22958667.420   120648921.98407  22958670.080    94012297.74047
  22284530.780   117106014.77608  22284532.360    91251451.39147
 15 02 19 00 11  0.0000000  0  7G16G18G21G25G27G29G31
  22500388.240   118240342.09708  22500389.500    92135326.94847
  23133314.440   121566438.12607  23133316.620    94727109.51645
  20951768.220   110102499.17608  20951768.900    85794252.69649
  23958673.140   125903830.37805  23958677.840    98106965.89445
  23762658.160   124873612.90906  23762662.380    97304132.97146
  22972037.000   120719179.11807  22972039.600    94067043.56246
  22299446.440   117184396.90108  22299448.000    91312528.34948
 15 02 19 00 11 30.0000000  0  7G16G18G21G25G27G29G31
  22484544.400   118157082.43108  22484545.700    92070449.29547
  23119129.340   121491895.06707  23119131.280    94669024.03245
  20954786.280   110118359.20908  20954787.000    85806611.16249
  23976989.560   126000084.61305  23976994.340    98181969.20144
  23748845.480   124801027.41306  23748849.680    97247572.91146
  22985416.760   120789489.42707  22985419.140    94121830.79647
  22314421.420   117263090.75008  22314422.980    91373848.21148
 15 02 19 00 12  0.0000000  0  7G16G18G21G25G27G29G31
  22468733.280   118073994.45908  22468734.520    92005705.43147
  23104977.320   121417525.44507  23104978.940    94611073.71445
  20957879.800   110134615.85608  20957880.560    85819278.68749
  23995341.860   126096526.23006  23995346.520    98257118.50744
  23735048.680   124728525.08706  23735052.920    97191077.62445
  22998806.220   120859851.09607  22998808.400    94176658.01546
  22329454.940   117342092.21308  22329456.500    91435407.77047
 15 02 19 00 12 30.0000000  0  7G16G18G21G25G27G29G31
  22452955.560   117991082.26208  22452956.780    91941098.54247
  23090859.220   121343334.10307  23090860.620    94553262.31945
  20961048.980   110151270.02508  20961049.760    85832255.96949
  24013730.220   126193155.98006  24013734.500    98332414.41445
  23721268.020   124656108.03606  23721272.280    97134648.80145
  23012205.720   120930265.89207  23012207.840    94231526.64446
  22344546.840   117421400.64608  22344548.420    91497206.53248
 15 02 19 00 13  0.0000000  0  7G16G18G21G25G27G29G31
  22437211.660   117908347.57208  22437212.800    91876629.95747
  23076775.380   121269323.00307  23076776.700    94495591.35145
  20964293.500   110168319.95908  20964294.260    85845541.62649
  24032154.100   126289971.97606  24032158.120    98407855.44845
  23707503.500   124583775.59506  23707507.740    97078285.89246
  23025615.240   121000733.26907  23025617.340    94286436.26046
  22359696.520   117501012.61708  22359698.060    91559241.80647
 15 02 19 00 13 30.0000000  0  7G16G18G21G25G27G29G31
  22421501.980   117825792.85108  22421503.060    91812301.61147
  23062726.380   121195495.01807  23062727.680    94438063.06746
  20967613.140   110185764.75108  20967613.880    85859134.97649
  24050613.120   126386973.17306  24050617.040    98483440.76945
  23693755.200   124511528.17205  23693759.400    97021989.24145
  23039034.800   121071253.46907  23039036.920    94341387.02046
  22374903.500   117580925.60808  22374904.960    91621511.63647
 15 02 19 00 14  0.0000000  0  7G16G18G21G25G27G29G31
  22405827.060   117743420.21208  22405828.040    91748115.14147
  23048712.680   121121852.79507  23048714.140    94380679.53145
  20971007.700   110203603.19708  20971008.400    85873035.07149
  24069107.020   126484158.31706  24069111.060    98559169.45945
  23680023.100   124439365.70105  23680027.260    96965758.78246
  23052464.360   121141826.00007  23052466.440    94396378.55947
  22390167.220   117661136.82508  22390168.580    91684013.85647
 15 02 19 00 14 30.0000000  0  7G16G18G21G25G27G29G31
  22390187.180   117661231.66808  22390188.140    91684072.12647
  23034734.920   121048399.18607  23034736.520    94323442.96146
  20974476.860   110221833.74008  20974477.560    85887240.69549
  24087635.460   126581526.09206  24087639.760    98635040.42645
  23666307.140   124367288.20506  23666311.300    96909594.53445
  23065903.820   121212450.48907  23065905.920    94451410.60547
  22405487.120   117741643.57108  22405488.480    91746746.34747
 15 02 19 00 15  0.0000000  0  7G16G18G21G25G27G29G31
  22374582.840   117579230.07608  22374583.800    91620174.78847
  23020793.780   120975137.72807  23020795.440    94266356.11546
  20978020.600   110240456.29808  20978021.300    85901751.77949
  24106198.320   126679075.93306  24106203.100    98711053.28544
  23652607.580   124295296.50506  23652611.680    96853497.13445
  23079353.240   121283127.59207  23079355.380    94506483.63747
  22420862.880   117822443.85908  22420864.260    91809707.58247
 15 02 19 00 15 30.0000000  0  7G16G18G21G25G27G29G31
  22359014.240   117497416.64408  22359015.220    91556424.07647
  23006889.360   120902069.30007  23006891.100    94209419.70045
  20981638.460   110259468.37308  20981639.180    85916566.38549
  24124795.240   126776805.31505  24124800.440    98787206.02944
  23638924.140   124223389.43206  23638928.240    96797465.69246
  23092812.360   121353855.71907  23092814.480    94561596.41646
  22436293.760   117903533.54408  22436295.180    91872894.32747
 15 02 19 00 16  0.0000000  0  7G16G18G21G25G27G29G31
  22343481.700   117415792.81608  22343482.760    91492821.11647
  22993022.220   120829196.59107  22993023.960    94152635.80145
  20985330.020   110278867.68908  20985330.740    85931682.73649
  24143425.940   126874712.37705  24143431.600    98863497.22445
  23625256.700   124151566.44506  23625260.840    96741499.74846
  23106281.160   121424634.46207  23106283.240    94616748.64946
  22451779.080   117984909.17708  22451780.540    91936303.89047
 15 02 19 00 16 30.0000000  0  7G16G18G21G25G27G29G31
  22327985.700   117334360.89908  22327986.780    91429367.68447
  22979192.760   120756522.04107  22979194.520    94096006.31345
  20989095.080   110298653.38808  20989095.840    85947100.17349
  24162090.360   126972795.69605  24162096.160    98939925.77246
  23611605.220   124079827.52006  23611609.480    96685599.33046
  23119759.460   121495463.31207  23119761.540    94671939.91746
  22467318.260   118066567.93208  22467319.780    91999934.07147
 15 02 19 00 17  0.0000000  0  7G16G18G21G25G27G29G31
  22312526.660   117253123.18508  22312527.740    91366065.58047
  22965401.560   120684048.90607  22965403.360    94039533.75245
  20992933.540   110318824.74708  20992934.340    85962818.12349
  24180788.300   127071054.52005  24180794.040    99016491.06944
  23597969.840   124008173.24906  23597974.180    96629764.86246
  23133247.360   121566342.38707  23133249.420    94727170.33946
  22482910.860   118148507.50408  22482912.440    92063783.06347
 15 02 19 00 17 30.0000000  0  7G16G18G21G25G27G29G31
  22297105.080   117172082.29608  22297106.180    91302916.85547
  22951649.100   120611780.07607  22951650.980    93983220.39946
  20996845.140   110339380.64908  20996846.020    85978835.71549
  24199519.620   127169487.69805  24199525.160    99093192.22445
  23584350.560   123936603.85406  23584354.940    96573996.53146
  23146744.900   121637272.23107  23146746.960    94782440.30246
  22498556.400   118230725.33208  22498557.980    92127848.87347
 15 02 19 00 18  0.0000000  0  7G16G18G21G25G27G29G31
  22281720.880   117091238.02408  22281722.040    91239921.32747
  22937935.560   120539715.78607  22937937.420    93927066.41746
  21000829.220   110360317.31708  21000830.160    85995150.00649
  24218283.560   127268091.58105  24218288.620    99170026.39844
  23570747.100   123865117.11806  23570751.440    96518292.62646
  23160251.660   121708250.42607  23160253.660    94837747.93947
  22514253.920   118313216.32208  22514255.460    92192127.54447
 15 02 19 00 18 30.0000000  0  7G16G18G21G25G27G29G31
  22266375.300   117010596.54808  22266376.500    91177083.83247
  22924262.240   120467862.80307  22924264.100    93871077.10845
  21004886.340   110381637.60808  21004887.260    86011763.22649
  24237080.440   127366868.63005  24237085.120    99246995.48444
  23557160.140   123793716.89906  23557164.340    96462656.11846
  23173768.180   121779280.20507  23173770.180    94893095.76446
  22530003.660   118395981.63308  22530005.120    92256619.96147
 15 02 19 00 19  0.0000000  0  7G16G18G21G25G27G29G31
  22251068.340   116930157.62608  22251069.460    91114404.16447
  22910629.140   120396221.09407  22910631.040    93815252.44746
  21009015.720   110403337.60208  21009016.620    86028672.32049
  24255909.600   127465815.14106  24255913.740    99324096.70544
  23543589.120   123722400.90206  23543593.280    96407085.24446
  23187294.100   121850359.50507  23187296.080    94948482.18846
  22545804.480   118479015.65208  22545805.900    92321321.77047
 15 02 19 00 19 30.0000000  0  8G16G18G21G22G25G27G29G31
  22235801.800   116849931.36108  22235802.880    91051890.19847
  22897038.400   120324801.52807  22897040.220    93759600.86645
  21013218.520   110425423.51208  21013219.400    86045882.12549
  24561741.180   129072823.22305  24561745.720   100576228.36944
  24274772.200   127564937.68306  24274776.020    99401335.03344
  23530035.620   123651177.03606  23530039.780    96351586.16246
  23200830.860   121921495.63007  23200832.820    95003912.89645
  22561657.460   118562323.59008  22561658.840    92386237.01347
 15 02 19 00 20  0.0000000  0  8G16G18G21G22G25G27G29G31
  22220569.600   116769885.67808  22220570.620    90989516.94947
  22883483.920   120253572.03707  22883485.660    93704097.38646
  21017488.040   110447859.94408  21017488.880    86063365.06749
  24543646.560   128977731.57205  24543649.140   100502131.35044
  24293661.340   127664200.51606  24293665.120    99478682.69644
  23516493.100   123580010.95206  23516497.180    96296132.12046
  23214371.820   121992654.01507  23214373.740    95059360.95646
  22577555.500   118645868.28308  22577556.880    92451336.74147
 15 02 19 00 20 30.0000000  0  8G16G18G21G22G25G27G29G31
  22205381.820   116690073.65008  22205382.760    90927325.76847
  22869975.900   120182586.39207  22869977.560    93648783.92045
  21021833.780   110470696.95208  21021834.600    86081160.14449
  24525541.880   128882589.67506  24525543.520   100427995.20644
  24312586.440   127763653.26805  24312590.540    99556178.30745
  23502971.340   123508953.80206  23502975.300    96240762.97446
  23227926.740   122063885.85807  23227928.720    95114866.24946
  22593507.800   118729698.14608  22593509.240    92516658.69447
 15 02 19 00 21  0.0000000  0  8G16G18G21G22G25G27G29G31
  22190233.880   116610470.86408  22190234.760    90865297.61747
  22856509.780   120111820.71307  22856511.380    93593641.83845
  21026250.380   110493906.29908  21026251.160    86099245.35249
  24507422.560   128787373.41706  24507424.100   100353801.07345
  24331542.340   127863267.88105  24331546.740    99633800.08545
  23489465.260   123437978.90706  23489469.060    96185457.89646
  23241490.520   122135164.11407  23241492.640    95170407.72646
  22609508.680   118813783.36508  22609510.180    92582179.62147
 15 02 19 00 21 30.0000000  0  8G16G18G21G22G25G27G29G31
  22175126.640   116531081.95808  22175127.520    90803436.14247
  22843086.460   120041279.83907  22843088.060    93538674.93246
  21030738.000   110517488.91708  21030738.780    86117621.42249
  24489289.960   128692087.72406  24489291.560   100279552.83744
  24350529.160   127963045.32005  24350533.960    99711548.70445
  23475975.300   123367088.72006  23475978.960    96130218.80746
  23255063.600   122206491.13007  23255065.900    95225987.17546
  22625558.080   118898123.42808  22625559.680    92647899.11847
 15 02 19 00 22  0.0000000  0  8G16G18G21G22G25G27G29G31
  22160060.680   116451909.84908  22160061.600    90741743.59647
  22829706.460   119970967.07007  22829708.180    93483885.76145
  21035296.480   110541444.01508  21035297.280    86136287.73649
  24471144.640   128596735.46006  24471146.640   100205252.72844
  24369546.900   128062984.86805  24369552.000    99789423.62545
  23462501.560   123296283.90906  23462505.180    96075046.26045
  23268645.980   122277867.11607  23268648.500    95281604.79346
  22641655.560   118982716.07508  22641657.200    92713815.44647
 15 02 19 00 22 30.0000000  0  8G16G18G21G22G25G27G29G31
  22145035.960   116372954.53608  22145036.960    90680219.98147
  22816369.900   119900882.89607  22816371.820    93429274.72646
  21039925.220   110565768.35708  21039926.060    86155241.77749
  24452986.680   128501317.44505  24452988.880   100130901.33545
  24388595.000   128163083.08505  24388600.240    99867422.18145
  23449043.700   123225562.48307  23449047.300    96019938.68646
  23282237.340   122349290.35507  23282240.040    95337259.22647
  22657800.220   119067556.30308  22657801.760    92779924.68847
 15 02 19 00 23  0.0000000  0  8G16G18G21G22G25G27G29G31
  22130053.240   116294219.96808  22130054.280    90618868.38147
  22803077.620   119831031.75807  22803079.660    93374845.26245
  21044624.320   110590462.31808  21044625.160    86174483.82649
  24434817.100   128405837.74905  24434819.540   100056501.91244
  24407673.340   128263340.21005  24407678.620    99945544.61045
  23435602.040   123154926.25906  23435605.700    95964897.51746
  23295837.980   122420762.29307  23295840.780    95392951.59246
  22673991.840   119152643.18308  22673993.260    92846226.12247
 15 02 19 00 23 30.0000000  0  8G16G18G21G22G25G27G29G31
  22115113.040   116215708.76608  22115114.100    90557690.82747
  22789830.200   119761416.48307  22789832.260    93320599.58145
  21049393.480   110615524.48908  21049394.320    86194012.79749
  24416636.180   128310298.79705  24416638.620    99982056.25044
  24426781.580   128363754.92606  24426787.000   100023789.82645
  23422176.580   123084375.28706  23422180.280    95909922.75946
  23309447.880   122492282.69206  23309450.740    95448681.76946
  22690229.780   119237973.84008  22690231.080    92912717.51047
 15 02 19 00 24  0.0000000  0  8G16G18G21G22G25G27G29G31
  22100215.720   116137422.76308  22100216.760    90496688.75747
  22776628.020   119692039.35707  22776630.140    93266539.50346
  21054232.400   110640953.16708  21054233.240    86213827.36149
  24398444.520   128214702.87305  24398447.100    99907566.23744
  24445919.560   128464325.66805  24445925.100   100102156.63345
  23408767.320   123013909.53706  23408771.140    95855014.40646
  23323066.840   122563851.47006  23323069.820    95504449.62546
  22706513.500   119323545.27408  22706514.760    92979396.52147
 15 02 19 00 24 30.0000000  0  8G16G18G21G22G25G27G29G31
  22085361.400   116059362.76408  22085362.420    90435862.79347
  22763471.320   119622901.33907  22763473.420    93212665.73746
  21059140.420   110666745.10708  21059141.260    86233924.98549
  24380242.280   128119051.05906  24380244.820    99833032.65944
  24465086.680   128565049.41905  24465092.360   100180642.67645
  23395374.040   122943527.47006  23395377.940    95800171.27646
  23336694.620   122635466.74106  23336697.560    95560253.68446
  22722842.100   119409353.00608  22722843.440    93046259.65647
 15 02 19 00 25  0.0000000  0  8G16G18G21G22G25G27G29G31
  22070550.900   115981532.93208  22070551.920    90375216.18247
  22750361.180   119554007.22407  22750363.100    93158982.04446
  21064117.820   110692901.66208  21064118.660    86254306.71649
  24362030.220   128023347.93505  24362032.760    99758459.08345
  24484283.160   128665926.81406  24484288.680   100259248.44944
  23381997.160   122873231.22006  23382001.000    95745394.98246
  23350331.620   122707130.52206  23350334.660    95616095.56446
  22739215.440   119495396.13208  22739216.920    93113306.21747
 15 02 19 00 25 30.0000000  0  8G16G18G21G22G25G27G29G31
  22055784.280   115903933.86808  22055785.360    90314749.38247
  22737297.700   119485358.05808  22737299.400    93105489.22046
  21069164.020   110719419.59108  21069164.840    86274970.04349
  24343808.800   127927594.61205  24343811.220    99683846.38645
  24503508.380   128766954.90006  24503513.780   100337971.59845
  23368636.300   122803019.38006  23368640.140    95690684.47346
  23363977.580   122778841.41606  23363980.780    95671974.14646
  22755632.760   119581670.16708  22755634.380    93180532.71647
 15 02 19 00 26  0.0000000  0  8G16G18G21G22G25G27G29G31
  22041062.200   115826568.95208  22041063.360    90254465.04847
  22724281.620   119416957.49707  22724283.060    93052190.12346
  21074278.880   110746298.18508  21074279.660    86295914.40549
  24325578.400   127831793.96806  24325580.580    99609196.79444
  24522762.120   128868133.18306  24522767.360   100416811.79845
  23355291.620   122732892.83906  23355295.560    95636040.42046
  23377632.780   122850600.02106  23377635.960    95727889.88346
  22772093.720   119668173.14908  22772095.440    93247937.60547
 15 02 19 00 26 30.0000000  0  8G16G18G21G22G25G27G29G31
  22026384.840   115749439.26508  22026386.100    90194364.01247
  22711313.020   119348806.82307  22711314.300    92999085.71645
  21079461.940   110773535.20508  21079462.700    86317138.05949
  24307339.240   127735947.87506  24307341.400    99534511.81945
  24542044.000   128969458.91406  24542048.760   100495766.89845
  23341962.940   122662850.43907  23341966.940    95581461.94546
  23391297.000   122922404.79406  23391299.960    95783841.61746
  22788597.640   119754901.19008  22788599.300    93315517.86447
 15 02 19 00 27  0.0000000  0  8G16G18G21G22G25G27G29G31
  22011752.800   115672547.57508  22011754.100    90134448.42247
  22698392.460   119280909.10307  22698393.720    92946178.42046
  21084712.940   110801129.60408  21084713.740    86338640.19449
  24289091.980   127640059.44206  24289094.200    99459793.82845
  24561353.720   129070931.38105  24561358.240   100574836.31744
  23328650.500   122592893.04207  23328654.480    95526949.70846
  23404970.240   122994256.79707  23404973.080    95839830.16446
  22805144.000   119841851.84008  22805145.500    93383271.58747
 15 02 19 00 27 30.0000000  0  8G16G18G21G22G25G27G29G31
  21997166.640   115595896.58208  21997167.880    90074720.38347
  22685520.600   119213267.12507  22685521.900    92893470.38546
  21090031.720   110829080.17308  21090032.540    86360419.85849
  24270837.120   127544131.65006  24270839.380    99385045.13444
  24580691.040   129172549.44205  24580695.400   100654019.19244
  23315354.280   122523020.96407  23315358.220    95472503.97146
  23418652.540   123066156.14507  23418655.300    95895855.57746
  22821732.200   119929022.44408  22821733.540    93451196.69847
 15 02 19 00 28  0.0000000  0  8G16G18G21G22G25G27G29G31
  21982626.720   115519488.66608  21982627.920    90015181.75047
  22672697.900   119145883.81307  22672699.460    92840963.91446
  21095418.020   110857385.31308  21095418.820    86382475.81549
  24252575.180   127448166.72006  24252577.880    99310267.52344
  24600055.780   129274311.53505  24600060.000   100733314.30144
  23302074.300   122453234.27907  23302078.200    95418124.77146
  23432343.780   123138102.29207  23432346.420    95951917.49346
  22838361.620   120016410.10808  22838362.900    93519290.94746
 15 02 19 00 28 30.0000000  0  8G16G18G21G22G25G27G29G31
  21968133.640   115443326.90108  21968134.760    89955834.92647
  22659925.080   119078762.56107  22659926.900    92788661.66746
  21100871.740   110886044.75508  21100872.540    86404807.85249
  24234306.780   127352168.08906  24234309.760    99235463.61846
  24619447.640   129376217.23305  24619452.080   100812721.33044
  23288810.800   122383534.05007  23288814.640    95363812.95646
  23446044.100   123210096.44007  23446046.520    96008016.82046
  22855031.900   120104013.02308  22855033.200    93587552.92247
 15 02 19 00 29  0.0000000  0  8G16G18G21G22G25G27G29G31
  21953687.640   115367412.79508  21953688.720    89896681.07947
  22647202.460   119011904.99608  22647204.500    92736564.89246
  21106392.540   110915056.41308  21106393.280    86427414.35149
  24216032.480   127256137.66005  24216035.720    99160634.95445
  24638866.400   129478264.24605  24638871.060   100892238.43545
  23275563.580   122313919.54207  23275567.480    95309567.91946
  23459753.240   123282137.85007  23459755.560    96064152.97346
  22871742.340   120191827.37208  22871743.700    93655979.65747
 15 02 19 00 29 30.0000000  0  8G16G18G21G22G25G27G29G31
  21939289.100   115291748.19608  21939290.180    89837721.65547
  22634530.520   118945313.14808  22634532.500    92684675.16446
  21111979.960   110944418.22808  21111980.660    86450293.68549
  24197752.720   127160077.55406  24197755.760    99085783.14245
  24658311.800   129580450.52405  24658316.440   100971864.08145
  23262332.520   122244390.29907  23262336.520    95255389.34446
  23473471.160   123354225.71207  23473473.460    96120325.28846
  22888492.340   120279849.84208  22888493.800    93724568.56547
 15 02 19 00 30  0.0000000  0  8G16G18G21G22G25G27G29G31
  21924938.520   115216335.52008  21924939.600    89778958.53347
  22621909.760   118878989.82308  22621911.480    92632994.67446
  21117633.740   110974128.80608  21117634.420    86473444.78949
  24179467.940   127063990.75106  24179470.900    99010910.54145
  24677783.380   129682774.94505  24677788.240   101051597.37245
  23249117.820   122174946.70007  23249121.880    95201277.48347
  23487197.900   123426360.55206  23487200.140    96176534.25246
  22905281.520   120368077.78008  22905283.060    93793317.58247
 15 02 19 00 30 30.0000000  0  8G16G18G21G22G25G27G29G31
  21910636.200   115141176.38408  21910637.300    89720392.98547
  22609340.340   118812936.68408  22609341.840    92581524.71846
  21123353.380   111004185.53808  21123354.020    86496865.62649
  24161178.680   126967879.31906  24161181.320    98936018.71445
  24697280.700   129785235.11505  24697285.800   101131436.45345
  23235919.300   122105588.09107  23235923.420    95147231.84446
  23500933.300   123498541.20206  23500935.440    96232778.87746
  22922109.140   120456507.33908  22922110.680    93862223.69747
 15 02 19 00 31  0.0000000  0  8G16G18G21G22G25G27G29G31
  21896382.740   115066274.04108  21896383.860    89662027.51947
  22596823.040   118747157.78108  22596824.400    92530268.46346
  21129138.880   111034588.60108  21129139.520    86520556.32849
  24142885.460   126871746.21506  24142887.500    98861109.99245
  24716803.620   129887830.84304  24716809.120   101211381.10845
  23222737.180   122036315.69607  23222741.340    95093253.38146
  23514677.660   123570768.57907  23514679.640    96289059.92645
  22938974.800   120545136.68408  22938976.280    93931285.48346
 15 02 19 00 31 30.0000000  0  8G16G18G21G22G25G27G29G31
  21882178.100   114991628.35108  21882179.280    89603862.05247
  22584357.800   118681652.89408  22584359.160    92479225.72646
  21134989.520   111065334.07908  21134990.180    86544513.84849
  24124588.060   126775591.71706  24124589.680    98786184.60645
  24736351.700   129990557.84505  24736357.240   101291428.11144
  23209570.920   121967127.00007  23209575.180    95039340.12846
  23528430.580   123643040.14707  23528432.340    96345375.40945
  22955877.460   120633960.59808  22955878.860    94000498.88846
 15 02 19 00 32  0.0000000  0  8G16G18G21G22G25G27G29G31
  21868023.100   114917243.03508  21868024.260    89545899.47147
  22571945.400   118616426.08508  22571946.860    92428399.67246
  21140905.200   111096421.50308  21140905.900    86568737.81849
  24106287.140   126679420.06706  24106288.580    98711245.86545
  24755925.020   130093416.23405  24755930.440   101371577.46544
  23196420.880   121898023.62507  23196425.200    94985493.34746
  23542192.340   123715357.90907  23542193.880    96401726.87245
  22972816.840   120722977.45708  22972818.140    94069862.63946
 15 02 19 00 32 30.0000000  0  8G16G18G21G22G25G27G29G31
  21853918.280   114843121.53808  21853919.400    89488142.47047
  22559586.580   118551480.75507  22559588.180    92377792.92146
  21146885.980   111127850.86608  21146886.680    86593228.23349
  24087983.500   126583234.79306  24087984.900    98636296.49145
  24775523.440   130196405.44905  24775528.620   101451828.76744
  23183287.280   121829006.60607  23183291.620    94931713.86847
  23555962.940   123787722.19107  23555964.300    96458114.56746
  22989792.580   120812185.55508  22989793.820    94139375.40846
 15 02 19 00 33  0.0000000  0  8G16G18G21G22G25G27G29G31
  21839863.960   114769265.35608  21839865.000    89430592.20347
  22547281.620   118486818.37108  22547283.380    92327406.65646
  21152931.280   111159619.29808  21152931.980    86617982.85748
  24069677.520   126487037.70106  24069679.060    98561337.89844
  24795146.460   130299523.33105  24795151.400   101532180.33345
  23170170.040   121760075.39707  23170174.380    94878001.26446
  23569742.220   123860132.40407  23569743.600    96514538.08045
  23006803.940   120901580.77108  23006805.180    94209033.98946
 15 02 19 00 33 30.0000000  0  8G16G18G21G22G25G27G29G31
  21825860.580   114695677.13208  21825861.620    89373250.73347
  22535031.300   118422442.26808  22535033.080    92277243.46446
  21159040.980   111191725.98308  21159041.680    86643001.06249
  24051370.000   126390831.81206  24051371.380    98486372.40946
  24814793.800   130402768.64705  24814798.500   101612631.18843
  23157069.300   121691230.43307  23157073.540    94824355.85846
  23583530.160   123932588.95907  23583531.900    96570997.67646
  23023850.400   120991160.82508  23023851.760    94278836.59646
 15 02 19 00 34  0.0000000  0  7G16G18G21G22G27G29G31
  21811908.640   114622359.20308  21811909.700    89316119.87947
  22522836.000   118358354.87208  22522837.740    92227305.24746
  21165214.700   111224168.91108  21165215.380    86668281.27449
  24033061.240   126294619.47706  24033062.640    98411401.93346
  23143985.020   121622471.90207  23143989.140    94770777.80446
  23597326.780   124005091.54906  23597328.960    96627493.15346
  23040931.520   121080922.68708  23040932.980    94348780.87446
 15 02 19 00 34 30.0000000  0  7G16G18G21G22G27G29G31
  21798008.940   114549315.65008  21798010.000    89259202.83547
  22510696.360   118294559.83508  22510697.920    92177594.84946
  21171452.560   111256949.07908  21171453.220    86693824.25748
  24014752.140   126198405.42406  24014753.520    98336430.09945
  23130917.540   121553801.50807  23130921.460    94717268.42746
  23611132.480   124077642.15306  23611135.020    96684026.06346
  23058047.040   121170865.13108  23058048.560    94418865.86046
 15 02 19 00 35  0.0000000  0  7G16G18G21G22G27G29G31
  21784161.180   114476544.92708  21784162.180    89202498.37847
  22498612.120   118231056.21508  22498613.500    92128111.51546
  21177753.440   111290060.57108  21177754.120    86719625.42048
  23996442.600   126102188.13206  23996443.680    98261455.71545
  23117866.100   121485215.50207  23117869.920    94663824.82546
  23624946.620   124150236.77706  23624949.480    96740593.28347
  23075195.720   121260981.48508  23075197.260    94489086.36346
 15 02 19 00 35 30.0000000  0  7G16G18G21G22G27G29G31
  21770365.800   114404049.61408  21770366.760    89146008.52647
  22486583.740   118167846.72508  22486585.040    92078857.38146
  21184117.200   111323502.49508  21184117.900    86745684.06049
  23978133.080   126005970.56306  23978133.840    98186481.11145
  23104830.820   121416714.43507  23104834.580    94610447.39547
  23638769.280   124222875.84406  23638772.360    96797195.11546
  23092377.020   121351269.19608  23092378.560    94559440.39046
 15 02 19 00 36  0.0000000  0  7G16G18G21G22G27G29G31
  21756623.600   114331833.92308  21756624.540    89089736.56348
  22474612.100   118104935.85008  22474613.380    92029835.94346
  21190543.880   111357275.03608  21190544.600    86772000.33549
  23959824.420   125909757.46406  23959824.780    98111510.00045
  23091812.060   121348300.37107  23091815.800    94557137.76546
  23652600.840   124295560.87006  23652603.920    96853832.74946
  23109590.740   121441727.28208  23109592.200    94629927.17246
 15 02 19 00 36 30.0000000  0  7G16G18G21G22G27G29G31
  21742934.860   114259899.19808  21742935.800    89033683.53748
  22462697.460   118042324.95108  22462698.800    91981048.24546
  21197033.060   111391375.65008  21197033.700    86798572.24548
  23941516.780   125813550.23806  23941516.820    98036543.46345
  23078809.620   121279972.25607  23078813.400    94503895.12546
  23666441.160   124368291.19907  23666444.140    96910505.67946
  23126836.020   121532351.63307  23126837.420    94700543.51846
 15 02 19 00 37  0.0000000  0  7G16G18G21G22G27G29G31
  21729300.080   114188247.95408  21729301.060    88977851.40048
  22450840.380   117980016.49708  22450841.840    91932496.21046
  21203584.360   111425802.81708  21203584.940    86825398.61749
  23923210.700   125717351.79706  23923210.740    97961583.74046
  23065823.600   121211730.29707  23065827.380    94450719.59746
  23680290.160   124441066.65107  23680292.880    96967213.74846
  23144112.340   121623139.15707  23144113.700    94771287.01346
 15 02 19 00 37 30.0000000  0  7G16G18G21G22G27G29G31
  21715719.880   114116883.42408  21715720.840    88922242.69048
  22439041.640   117918014.07808  22439043.140    91884182.64346
  21210197.780   111460556.34708  21210198.300    86852479.29948
  23904906.940   125621165.93806  23904906.920    97886633.83845
  23052854.280   121143576.04507  23052858.040    94397612.42147
  23694148.080   124513888.71207  23694150.500    97023958.16046
  23161419.440   121714088.49807  23161420.760    94842156.59446
 15 02 19 00 38  0.0000000  0  7G16G18G21G22G27G29G31
  21702194.880   114045809.21108  21702195.880    88866860.18848
  22427301.880   117856321.11008  22427303.480    91836110.21046
  21216873.220   111495635.72708  21216873.660    86879813.88448
  23886606.060   125524996.34806  23886606.240    97811696.60244
  23039901.840   121075510.65007  23039905.600    94344574.47547
  23708014.860   124586757.97707  23708017.160    97080739.32146
  23178756.920   121805197.83807  23178758.280    94913150.83446
 15 02 19 00 38 30.0000000  0  7G16G18G21G22G27G29G31
  21688725.220   113975025.68608  21688726.180    88811704.20148
  22415621.240   117794938.57208  22415622.980    91788279.67846
  21223609.960   111531037.40308  21223610.360    86907399.61048
  23868308.380   125428843.98106  23868308.760    97736772.76845
  23026965.920   121007532.50907  23026969.760    94291604.52847
  23721890.260   124659672.83206  23721892.400    97137556.07046
  23196123.860   121896462.31207  23196125.340    94984265.95446
 15 02 19 00 39  0.0000000  0  7G16G18G21G22G27G29G31
  21675311.480   113904535.84308  21675312.360    88756777.05348
  22404000.240   117733869.16408  22404002.020    91740693.14446
  21230407.860   111566760.40108  21230408.240    86935235.71748
  23850014.460   125332711.76006  23850015.020    97661864.64745
  23014046.720   120939642.19407  23014050.600    94238703.00647
  23735774.380   124732634.23606  23735776.440    97194409.08046
  23213519.920   121987879.58207  23213521.560    95055500.16946
 15 02 19 00 39 30.0000000  0  7G16G18G21G22G27G29G31
  21661953.760   113834340.69008  21661954.640    88702079.53548
  22392438.920   117673113.50508  22392440.740    91693351.08747
  21237266.320   111602801.71508  21237266.700    86963319.85748
  23831724.680   125236600.93406  23831725.600    97586973.18345
  23001144.000   120871838.35507  23001147.880    94185868.88147
  23749666.820   124805640.22806  23749669.060    97251296.80746
  23230944.180   122079444.95707  23230945.980    95126849.78146
 15 02 19 00 40  0.0000000  0  7G16G18G21G22G27G29G31
  21648652.840   113764444.01008  21648653.720    88647614.59448
  22380938.200   117612676.45408  22380939.940    91646257.29146
  21244185.400   111639161.84408  21244185.840    86991652.42848
  23813440.120   125140516.01006  23813441.180    97512101.89844
  22988258.120   120804123.01407  22988262.040    94133103.68247
  23763567.980   124878692.99606  23763570.640    97308220.99646
  23248396.540   122171157.68507  23248398.500    95198314.20246
 15 02 19 00 40 30.0000000  0  7G16G18G21G22G27G29G31
  21635408.520   113694844.94108  21635409.480    88593381.55548
  22369497.780   117552556.74108  22369499.460    91599410.76146
  21251164.100   111675835.36508  21251164.600    87020229.19548
  23795160.600   125044456.71606  23795161.720    97437250.61645
  22975388.540   120736492.93807  22975392.500    94080404.95047
  23777477.360   124951788.84206  23777480.400    97365178.76646
  23265875.760   122263011.33107  23265877.800    95269888.42246
 15 02 19 00 41  0.0000000  0  7G16G18G21G22G27G29G31
  21622221.160   113625545.01708  21622222.160    88539381.61448
  22358117.960   117492755.78208  22358119.540    91552812.62646
  21258201.980   111712819.81908  21258202.520    87049048.24648
  23776886.440   124948424.40606  23776887.300    97362420.35145
  22962535.060   120668947.35307  22962538.980    94027772.05147
  23791394.980   125024926.65206  23791397.920    97422169.21845
  23283381.080   122355001.92707  23283383.160    95341569.36846
 15 02 19 00 41 30.0000000  0  7G16G18G21G22G27G29G31
  21609091.540   113556548.30608  21609092.560    88485617.95048
  22346799.580   117433277.60708  22346801.020    91506466.00846
  21265299.120   111750115.64908  21265299.700    87078109.93448
  23758618.420   124852423.71506  23758618.980    97287614.71045
  22949698.080   120601488.41807  22949701.980    93975206.68647
  23805321.380   125098109.08506  23805324.040    97479194.46846
  23300912.280   122447128.47207  23300914.340    95413356.24646
 15 02 19 00 42  0.0000000  0  7G16G18G21G22G27G29G31
  21596020.500   113487859.56408  21596021.540    88432094.26148
  22335543.700   117374127.25308  22335544.940    91460374.84246
  21272455.660   111787723.69408  21272456.260    87107414.90648
  23740357.340   124756459.65506  23740357.640    97212837.59046
  22936878.020   120534118.70807  22936882.000    93922710.82147
  23819256.720   125171338.11807  23819259.240    97536255.97445
  23318469.320   122539390.99307  23318471.340    95485249.07946
 15 02 19 00 42 30.0000000  0  7G16G18G21G22G27G29G31
  21583008.360   113419480.39408  21583009.420    88378811.78848
  22324350.520   117315306.07208  22324351.560    91414540.17646
  21279671.160   111825641.60508  21279671.800    87136961.33648
  23722103.540   124660534.10107  23722103.780    97138090.49546
  22924074.780   120466837.39307  22924078.820    93870283.83747
  23833200.820   125244612.83507  23833203.040    97593353.08845
  23336051.400   122631784.96107  23336053.340    95557244.31746
 15 02 19 00 43  0.0000000  0  7G16G18G21G22G27G29G31
  21570055.480   113351412.85708  21570056.600    88325772.15848
  22313220.440   117256816.55308  22313221.380    91368963.94146
  21286945.280   111863867.48208  21286945.940    87166747.72948
  23703857.360   124564649.62507  23703857.600    97063375.37945
  22911288.440   120399644.72307  22911292.500    93817925.94547
  23847153.640   125317933.44907  23847155.640    97650485.99246
  23353657.880   122724307.55907  23353659.720    95629339.79146
 15 02 19 00 43 30.0000000  0  7G16G18G21G22G27G29G31
  21557162.600   113283660.53908  21557163.760    88272978.14748
  22302153.980   117198661.90808  22302154.940    91323648.65246
  21294277.960   111902400.95408  21294278.620    87196773.81448
  23685619.640   124468810.05706  23685620.140    96988695.26146
  22898519.260   120332541.99007  22898523.260    93765638.13647
  23861115.080   125391300.78806  23861117.100    97707655.29246
  23371288.500   122816957.21607  23371290.220    95701534.28446
 15 02 19 00 44  0.0000000  0  7G16G18G21G22G27G29G31
  21544330.000   113216224.93608  21544331.160    88220430.92548
  22291151.380   117140843.42208  22291152.560    91278595.29947
  21301668.740   111941239.68408  21301669.380    87227037.75748
  23667390.840   124373017.27906  23667391.520    96914051.60446
  22885767.020   120265528.43307  22885770.960    93713419.79847
  23875085.100   125464714.47507  23875087.400    97764860.71946
  23388942.580   122909730.03007  23388944.160    95773824.73746
 15 02 19 00 44 30.0000000  0  7G16G18G21G22G27G29G31
  21531557.980   113149107.40308  21531559.080    88168131.55248
  22280213.020   117083362.73308  22280214.440    91233805.15947
  21309117.080   111980380.94008  21309117.720    87257537.43948
  23649171.300   124277273.25506  23649172.160    96839445.94646
  22873031.600   120198603.33307  22873035.500    93661270.38647
  23889063.580   125538173.38905  23889066.260    97822101.44146
  23406619.400   123002622.22207  23406620.920    95846208.21246
 15 02 19 00 45  0.0000000  0  7G16G18G21G22G27G29G31
  21518847.040   113082310.79408  21518848.080    88116082.25448
  22269339.440   117026222.89008  22269341.140    91189280.62347
  21316622.800   112019823.67308  21316623.440    87288272.03948
  23630961.640   124181581.11406  23630962.700    96764880.72146
  22860313.180   120131767.61407  22860317.020    93609190.61747
  23903050.660   125611677.94206  23903053.660    97879377.65545
  23424318.500   123095631.51007  23424320.080    95918682.91146
 15 02 19 00 45 30.0000000  0  7G16G18G21G22G27G29G31
  21506197.160   113015834.92908  21506198.120    88064282.87748
  22258530.580   116969422.95408  22258532.460    91145020.95346
  21324185.120   112059563.85208  21324185.740    87319238.40948
  23612761.820   124085940.65607  23612762.940    96690355.78246
  22847611.240   120065018.71307  22847615.040    93557178.49247
  23917046.140   125685225.54506  23917049.100    97936687.43546
  23442038.800   123188752.21507  23442040.480    95991244.44846
 15 02 19 00 46  0.0000000  0  7G16G18G21G22G27G29G31
  21493608.800   112949682.48808  21493609.760    88012735.53548
  22247787.140   116912966.01408  22247788.900    91101028.53646
  21331803.780   112099600.14908  21331804.400    87350435.52848
  23594572.520   123990355.04206  23594573.420    96615873.54246
  22834925.840   119998357.11407  22834929.700    93505234.40847
  23931050.340   125758817.20406  23931053.100    97994031.50646
  23459779.840   123281981.71507  23459781.620    96063890.74446
 15 02 19 00 46 30.0000000  0  7G16G18G21G22G27G29G31
  21481082.580   112883856.55008  21481083.560    87961442.59448
  22237109.700   116856855.34608  22237111.240    91057305.94846
  21339478.660   112139931.83908  21339479.300    87381862.81948
  23576394.440   123894828.22906  23576395.140    96541437.13546
  22822257.340   119931783.93407  22822261.180    93453359.21647
  23945063.160   125832453.14707  23945065.660    98051410.13446
  23477541.260   123375317.94807  23477543.080    96136620.21746
 15 02 19 00 47  0.0000000  0  7G16G18G21G22G27G29G31
  21468619.520   112818362.70108  21468620.520    87910408.43648
  22226499.180   116801095.98808  22226500.480    91013857.10646
  21347209.960   112180559.99508  21347210.600    87413521.11848
  23558228.500   123799365.71207  23558229.140    96467050.81746
  22809606.260   119865302.49607  22809610.120    93401555.51747
  23959085.020   125906136.39307  23959087.240    98108825.61845
  23495323.020   123468761.03407  23495324.880    96209432.95346
 15 02 19 00 47 30.0000000  0  7G16G18G21G22G27G29G31
  21456219.620   112753200.77609  21456220.640    87859632.91748
  22215955.500   116745687.82708  22215956.560    90970681.92846
  21354997.020   112221481.17208  21354997.640    87445407.74748
  23540074.760   123703967.84807  23540075.320    96392714.85446
  22796972.280   119798910.71107  22796976.160    93349821.68247
  23973115.460   125979865.17106  23973117.400    98166276.54845
  23513124.120   123562305.98607  23513125.980    96282325.06946
 15 02 19 00 48  0.0000000  0  7G16G18G21G22G27G29G31
  21443883.520   112688374.11509  21443884.500    87809118.63748
  22205479.220   116690634.18908  22205480.180    90927783.01047
  21362839.660   112262694.53308  21362840.300    87477522.05548
  23521933.980   123608638.38007  23521934.440    96318432.18746
  22784355.680   119732609.81007  22784359.480    93298158.66847
  23987154.580   126053640.58006  23987156.460    98223763.81245
  23530944.160   123655950.68907  23530946.040    96355294.89546
 15 02 19 00 48 30.0000000  0  7G16G18G21G22G27G29G31
  21431611.560   112623884.53809  21431612.480    87758867.01948
  22195070.540   116635936.54308  22195071.580    90885161.47546
  21370737.540   112304198.22008  21370738.180    87509862.58648
  23503806.560   123513379.56907  23503807.020    96244204.58545
  22771756.300   119666399.52908  22771760.080    93246566.24247
  24001202.220   126127461.78906  24001204.400    98281286.81246
  23548782.480   123749691.96107  23548784.460    96428339.97746
 15 02 19 00 49  0.0000000  0  7G16G18G21G22G27G29G31
  21419404.260   112559734.89809  21419405.180    87708880.29148
  22184730.140   116581597.81308  22184731.340    90842819.62047
  21378690.480   112345991.18408  21378691.140    87542428.53248
  23485693.320   123418194.81507  23485693.680    96170034.65445
  22759174.360   119600280.62808  22759178.080    93195045.03347
  24015258.480   126201329.66506  24015261.220    98338846.12545
  23566638.680   123843527.32807  23566640.740    96501458.36146
 15 02 19 00 49 30.0000000  0  7G16G18G21G22G27G29G31
  21407261.760   112495925.60409  21407262.640    87659158.76248
  22174458.180   116527618.39308  22174459.460    90800757.74347
  21386697.640   112388069.29008  21386698.340    87575216.66748
  23467594.420   123323084.71107  23467594.660    96095922.91846
  22746609.440   119534251.17308  22746613.140    93143593.53047
  24029323.220   126275241.80506  24029326.180    98396440.02845
  23584511.800   123937451.64307  23584513.900    96574646.06746
 15 02 19 00 50  0.0000000  0  7G16G18G21G22G27G29G31
  21395184.180   112432457.36109  21395185.020    87609702.98748
  22164254.700   116473998.59708  22164255.960    90758976.08946
  21394758.500   112430429.62408  21394759.240    87608224.71748
  23449510.100   123228050.41607  23449510.140    96021870.27645
  22734061.360   119468310.22408  22734065.020    93092210.99247
  24043396.340   126349197.64505  24043399.480    98454067.94646
  23602401.260   124031461.26207  23602403.260    96647900.23746
 15 02 19 00 50 30.0000000  0  7G16G18G21G22G27G29G31
  21383172.580   112369335.81709  21383173.400    87560517.37648
  22154120.860   116420744.48808  22154122.060    90717479.40047
  21402873.400   112473073.98708  21402874.180    87641454.08348
  23431441.460   123133098.16007  23431441.280    95947881.56746
  22721530.780   119402461.35308  22721534.400    93040900.21047
  24057478.320   126423200.32406  24057481.580    98511732.27845
  23620307.080   124125556.21607  23620308.920    96721220.91446
 15 02 19 00 51  0.0000000  0  7G16G18G21G22G27G29G31
  21371227.180   112306562.22909  21371227.940    87511602.89248
  22144056.680   116367856.50508  22144057.780    90676268.00747
  21411041.720   112515999.38508  21411042.600    87674902.44348
  23413388.640   123038229.38407  23413388.400    95873957.91846
  22709017.400   119336703.15008  22709021.020    92989660.06447
  24071569.020   126497247.95407  24071572.320    98569431.71444
  23638228.280   124219731.77507  23638230.060    96794604.38446
 15 02 19 00 51 30.0000000  0  7G16G18G21G22G27G29G31
  21359348.180   112244137.78109  21359348.960    87462960.46348
  22134062.260   116315335.31808  22134063.300    90635342.41547
  21419263.020   112559202.71308  21419263.900    87708567.37648
  23395351.920   122943445.44707  23395351.620    95800100.35046
  22696521.120   119271034.77307  22696524.740    92938489.92147
  24085668.300   126571339.50806  24085671.620    98627165.38944
  23656164.160   124313984.14907  23656165.800    96868047.69945
 15 02 19 00 52  0.0000000  0  7G16G18G21G22G27G29G31
  21347536.260   112182065.95909  21347537.060    87414592.81448
  22124138.340   116263184.98008  22124139.420    90594705.81047
  21427537.280   112602684.13808  21427538.120    87742448.99948
  23377332.080   122848750.75607  23377331.880    95726312.33046
  22684042.260   119205458.04507  22684045.920    92887391.17647
  24099776.300   126645477.19106  24099779.180    98684935.02645
  23674114.400   124408312.44307  23674116.020    96941550.19045
 15 02 19 00 52 30.0000000  0  7G16G18G21G22G27G29G31
  21335791.860   112120348.85709  21335792.720    87366501.56848
  22114285.220   116211407.18908  22114286.460    90554359.49647
  21435864.020   112646441.29408  21435864.820    87776545.47948
  23359329.520   122754147.73607  23359329.560    95652595.75746
