     2.11           OBSERVATION DATA    M                   RINEX VERSION / TYPE
SPIDER V4,0,0,3554                      2015 03 13 02:24    PGM / RUN BY / DATE 
CKHR                                                        MARKER NAME         
CKHR                                                        MARKER NUMBER       
                                                            OBSERVER / AGENCY   
496547              LEICA GRX1200+GNSS  8.10/4.007          REC # / TYPE / VERS 
10301042            LEIAR25         NONE                    ANT # / TYPE        
  5141838.0877   498328.5776  3730203.3049                  APPROX POSITION XYZ 
        0.0720        0.0000        0.0000                  ANTENNA: DELTA H/E/N
     1     1                                                WAVELENGTH FACT L1/2
     4    C1    L1    P2    L2                              # / TYPES OF OBSERV 
    30.000                                                  INTERVAL            
  2015    02    19    00    00    0.0000000     GPS         TIME OF FIRST OBS   
  2015    02    19    23    59   30.0000000     GPS         TIME OF LAST OBS    
    16                                                      LEAP SECONDS        
    37                                                      # OF SATELLITES     
   G 1   341   341   341   341                              PRN / # OF OBS      
   G 2   937   936   936   936                              PRN / # OF OBS      
   G 3   490   490   490   490                              PRN / # OF OBS      
   G 4   216   215   215   215                              PRN / # OF OBS      
   G 5   631   631   631   631                              PRN / # OF OBS      
   G 6   793   793   792   792                              PRN / # OF OBS      
   G 7   665   665   665   665                              PRN / # OF OBS      
   G 9   761   760   760   760                              PRN / # OF OBS      
   G10   746   746   746   746                              PRN / # OF OBS      
   G12   814   814   814   814                              PRN / # OF OBS      
   G13   793   793   792   792                              PRN / # OF OBS      
   G14   497   494   490   490                              PRN / # OF OBS      
   G15   678   677   677   677                              PRN / # OF OBS      
   G16   357   357   357   357                              PRN / # OF OBS      
   G17   808   808   807   807                              PRN / # OF OBS      
   G18   648   647   647   647                              PRN / # OF OBS      
   G19   148   148   148   148                              PRN / # OF OBS      
   G20   773   773   773   773                              PRN / # OF OBS      
   G21   575   575   575   575                              PRN / # OF OBS      
   G22   204   204   203   203                              PRN / # OF OBS      
   G23   585   585   585   585                              PRN / # OF OBS      
   G24   825   825   825   825                              PRN / # OF OBS      
   G25   857   857   857   857                              PRN / # OF OBS      
   G27   301   300   300   300                              PRN / # OF OBS      
   G28   607   607   607   607                              PRN / # OF OBS      
   G29   749   749   748   748                              PRN / # OF OBS      
   G30   710   710   710   710                              PRN / # OF OBS      
   G31   796   796   796   796                              PRN / # OF OBS      
   G32   232   232   232   232                              PRN / # OF OBS      
   R 4    30    30    30    30                              PRN / # OF OBS      
   R 9    30    30    30    30                              PRN / # OF OBS      
   R10    30    30    30    30                              PRN / # OF OBS      
   R11    20    20    20    20                              PRN / # OF OBS      
   R16     1     1     1     1                              PRN / # OF OBS      
   R19    30    30    30    30                              PRN / # OF OBS      
   R20    30    30    30    30                              PRN / # OF OBS      
   R21    12    12    12    12                              PRN / # OF OBS      
BIT 2 OF LLI FLAGS DATA COLLECTED UNDER A/S CONDITION       COMMENT             
SNR is mapped to RINEX snr flag value [2-9]                 COMMENT             
Lx:     = 25dBHz -> 1; 26-27dBHz -> 2; 28-31dBHz -> 3       COMMENT             
       32-35dBHz -> 4; 36-38dBHz -> 5; 39-41dBHz -> 6       COMMENT             
       42-44dBHz -> 7; 45-48dBHz -> 8; >=49dBHz -> 9        COMMENT             
                                                            END OF HEADER       
 15 02 19 00 00  0.0000000  0 14G16G18G21G25G27G29G31R04R09R10R16R19
                                R20R21
  22767303.760   119642997.13309  22767300.040    93228293.50946
  23522220.980   123610144.09008  23522218.220    96319604.30445
  20932217.860   109999801.36608  20932213.900    85714220.85948
  23679511.520   124436835.24908  23679511.920    96963842.36146
  23905109.480   125622211.31708  23905110.340    97887438.85446
  22827276.580   119958498.34809  22827273.820    93474296.11947
  21889753.160   115031446.82209  21889748.900    89634887.78648
  23168174.920   124064527.53907  23168174.780    96494633.67506
  20025315.980   106934091.43109  20025316.800    83170975.35506
  19941174.920   106297685.26109  19941179.880    82676000.18307
  23611463.960   126128204.19907  23611469.540    98099727.29806
  20685944.340   110656201.89509  20685943.520    86065896.40108
  20165232.860   107832668.68808  20165235.160    83869896.54408
  23187214.680   124079479.54407  23187216.660    96506262.03206
 15 02 19 00 00 30.0000000  0 13G16G18G21G25G27G29G31R04R09R10R19R20
                                R21
  22751163.580   119558179.58109  22751159.800    93162201.92047
  23507724.500   123533964.47308  23507721.720    96260243.63545
  20933843.320   110008343.40209  20933839.460    85720876.98148
  23696811.840   124527748.72908  23696812.220    97034683.99946
  23891178.820   125549004.84408  23891179.560    97830394.89846
  22840783.720   120029478.86609  22840781.140    93529605.56547
  21903277.760   115102519.46109  21903273.560    89690269.03048
  23154525.760   123991436.99807  23154525.760    96437785.52305
  20040225.700   107013708.71009  20040226.600    83232899.88406
  19932362.660   106250710.86109  19932367.580    82639464.53807
  20698370.100   110722670.43309  20698368.940    86117594.14508
  20161487.840   107812642.34908  20161490.120    83854320.50208
  23172094.500   123998568.29708  23172097.040    96443331.17506
 15 02 19 00 01  0.0000000  0 12G16G18G21G25G27G29G31R04R09R10R19R20
  22735048.340   119473493.04209  22735044.440    93096212.43446
  23493249.920   123457898.97808  23493247.080    96200971.87045
  20935551.160   110017317.93109  20935547.300    85727870.12448
  23714152.820   124618875.65608  23714153.180    97105691.99646
  23877267.720   125475901.22108  23877268.200    97773431.02846
  22854300.880   120100512.08209  22854298.200    93584956.09647
  21916874.560   115173972.24109  21916870.640    89745946.51148
  23140958.320   123918784.50508  23140957.940    96381278.00805
  20055256.320   107093971.90809  20055257.420    83295326.79706
  19923695.100   106204507.65109  19923699.900    82603528.70807
  20710826.400   110789303.24709  20710825.200    86169419.65808
  20157813.020   107792991.50208  20157815.280    83839036.52208
 15 02 19 00 01 30.0000000  0 12G16G18G21G25G27G29G31R04R09R10R19R20
  22718957.140   119388932.93909  22718953.200    93030321.44747
  23478796.560   123381944.75808  23478793.480    96141786.79645
  20937339.900   110026717.28409  20937335.940    85735194.29648
  23731533.040   124710208.72909  23731533.380    97176860.60046
  23863375.000   125402894.10608  23863375.340    97716542.36947
  22867826.800   120171590.99309  22867823.940    93640342.25247
  21930541.820   115245796.23409  21930538.360    89801913.23748
  23127472.640   123846568.08008  23127472.200    96325109.75006
  20070406.160   107174871.64609  20070407.380    83358248.79306
  19915171.480   106159071.89409  19915176.260    82568189.77307
  20723311.700   110856092.26709  20723310.720    86221366.65908
  20154207.020   107773708.58608  20154209.280    83824038.71508
 15 02 19 00 02  0.0000000  0 12G16G18G21G25G27G29G31R04R09R10R19R20
  22702890.960   119304504.69309  22702887.120    92964533.22646
  23464365.420   123306107.62308  23464362.320    96082692.97645
  20939209.940   110036543.86209  20939205.840    85742851.38848
  23748952.920   124801750.42508  23748953.180    97248191.80846
  23849501.180   125329986.91108  23849501.580    97659731.70446
  22881362.040   120242719.46409  22881359.480    93695766.97747
  21944279.860   115317992.48909  21944276.900    89858170.05748
  23114069.800   123774795.53008  23114069.320    96269286.59706
  20085675.340   107256408.27409  20085676.600    83421666.15806
  19906792.860   106114409.81109  19906797.740    82533452.60807
  20735826.500   110923039.01109  20735825.680    86273436.35108
  20150670.280   107754796.12508  20150672.580    83809329.03408
 15 02 19 00 02 30.0000000  0 13G16G18G21G25G27G29G31R04R09R10R19R20
                                R21
  22686850.000   119220209.16909  22686846.240    92898848.40847
  23449956.680   123230389.52708  23449953.640    96023691.90945
  20941160.940   110046796.08409  20941156.760    85750840.12248
  23766412.020   124893498.79108  23766412.260    97319684.00646
  23835646.100   125257178.92508  23835646.700    97602998.26246
  22894906.480   120313895.73209  22894903.960    93751228.97647
  21958088.180   115390557.58409  21958085.620    89914714.27748
  23100750.080   123703469.58308  23100749.400    96213810.90305
  20101063.160   107338577.87309  20101064.380    83485575.84106
  19898559.760   106070523.19509  19898564.700    82499318.56707
  20748370.380   110990140.41709  20748369.600    86325626.32708
  20147202.420   107736251.70808  20147204.660    83794905.60108
  23112040.660   123677196.77807  23112044.240    96193386.76706
 15 02 19 00 03  0.0000000  0 13G16G18G21G25G27G29G31R04R09R10R19R20
                                R21
  22670834.780   119136048.93009  22670831.080    92833269.01947
  23435571.020   123154793.13308  23435567.980    95964785.64945
  20943192.840   110057473.60408  20943188.600    85759160.27148
  23783910.180   124985453.08508  23783910.820    97391336.63646
  23821809.960   125184470.49108  23821810.520    97546342.33346
  22908460.160   120385120.00009  22908457.120    93806728.39347
  21971966.440   115463489.27609  21971964.180    89971544.15248
  23087514.560   123632594.90907  23087514.600    96158686.17907
  20116569.080   107421377.72609  20116570.140    83549975.70006
  19890472.760   106027415.11609  19890477.740    82465790.05507
  20760942.960   111057394.80409  20760942.160    86377935.28008
  20143803.160   107718074.41208  20143805.480    83780767.72708
  23097133.700   123597427.88408  23097136.660    96131344.38406
 15 02 19 00 03 30.0000000  0 12G16G18G21G25G27G29G31R04R09R10R19R20
  22654845.560   119052025.05109  22654841.840    92767795.87947
  23421208.960   123079321.20408  23421206.160    95905976.41546
  20945305.300   110068574.52208  20945301.060    85767810.34048
  23801447.280   125077611.76208  23801448.040    97463148.59546
  23807992.660   125111860.97708  23807992.940    97489763.49047
  22922022.560   120456391.29708  22922019.420    93862264.44247
  21985914.100   115536784.72409  21985911.940    90028657.47648
  23074364.040   123562175.17308  23074364.880    96103915.32307
  20132192.360   107504804.11209  20132193.180    83614862.87306
  19882532.140   105985087.23609  19882537.180    82432868.37507
  20773543.820   111124799.94009  20773542.940    86430361.48508
  20140472.160   107700262.60308  20140474.540    83766914.10208
 15 02 19 00 04  0.0000000  0 12G16G18G21G25G27G29G31R04R09R10R19R20
  22638882.160   118968136.81509  22638878.460    92702428.43347
  23406870.500   123003972.87408  23406867.900    95847263.47745
  20947497.480   110080094.58708  20947493.300    85776787.01248
  23819022.620   125169970.71008  23819022.840    97535116.61146
  23794193.680   125039347.36008  23794193.600    97433259.44446
  22935593.420   120527705.94609  22935590.520    93917834.27048
  21999930.060   115610437.90409  21999927.820    90086049.54548
  23061298.820   123492211.42008  23061299.780    96049499.09707
  20147931.780   107588850.89609  20147932.460    83680232.56206
  19874737.800   105943539.23909  19874742.940    82400553.26807
  20786171.860   111192350.72509  20786170.920    86482900.97808
  20137208.800   107682811.96208  20137211.120    83753341.39908
 15 02 19 00 04 30.0000000  0 12G16G18G21G25G27G29G31R04R09R10R19R20
  22622945.280   118884388.19809  22622941.620    92637169.78647
  23392556.740   122928753.77808  23392554.040    95788651.20546
  20949769.760   110092035.54908  20949765.640    85786091.67048
  23836636.520   125262531.20808  23836636.700    97607241.67445
  23780413.460   124966931.96307  23780413.160    97376831.94147
  22949172.940   120599066.08308  22949170.020    93973439.54947
  22014014.200   115684448.84809  22014011.660    90143720.38748
  23048319.900   123422709.99708  23048320.680    95995442.48306
  20163787.160   107673517.21409  20163787.780    83746084.12906
  19867090.700   105902776.10609  19867095.960    82368848.61107
  20798827.160   111260047.61309  20798826.140    86535554.11308
  20134013.140   107665723.47908  20134015.420    83740050.35508
 15 02 19 00 05  0.0000000  0 14G16G18G21G25G27G29G31R04R09R10R11R19
                                R20R21
  22607035.500   118800782.40409  22607031.920    92572022.43947
  23378268.340   122853667.45608  23378265.580    95730142.44445
  20952122.080   110104397.32408  20952118.040    85795724.23648
  23854288.620   125355293.26208  23854288.960    97679523.74546
  23766652.300   124894615.93808  23766651.800    97320481.90946
  22962761.020   120670472.68708  22962758.260    94029081.03447
  22028166.100   115758815.70109  22028163.200    90201668.55348
  23035427.960   123353675.86907  23035428.660    95941749.27006
  20179758.080   107758800.92109  20179758.760    83812415.87806
  19859591.440   105862800.98209  19859596.780    82337756.85007
  23596741.680   126093838.28807  23596744.140    98072990.54005
  20811509.460   111327889.64509  20811508.500    86588320.13108
  20130885.140   107648997.12208  20130887.460    83727040.98508
  23037931.120   123280622.80208  23037934.580    95884939.11106
 15 02 19 00 05 30.0000000  0 14G16G18G21G25G27G29G31R04R09R10R11R19
                                R20R21
  22591152.660   118717318.40509  22591149.240    92506985.56747
  23364005.220   122778713.61609  23364002.340    95671736.87545
  20954553.740   110117176.01709  20954549.740    85805681.64748
  23871978.340   125448252.89208  23871978.600    97751959.81946
  23752909.600   124822396.47909  23752909.160    97264207.05346
  22976357.340   120741922.10209  22976354.700    94084755.88447
  22042384.860   115833533.20909  22042381.480    90259889.95548
  23022623.700   123285110.27808  23022624.240    95888420.46906
  20195843.440   107844695.96909  20195844.220    83879223.10906
  19852240.020   105823613.77709  19852245.300    82307277.90907
  23574113.580   125972918.44707  23574115.860    97978941.79005
  20824217.940   111395872.24309  20824217.140    86641195.46908
  20127824.020   107632628.49408  20127826.440    83714309.84508
  23023236.800   123201990.38807  23023240.260    95823780.63006
 15 02 19 00 06  0.0000000  0 13G16G18G21G25G27G29G31R04R09R10R11R19
                                R20
  22575296.900   118633996.01309  22575293.540    92442059.04047
  23349767.380   122703892.91008  23349764.300    95613435.05946
  20957064.040   110130368.06408  20957060.100    85815961.17648
  23889704.920   125541406.68008  23889704.940    97824547.14945
  23739184.800   124750271.22508  23739184.260    97208005.53646
  22989961.420   120813412.00608  22989958.860    94140462.29747
  22056669.460   115908596.51909  22056665.600    90318380.82148
  23009907.280   123217014.87908  23009908.200    95835457.44307
  20212042.160   107931196.64909  20212043.020    83946501.40106
  19845036.480   105785214.43709  19845041.620    82277411.74907
  23551532.040   125852248.31007  23551534.140    97885087.24505
  20836951.940   111463990.94209  20836951.260    86694176.66808
  20124829.300   107616614.08308  20124831.640    83701854.21508
 15 02 19 00 06 30.0000000  0 13G16G18G21G25G27G29G31R04R09R10R11R19
                                R20
  22559470.820   118550829.08809  22559467.400    92377253.67147
  23335557.600   122629219.88108  23335554.520    95555248.33645
  20959655.080   110143984.25708  20959651.180    85826571.21548
  23907470.580   125634765.25208  23907470.680    97897294.08846
  23725479.900   124678251.73107  23725479.480    97151886.48547
  23003575.120   120884953.45508  23003572.640    94196208.83347
  22071021.540   115984014.66009  22071017.280    90377148.18148
  22997281.820   123149405.62108  22997282.560    95782872.48606
  20228355.820   108018311.55709  20228356.680    84014257.41905
  19837983.420   105747617.03409  19837988.360    82248169.31907
  23528999.960   125731843.73807  23529002.100    97791439.25905
  20849713.460   111532256.05109  20849712.760    86747271.75808
  20121902.740   107600964.38008  20121905.040    83689682.24408
 15 02 19 00 07  0.0000000  0 13G16G18G21G25G27G29G31R04R09R10R11R19
                                R20
  22543672.800   118467809.54109  22543669.280    92312563.12947
  23321374.300   122554687.21608  23321371.400    95497170.96445
  20962324.820   110158014.00908  20962320.960    85837503.49248
  23925273.200   125728317.72208  23925273.520    97970192.10446
  23711793.100   124606328.37308  23711792.640    97095842.42447
  23017196.980   120956536.64209  23017194.260    94251987.89947
  22085438.620   116059775.16909  22085434.080    90436182.31748
  22984746.080   123082276.58208  22984746.760    95730661.02207
  20244782.120   108106027.60309  20244783.000    84082480.98606
  19831079.400   105710814.20009  19831084.220    82219544.88407
  23506516.480   125611698.98207  23506518.700    97697993.34805
  20862500.140   111600655.56809  20862499.400    86800471.37208
  20119042.360   107585668.41808  20119044.560    83677785.38108
 15 02 19 00 07 30.0000000  0 14G16G18G21G25G27G29G31R04R09R10R11R19
                                R20R21
  22527903.820   118384942.61409  22527900.220    92247991.50347
  23307218.720   122480300.61808  23307216.080    95439207.42246
  20965073.580   110172459.01109  20965069.740    85848759.33148
  23943112.900   125822066.08608  23943113.140    98043242.80046
  23698125.280   124534504.38009  23698124.740    97039875.72346
  23030827.420   121028164.26509  23030824.540    94307801.60547
  22099920.740   116135878.31409  22099916.020    90495483.44348
  22972301.420   123015634.83408  22972301.940    95678828.50507
  20261321.080   108194344.67309  20261322.040    84151172.02606
  19824325.380   105674811.16909  19824330.180    82191542.52207
  23484082.860   125491821.20807  23484085.120    97604755.09405
  20875312.100   111669190.69009  20875311.300    86853776.45808
  20116248.400   107570727.95408  20116250.620    83666165.03308
  22964885.540   122889743.81808  22964888.080    95580923.35206
 15 02 19 00 08  0.0000000  0 14G16G18G21G25G27G29G31R04R09R10R11R19
                                R20R21
  22512163.680   118302227.59409  22512160.020    92183538.25947
  23293091.100   122406060.45408  23293088.600    95381358.00046
  20967900.720   110187315.80309  20967896.860    85860336.05848
  23960989.240   125916006.66808  23960989.300    98116443.24645
  23684475.920   124462777.09208  23684475.440    96983984.34646
  23044465.540   121099833.27708  23044462.700    94363647.55747
  22114466.960   116212319.21809  22114462.160    90555047.75948
  22959947.940   122949481.73308  22959948.600    95627376.15506
  20277971.660   108283256.76009  20277972.560    84220325.85006
  19817721.260   105639607.75209  19817726.100    82164162.08907
  23461699.640   125372212.06408  23461701.860    97511725.75405
  20888148.600   111737857.23209  20888147.860    86907183.76008
  20113520.220   107556138.95208  20113522.480    83654818.03508
  22950405.340   122812253.03508  22950407.460    95520652.78306
 15 02 19 00 08 30.0000000  0 13G16G18G21G25G27G29G31R04R09R10R11R19
                                R20
  22496454.000   118219672.74109  22496450.260    92119209.80747
  23278993.000   122331975.06908  23278990.500    95323629.15246
  20970807.120   110202588.95708  20970803.240    85872237.22948
  23978902.720   126010144.23108  23978903.060    98189797.10745
  23670846.000   124391152.23308  23670845.640    96928172.85847
  23058112.660   121171549.51609  23058109.940    94419530.33347
  22129077.900   116289100.97509  22129073.140    90614877.67548
  22947687.480   122883827.22907  22947688.160    95576311.58907
  20294734.160   108372766.32309  20294734.940    84289944.38506
  19811268.660   105605212.12009  19811273.540    82137409.92707
  23439368.660   125252881.57007  23439370.740    97418913.13504
  20901010.380   111806659.38709  20901009.700    86960696.53708
  20110858.600   107541906.02308  20110860.840    83643747.97708
 15 02 19 00 09  0.0000000  0 13G16G18G21G25G27G29G31R04R09R10R11R19
                                R20
  22480773.480   118137271.06809  22480769.620    92055000.72447
  23264923.360   122258038.84808  23264920.720    95266016.55146
  20973790.900   110218268.75609  20973786.980    85884455.25848
  23996851.960   126104469.28708  23996852.640    98263297.10246
  23657234.100   124319621.66209  23657233.720    96872434.83146
  23071767.080   121243303.89808  23071764.560    94475442.81647
  22143751.580   116366212.74609  22143746.880    90674964.74248
  22935519.040   122818666.61007  22935519.600    95525631.07906
  20311606.320   108462861.64809  20311606.920    84360018.49506
  19804966.300   105571617.50609  19804971.240    82111280.77607
  23417088.940   125133825.14807  23417091.060    97326313.69605
  20913895.560   111875586.62809  20913894.820    87014306.60808
  20108261.860   107528019.73108  20108264.060    83632947.53408
 15 02 19 00 09 30.0000000  0 13G16G18G21G25G27G29G31R04R09R10R11R19
                                R20
  22465123.020   118055027.51209  22465119.180    91990914.83547
  23250883.240   122184257.25408  23250880.600    95208524.42446
  20976852.400   110234356.96308  20976848.480    85896991.52448
  24014837.460   126198983.11008  24014837.980    98336944.27345
  23643640.680   124248187.85508  23643640.280    96816772.11246
  23085429.000   121315099.07808  23085426.740    94531387.05547
  22158487.820   116443653.93809  22158483.300    90735308.50248
  22923443.840   122754006.34407  22923444.820    95475339.83407
  20328587.820   108553541.86209  20328588.440    84430547.51606
  19798815.200   105538829.08709  19798820.280    82085778.66407
  23394861.580   125015049.63407  23394863.860    97233932.75105
  20926804.200   111944639.69109  20926803.560    87068014.54508
  20105730.040   107514481.07008  20105732.220    83622417.46208
 15 02 19 00 10  0.0000000  0 14G16G18G21G25G27G29G31R04R09R10R11R19
                                R20R21
  22449503.140   117972944.43809  22449499.360    91926954.00547
  23236873.220   122110633.17708  23236870.500    95151155.07146
  20979991.400   110250852.71108  20979987.500    85909845.35548
  24032858.760   126293684.98708  24032859.560    98410737.92745
  23630065.680   124176851.05307  23630065.280    96761185.06547
  23099098.980   121386935.31609  23099096.940    94587363.29147
  22173286.320   116521422.43109  22173282.100    90795907.29748
  22911462.940   122689850.77308  22911464.340    95425441.05407
  20345678.180   108644803.80209  20345678.920    84501529.00406
  19792815.820   105506849.06909  19792821.000    82060905.31507
  23372687.620   124896559.65307  23372690.060    97141773.89104
  20939736.160   112013817.15809  20939735.540    87121819.23108
  20103263.020   107501288.88808  20103265.140    83612156.90508
  22892906.700   122504573.33908  22892908.640    95281338.62606
 15 02 19 00 10 30.0000000  0 14G16G18G21G25G27G29G31R04R09R10R11R19
                                R20R21
  22433914.500   117891025.82909  22433910.840    91863121.33547
  23222894.100   122037171.47808  23222891.300    95093912.22246
  20983208.040   110267756.89108  20983204.240    85923017.43548
  24050915.840   126388575.70208  24050916.820    98484678.70746
  23616509.640   124105613.40609  23616509.160    96705675.29046
  23112777.220   121458813.93809  23112775.020    94643372.58447
  22188146.880   116599517.28409  22188142.980    90856760.39948
  22899577.460   122626205.72907  22899579.220    95375939.37806
  20362877.220   108736646.00009  20362878.120    84572961.78806
  19786968.880   105475681.70609  19786974.080    82036664.03007
  23350568.200   124778360.86607  23350570.640    97049841.50104
  20952691.620   112083119.59009  20952690.840    87175721.13508
  20100860.860   107488444.01808  20100863.040    83602166.45508
  22878639.380   122428222.39508  22878641.600    95221954.59706
 15 02 19 00 11  0.0000000  0 13G16G18G21G25G27G29G31R04R09R10R11R19
                                R20
  22418357.360   117809272.96609  22418353.840    91799417.82847
  23208946.080   121963873.81808  23208943.280    95036797.22146
  20986502.080   110285067.48708  20986498.340    85936506.22848
  24069008.580   126483653.45508  24069009.480    98558765.24246
  23602972.340   124034474.22008  23602971.780    96650242.14846
  23126463.200   121530734.03808  23126460.800    94699414.21747
  22203069.040   116677935.75809  22203065.500    90917865.68148
  22887788.060   122563074.24408  22887789.740    95326837.11407
  20380184.140   108829064.45909  20380185.140    84644842.79806
  19781274.560   105445327.91209  19781279.800    82013055.52607
  23328504.140   124660457.21907  23328506.520    96958138.66305
  20965669.840   112152544.20909  20965669.080    87229718.05308
  20098523.220   107475944.37408  20098525.580    83592444.50908
 15 02 19 00 11 30.0000000  0 13G16G18G21G25G27G29G31R04R09R10R11R19
                                R20
  22402832.380   117727688.86909  22402828.900    91735845.81047
  23195029.940   121890744.04808  23195026.960    94979812.99546
  20989873.420   110302784.18808  20989869.680    85950311.45848
  24087136.780   126578917.68208  24087137.340    98632997.10845
  23589453.800   123963433.98708  23589453.300    96594886.19747
  23140157.060   121602695.90808  23140154.660    94755488.35647
  22218052.360   116756675.22109  22218049.100    90979221.08148
  22876095.620   122500461.06307  22876096.760    95278138.00406
  20397598.420   108922056.13008  20397599.480    84717169.62806
  19775733.380   105415790.51209  19775738.580    81990082.00507
  23306496.140   124542853.10507  23306498.460    96866668.82304
  20978670.700   112222090.11509  20978670.100    87283809.30708
  20096250.260   107463789.57308  20096252.620    83582990.77508
 15 02 19 00 12  0.0000000  0 13G16G18G21G25G27G29G31R04R09R10R11R19
                                R20
  22387339.120   117646271.32809  22387335.620    91672403.59347
  23181145.320   121817780.75008  23181142.220    94922958.51446
  20993321.000   110320901.62708  20993317.300    85964428.94148
  24105299.620   126674363.30408  24105299.780    98707370.32045
  23575953.400   123892488.96108  23575952.860    96539604.41546
  23153858.340   121674695.40409  23153855.980    94811591.84747
  22233095.600   116835729.12109  22233092.620    91040821.49648
  22864499.880   122438365.80708  22864500.780    95229841.70506
  20415118.540   109015613.76808  20415119.800    84789936.66206
  19770345.060   105387067.49809  19770350.180    81967741.87007
  23284544.280   124425548.86007  23284546.460    96775432.18404
  20991693.100   112291751.47709  20991692.660    87337990.35508
  20094040.740   107451973.87808  20094043.060    83573800.79508
 15 02 19 00 12 30.0000000  0 14G16G18G21G25G27G29G31R04R09R10R11R19
                                R20R21
  22371878.240   117565024.00509  22371874.660    91609093.99447
  23167293.200   121744988.33508  23167290.180    94866237.18645
  20996844.920   110339420.30908  20996841.260    85978859.08248
  24123497.080   126769990.80808  24123497.460    98781885.19545
  23562471.400   123821640.75708  23562470.900    96484398.03247
  23167567.060   121746733.71309  23167564.480    94867725.56647
  22248198.660   116915096.49409  22248195.920    91102666.17448
  22853001.800   122376793.98808  22853002.660    95181952.52007
  20432744.300   109109735.36908  20432745.760    84863142.32806
  19765110.140   105359162.40409  19765115.220    81946037.90007
  23262649.680   124308550.24107  23262651.640    96684433.25004
  21004737.040   112361528.28208  21004736.740    87392261.19308
  20091894.760   107440497.91008  20091897.080    83564875.05008
  22821994.140   122125094.47708  22821994.460    94986191.17906
 15 02 19 00 13  0.0000000  0 14G16G18G21G25G27G29G31R04R09R10R11R19
                                R20R21
  22356451.140   117483954.36509  22356447.520    91545922.86547
  23153475.140   121672374.60708  23153472.280    94809655.10746
  21000446.000   110358344.29308  21000442.340    85993605.04848
  24141729.760   126865804.17508  24141729.900    98856544.98646
  23549008.760   123750894.49208  23549008.440    96429271.17147
  23181284.040   121818816.16008  23181281.020    94923893.66746
  22263361.940   116994779.69809  22263359.360    91164756.95848
  22841603.380   122315754.82308  22841604.080    95134477.60206
  20450476.120   109204422.71209  20450477.580    84936788.02106
  19760030.000   105332082.32209  19760035.080    81924975.61407
  23240814.040   124191866.68508  23240815.800    96593679.37904
  21017803.340   112431424.14409  21017802.940    87446624.62708
  20089813.020   107429365.57908  20089815.300    83556216.58308
  22807938.640   122049884.73208  22807940.000    94927694.77406
 15 02 19 00 13 30.0000000  0 13G16G18G21G25G27G29G31R04R09R10R11R19
                                R20
  22341057.600   117403060.86409  22341053.960    91482888.98647
  23139691.060   121599938.51509  23139688.240    94753211.41246
  21004123.300   110377668.63808  21004119.660    86008662.99148
  24159996.780   126961798.46208  24159996.760    98931345.70545
  23535564.780   123680246.63108  23535564.620    96374220.92646
  23195008.540   121890938.99109  23195005.260    94980093.23546
  22278584.200   117074772.30309  22278581.640    91227088.83348
  22830304.260   122255248.18407  22830305.120    95087416.89107
  20468312.620   109299668.37008  20468313.940    85010867.96506
  19755104.360   105305825.21709  19755109.340    81904553.41407
  23219037.360   124075498.28508  23219039.040    96503170.62204
  21030890.940   112501433.57209  21030890.340    87501076.39908
  20087794.560   107418571.64508  20087796.780    83547821.31508
 15 02 19 00 14  0.0000000  0 13G16G18G21G25G27G29G31R04R09R10R11R19
                                R20
  22325697.940   117322344.79009  22325694.160    91419993.35347
  23125941.200   121527681.95608  23125938.220    94696907.61446
  21007876.480   110397391.40608  21007872.760    86024031.39248
  24178297.780   127057971.80208  24178298.420    99006285.90646
  23522139.320   123609696.38508  23522139.440    96319246.70646
  23208740.560   121963100.90508  23208737.080    95036323.30747
  22293864.660   117155070.82909  22293862.060    91289659.07648
  22819105.200   122195276.86208  22819105.880    95040772.52507
  20486252.800   109395468.08808  20486254.100    85085378.83406
  19750333.320   105280392.16209  19750338.200    81884772.14607
  23197320.280   123959449.04308  23197322.140    96412910.12704
  21043999.300   112571554.08209  21043998.540    87555614.57908
  20085839.000   107408114.03108  20085841.160    83539687.62408
 15 02 19 00 14 30.0000000  0 13G16G18G21G25G27G29G31R04R09R10R11R19
                                R20
  22310371.960   117241805.66009  22310368.040    91357235.60147
  23112225.500   121455605.29008  23112222.640    94640744.02346
  21011704.680   110417508.53308  21011700.880    86039707.08848
  24196632.240   127154320.48108  24196632.820    99081362.80746
  23508732.020   123539241.16508  23508732.260    96264346.59247
  23222479.220   122035299.06208  23222476.320    95092581.55647
  22309202.320   117235670.12709  22309199.620    91352463.69448
  22808006.240   122135842.11308  22808006.780    94994545.54706
  20504295.480   109491815.78608  20504296.920    85160315.90906
  19745716.620   105255782.07609  19745721.460    81865630.96807
  23175663.200   123843720.19708  23175665.080    96322898.80304
  21057127.600   112641781.60509  21057126.860    87610235.97408
  20083945.580   107397988.79908  20083947.680    83531812.46408
 15 02 19 00 15  0.0000000  0  7G16G18G21G25G27G29G31
  22295080.500   117161448.22709  22295076.540    91294619.42247
  23098545.000   121383714.02408  23098542.260    94584724.90246
  21015608.280   110438021.92408  21015604.440    86055691.54948
  24215000.480   127250845.96808  24215000.780    99156577.45245
  23495343.420   123468883.80708  23495343.680    96209522.75346
  23236225.280   122107536.08308  23236222.900    95148870.09947
  22324597.240   117316570.24709  22324594.360    91415502.72048
 15 02 19 00 15 30.0000000  0  7G16G18G21G25G27G29G31
  22279824.200   117081276.07409  22279820.300    91232147.62047
  23084900.340   121312011.52709  23084897.800    94528852.82046
  21019587.300   110458931.43408  21019583.340    86071984.68248
  24233402.340   127347548.26908  24233403.080    99231929.84545
  23481973.740   123398625.61708  23481973.960    96154776.12847
  23249979.040   122179812.66309  23249976.580    95205189.47046
  22340049.100   117397769.45509  22340046.020    91478774.80948
 15 02 19 00 16  0.0000000  0  7G16G18G21G25G27G29G31
  22264602.820   117001287.39509  22264599.000    91169818.78647
  23071291.560   121240497.21509  23071289.040    94473127.39946
  21023640.700   110480231.59609  21023636.600    86088582.21648
  24251836.880   127444422.37308  24251837.000    99307416.19945
  23468622.220   123328462.66208  23468622.340    96100103.74247
  23263739.800   122252125.31209  23263737.080    95261536.98647
  22355556.600   117479261.19009  22355553.400    91542274.82348
 15 02 19 00 16 30.0000000  0  7G16G18G21G25G27G29G31
  22249417.560   116921488.23909  22249413.780    91107637.63347
  23057719.820   121169177.39308  23057717.360    94417553.54246
  21027768.900   110501925.29909  21027764.720    86105486.41148
  24270304.700   127541470.78408  24270304.520    99383038.28144
  23455289.620   123258398.81608  23455289.540    96045508.54247
  23277508.140   122324477.22108  23277505.500    95317915.03347
  22371119.980   117561046.39509  22371116.660    91606003.53048
 15 02 19 00 17  0.0000000  0  7G16G18G21G25G27G29G31
  22234267.980   116841876.27509  22234264.140    91045602.34947
  23044184.880   121098050.68709  23044182.260    94362130.14346
  21031970.940   110524007.22908  21031966.760    86122693.09348
  24288804.700   127638688.16708  24288804.820    99458792.09946
  23441975.060   123188429.97408  23441974.900    95990987.40547
  23291282.960   122396863.95808  23291280.500    95374320.20747
  22386737.900   117643118.21209  22386734.460    91669955.56848
 15 02 19 00 17 30.0000000  0  7G16G18G21G25G27G29G31
  22219155.600   116762460.07209  22219151.740    90983719.59147
  23030688.420   121027126.12709  23030685.660    94306864.29146
  21036247.820   110546482.26909  21036243.640    86140206.10648
  24307337.560   127736079.67608  24307337.680    99534681.54445
  23428679.720   123118562.44308  23428679.440    95936545.25147
  23305065.680   122469292.06508  23305063.160    95430757.66647
  22402411.060   117725480.22509  22402407.500    91734133.73048
 15 02 19 00 18  0.0000000  0  7G16G18G21G25G27G29G31
  22204080.000   116683237.64509  22204076.160    90921987.84247
  23017230.120   120956402.21008  23017227.420    94251754.76446
  21040598.540   110569344.88709  21040594.240    86158021.13548
  24325902.700   127833639.73608  24325902.720    99610702.38445
  23415402.840   123048792.15508  23415402.500    95882178.78847
  23318855.320   122541757.36708  23318852.760    95487224.08946
  22418138.100   117808125.54509  22418134.460    91798532.64648
 15 02 19 00 18 30.0000000  0  7G16G18G21G25G27G29G31
  22189041.680   116604211.57009  22189037.920    90860409.08947
  23003810.580   120885882.02509  23003807.680    94196803.99146
  21045022.860   110592594.39909  21045018.460    86176137.63948
  24344499.640   127931367.58308  24344500.200    99686853.87146
  23402144.460   122979119.46508  23402144.240    95827888.41646
  23332651.960   122614259.55708  23332649.300    95543719.25246
  22433918.540   117891051.86509  22433914.860    91863150.52148
 15 02 19 00 19  0.0000000  0  7G16G18G21G25G27G29G31
  22174040.780   116525381.80009  22174037.100    90798983.31347
  22990429.900   120815565.90108  22990426.760    94142012.23246
  21049520.060   110616227.10309  21049515.600    86194552.75448
  24363128.080   128029259.74207  24363128.040    99763133.56245
  23388904.160   122909542.20908  23388904.120    95773672.42447
  23346455.440   122686796.69009  23346452.620    95600241.66747
  22449751.420   117974253.84909  22449747.700    91927983.20848
 15 02 19 00 19 30.0000000  0  8G16G18G21G22G25G27G29G31
  22159077.980   116446752.03909  22159074.300    90737713.36147
  22977088.860   120745458.36209  22977085.760    94087382.99446
  21054090.080   110640242.80908  21054085.640    86213266.29148
  24555126.560   129038059.66808                                
  24381787.740   128127316.60208  24381788.420    99839541.39646
  23375682.520   122840062.06408  23375682.460    95719532.10647
  23360265.680   122759369.71808  23360262.800    95656792.05246
  22465636.500   118057730.36809  22465632.880    91993029.81648
 15 02 19 00 20  0.0000000  0  8G16G18G21G22G25G27G29G31
  22144152.460   116368318.20709  22144148.820    90676596.10347
  22963786.740   120675555.43409  22963783.680    94032913.21246
  21058731.540   110664634.17708  21058727.160    86232272.55248
  24537325.640   128944513.65708  24537324.840   100476239.46845
  24400477.200   128225530.45608  24400477.600    99916071.67645
  23362478.240   122770672.69509  23362477.980    95665462.50246
  23374081.540   122831972.17909  23374078.620    95713365.33746
  22481572.100   118141472.35609  22481568.520    92058283.28548
 15 02 19 00 20 30.0000000  0  8G16G18G21G22G25G27G29G31
  22129267.700   116290098.53609  22129264.140    90615645.73547
  22950527.160   120605875.99708  22950523.960    93978617.57246
  21063447.340   110689416.38308  21063443.040    86251583.37248
  24519511.220   128850899.14108  24519510.200   100403293.49945
  24419199.500   128323916.16807  24419199.940    99992735.87345
  23349294.280   122701390.26008  23349294.020    95611476.20647
  23387906.160   122904620.35109  23387903.280    95769974.24547
  22497560.740   118225493.42609  22497557.260    92123754.21648
 15 02 19 00 21  0.0000000  0  8G16G18G21G22G25G27G29G31
  22114421.900   116212083.62209  22114418.420    90554854.89947
  22937308.420   120536411.33608  22937305.280    93924489.27646
  21068235.040   110714576.28209  21068230.820    86271188.49048
  24501681.980   128757207.20308  24501680.720   100330287.18545
  24437951.920   128422460.95808  24437952.180   100069524.00145
  23336128.400   122632203.23008  23336128.200    95557564.29847
  23401737.260   122977302.42909  23401734.380    95826609.57747
  22513599.640   118309778.91409  22513596.260    92189431.17648
 15 02 19 00 21 30.0000000  0  8G16G18G21G22G25G27G29G31
  22099615.980   116134277.91409  22099612.520    90494227.08747
  22924131.380   120467166.14108  22924128.180    93870532.01646
  21073094.760   110740114.66408  21073090.640    86291088.53048
  24483838.900   128663442.44108  24483837.480   100257224.10145
  24456734.720   128521165.77708  24456735.120   100146436.81846
  23322981.100   122563113.90208  23322980.800    95503728.48847
  23415575.040   123050020.48808  23415572.240    95883272.98747
  22529688.720   118394328.15209  22529685.340    92255313.66048
 15 02 19 00 22  0.0000000  0  8G16G18G21G22G25G27G29G31
  22084850.360   116056683.60509  22084846.780    90433763.99947
  22910996.680   120398143.02309  22910993.620    93816747.80046
  21078026.240   110766029.97108  21078022.200    86311282.28248
  24465982.440   128569607.18808  24465980.720   100184106.07045
  24475547.880   128620029.12208  24475548.340   100223473.17845
  23309852.380   122494122.24908  23309852.020    95449968.81047
  23429419.420   123122774.04408  23429416.860    95939963.99247
  22545827.500   118479138.25009  22545824.040    92321399.42848
 15 02 19 00 22 30.0000000  0  8G16G18G21G22G25G27G29G31
  22070125.240   115979301.90509  22070121.580    90373466.56847
  22897904.640   120329343.77009  22897901.480    93763138.00146
  21083029.060   110792320.25409  21083025.080    86331768.20648
  24448113.020   128475703.47708  24448111.300   100110934.68745
  24494390.780   128719049.05908  24494391.340   100300631.50945
  23296742.060   122425227.43608  23296741.760    95396284.56147
  23443270.500   123195562.62608  23443268.360    95996682.31447
  22562015.280   118564205.49209  22562011.740    92387685.56247
 15 02 19 00 23  0.0000000  0  8G16G18G21G22G25G27G29G31
  22055441.180   115902135.97809  22055437.440    90313337.28547
  22884855.940   120260772.09209  22884852.920    93709705.57746
  21088103.140   110818985.12409  21088099.280    86352546.03748
  24430231.180   128381734.67208  24430229.340   100037712.59045
  24513263.360   128818225.15207  24513263.640   100377911.56545
  23283650.400   122356430.54509  23283650.060    95342676.63147
  23457128.380   123268386.94408  23457126.540    96053428.49547
  22578251.600   118649528.29709  22578248.060    92454170.83347
 15 02 19 00 23 30.0000000  0  8G16G18G21G22G25G27G29G31
  22040798.460   115825187.75309  22040794.660    90253377.63347
  22871850.920   120192430.27209  22871847.900    93656452.22346
  21093248.180   110846022.50209  21093244.280    86373614.12048
  24412337.160   128287702.57008  24412335.260    99964441.15045
  24532165.200   128917555.50908  24532165.200   100455311.83845
  23270577.300   122287730.99109  23270576.960    95289144.52947
  23470992.800   123341246.10308  23470991.100    96110201.82746
  22594535.760   118735103.14209  22594532.360    92520852.49748
 15 02 19 00 24  0.0000000  0  8G16G18G21G22G25G27G29G31
  22026197.540   115748459.29809  22026193.580    90193589.22647
  22858890.080   120124320.71408  22858887.120    93603379.86546
  21098463.900   110873430.92508  21098459.880    86394971.33748
  24394431.420   128193609.66508  24394429.440    99891122.30845
  24551096.280   129017038.90907  24551096.320   100532831.31745
  23257522.860   122219129.00709  23257522.340    95235688.42747
  23484864.100   123414140.15308  23484862.560    96167002.32047
  22610867.360   118820927.31509  22610864.120    92587728.43347
 15 02 19 00 24 30.0000000  0  8G16G18G21G22G25G27G29G31
  22011638.540   115671951.13909  22011634.480    90133972.48147
  22845973.580   120056444.31609  22845970.600    93550489.18446
  21103749.560   110901206.93009  21103745.440    86416614.97548
  24376514.480   128099456.96108  24376512.360    99817756.85245
  24570055.960   129116672.27408  24570055.500   100610467.71345
  23244486.640   122150622.78608  23244485.960    95182306.97547
  23498741.860   123487067.20708  23498740.200    96223828.54347
  22627245.620   118906996.16909  22627242.460    92654795.05648
 15 02 19 00 25  0.0000000  0  8G16G18G21G22G25G27G29G31
  21997122.160   115595667.30209  21997118.160    90074530.54547
  22833102.380   119988805.72709  22833099.380    93497783.77346
  21109105.400   110929351.70509  21109101.180    86438545.97248
  24358587.040   128005248.94408  24358585.020    99744348.31145
  24589044.220   129216456.24107  24589044.140   100688221.35546
  23231468.960   122082214.24508  23231468.300    95129001.70047
  23512626.180   123560029.13408  23512624.160    96280681.98646
  22643670.260   118993308.71309  22643667.160    92722051.54547
 15 02 19 00 25 30.0000000  0  8G16G18G21G22G25G27G29G31
  21982648.480   115519608.21009  21982644.680    90015263.74048
  22820276.600   119921405.85908  22820273.440    93445264.40446
  21114530.700   110957861.88308  21114526.480    86460761.68548
  24340649.240   127910986.41108  24340647.240    99670897.30345
  24608060.640   129316387.65808  24608060.340   100766090.01945
  23218469.580   122013901.88409  23218469.000    95075771.28947
  23526516.700   123633024.22008  23526514.060    96337561.28046
  22660140.440   119079860.36409  22660137.360    92789494.33747
 15 02 19 00 26  0.0000000  0  8G16G18G21G22G25G27G29G31
  21968218.400   115443778.00109  21968214.720    89956175.28647
  22807497.020   119854249.16409  22807493.880    93392934.54946
  21120025.480   110986737.56409  21120021.380    86483262.22248
  24322701.880   127816673.35508  24322699.900    99597406.89845
  24627105.140   129416467.04207  24627105.620   100844073.89546
  23205488.700   121945687.40108  23205488.280    95022617.15547
  23540413.820   123706054.01008  23540411.260    96394467.59846
  22676655.980   119166650.01009  22676652.740    92857122.60647
 15 02 19 00 26 30.0000000  0  8G16G18G21G22G25G27G29G31
  21953832.940   115368182.14009  21953829.260    89897269.42148
  22794764.800   119787341.47509  22794761.760    93340798.69746
  21125590.280   111015980.86209  21125586.160    86506049.19748
  24304745.840   127722315.82408  24304743.840    99523881.87145
  24646178.120   129516696.15208  24646178.800   100922174.42345
  23192527.100   121877574.06708  23192526.680    94969541.84247
  23554318.140   123779121.34508  23554316.080    96451403.09747
  22693216.960   119253678.21909  22693213.620    92924936.76447
 15 02 19 00 27  0.0000000  0  8G16G18G21G22G25G27G29G31
  21939491.200   115292815.69309  21939487.440    89838542.32748
  22782079.160   119720678.15009  22782076.180    93288853.23847
  21131223.440   111045583.05209  21131219.280    86529115.84548
  24286780.660   127627909.44608  24286778.600    99450318.73945
  24665278.020   129617066.68108  24665278.280   101000385.24044
  23179583.440   121809554.89008  23179582.960    94916539.97047
  23568228.420   123852219.54008  23568226.400    96508362.68747
  22709821.440   119340934.85609  22709818.120    92992928.91647
 15 02 19 00 27 30.0000000  0  8G16G18G21G22G25G27G29G31
  21925193.900   115217683.00609  21925190.220    89779997.38848
  22769440.940   119654263.73409  22769438.000    93237101.76046
  21136924.980   111075544.65009  21136920.780    86552462.54348
  24268807.200   127533458.84608  24268804.880    99376721.11545
  24684404.980   129717579.21607  24684405.780   101078706.61745
  23166658.180   121741632.05409  23166657.500    94863613.10547
  23582144.960   123925350.53708  23582142.740    96565347.86746
  22726469.180   119428419.06309  22726466.000    93061098.39547
 15 02 19 00 28  0.0000000  0  8G16G18G21G22G25G27G29G31
  21910941.800   115142787.93609  21910938.220    89721637.60848
  22756850.920   119588102.65109  22756848.080    93185547.69246
  21142694.840   111105865.49508  21142690.640    86576089.18248
  24250826.100   127438967.83008  24250823.380    99303091.98846
  24703558.900   129818233.94508  24703559.320   101157138.88745
  23153751.500   121673806.97208  23153750.720    94810762.39747
  23596067.620   123998515.22108  23596065.440    96622359.28147
  22743160.020   119516129.47309  22743156.920    93129444.13447
 15 02 19 00 28 30.0000000  0  8G16G18G21G22G25G27G29G31
  21896735.960   115068135.71609  21896732.400    89663467.04748
  22744310.200   119522200.52809  22744307.440    93134195.39146
  21148533.440   111136547.51609  21148529.200    86599997.25448
  24232838.180   127344441.91808  24232835.500    99229435.71145
  24722740.260   129919032.61908  24722741.060   101235683.19845
  23140863.980   121606082.91808  23140863.120    94757990.40547
  23609997.140   124071717.01408  23609995.360    96679399.57346
  22759894.020   119604066.46909  22759890.940    93197966.43647
 15 02 19 00 29  0.0000000  0  8G16G18G21G22G25G27G29G31
  21882575.500   114993721.71009  21882571.900    89605482.11448
  22731817.880   119456552.85209  22731815.100    93083041.35546
  21154439.160   111167582.50508  21154434.900    86624180.37048
  24214842.740   127249877.04508  24214840.100    99155749.04746
  24741947.480   130019966.95208  24741948.140   101314333.31244
  23127994.460   121538453.04208  23127993.520    94705291.85447
  23623932.740   124144949.00509  23623931.020    96736463.43147
  22776669.200   119692220.20709  22776666.140    93266657.62547
 15 02 19 00 29 30.0000000  0  8G16G18G21G22G25G27G29G31
  21868461.340   114919551.14109  21868457.700    89547686.88848
  22719375.020   119391165.16809  22719372.100    93032089.92946
  21160412.260   111198971.75708  21160408.020    86648639.53448
  24196841.020   127155278.63908  24196838.480    99082036.28246
  24761180.800   130121038.42907  24761181.100   101393090.28245
  23115143.400   121470920.25809  23115142.520    94652668.91547
  23637874.840   124218213.84809  23637872.940    96793552.92747
  22793485.600   119780590.80909  22793482.580    93335517.80648
 15 02 19 00 30  0.0000000  0  8G16G18G21G22G25G27G29G31
  21854393.980   114845626.44709  21854390.260    89490083.24048
  22706982.220   119326040.36709  22706979.160    92981343.32946
  21166452.540   111230713.95809  21166448.360    86673373.72748
  24178833.600   127060650.01008  24178831.080    99008299.92546
  24780439.920   130222246.07408  24780440.420   101471953.28645
  23102310.880   121403485.09108  23102310.060    94600122.04047
  23651823.280   124291512.09608  23651821.220    96850668.41547
  22810342.760   119869175.70609  22810339.760    93404544.95047
 15 02 19 00 30 30.0000000  0  8G16G18G21G22G25G27G29G31
  21840373.720   114771949.30009  21840369.880    89432672.48448
  22694639.800   119261180.20509  22694636.640    92930802.97046
  21172559.500   111262806.55909  21172555.400    86698380.94248
  24160820.960   126965993.13408  24160818.240    98934541.54045
  24799724.700   130323587.63107  24799724.920   101550920.72445
  23089496.660   121336146.78008  23089496.060    94547650.68347
  23665777.700   124364842.70908  23665775.800    96907809.06046
  22827240.120   119957971.16309  22827237.060    93473736.16947
 15 02 19 00 31  0.0000000  0  8G16G18G21G22G25G27G29G31
  21826401.420   114698524.63609  21826397.600    89375458.46448
  22682348.780   119196590.47209  22682345.600    92880473.32446
  21178733.520   111295251.44509  21178729.560    86723662.66848
  24142803.840   126871312.73208  24142800.620    98860764.80445
  24819035.060   130425064.79308  24819035.380   101629993.74445
  23076701.460   121268908.29108  23076701.020    94495257.08847
  23679738.720   124438208.31408  23679736.840    96964977.03546
  22844177.600   120046977.10909  22844174.400    93543091.42247
 15 02 19 00 31 30.0000000  0  7G16G18G21G22G27G29G31
  21812476.780   114625350.63409  21812473.020    89318439.77248
  22670108.880   119132269.37109  22670105.680    92830352.98846
  21184973.500   111328043.02408  21184969.700    86749214.54748
  24124781.900   126776607.47308  24124778.420    98786968.73645
  23063924.540   121201765.54109  23063924.160    94442938.09247
  23693705.680   124511604.74308  23693703.280    97022169.05845
  22861153.840   120136186.71209  22861150.480    93612605.36347
 15 02 19 00 32  0.0000000  0  7G16G18G21G22G27G29G31
  21798600.560   114552430.94809  21798596.860    89261619.24548
  22657920.880   119068220.86809  22657917.800    92780445.08646
  21191279.400   111361180.79208  21191275.680    86775036.18648
  24106756.000   126681881.64108  24106752.260    98713156.58745
  23051166.180   121134719.91508  23051165.820    94390694.77248
  23707678.900   124585033.87908  23707675.640    97079386.59745
  22878168.520   120225598.37409  22878165.120    93682276.75147
 15 02 19 00 32 30.0000000  0  7G16G18G21G22G27G29G31
  21784773.620   114479769.93509  21784769.940    89205000.28248
  22645785.600   119004449.40709  22645782.460    92730753.06346
  21197651.400   111394665.63909  21197647.620    86801128.27548
  24088726.860   126587139.62608  24088723.440    98639331.87045
  23038426.760   121067773.45909  23038426.300    94338528.75147
  23721658.340   124658497.15208  23721654.700    97136630.70245
  22895221.420   120315211.30109  22895218.060    93752104.97747
 15 02 19 00 33  0.0000000  0  7G16G18G21G22G27G29G31
  21770995.980   114407367.97209  21770992.360    89148583.18048
  22633703.040   118940955.37809  22633699.920    92681277.23746
  21204088.700   111428493.62309  21204084.780    86827487.74648
  24070694.740   126492382.31608  24070691.720    98565495.28245
  23025705.940   121000924.58908  23025705.340    94286438.72147
  23735643.720   124731992.79008  23735640.720    97193899.96746
  22912311.520   120405020.42209  22912308.260    93822086.06847
 15 02 19 00 33 30.0000000  0  7G16G18G21G22G27G29G31
  21757267.680   114335225.28709  21757264.100    89092368.10748
  22621673.400   118877739.76109  22621670.360    92632018.29846
  21210590.700   111462661.47509  21210586.680    86854112.04648
  24052659.960   126397610.26408  24052657.060    98491647.13645
  23013003.200   120934171.20809  23013002.560    94234423.14647
  23749635.240   124805518.81308  23749633.000    97251192.92347
  22929437.940   120495020.96609  22929434.740    93892216.31447
 15 02 19 00 34  0.0000000  0  7G16G18G21G22G27G29G31
  21743589.580   114263346.06809  21743585.940    89036358.33548
  22609697.520   118814806.86709  22609694.560    92582979.71447
  21217157.400   111497169.08609  21217153.240    86881001.10148
  24034623.380   126302827.82208  24034620.400    98417790.85346
  23000319.000   120867515.41108  23000318.380    94182483.59547
  23763633.140   124879076.81309  23763631.180    97308510.79647
  22946600.640   120585211.92009  22946597.380    93962494.94947
 15 02 19 00 34 30.0000000  0  7G16G18G21G22G27G29G31
  21729962.220   114191733.57409  21729958.480    88980556.39648
  22597776.040   118752159.64709  22597773.220    92534163.70346
  21223788.780   111532016.66109  21223784.500    86908155.06648
  24016585.480   126208038.84508  24016582.560    98343929.54846
  22987653.540   120800958.09308  22987652.840    94130620.76047
  23777637.320   124952668.01009  23777635.100    97365854.54646
  22963799.240   120675591.24409  22963796.040    94032920.35647
 15 02 19 00 35  0.0000000  0  7G16G18G21G22G27G29G31
  21716386.100   114120390.88909  21716382.340    88924964.69748
  22585909.700   118689801.77509  22585906.900    92485573.18647
  21230484.600   111567202.91009  21230480.200    86935572.92048
  23998546.960   126113246.54508  23998544.200    98270065.62746
  22975006.900   120734500.08908  22975006.320    94078835.34047
  23791647.780   125026293.09508  23791645.300    97423224.71246
  22981033.340   120766157.02509  22981030.160    94103491.04147
 15 02 19 00 35 30.0000000  0  7G16G18G21G22G27G29G31
  21702861.380   114049318.42409  21702857.660    88869583.55348
  22574098.640   118627733.92609  22574095.780    92437208.63046
  21237244.240   111602724.75309  21237239.800    86963252.27848
  23980508.020   126018451.76608  23980505.300    98196199.73846
  22962378.920   120668139.86409  22962378.420    94027126.09647
  23805664.180   125099950.29508  23805661.740    97480619.91646
  22998301.940   120856904.52209  22998298.900    94174203.32147
 15 02 19 00 36  0.0000000  0  7G16G18G21G22G27G29G31
  21689388.640   113978518.81009  21689384.880    88814415.03648
  22562343.360   118565959.01909  22562340.380    92389072.36846
  21244067.460   111638580.84209  21244063.000    86991192.10148
  23962469.080   125923657.67108  23962466.580    98122334.43146
  22949769.700   120601877.87108  22949769.120    93975493.37448
  23819686.520   125173639.68108  23819684.420    97538040.18946
  23015604.600   120947831.31809  23015601.720    94245055.32947
 15 02 19 00 36 30.0000000  0  7G16G18G21G22G27G29G31
  21675968.140   113907993.11809  21675964.240    88759459.95348
  22550643.980   118504478.20409  22550640.880    92341165.24447
  21250953.700   111674768.33609  21250949.240    87019390.15848
  23944430.680   125828865.65008  23944427.680    98048470.60545
  22937178.900   120535712.69209  22937178.320    93923936.15347
  23833714.900   125247360.27508  23833713.320    97595484.71946
  23032940.520   121038932.99709  23032937.900    94316043.60647
 15 02 19 00 37  0.0000000  0  7G16G18G21G22G27G29G31
  21662600.140   113837743.16309  21662596.060    88704719.71848
  22539000.780   118443293.30309  22538997.660    92293488.72046
  21257902.480   111711285.02009  21257898.120    87047844.71948
  23926392.880   125734077.60608  23926389.860    97974610.05846
  22924606.420   120469643.98209  22924605.880    93872454.05147
  23847749.440   125321111.24509  23847747.780    97652952.95446
  23050309.020   121130205.86809  23050306.660    94387165.28047
 15 02 19 00 37 30.0000000  0  7G16G18G21G22G27G29G31
  21649284.360   113767767.84609  21649280.220    88650193.50548
  22527413.820   118382403.65709  22527410.680    92246042.22847
  21264912.960   111748126.41109  21264908.720    87076552.29648
  23908356.060   125639293.39508  23908353.200    97900752.36546
  22912051.680   120403668.82708  22912051.220    93821044.85847
  23861789.420   125394889.68909  23861787.360    97710442.61046
  23067709.120   121221644.30809  23067706.820    94458415.96147
 15 02 19 00 38  0.0000000  0  7G16G18G21G22G27G29G31
  21636023.300   113698080.76309  21636019.280    88595891.88848
  22515885.660   118321822.72209  22515882.520    92198836.32147
  21271987.040   111785301.98709  21271982.940    87105520.27248
  23890322.640   125544526.64008  23890319.400    97826908.26546
  22899516.920   120337798.45308  22899516.460    93769717.31247
  23875836.480   125468706.33108  23875834.060    97767962.03046
  23085142.440   121313256.58109  23085140.060    94529802.09547
 15 02 19 00 38 30.0000000  0  7G16G18G21G22G27G29G31
  21622816.180   113628677.15709  21622812.320    88541811.17148
  22504415.540   118261546.44109  22504412.420    92151867.80747
  21279123.140   111822803.08709  21279119.140    87134741.91448
  23872291.600   125449773.10308  23872288.300    97753074.53746
  22887000.840   120272026.11109  22887000.400    93718466.14947
  23889889.200   125542554.56708  23889886.980    97825506.02846
  23102607.080   121405032.72009  23102604.400    94601315.91647
 15 02 19 00 39  0.0000000  0  7G16G18G21G22G27G29G31
  21609663.300   113559558.51909  21609659.500    88487952.50048
  22493003.560   118201576.00709  22493000.500    92105137.63047
  21286320.840   111860627.24809  21286316.860    87164215.29048
  23854263.400   125355034.44608  23854259.940    97679252.37446
  22874503.300   120206350.84508  22874502.800    93667290.64847
  23903947.720   125616433.80708  23903945.920    97883074.22246
  23120102.200   121496968.94509  23120099.240    94672954.47347
 15 02 19 00 39 30.0000000  0  7G16G18G21G22G27G29G31
  21596565.260   113490727.97509  21596561.460    88434318.31048
