     2.11           OBSERVATION DATA    M                   RINEX VERSION / TYPE
SPIDER V4,0,0,3554                      2015 03 18 01:16    PGM / RUN BY / DATE 
CKTS                                                        MARKER NAME         
CKTS                                                        MARKER NUMBER       
                                                            OBSERVER / AGENCY   
496659              LEICA GRX1200+GNSS  8.10/4.007          REC # / TYPE / VERS 
10321004            LEIAR25         NONE                    ANT # / TYPE        
  5190783.6897   517202.7561  3658836.0979                  APPROX POSITION XYZ 
        0.0720        0.0000        0.0000                  ANTENNA: DELTA H/E/N
     1     1                                                WAVELENGTH FACT L1/2
     4    C1    L1    P2    L2                              # / TYPES OF OBSERV 
    30.000                                                  INTERVAL            
  2015    02    19    00    00    0.0000000     GPS         TIME OF FIRST OBS   
  2015    02    19    23    59   30.0000000     GPS         TIME OF LAST OBS    
    16                                                      LEAP SECONDS        
    37                                                      # OF SATELLITES     
   G 1   811   811   811   811                              PRN / # OF OBS      
   G 2   770   769   768   768                              PRN / # OF OBS      
   G 3   852   852   851   851                              PRN / # OF OBS      
   G 4   841   841   841   841                              PRN / # OF OBS      
   G 5   494   494   494   494                              PRN / # OF OBS      
   G 6   637   637   636   636                              PRN / # OF OBS      
   G 7   664   664   664   664                              PRN / # OF OBS      
   G 9   805   805   805   805                              PRN / # OF OBS      
   G10   657   657   657   657                              PRN / # OF OBS      
   G11   452   452   452   452                              PRN / # OF OBS      
   G12   790   790   790   790                              PRN / # OF OBS      
   G13   786   786   786   786                              PRN / # OF OBS      
   G14   760   754   755   751                              PRN / # OF OBS      
   G15   564   564   564   564                              PRN / # OF OBS      
   G16   546   546   546   546                              PRN / # OF OBS      
   G17   775   775   774   774                              PRN / # OF OBS      
   G18   726   726   724   724                              PRN / # OF OBS      
   G19   667   667   666   666                              PRN / # OF OBS      
   G20   789   789   789   789                              PRN / # OF OBS      
   G21   708   708   708   708                              PRN / # OF OBS      
   G22   651   650   650   650                              PRN / # OF OBS      
   G23   750   750   750   750                              PRN / # OF OBS      
   G24   830   830   830   830                              PRN / # OF OBS      
   G25   848   848   848   848                              PRN / # OF OBS      
   G27   814   814   814   814                              PRN / # OF OBS      
   G28   616   615   614   614                              PRN / # OF OBS      
   G29   738   738   738   738                              PRN / # OF OBS      
   G30   709   709   709   709                              PRN / # OF OBS      
   G31   692   692   692   692                              PRN / # OF OBS      
   G32   766   765   765   765                              PRN / # OF OBS      
   R 4    30    30    30    30                              PRN / # OF OBS      
   R 9    30    30    30    30                              PRN / # OF OBS      
   R10    30    30    30    30                              PRN / # OF OBS      
   R16     4     4     4     4                              PRN / # OF OBS      
   R19    30    30    30    30                              PRN / # OF OBS      
   R20    30    30    30    30                              PRN / # OF OBS      
   R21    12    12    12    12                              PRN / # OF OBS      
BIT 2 OF LLI FLAGS DATA COLLECTED UNDER A/S CONDITION       COMMENT             
SNR is mapped to RINEX snr flag value [2-9]                 COMMENT             
Lx:     = 25dBHz -> 1; 26-27dBHz -> 2; 28-31dBHz -> 3       COMMENT             
       32-35dBHz -> 4; 36-38dBHz -> 5; 39-41dBHz -> 6       COMMENT             
       42-44dBHz -> 7; 45-48dBHz -> 8; >=49dBHz -> 9        COMMENT             
                                                            END OF HEADER       
 15 02 19 00 00  0.0000000  0 12G18G21G25G27G29G31R04R09R10R16R19R20
  23448601.080   123223287.23608  23448598.200    96018163.43345
  20928254.400   109978722.49108  20928249.980    85697690.26048
  23621923.000   124134036.05108  23621923.360    96727818.10546
  23923137.300   125716939.49308  23923137.020    97961259.45646
  22853395.980   120095401.11609  22853394.020    93580818.17347
  21845606.360   114799428.71309  21845602.560    89454083.74548
  23156219.240   124000500.36008  23156220.240    96444842.68906
  19980349.140   106693945.08909  19980350.080    82984181.50506
  19978798.900   106498239.97309  19978803.880    82831991.61707
  23524610.340   125664188.29607  23524615.880    97738808.42006
  20739841.260   110944162.64709  20739840.120    86289900.66808
  20193464.260   107983535.87208  20193466.760    83987208.04908
 15 02 19 00 00 30.0000000  0 12G18G21G25G27G29G31R04R09R10R16R19R20
  23434290.860   123148086.91208  23434288.120    95959565.83445
  20930208.500   109988991.32408  20930204.080    85705691.95348
  23638995.680   124223753.12508  23638996.060    96797727.51546
  23909455.940   125645043.52408  23909455.760    97905236.70046
  22866718.420   120165411.63308  22866716.400    93635371.83947
  21858827.420   114868904.98509  21858823.480    89508221.09648
  23142919.320   123929280.46808  23142920.540    96389449.49606
  19994875.080   106771512.92909  19994876.180    83044512.01606
  19969587.040   106449135.57309  19969592.100    82793799.30207
  23550213.180   125800951.68107  23550218.920    97845179.37906
  20752285.840   111010732.44309  20752285.000    86341677.18608
  20190043.640   107965243.91608  20190046.120    83972980.97008
 15 02 19 00 01  0.0000000  0 13G18G21G25G27G29G31R04R09R10R16R19R20
                                R21
  23420001.840   123072998.12008  23419999.100    95901055.15145
  20932242.400   109999680.10608  20932238.140    85714020.87848
  23656108.480   124313681.11508  23656108.940    96867801.24946
  23895792.120   125573238.99508  23895792.040    97849285.17947
  22880048.160   120235460.00309  22880046.440    93689954.92747
  21872120.120   114938758.06509  21872116.200    89562652.03848
  23129700.580   123858493.52708  23129701.220    96334392.96706
  20009521.960   106849726.17609  20009523.020    83105344.54606
  19960516.780   106400786.29709  19960522.060    82756194.32807
  23575830.960   125937794.65407  23575837.060    97951612.22706
  20764756.620   111077444.39209  20764756.240    86393564.25108
  20186689.880   107947310.11108  20186692.000    83959032.48208
  23148196.120   123870672.81707  23148198.800    96343864.45406
 15 02 19 00 01 30.0000000  0 13G18G21G25G27G29G31R04R09R10R16R19R20
                                R21
  23405735.840   122998030.27008  23405733.120    95842638.69145
  20934357.120   110010793.39208  20934352.940    85722680.57748
  23673262.240   124403825.03208  23673262.800    96938043.23146
  23882146.780   125501531.87108  23882146.780    97793409.54547
  22893386.220   120305551.49009  22893384.160    93744571.64647
  21885485.020   115008991.33509  21885481.300    89617379.22748
  23116564.700   123788150.02907  23116565.100    96279681.36206
  20024290.260   106928588.08509  20024291.240    83166681.57106
  19951589.760   106353200.94209  19951595.280    82719183.48607
  23601464.200   126074719.97707  23601470.580    98058109.06706
  20777254.960   111144302.91309  20777254.580    86445565.31108
  20183404.100   107929739.40508  20183406.300    83945366.36908
  23133501.900   123792042.11608  23133505.060    96282707.36706
 15 02 19 00 02  0.0000000  0 11G18G21G25G27G29G31R04R09R10R19R20
  23391493.460   122923186.18408  23391490.620    95784318.68846
  20936552.580   110022330.52808  20936548.300    85731670.56148
  23690456.940   124494184.33708  23690457.480    97008453.08346
  23868520.060   125429922.59508  23868520.160    97737610.16547
  22906732.740   120375687.06909  22906730.740    93799222.72247
  21898921.880   115079602.87409  21898918.400    89672401.19248
  23103512.020   123718254.53008  23103512.740    96225318.25206
  20039179.560   107008096.00909  20039180.500    83228521.06006
  19942806.720   106306382.81309  19942812.140    82682769.40407
  20789780.640   111211306.62209  20789780.140    86497679.28408
  20180186.080   107912531.21208  20180188.180    83931982.20208
 15 02 19 00 02 30.0000000  0 11G18G21G25G27G29G31R04R09R10R19R20
  23377274.620   122848465.88008  23377271.700    95726095.10545
  20938827.960   110034287.84908  20938823.680    85740987.95048
  23707692.020   124584755.07508  23707692.540    97079027.64446
  23854911.160   125358408.10508  23854911.380    97681884.65046
  22920086.840   120445863.00508  22920084.440    93853905.21247
  21912429.640   115150587.23109  21912426.280    89727713.65248
  23090543.640   123648807.94708  23090544.500    96171304.21607
  20054188.760   107088244.00109  20054189.720    83290858.35606
  19934167.680   106260331.69509  19934173.020    82646951.82607
  20802332.560   111278450.31308  20802331.900    86549902.14408
  20177034.880   107895680.87707  20177037.000    83918876.38808
 15 02 19 00 03  0.0000000  0 11G18G21G25G27G29G31R04R09R10R19R20
  23363080.120   122773873.48408  23363077.240    95667971.19545
  20941183.580   110046666.57109  20941179.280    85750633.70748
  23724967.600   124675538.14108  23724968.020    97149767.68746
  23841320.700   125286990.42308  23841320.880    97626234.58446
  22933448.980   120516081.09608  22933446.640    93908620.63447
  21926008.140   115221943.82309  21926004.860    89783316.18148
  23077660.200   123579816.29708  23077660.440    96117644.10506
  20069317.600   107169031.02409  20069318.560    83353692.68806
  19925673.480   106215052.41609  19925678.800    82611734.60107
  20814910.420   111345734.00309  20814909.900    86602233.90908
  20173950.800   107879189.07108  20173952.960    83906049.44208
 15 02 19 00 03 30.0000000  0 12G18G21G25G27G29G31R04R09R10R19R20R21
  23348909.980   122699409.36908  23348907.240    95609947.27145
  20943618.540   110059462.22808  20943614.240    85760604.35748
  23742282.820   124766529.56608  23742283.240    97220670.07846
  23827748.300   125215666.55708  23827747.980    97570657.59646
  22946818.620   120586337.98009  22946816.280    93963366.25047
  21939656.480   115293667.34309  21939653.300    89839204.63048
  23064861.560   123511280.77708  23064861.220    96064338.73506
  20084564.960   107250450.89909  20084565.940    83417019.23106
  19917323.920   106170544.17109  19917329.120    82577117.11307
  20827513.620   111413152.99909  20827512.800    86654670.91408
  20170933.080   107863051.65308  20170935.620    83893498.11308
  23075156.700   123479825.93608  23075158.560    96039872.88607
 15 02 19 00 04  0.0000000  0 12G18G21G25G27G29G31R04R09R10R19R20R21
  23334765.920   122625081.91108  23334763.300    95552029.81845
  20946133.760   110072679.80808  20946129.480    85770903.77748
  23759638.560   124857734.52208  23759638.800    97291738.83446
  23814194.740   125144442.54908  23814194.280    97515158.41246
  22960196.380   120656639.15608  22960194.420    94018146.38147
  21953375.320   115365761.06609  21953372.320    89895381.52748
  23052150.140   123443211.83108  23052149.500    96011396.21806
  20099931.480   107332506.91409  20099932.400    83480840.56306
  19909120.700   106126816.12809  19909125.800    82543106.40207
  20840142.960   111480711.56409  20840142.920    86707216.44008
  20167982.580   107847273.57008  20167985.280    83881226.30808
  23060677.360   123402348.46906  23060679.040    95979612.74305
 15 02 19 00 04 30.0000000  0 11G18G21G25G27G29G31R04R09R10R19R20
  23320647.260   122550887.29508  23320644.540    95494215.88345
  20948727.800   110086311.50208  20948723.400    85781525.89448
  23777033.180   124949144.83708  23777033.440    97362967.63446
  23800658.900   125073311.34308  23800658.580    97459731.54746
  22973581.380   120726977.48808  22973579.200    94072955.42047
  21967162.900   115438215.54109  21967159.960    89951839.53448
  23039525.000   123375606.15608  23039524.740    95958814.00106
  20115415.180   107415188.69309  20115416.040    83545148.58906
  19901063.000   106083863.83409  19901068.140    82509699.05907
  20852796.680   111548400.63408  20852796.920    86759863.50708
  20165097.680   107831846.19508  20165100.160    83869227.24508
 15 02 19 00 05  0.0000000  0 11G18G21G25G27G29G31R04R09R10R19R20
  23306555.960   122476836.07008  23306552.980    95436513.64445
  20951401.920   110100364.17109  20951397.500    85792476.02448
  23794468.280   125040767.45008  23794468.500    97434361.85546
  23787142.040   125002280.85508  23787142.120    97404383.21346
  22986974.800   120797360.85808  22986972.660    94127799.57547
  21981020.240   115511035.93309  21981017.280    90008582.67548
  23026988.300   123308475.66107  23026989.260    95906601.48506
  20131016.920   107498501.20309  20131017.780    83609947.18405
  19893152.760   106041697.45809  19893157.820    82476902.98407
  20865475.860   111616226.27808  20865476.240    86812616.80908
  20162279.560   107816776.43808  20162281.660    83857506.34008
 15 02 19 00 05 30.0000000  0 11G18G21G25G27G29G31R04R09R10R19R20
  23292490.200   122402919.44308  23292487.020    95378916.31745
  20954153.780   110114825.46608  20954149.400    85803744.56848
  23811941.580   125132590.09308  23811941.860    97505911.96046
  23773642.180   124931339.89908  23773642.180    97349104.56346
  23000375.080   120867777.34009  23000372.480    94182669.54147
  21994944.700   115584208.58209  21994941.620    90065600.30848
  23014539.320   123241813.13008  23014540.560    95854752.85806
  20146734.120   107582429.88309  20146734.940    83675225.04206
  19885388.240   106000308.60509  19885393.340    82444711.64907
  20878177.860   111684175.48108  20878178.120    86865466.16508
  20159525.820   107802051.28408  20159527.600    83846053.46508
 15 02 19 00 06  0.0000000  0 12G18G21G25G27G29G31R04R09R10R19R20R21
  23278451.300   122329145.14808  23278448.180    95321429.89545
  20956984.020   110129698.73808  20956979.780    85815334.15148
  23829453.740   125224616.31808  23829454.060    97577620.69146
  23760160.460   124860492.95108  23760160.560    97293899.21246
  23013782.260   120938231.70609  23013778.920    94237569.02247
  22008936.560   115657735.68209  22008933.340    90122894.12048
  23002179.720   123175627.29108  23002180.680    95803274.99206
  20162567.000   107666976.20509  20162567.740    83740983.26806
  19877770.840   105959704.33309  19877776.260    82413130.59507
  20890903.620   111752250.89508  20890903.640    86918413.66208
  20156837.060   107787674.29707  20156839.040    83834871.40008
  23003192.300   123094725.24708  23003192.020    95740339.69706
 15 02 19 00 06 30.0000000  0 12G18G21G25G27G29G31R04R09R10R19R20R21
  23264441.160   122255522.52208  23264438.160    95264061.67045
  20959893.720   110144989.59008  20959889.540    85827249.10348
  23847005.540   125316851.62108  23847005.980    97649492.34646
  23746697.940   124789746.63908  23746697.680    97238772.26945
  23027197.640   121008729.78309  23027194.540    94292502.56047
  22022996.560   115731621.14209  22022993.220    90180467.17348
  22989911.240   123109928.64907  22989911.720    95752176.10506
  20178516.020   107752143.57309  20178516.980    83807224.53006
  19870302.420   105919893.58509  19870307.800    82382166.61507
  20903654.020   111820457.62808  20903653.880    86971463.35608
  20154214.460   107773650.71308  20154216.700    83823964.13608
  22988928.760   123018397.81308  22988928.820    95680974.02307
 15 02 19 00 07  0.0000000  0 11G18G21G25G27G29G31R04R09R10R19R20
  23250459.000   122182046.37908  23250456.040    95206807.56746
  20962881.320   110160689.46308  20962877.120    85839482.77448
  23864595.460   125409287.32208  23864596.020    97721520.12746
  23733252.960   124719093.28608  23733252.060    97183717.71945
  23040619.680   121079263.92508  23040616.100    94347464.20147
  22037122.740   115805854.60309  22037119.380    90238311.39648
  22977733.020   123044713.54908  22977733.060    95701453.24006
  20194579.300   107837921.05709  20194580.500    83873940.32906
  19862981.900   105880871.19509  19862987.440    82351815.90707
  20916427.260   111888785.76309  20916427.320    87024607.44808
  20151656.420   107759971.54708  20151658.740    83813324.80808
 15 02 19 00 07 30.0000000  0 11G18G21G25G27G29G31R04R09R10R19R20
  23236506.120   122108723.16108  23236503.040    95149672.62946
  20965947.200   110176800.71408  20965943.000    85852036.99148
  23882224.020   125501926.06908  23882224.520    97793706.16046
  23719826.360   124648536.60008  23719825.320    97128738.52846
  23054049.180   121149837.58509  23054045.520    94402456.67946
  22051315.340   115880437.03809  22051312.000    90296427.55848
  22965646.420   122979989.65308  22965646.720    95651112.45106
  20210757.060   107924309.35809  20210758.400    83941131.21206
  19855810.500   105842643.35509  19855815.960    82322083.13507
  20929223.660   111957237.36909  20929223.840    87077847.57208
  20149163.340   107746639.21908  20149165.520    83802955.23408
 15 02 19 00 08  0.0000000  0 11G18G21G25G27G29G31R04R09R10R19R20
  23222582.460   122035553.15609  23222579.280    95092657.08245
  20969090.620   110193319.78108  20969086.500    85864909.00248
  23899890.660   125594764.16708  23899890.920    97866047.52345
  23706417.700   124578073.98608  23706417.020    97073832.66946
  23067485.620   121220447.73109  23067482.560    94457477.47647
  22065573.440   115955363.56009  22065570.080    90354811.82648
  22953651.640   122915758.26607  22953652.140    95601154.70006
  20227048.100   108011302.37809  20227049.400    84008792.42706
  19848788.080   105805209.73209  19848793.460    82292968.11507
  20942042.740   112025808.13409  20942042.420    87131180.41008
  20146734.220   107733649.62808  20146736.060    83792852.25208
 15 02 19 00 08 30.0000000  0 13G16G18G21G25G27G29G31R04R09R10R19R20
                                R21
  22558130.600   118543771.54105  22558125.320    92371766.88543
  23208688.440   121962539.47508  23208685.200    95035763.34346
  20972311.540   110210245.98808  20972307.420    85878098.26248
  23917595.080   125687801.11708  23917595.500    97938543.82146
  23693026.920   124507705.98208  23693026.900    97019000.54046
  23080929.620   121291095.00909  23080926.420    94512527.30547
  22079896.680   116030632.04509  22079893.160    90413462.58248
  22941749.420   122852023.96108  22941750.120    95551583.60006
  20243451.880   108098897.36809  20243453.120    84076921.85906
  19841915.220   105768573.40909  19841920.560    82264473.17607
  20954883.700   112094497.02809  20954883.360    87184605.08408
  20144369.100   107721001.97208  20144371.300    83783015.17408
  22932300.180   122715373.64407  22932302.220    95445296.72406
 15 02 19 00 09  0.0000000  0 13G16G18G21G25G27G29G31R04R09R10R19R20
                                R21
  22542355.880   118460875.71606  22542350.780    92307172.73441
  23194825.440   121889689.79308  23194822.380    94978997.41746
  20975610.580   110227582.80408  20975606.460    85891607.46548
  23935337.840   125781040.76708  23935338.540    98011198.06946
  23679655.120   124437437.53908  23679655.400    96964245.96246
  23094380.720   121361783.77508  23094378.120    94567609.40846
  22094285.460   116106244.98009  22094281.900    90472381.71048
  22929941.900   122788795.43108  22929942.840    95502405.92806
  20259968.680   108187096.11009  20259969.880    84145520.85406
  19835193.280   105732741.15009  19835198.540    82236603.63307
  20967747.000   112163307.00409  20967746.540    87238123.96008
  20142068.600   107708700.24007  20142070.860    83773447.17408
  22918252.480   122640197.13508  22918253.760    95386826.19406
 15 02 19 00 09 30.0000000  0 12G16G18G21G25G27G29G31R04R09R10R19R20
  22526608.920   118378126.02406  22526604.960    92242692.44844
  23180992.680   121816998.68008  23180989.760    94922355.02345
  20978986.020   110245321.09008  20978982.000    85905429.51848
  23953117.320   125874473.67708  23953118.280    98084002.89745
  23666300.860   124367260.22708  23666300.780    96909562.36146
  23107838.440   121432505.62809  23107836.280    94622717.35547
  22108737.580   116182190.92609  22108733.940    90531560.33548
  22918228.320   122726068.21308  22918229.000    95453618.10606
  20276596.300   108275886.77509  20276597.440    84214580.23306
  19828621.080   105697707.18309  19828626.160    82209355.00507
  20980630.940   112232227.83409  20980630.320    87291729.07508
  20139830.920   107696734.31607  20139833.180    83764140.34708
 15 02 19 00 10  0.0000000  0 12G16G18G21G25G27G29G31R04R09R10R19R20
  22510890.620   118295526.45407  22510886.900    92178329.15144
  23167191.020   121744470.69008  23167187.940    94865839.73145
  20982438.000   110263461.58008  20982434.020    85919564.97348
  23970933.840   125968100.62608  23970934.820    98156958.92845
  23652964.280   124297176.03908  23652964.280    96854951.37346
  23121303.300   121503262.64409  23121301.380    94677852.66746
  22123252.940   116258469.39209  22123249.220    90590998.07448
  22906609.560   122663848.13908  22906609.500    95405224.73406
  20293334.500   108365267.87409  20293335.740    84284098.84106
  19822199.340   105663475.48009  19822204.320    82182730.32007
  20993535.480   112301259.84409  20993535.240    87345420.60808
  20137656.040   107685104.67008  20137658.420    83755095.07508
 15 02 19 00 10 30.0000000  0 12G16G18G21G25G27G29G31R04R09R10R19R20
  22495202.040   118213082.53308  22495198.560    92114087.12644
  23153421.600   121672112.14908  23153418.400    94809456.47346
  20985966.920   110282006.58408  20985963.000    85934015.61848
  23988787.980   126061923.98708  23988788.580    98230068.04145
  23639646.160   124227188.38408  23639646.120    96800415.55847
  23134775.180   121574057.82508  23134773.360    94733017.63547
  22137831.700   116335080.95109  22137827.960    90650695.37748
  22895086.640   122602142.55208  22895086.080    95357231.53306
  20310183.320   108455239.51809  20310184.600    84354076.77206
  19815929.220   105630051.91109  19815934.180    82156734.23307
  21006461.620   112370405.08109  21006461.260    87399200.21408
  20135544.540   107673813.65108  20135547.020    83746313.18808
 15 02 19 00 11  0.0000000  0 13G16G18G21G25G27G29G31R04R09R10R19R20
                                R21
  22479542.580   118130791.39208  22479539.140    92049964.17545
  23139683.920   121599920.69008  23139680.740    94753203.44345
  20989571.700   110300949.91008  20989567.780    85948776.67348
  24006678.420   126155937.87508  24006678.520    98303325.59746
  23626345.640   124157292.49708  23626345.580    96745951.27647
  23148253.380   121644885.87108  23148250.700    94788208.31646
  22152472.580   116412018.80609  22152468.700    90710646.91948
  22883659.420   122540950.26808  22883658.780    95309637.52206
  20327141.260   108545793.54509  20327142.560    84424507.65806
  19809810.060   105597433.38709  19809815.060    82131364.25607
  21019407.880   112439656.61409  21019407.220    87453062.52408
  20133495.160   107662854.78807  20133497.300    83737789.67208
  22862484.080   122341757.02308  22862484.420    95154711.39006
 15 02 19 00 11 30.0000000  0 13G16G18G21G25G27G29G31R04R09R10R19R20
                                R21
  22463913.540   118048659.83509  22463910.040    91985965.58146
  23125979.440   121527903.87808  23125976.420    94697086.48846
  20993252.960   110320295.05408  20993249.040    85963850.81248
  24024605.640   126250145.51008  24024605.720    98376734.12845
  23613063.380   124087492.70108  23613063.100    96691561.88847
  23161738.860   121715751.15709  23161735.700    94843428.08147
  22167175.720   116489284.09209  22167171.800    90770853.61748
  22872329.300   122480279.78408  22872329.280    95262449.39006
  20344208.380   108636930.83409  20344209.660    84495392.19806
  19803843.100   105565626.60209  19803848.160    82106625.64907
  21032374.340   112509017.45809  21032373.080    87507009.88008
  20131508.540   107652231.57008  20131510.340    83729527.13508
  22848648.960   122267721.98408  22848649.160    95097128.59706
 15 02 19 00 12  0.0000000  0 12G16G18G21G25G27G29G31R04R09R10R19R20
  22448315.380   117966690.69409  22448311.800    91922093.53047
  23112308.980   121456065.35208  23112305.960    94641108.45546
  20997010.560   110340041.56708  20997006.700    85979237.70748
  24042569.700   126344546.93308  24042570.000    98450293.64245
  23599799.360   124017790.11908  23599799.200    96637248.27346
  23175231.260   121786654.68108  23175229.200    94898677.48047
  22181940.840   116566875.36309  22181936.960    90831314.30948
  22861097.540   122420135.85008  22861097.660    95215670.82306
  20361384.280   108728649.27809  20361385.440    84566728.73905
  19798028.940   105534634.80609  19798034.160    82082520.89407
  21045360.960   112578486.95309  21045359.780    87561041.69208
  20129584.500   107641943.40608  20129586.200    83721525.23408
 15 02 19 00 12 30.0000000  0 12G16G18G21G25G27G29G31R04R09R10R19R20
  22432747.700   117884881.88609  22432744.100    91858346.42647
  23098672.280   121384403.82108  23098669.280    94585268.34446
  21000843.580   110360184.21208  21000839.780    85994933.28548
  24060569.580   126439136.82808  24060569.760    98524000.02345
  23586553.000   123948180.62108  23586552.760    96583007.14146
  23188730.180   121857591.71909  23188728.360    94953953.07147
  22196766.720   116644785.87809  22196762.860    90892023.76248
  22849964.180   122360518.16508  22849964.000    95169301.48406
  20378667.520   108820941.07708  20378668.680    84638511.22405
  19792367.260   105504455.74809  19792372.660    82059048.31207
  21058366.600   112648059.21809  21058365.620    87615153.44008
  20127722.200   107631984.84808  20127724.220    83713779.70608
 15 02 19 00 13  0.0000000  0 12G16G18G21G25G27G29G31R04R09R10R19R20
  22417211.420   117803238.11809  22417207.820    91794727.89748
  23085070.200   121312924.30508  23085067.160    94529570.04945
  21004752.220   110380724.24608  21004748.400    86010938.50848
  24078605.500   126533916.49308  24078605.740    98597854.29345
  23573324.580   123878666.54408  23573324.280    96528840.37546
  23202236.140   121928565.00808  23202233.920    95009256.93147
  22211653.240   116723015.31809  22211649.560    90952981.72648
  22838930.240   122301432.98607  22838929.360    95123346.38806
  20396057.920   108913805.22709  20396059.200    84710738.86105
  19786858.920   105475093.90509  19786864.700    82036211.32507
  21071391.700   112717735.20209  21071390.360    87669345.85308
  20125921.680   107622357.07807  20125924.140    83706291.44408
 15 02 19 00 13 30.0000000  0 13G16G18G21G25G27G29G31R04R09R10R19R20
                                R21
  22401706.620   117721759.82809  22401702.980    91731238.34348
  23071502.800   121241627.71008  23071499.740    94474014.30145
  21008735.920   110401658.65008  21008732.000    86027251.03548
  24096676.880   126628883.04008  24096677.380    98671854.18345
  23560114.260   123809246.32508  23560113.820    96474746.68546
  23215748.380   121999572.86608  23215746.040    95064587.64547
  22226599.680   116801559.25109  22226596.140    91014184.74648
  22827996.080   122242882.24508  22827995.400    95077806.90406
  20413554.540   109007236.42609  20413555.800    84783407.55306
  19781504.100   105446549.29109  19781509.840    82014009.97107
  21084435.540   112787511.47509  21084434.100    87723616.25808
  20124182.640   107613056.84208  20124185.080    83699057.92308
  22793734.840   121973886.54107  22793737.880    94868583.99407
 15 02 19 00 14  0.0000000  0 13G16G18G21G25G27G29G31R04R09R10R19R20
                                R21
  22386233.580   117640448.43108  22386229.960    91667878.85447
  23057970.580   121170516.13708  23057967.560    94418602.72645
  21012794.320   110422985.59608  21012790.340    86043869.42848
  24114783.640   126724034.70108  24114784.140    98745998.33045
  23546921.860   123739919.22708  23546921.480    96420725.63147
  23229267.020   122070614.17408  23229264.640    95119944.46447
  22241605.400   116880414.34309  22241601.780    91075630.25448
  22817162.320   122184868.71508  22817162.100    95032685.32107
  20431156.600   109101230.53608  20431157.960    84856514.07206
  19776302.900   105418823.35209  19776308.500    81992445.34007
  21097497.860   112857385.60309  21097496.980    87777962.81408
  20122504.420   107604081.96908  20122506.720    83692077.51208
  22780114.000   121900995.57408  22780116.920    94811891.06707
 15 02 19 00 14 30.0000000  0 12G16G18G21G25G27G29G31R04R09R10R19R20
  22370792.880   117559306.99409  22370789.200    91604651.78146
  23044474.320   121099593.44008  23044471.340    94363338.30946
  21016927.340   110444704.47708  21016923.280    86060793.23348
  24132925.680   126819371.25708  24132926.260    98820286.52745
  23533747.300   123670686.24708  23533747.060    96366777.92047
  23242792.200   122141689.55108  23242790.100    95175327.81947
  22256670.060   116959578.95109  22256666.300    91137316.93248
  22806429.900   122127397.36308  22806430.640    94987985.38607
  20448863.660   109195785.09309  20448865.140    84930056.49306
  19771255.780   105391918.52009  19771261.240    81971519.34707
  21110578.600   112927357.21109  21110577.760    87832385.18708
  20120886.840   107595432.28007  20120889.020    83685349.97208
 15 02 19 00 15  0.0000000  0  7G16G18G21G25G27G29G31
  22355384.640   117478336.23809  22355380.900    91541557.65446
  23031014.340   121028861.06408  23031011.400    94308222.19146
  21021134.600   110466813.09108  21021130.420    86078020.73448
  24151102.500   126914890.19208  24151103.140    98894716.84445
  23520590.280   123601545.93208  23520590.120    96312902.39747
  23256324.000   122212797.65908  23256321.040    95230736.72446
  22271792.780   117039049.08109  22271788.900    91199241.68148
 15 02 19 00 15 30.0000000  0  7G16G18G21G25G27G29G31
  22340010.200   117397543.12409  22340006.320    91478601.98347
  23017591.920   120958325.71308  23017589.060    94253259.62346
  21025416.560   110489314.68808  21025412.400    86095554.44148
  24169314.680   127010594.95108  24169315.080    98969291.96245
  23507451.740   123532503.05308  23507451.620    96259102.80947
  23269862.540   122283942.80208  23269859.280    95286174.48347
  22286973.900   117118826.48709  22286970.000    91261405.84448
 15 02 19 00 16  0.0000000  0  7G16G18G21G25G27G29G31
  22324668.680   117316922.48209  22324664.720    91415780.73247
  23004206.340   120887983.54009  23004203.380    94198447.58146
  21029771.480   110512200.37008  21029767.420    86113387.44848
  24187560.500   127106477.15908  24187560.840    99044005.35845
  23494330.520   123463550.36908  23494330.140    96205373.46547
  23283406.960   122355117.94308  23283403.620    95341635.57147
  22302211.460   117198901.18809  22302207.800    91323801.68848
 15 02 19 00 16 30.0000000  0  7G16G18G21G25G27G29G31
  22309360.900   117236479.19009  22309357.020    91353097.61547
  22990858.540   120817839.66009  22990855.340    94143790.04146
  21034199.780   110535471.79608  21034195.840    86131521.02548
  24205840.220   127202538.23507  24205840.720    99118858.11045
  23481226.940   123394690.40008  23481226.340    96151716.38346
  23296957.480   122426325.26608  23296954.060    95397121.77647
  22317505.540   117279273.03809  22317502.200    91386429.05748
 15 02 19 00 17  0.0000000  0  8G16G18G21G22G25G27G29G31
  22294088.580   117156223.25608  22294084.960    91290560.52747
  22977550.620   120747905.01209  22977546.960    94089295.53346
  21038702.840   110559135.98008  21038698.980    86149960.65548
  24556632.360                                                  
  24224155.280   127298785.14508  24224156.080    99193855.64945
  23468142.300   123325931.40108  23468141.580    96098137.97946
  23310515.300   122497572.74208  23310511.680    95452639.22946
  22332857.260   117359947.51209  22332854.120    91449292.25548
 15 02 19 00 17 30.0000000  0  8G16G18G21G22G25G27G29G31
  22278849.000   117076139.17409  22278845.460    91228157.39047
  22964279.580   120678164.54609  22964275.680    94034952.31446
  21043277.080   110583173.70508  21043273.240    86168691.35048
  24538954.980   128953082.07408  24538954.100   100482920.35544
  24242502.200   127395198.87908  24242502.940    99268983.23445
  23455073.520   123257255.54408  23455073.200    96044624.38247
  23324077.320   122568842.88108  23324074.300    95508174.37147
  22348262.720   117440904.10309  22348259.660    91512375.28648
 15 02 19 00 18  0.0000000  0  8G16G18G21G22G25G27G29G31
  22263646.140   116996247.18009  22263642.460    91165903.86347
  22951049.260   120608638.85809  22951045.560    93980776.47446
  21047925.560   110607601.46908  21047921.700    86187725.98348
  24521263.720   128860114.86308  24521262.480   100410478.92245
  24260884.160   127491796.26308  24260884.740    99344253.91145
  23442024.260   123188680.90709  23442024.240    95991189.63447
  23337647.060   122640153.57608  23337644.820    95563741.09547
  22363724.860   117522158.09509  22363721.740    91575690.05448
 15 02 19 00 18 30.0000000  0  8G16G18G21G22G25G27G29G31
  22248478.380   116916539.38509  22248474.580    91103793.91047
  22937858.320   120539320.76008  22937854.880    93926762.41446
  21052646.160   110632408.17708  21052642.180    86207055.87748
  24503556.320   128767063.91108  24503555.100   100337972.20445
  24279298.780   127588565.94608  24279299.520    99419658.85745
  23428992.460   123120197.40808  23428992.160    95937825.89246
  23351222.840   122711494.22408  23351220.300    95619331.16846
  22379241.200   117603696.80709  22379238.060    91639226.69248
 15 02 19 00 19  0.0000000  0  8G16G18G21G22G25G27G29G31
  22233347.620   116837025.88009  22233343.560    91041835.32647
  22924708.840   120470220.54308  22924705.600    93872918.13146
  21057440.060   110657600.16808  21057435.940    86226686.00248
  24485835.020   128673939.69208  24485833.880   100265408.35745
  24297747.380   127685514.70807  24297748.320    99495203.30245
  23415979.220   123051812.88308  23415978.420    95884539.28546
  23364805.320   122782873.17408  23364803.320    95674951.06146
  22394812.500   117685525.01909  22394809.580    91702988.89048
 15 02 19 00 19 30.0000000  0  8G16G18G21G22G25G27G29G31
  22218251.940   116757698.29209  22218247.980    90980021.64447
  22911599.540   120401330.84609  22911596.340    93819237.86446
  21062304.960   110683165.25608  21062300.820    86246606.84448
  24468098.320   128580734.26808  24468097.160   100192781.16945
  24316227.860   127782630.83808  24316228.860    99570878.15945
  23402982.760   122983516.97308  23402981.920    95831321.73646
  23378393.700   122854279.30309  23378391.660    95730592.15546
  22410436.420   117767629.63009  22410433.660    91766966.48748
 15 02 19 00 20  0.0000000  0  8G16G18G21G22G25G27G29G31
  22203192.700   116678561.23609  22203188.800    90918356.41447
  22898531.200   120332656.12209  22898527.960    93765725.12646
  21067241.040   110709104.51809  21067236.960    86266819.25448
  24450346.940   128487452.10207  24450345.780   100120094.22445
  24334740.500   127879915.24208  24334741.300    99646684.14345
  23390003.800   122915311.88108  23390003.120    95778174.94647
  23391988.040   122925714.78308  23391984.980    95786256.21946
  22426112.980   117850010.12809  22426110.200    91831159.04148
 15 02 19 00 20 30.0000000  0  8G16G18G21G22G25G27G29G31
  22188171.280   116599623.00509  22188167.280    90856846.11847
  22885505.440   120264205.49609  22885502.220    93712386.98946
  21072249.360   110735423.33909  21072245.320    86287327.43648
  24432582.700   128394102.19108  24432581.600   100047354.43045
  24353286.320   127977373.06408  24353286.860    99722625.27845
  23377043.460   122847203.93309  23377042.600    95725103.85146
  23405588.580   122997186.25908  23405585.660    95841948.13947
  22441842.800   117932670.25609  22441839.880    91895569.48848
 15 02 19 00 21  0.0000000  0  8G16G18G21G22G25G27G29G31
  22173186.880   116520879.24609  22173182.840    90795487.33347
  22872521.560   120195975.16109  22872518.340    93659220.52146
  21077328.340   110762113.50409  21077324.260    86308124.97348
  24414804.940   128300680.54308  24414803.660    99974558.73245
  24371863.660   128074996.33908  24371863.660    99798695.36345
  23364100.320   122779186.50108  23364099.240    95672103.27146
  23419194.760   123068686.48909  23419192.240    95897662.56747
  22457623.960   118015600.36009  22457620.980    91960190.31548
 15 02 19 00 21 30.0000000  0  8G16G18G21G22G25G27G29G31
  22158241.000   116442338.73209  22158236.740    90734286.95047
  22859581.420   120127974.24309  22859578.220    93606232.81746
  21082478.920   110789180.05209  21082474.780    86329215.79548
  24397015.160   128207196.19407  24397013.820    99901714.20746
  24390473.460   128172790.52308  24390473.300    99874898.58044
  23351175.420   122711266.20008  23351174.260    95619178.42045
  23432807.680   123140222.41208  23432805.400    95953404.80046
  22473457.180   118098804.19809  22473454.240    92025024.44548
 15 02 19 00 22  0.0000000  0  8G16G18G21G22G25G27G29G31
  22143333.560   116364000.44909  22143329.600    90673244.17348
  22846684.880   120060202.11809  22846681.680    93553423.39346
  21087700.220   110816618.27908  21087696.060    86350596.23548
  24379213.320   128113648.27108  24379211.840    99828820.07345
  24409114.720   128270750.98008  24409114.480    99951231.37945
  23338268.180   122643439.68608  23338266.760    95566326.60546
  23446426.300   123211790.14909  23446424.460    96009171.85746
  22489341.320   118182275.68409  22489338.420    92090067.11347
 15 02 19 00 22 30.0000000  0  8G16G18G21G22G25G27G29G31
  22128464.380   116285862.74909  22128460.580    90612357.66647
  22833831.560   119992657.58909  22833828.420    93500791.31946
  21092991.320   110844423.18508  21092987.120    86372262.41248
  24361399.200   128020035.86508  24361397.640    99755875.70645
  24427786.620   128368872.68408  24427786.560   100027689.81345
  23325378.260   122575703.33008  23325376.880    95513545.06646
  23460050.440   123283386.49708  23460049.200    96064961.19947
  22505275.060   118266008.12609  22505272.240    92155313.14647
 15 02 19 00 23  0.0000000  0  8G16G18G21G22G25G27G29G31
  22113633.820   116207928.72809  22113630.220    90551629.92947
  22821022.140   119925344.41309  22821019.120    93448339.52346
  21098352.100   110872594.37908  21098347.920    86394213.99148
  24343573.460   127926362.39008  24343571.860    99682883.75145
  24446489.160   128467155.40208  24446489.080   100104273.70445
  23312505.780   122508058.06708  23312504.760    95460834.48846
  23473680.720   123355012.09709  23473679.360    96120773.24847
  22521258.160   118349999.94909  22521255.400    92220761.29748
 15 02 19 00 23 30.0000000  0  8G16G18G21G22G25G27G29G31
  22098843.440   116130204.13709  22098839.580    90491065.23948
  22808257.920   119858268.52609  22808254.940    93396072.62646
  21103782.800   110901133.42308  21103778.700    86416452.20648
  24325737.240   127832633.42308  24325735.580    99609848.49045
  24465222.660   128565600.77008  24465222.980   100180984.34945
  23299651.200   122440506.91208  23299650.540    95408197.24247
  23487317.020   123426669.84708  23487315.340    96176610.43847
  22537290.680   118434251.40509  22537287.980    92286411.72947
 15 02 19 00 24  0.0000000  0  8G16G18G21G22G25G27G29G31
  22084093.280   116052692.31409  22084089.560    90430666.47947
  22795539.700   119791433.82309  22795536.580    93343993.65846
  21109283.520   110930040.28208  21109279.480    86438977.01948
  24307891.200   127738852.79008  24307889.460    99536773.00045
  24483987.120   128664209.15607  24483987.820   100257822.03045
  23286814.740   122373051.49008  23286814.260    95355634.64547
  23500959.360   123498361.43008  23500957.400    96232474.02946
  22553372.380   118518761.19109  22553369.640    92352263.48747
 15 02 19 00 24 30.0000000  0  8G16G18G21G22G25G27G29G31
  22069383.800   115975393.80309  22069380.100    90370433.89247
  22782867.520   119724841.05509  22782864.320    93292103.20546
  21114853.660   110959311.28708  21114849.540    86461785.60448
  24290035.460   127645021.45408  24290033.600    99463658.01245
  24502781.980   128762977.31607  24502782.640   100334784.21145
  23273996.160   122305689.96208  23273995.820    95303145.17447
  23514607.500   123570084.71509  23514605.760    96288362.25547
  22569502.280   118603524.56909  22569499.520    92418312.83447
 15 02 19 00 25  0.0000000  0  8G16G18G21G22G25G27G29G31
  22054713.620   115898301.90209  22054710.160    90310362.29948
  22770240.120   119658484.12409  22770237.060    93240396.54946
  21120491.280   110988936.98008  21120487.140    86484870.57948
  24272168.880   127551133.25108  24272166.860    99390498.67045
  24521605.400   128861895.23508  24521606.160   100411863.05945
  23261194.140   122238413.61309  23261193.520    95250722.07647
  23528260.620   123641830.85309  23528258.700    96344268.31146
  22585678.240   118688529.87509  22585675.480    92484550.70447
 15 02 19 00 25 30.0000000  0  8G16G18G21G22G25G27G29G31
  22040085.540   115821431.32209  22040082.160    90250463.15847
  22757660.500   119592378.27709  22757657.560    93188885.51546
  21126198.460   111018928.14108  21126194.280    86508240.29948
  24254294.380   127457203.30808  24254292.080    99317306.82145
  24540459.460   128960974.04907  24540460.500   100489067.29145
  23248410.420   122171234.94808  23248410.040    95198375.10147
  23541920.460   123713612.65108  23541918.240    96400202.17646
  22601902.120   118773786.76909  22601899.420    92550984.60748
 15 02 19 00 26  0.0000000  0  8G16G18G21G22G25G27G29G31
  22025499.640   115744781.78209  22025496.260    90190736.27447
  22745128.660   119526523.46508  22745125.660    93137570.07846
  21131974.240   111049280.38508  21131970.120    86531891.39548
  24236411.860   127363231.08208  24236409.220    99244081.98245
  24559343.560   129060209.75508  24559344.440   100566393.76845
  23235644.660   122104151.22208  23235644.640    95146102.10347
  23555586.140   123785427.15109  23555583.980    96456161.45546
  22618172.880   118859289.69109  22618170.220    92617610.23148
 15 02 19 00 26 30.0000000  0  8G16G18G21G22G25G27G29G31
  22010954.720   115668347.73209  22010951.220    90131177.26747
  22732643.620   119460914.46809  22732640.480    93086446.20446
  21137817.120   111079984.83409  21137812.940    86555816.93448
  24218520.420   127269211.79408  24218517.580    99170820.45645
  24578255.740   129159593.26208  24578256.440   100643835.39445
  23222895.660   122037154.67308  23222895.680    95093897.03447
  23569256.820   123857266.16908  23569254.520    96512139.89646
  22634488.560   118945028.25609  22634485.860    92684419.46448
 15 02 19 00 27  0.0000000  0  8G16G18G21G22G25G27G29G31
  21996453.280   115592141.68809  21996449.760    90071795.93047
  22720207.820   119395564.10609  22720204.720    93035523.87146
  21143728.680   111111050.11008  21143724.460    86580023.66948
  24200622.480   127175158.38608  24200619.680    99097532.36245
  24597197.720   129259133.55807  24597198.500   100721399.19445
  23210165.360   121970255.81108  23210165.160    95041768.05947
  23582933.980   123929140.66008  23582931.000    96568145.98746
  22650850.480   119031009.74909  22650847.620    92751417.99748
 15 02 19 00 27 30.0000000  0  8G16G18G21G22G25G27G29G31
  21981993.820   115516156.95209  21981990.260    90012587.07548
  22707820.120   119330465.88809  22707817.080    92984798.01146
  21149706.900   111142465.68509  21149702.740    86604503.30948
  24182716.660   127081064.48008  24182714.100    99024212.76745
  24616167.600   129358820.36708  24616167.960   100799077.22244
  23197452.000   121903445.62608  23197451.060    94989708.17347
  23596616.080   124001041.54008  23596613.140    96624172.58146
  22667256.260   119117222.30309  22667253.280    92818596.57248
 15 02 19 00 28  0.0000000  0  8G16G18G21G22G25G27G29G31
  21967578.300   115440402.33409  21967574.740    89953557.49648
  22695482.240   119265629.11809  22695479.120    92934275.85346
  21155752.660   111174236.24208  21155748.540    86629259.58748
  24164804.820   126986938.87508  24164802.280    98950868.39646
  24635166.220   129458658.69408  24635166.740   100876873.22144
  23184756.480   121836730.37108  23184755.540    94937722.32747
  23610304.500   124072974.46008  23610301.900    96680224.21946
  22683706.520   119203669.41809  22683703.500    92885957.90747
 15 02 19 00 28 30.0000000  0  8G16G18G21G22G25G27G29G31
  21953206.440   115364877.22209  21953202.660    89894706.75647
  22683194.080   119201053.65509  22683190.700    92883957.32146
  21161865.220   111206357.85908  21161861.040    86654289.44348
  24146886.880   126892781.23108  24146884.340    98877499.09345
  24654193.020   129558644.48908  24654193.100   100954784.22644
  23172078.600   121770107.57509  23172077.680    94885808.46447
  23623998.560   124144937.32008  23623996.020    96736299.11646
  22700200.360   119290345.71809  22700197.400    92953497.84847
 15 02 19 00 29  0.0000000  0  8G16G18G21G22G25G27G29G31
  21938877.760   115289579.77408  21938874.080    89836033.46247
  22670955.200   119136737.70209  22670951.660    92833841.00646
  21168043.440   111238825.12108  21168039.240    86679588.61248
  24128962.780   126798590.39008  24128960.220    98804103.86345
  24673247.000   129658772.26608  24673247.160   101032805.82145
  23159417.600   121703573.10309  23159416.760    94833963.43847
  23637697.860   124216925.96408  23637694.600    96792394.19446
  22716736.540   119377244.11709  22716733.540    93021210.85347
 15 02 19 00 29 30.0000000  0  8G16G18G21G22G25G27G29G31
  21924594.940   115214523.06409  21924591.160    89777547.70847
  22658768.140   119072694.60009  22658764.700    92783937.29446
  21174289.220   111271647.09509  21174284.980    86705164.16448
  24111034.980   126704379.55208  24111032.360    98730693.06345
  24692329.700   129759051.44108  24692329.460   101110945.35644
  23146775.220   121637137.57608  23146774.340    94782195.51347
  23651403.700   124288950.94708  23651400.980    96848517.47746
  22733316.600   119464372.56809  22733313.500    93089103.12247
 15 02 19 00 30  0.0000000  0  8G16G18G21G22G25G27G29G31
  21910356.580   115139699.47009  21910352.380    89719243.57047
  22646631.520   119008917.16709  22646628.380    92734240.60146
  21180600.360   111304812.28608  21180596.080    86731007.19048
  24093102.000   126610141.88108  24093099.400    98657261.35146
  24711439.060   129859470.69408  24711438.940   101189194.06145
  23134149.760   121570791.42108  23134148.980    94730497.23547
  23665114.640   124361002.73609  23665112.460    96904661.65946
  22749938.100   119551718.43809  22749935.020    93157164.80747
 15 02 19 00 30 30.0000000  0  8G16G18G21G22G25G27G29G31
  21896162.720   115065110.69209  21896158.640    89661122.48147
  22634545.940   118945407.21509  22634542.940    92684752.35046
  21186976.360   111338318.24509  21186972.040    86757115.71848
  24075164.260   126515879.53208  24075161.620    98583810.40246
  24730574.440   129960028.24107  24730574.280   101267550.52445
  23121541.500   121504534.00809  23121540.820    94678868.11447
  23678831.040   124433080.30309  23678828.220    96960826.03646
  22766600.340   119639278.07809  22766597.120    93225393.05147
 15 02 19 00 31  0.0000000  0  8G16G18G21G22G25G27G29G31
  21882015.600   114990767.28509  21882011.760    89603192.58047
  22622513.460   118882176.11109  22622510.360    92635481.36446
  21193418.580   111372172.27908  21193414.280    86783495.50548
  24057223.800   126421602.83508  24057221.120    98510348.26045
  24749737.260   130060730.97707  24749737.660   101346020.09945
  23108951.680   121438373.72308  23108950.920    94627314.71246
  23692553.620   124505192.02008  23692550.980    97017016.96446
  22783304.260   119727056.95909  22783300.940    93293792.12547
 15 02 19 00 31 30.0000000  0  8G16G18G21G22G25G27G29G31
  21867915.040   114916668.48109  21867911.580    89545453.28947
  22610533.860   118819222.94609  22610530.660    92586426.96846
  21199926.140   111406369.91108  21199921.860    86810143.00648
  24039280.540   126327311.38108  24039277.700    98436874.62945
  24768927.000   130161574.26408  24768927.420   101424599.21844
  23096379.620   121372307.39408  23096378.540    94575834.48347
  23706281.580   124577334.77908  23706279.460    97073232.05146
  22800048.680   119815049.24309  22800045.400    93362357.49047
 15 02 19 00 32  0.0000000  0  8G16G18G21G22G25G27G29G31
  21853860.820   114842812.41309  21853857.200    89487903.07648
  22598606.960   118756546.28809  22598603.680    92537588.03046
  21206497.940   111440904.97408  21206493.720    86837053.44348
  24021334.380   126233004.06008  24021331.340    98363388.59345
  24788142.480   130262552.70307  24788143.440   101503283.63445
  23083824.680   121306331.05709  23083823.280    94524424.34947
  23720015.240   124649504.99508  23720012.380    97129468.57746
  22816832.320   119903247.83009  22816829.200    93431083.61748
 15 02 19 00 32 30.0000000  0  8G16G18G21G22G25G27G29G31
  21839853.660   114769203.51509  21839850.100    89430545.49548
  22586733.680   118694150.61909  22586730.220    92488968.04246
  21213134.160   111475778.53509  21213130.020    86864227.63848
  24003386.080   126138685.39908  24003382.900    98289893.75546
  24807383.840   130363666.87707  24807384.720   101582073.86644
  23071287.320   121240446.73308  23071286.060    94473085.93147
  23733754.340   124721704.15608  23733751.680    97185727.63146
  22833655.120   119991652.07809  22833652.060    93499970.00247
 15 02 19 00 33  0.0000000  0  7G16G18G21G22G27G29G31
  21825893.620   114695842.56009  21825889.780    89373381.11948
  22574913.820   118632036.71209  22574910.440    92440567.60946
  21219834.080   111510986.88908  21219829.980    86891662.73248
  23985435.820   126044356.62908  23985432.520    98216391.03745
  23058767.140   121174653.05008  23058766.200    94421818.17747
  23747498.720   124793930.96608  23747496.520    97242008.25046
  22850516.100   120080257.23309  22850513.100    93569012.92647
 15 02 19 00 33 30.0000000  0  7G16G18G21G22G27G29G31
  21811982.280   114622737.37909  21811978.260    89316416.02047
  22563148.940   118570213.04609  22563145.740    92392393.35546
  21226598.580   111546534.40309  21226594.480    86919362.07348
  23967485.180   125950025.87308  23967481.760    98142886.76346
  23046265.020   121108955.56108  23046264.260    94370625.38046
  23761249.340   124866191.20108  23761247.160    97298314.84246
  22867415.900   120169066.16109  22867412.940    93638214.65947
 15 02 19 00 34  0.0000000  0  7G16G18G21G22G27G29G31
  21798118.640   114549883.19309  21798114.400    89259646.54948
  22551438.380   118508675.04909  22551435.420    92344441.69546
  21233425.820   111582411.91808  21233421.800    86947318.61648
  23949533.160   125855688.55908  23949529.700    98069377.40345
  23033780.220   121043347.41308  23033778.980    94319502.14747
  23775004.820   124938477.38308  23775002.260    97354641.74545
  22884352.620   120258068.90709  22884349.600    93707567.41547
 15 02 19 00 34 30.0000000  0  7G16G18G21G22G27G29G31
  21784303.920   114477286.42609  21784299.660    89203077.64648
  22539783.500   118447428.66909  22539780.600    92296717.25246
  21240316.520   111618622.69309  21240312.400    86975534.79948
  23931581.180   125761351.70508  23931577.660    97995868.37945
  23021313.220   120977832.48109  23021311.940    94268451.54947
  23788766.200   125010793.81208  23788763.720    97410992.21246
  22901326.460   120347266.50509  22901323.220    93777071.97247
 15 02 19 00 35  0.0000000  0  7G16G18G21G22G27G29G31
  21770538.360   114404948.22709  21770534.340    89146710.22448
  22528184.520   118386475.71809  22528181.580    92249221.46246
  21247270.040   111655163.48009  21247265.800    87004008.14348
  23913629.600   125667016.55008  23913626.060    97922360.69445
  23008863.860   120912409.67808  23008862.760    94217472.79747
  23802533.080   125083139.52808  23802530.980    97467365.46446
  22918336.600   120436655.03209  22918333.180    93846725.32447
 15 02 19 00 35 30.0000000  0  7G16G18G21G22G27G29G31
  21756822.600   114332872.14509  21756818.740    89090547.06447
  22516642.120   118325819.90209  22516639.060    92201957.19046
  21254286.320   111692034.35908  21254282.040    87032738.71148
  23895679.240   125572687.13708  23895675.500    97848857.43746
  22996432.300   120847080.53009  22996431.420    94166567.01047
  23816305.720   125155515.85808  23816304.240    97523762.49846
  22935382.780   120526233.01209  22935379.240    93916526.30147
 15 02 19 00 36  0.0000000  0  7G16G18G21G22G27G29G31
  21743156.420   114261056.55709  21743152.740    89034586.89048
  22505156.040   118265459.97109  22505153.000    92154923.50246
  21261364.240   111729229.62108  21261360.060    87061722.03248
  23877729.780   125478362.47708  23877725.900    97775357.90046
  22984017.640   120781841.21208  22984016.300    94115731.14147
  23830083.560   125227918.52508  23830081.960    97580180.12046
  22952463.720   120615993.74009  22952460.160    93986469.65947
 15 02 19 00 36 30.0000000  0  7G16G18G21G22G27G29G31
  21729541.700   114189510.67309  21729538.160    88978836.84648
  22493727.980   118205405.01309  22493725.020    92108127.44946
  21268504.920   111766754.48909  21268500.840    87090962.20148
  23859782.900   125384051.74808  23859779.060    97701869.22946
  22971621.040   120716698.28908  22971619.820    94064970.45947
  23843867.560   125300354.76908  23843865.500    97636623.96545
  22969580.040   120705940.82109  22969576.720    94056558.24147
 15 02 19 00 37  0.0000000  0  7G16G18G21G22G27G29G31
  21715977.820   114118231.82409  21715974.040    88923294.86348
  22482357.540   118145652.48509  22482354.400    92061567.04646
  21275707.080   111804602.32109  21275703.060    87120454.02548
  23841838.160   125289752.84808  23841834.300    97628389.75646
  22959241.960   120651647.00608  22959240.960    94014281.16247
  23857657.020   125372819.42507  23857654.720    97693089.80346
  22986730.340   120796066.15409  22986727.160    94126785.71747
 15 02 19 00 37 30.0000000  0  7G16G18G21G22G27G29G31
  21702465.240   114047223.19409  21702461.540    88867963.48448
  22471045.260   118086205.90209  22471042.000    92015245.03047
  21282970.680   111842772.78708  21282966.660    87150197.23248
  23823896.420   125195469.52208  23823892.580    97554922.41746
  22946880.900   120586688.68009  22946880.020    93963664.32748
  23871452.040   125445313.86408  23871450.280    97749578.97446
  23003914.360   120886368.38109  23003911.200    94197151.03447
 15 02 19 00 38  0.0000000  0  7G16G18G21G22G27G29G31
  21689004.180   113976485.01209  21689000.540    88812842.81448
  22459791.120   118027065.33109  22459787.960    91969161.48246
  21290295.020   111881261.90108  21290290.920    87180188.78748
  23805957.780   125101202.13408  23805953.800    97481467.45045
  22934536.980   120521820.98708  22934536.500    93913118.11447
  23885252.440   125517835.47608  23885250.900    97806089.22146
  23021131.060   120976842.33209  23021127.860    94267650.15347
 15 02 19 00 38 30.0000000  0  7G16G18G21G22G27G29G31
  21675595.180   113906019.89209  21675591.440    88757934.89448
  22448595.780   117968233.94309  22448592.600    91923318.87246
  21297679.780   111920068.40209  21297675.540    87210427.57548
  23788022.780   125006953.86308  23788018.680    97408027.40246
  22922210.340   120457044.48208  22922209.720    93862642.90547
  23899058.300   125590384.89308  23899056.520    97862621.18146
  23038379.960   121067485.36709  23038376.740    94338281.03847
 15 02 19 00 39  0.0000000  0  7G16G18G21G22G27G29G31
  21662238.780   113835831.79909  21662235.280    88703242.92648
  22437460.120   117909715.61009  22437456.760    91877720.17347
  21305124.900   111959192.27208  21305120.580    87240913.73948
  23770092.240   124912728.88608  23770088.060    97334605.50946
  22909901.180   120392360.86608  22909900.760    93812240.11847
  23912870.060   125662964.16708  23912868.000    97919176.48646
  23055660.720   121158296.29308  23055657.600    94409042.75547
 15 02 19 00 39 30.0000000  0  7G16G18G21G22G27G29G31
  21648936.120   113765926.43709  21648932.760    88648771.28248
  22426385.060   117851515.56409  22426381.660    91832369.49446
  21312630.620   111998635.09708  21312626.400    87271648.39548
  23752167.260   124818533.03508  23752163.160    97261206.28846
  22897610.440   120327773.28208  22897610.520    93761912.15347
  23926687.500   125735576.15308  23926685.580    97975757.17446
  23072973.440   121249275.09309  23072970.300    94479935.25147
 15 02 19 00 40  0.0000000  0  7G16G18G21G22G27G29G31
  21635686.560   113696299.29509  21635682.960    88594516.30348
  22415369.840   117793630.30009  22415366.540    91787264.11047
  21320195.480   112038388.99909  21320191.380    87302625.45148
  23734247.080   124724362.50008  23734243.000    97187826.82446
  22885336.740   120263275.31508  22885336.920    93711654.05047
  23940510.320   125808214.63708  23940508.520    98032358.52746
  23090316.380   121340412.61309  23090313.240    94550951.44147
 15 02 19 00 40 30.0000000  0  7G16G18G21G22G27G29G31
  21622490.280   113626951.44609  21622486.160    88540478.98248
  22404414.700   117736060.62209  22404411.440    91742404.64346
  21327818.860   112078450.44908  21327814.880    87333842.20748
  23716332.120   124630219.13608  23716328.120    97114468.50646
  22873080.100   120198865.72008  22873079.820    93661464.77847
  23954337.980   125880878.02808  23954336.200    98088979.34346
  23107688.720   121431704.54509  23107685.600    94622087.96047
 15 02 19 00 41  0.0000000  0  7G16G18G21G22G27G29G31
  21609348.680   113557892.06109  21609344.800    88486666.53848
  22393521.400   117678815.62309  22393518.160    91697798.15546
  21335501.860   112118824.74709  21335497.860    87365302.64448
  23698424.100   124536111.97408  23698420.020    97041138.37546
  22860841.580   120134551.36908  22860840.980    93611349.71647
  23968171.540   125953572.99908  23968169.680    98145624.72046
  23125091.120   121523154.58009  23125088.080    94693347.66847
 15 02 19 00 41 30.0000000  0  7G16G18G21G22G27G29G31
  21596262.760   113489124.87709  21596258.920    88433081.69348
  22382690.480   117621898.90709  22382687.300    91653447.50046
  21343244.280   112159511.77308  21343240.340    87397006.84048
  23680523.700   124442045.23608  23680519.600    96967839.73346
  22848621.540   120070333.82408  22848620.840    93561310.08247
