     2.11           OBSERVATION DATA    M                   RINEX VERSION / TYPE
SPIDER V4,0,0,3554                      2015 03 21 00:10    PGM / RUN BY / DATE 
CNGR                                                        MARKER NAME         
CNGR                                                        MARKER NUMBER       
                                                            OBSERVER / AGENCY   
496521              LEICA GRX1200+GNSS  8.10/4.007          REC # / TYPE / VERS 
10321004            LEIAR25         NONE                    ANT # / TYPE        
  5218738.7445   688113.1521  3590185.5476                  APPROX POSITION XYZ 
        0.0720        0.0000        0.0000                  ANTENNA: DELTA H/E/N
     1     1                                                WAVELENGTH FACT L1/2
     4    C1    L1    P2    L2                              # / TYPES OF OBSERV 
    30.000                                                  INTERVAL            
  2015    02    19    00    00    0.0000000     GPS         TIME OF FIRST OBS   
  2015    02    19    23    59   30.0000000     GPS         TIME OF LAST OBS    
    16                                                      LEAP SECONDS        
    38                                                      # OF SATELLITES     
   G 1   815   815   815   815                              PRN / # OF OBS      
   G 2   936   934   934   934                              PRN / # OF OBS      
   G 3   860   860   860   860                              PRN / # OF OBS      
   G 4   843   843   843   843                              PRN / # OF OBS      
   G 5   620   620   620   620                              PRN / # OF OBS      
   G 6   797   797   797   797                              PRN / # OF OBS      
   G 7   677   676   676   676                              PRN / # OF OBS      
   G 9   818   817   817   817                              PRN / # OF OBS      
   G10   740   740   739   739                              PRN / # OF OBS      
   G11   444   444   443   443                              PRN / # OF OBS      
   G12   817   817   817   817                              PRN / # OF OBS      
   G13   769   769   768   768                              PRN / # OF OBS      
   G14   942   940   941   940                              PRN / # OF OBS      
   G15   651   651   651   651                              PRN / # OF OBS      
   G16   668   667   667   667                              PRN / # OF OBS      
   G17   936   936   936   936                              PRN / # OF OBS      
   G18   899   899   898   898                              PRN / # OF OBS      
   G19   756   756   756   756                              PRN / # OF OBS      
   G20   778   778   777   777                              PRN / # OF OBS      
   G21   718   718   718   718                              PRN / # OF OBS      
   G22   660   660   660   660                              PRN / # OF OBS      
   G23   757   757   757   757                              PRN / # OF OBS      
   G24   829   828   828   828                              PRN / # OF OBS      
   G25   853   853   853   853                              PRN / # OF OBS      
   G27   810   810   810   810                              PRN / # OF OBS      
   G28   852   852   852   852                              PRN / # OF OBS      
   G29   743   743   742   742                              PRN / # OF OBS      
   G30   724   724   724   724                              PRN / # OF OBS      
   G31   863   863   863   863                              PRN / # OF OBS      
   G32   778   778   777   777                              PRN / # OF OBS      
   R 4    30    30    30    30                              PRN / # OF OBS      
   R 9    30    30    30    30                              PRN / # OF OBS      
   R10    30    30    30    30                              PRN / # OF OBS      
   R11    10    10     9     9                              PRN / # OF OBS      
   R16     9     9     9     9                              PRN / # OF OBS      
   R19    30    30    30    30                              PRN / # OF OBS      
   R20    30    30    30    30                              PRN / # OF OBS      
   R21    12    12    12    12                              PRN / # OF OBS      
BIT 2 OF LLI FLAGS DATA COLLECTED UNDER A/S CONDITION       COMMENT             
SNR is mapped to RINEX snr flag value [2-9]                 COMMENT             
Lx:     = 25dBHz -> 1; 26-27dBHz -> 2; 28-31dBHz -> 3       COMMENT             
       32-35dBHz -> 4; 36-38dBHz -> 5; 39-41dBHz -> 6       COMMENT             
       42-44dBHz -> 7; 45-48dBHz -> 8; >=49dBHz -> 9        COMMENT             
                                                            END OF HEADER       
 15 02 19 00 00  0.0000000  0 14G16G18G21G25G27G29G31R04R09R10R16R19
                                R20R21
  22985257.920   120788353.72708  22985254.680    94120795.99046
  23297755.580   122430608.61608  23297752.720    95400489.93846
  20901282.460   109837356.50608  20901278.580    85587701.43948
  23452329.460   123243016.81508  23452329.300    96033582.90246
  24088509.280   126585984.17008  24088509.220    98638437.81245
  22760257.340   119606423.26009  22760255.080    93200010.99648
  21875281.020   114955395.70109  21875277.840    89575626.38248
  22996672.680   123146124.78508  22996672.700    95780324.96007
  19961544.120   106593554.50609  19961545.400    82906105.42106
  20084900.260   107063821.36909  20084905.080    83271890.36607
  23409340.600   125048482.92207  23409346.840    97259935.65906
  20749308.900   110995257.36009  20749308.520    86329853.52108
  20309514.260   108604207.22008  20309516.400    84470015.49108
  23314245.320   124759235.65406  23314248.240    97034971.97505
 15 02 19 00 00 30.0000000  0 14G16G18G21G25G27G29G31R04R09R10R16R19
                                R20R21
  22968693.780   120701308.61308  22968690.480    94052968.63347
  23283424.640   122355299.09708  23283421.820    95341807.25346
  20903357.000   109848258.32908  20903353.140    85596196.36748
  23469254.160   123331957.94108  23469254.140    96102887.64946
  24074927.860   126514613.79108  24074928.060    98582824.58145
  22773030.980   119673549.63809  22773028.820    93252317.26048
  21888142.160   115022981.59809  21888139.040    89628290.68948
  22983810.560   123077249.97708  22983810.880    95726755.69007
  19975731.920   106669316.81509  19975733.280    82965031.64906
  20075392.400   107013139.53309  20075397.240    83232471.16507
  23434925.560   125185150.94807  23434932.080    97366232.46006
  20761174.640   111058730.95609  20761174.340    86379221.87308
  20305970.120   108585255.53308  20305972.300    84455275.29208
  23299847.620   124682188.13807  23299849.980    96975046.23805
 15 02 19 00 01  0.0000000  0 13G16G18G21G25G27G29G31R04R09R10R16R19
                                R20
  22952150.320   120614372.08108  22952146.820    93985225.90546
  23269118.280   122280119.45108  23269115.500    95283225.77046
  20905510.720   109859575.96809  20905506.840    85605015.31648
  23486222.700   123421129.09508  23486222.680    96172371.66446
  24061362.060   126443325.50108  24061362.420    98527275.33845
  22785813.300   119740722.05308  22785811.420    93304659.36547
  21901076.140   115090950.25809  21901073.100    89681253.25948
  22971033.720   123008832.07308  22971034.700    95673541.79407
  19990043.180   106745738.30509  19990044.580    83024470.57306
  20066026.980   106963216.93109  20066031.900    83193642.46807
  23460527.120   125321907.46907  23460533.600    97472598.08206
  20773065.680   111122339.66809  20773065.380    86428695.30908
  20302489.320   108566642.78108  20302491.620    84440798.72008
 15 02 19 00 01 30.0000000  0 13G16G18G21G25G27G29G31R04R09R10R16R19
                                R20
  22935628.040   120527546.66609  22935624.380    93917569.74046
  23254837.380   122205073.94708  23254834.760    95224748.80946
  20907743.440   109871308.76508  20907739.540    85614157.75748
  23503235.020   123510530.06108  23503235.300    96242034.70646
  24047812.080   126372120.05708  24047812.440    98471790.61345
  22798604.460   119807940.66708  22798602.660    93357037.48148
  21914082.700   115159299.84309  21914079.640    89734512.65348
  22958343.100   122940876.25408  22958344.780    95620687.30907
  20004477.480   106822816.85109  20004478.880    83084420.53906
  20056804.680   106914057.07209  20056809.680    83155407.01207
  23486144.740   125458749.83607  23486151.120    97579030.44006
  20784981.780   111186082.78409  20784981.440    86478273.27808
  20299071.820   108548368.50408  20299074.280    84426585.40108
 15 02 19 00 02  0.0000000  0 13G16G18G21G25G27G29G31R04R09R10R16R19
                                R20
  22919126.700   120440831.30808  22919122.920    93849999.35346
  23240581.860   122130161.96408  23240579.360    95166375.90046
  20910054.320   109883452.52908  20910050.440    85623620.43948
  23520290.420   123600156.78208  23520290.840    96311873.69346
  24034277.360   126300994.37108  24034277.600    98416368.07345
  22811404.080   119875202.97508  22811402.360    93409449.64647
  21927160.760   115228024.95209  21927157.700    89788064.66248
  22945738.920   122873383.56008  22945741.140    95568193.00007
  20019033.700   106900546.24409  20019035.100    83144876.72906
  20047725.400   106865659.72309  20047730.520    83117764.62107
  23511777.140   125595671.04807  23511783.440    97685524.10106
  20796922.100   111249955.38009  20796921.620    86527951.97408
  20295716.800   108530428.50908  20295719.420    84412632.09308
 15 02 19 00 02 30.0000000  0 14G16G18G21G25G27G29G31R04R09R10R16R19
                                R20R21
  22902646.620   120354227.69608  22902642.820    93782516.02346
  23226352.400   122055386.20108  23226349.980    95108109.10346
  20912443.220   109896006.23608  20912439.400    85633402.55048
  23537388.540   123690007.97808  23537389.100    96381887.61646
  24020757.760   126229948.11308  24020757.660    98361007.39145
  22824211.760   119942508.01608  22824210.080    93461895.09048
  21940309.720   115297122.88609  21940306.720    89841907.17848
  22933221.920   122806357.40108  22933224.360    95516061.55807
  20033711.240   106978923.26409  20033712.620    83205836.61906
  20038789.660   106818027.47509  20038794.960    83080717.31707
  23537423.640   125732667.46207  23537430.000    97792076.24306
  20808886.260   111313955.27409  20808885.560    86577729.65708
  20292423.920   108512821.04808  20292426.740    84398937.41608
  23242659.180   124376160.25706  23242662.260    96737029.19905
 15 02 19 00 03  0.0000000  0 14G16G18G21G25G27G29G31R04R09R10R16R19
                                R20R21
  22886189.060   120267742.29208  22886185.240    93715124.79447
  23212150.200   121980753.15708  23212147.700    95049953.52446
  20914910.840   109908973.41408  20914907.020    85643506.85148
  23554530.000   123780086.88408  23554530.620    96452078.95246
  24007254.000   126158985.56408  24007253.960    98305711.97045
  22837028.580   120009860.19508  22837026.440    93514377.30547
  21953529.940   115366595.34809  21953527.020    89896041.53848
  22920793.740   122739806.38108  22920796.060    95464299.66607
  20048510.320   107057949.26409  20048511.720    83267301.26506
  20029998.820   106771167.53709  20030004.200    83044270.68707
  23563084.240   125869739.76007  23563090.880    97898687.29406
  20820874.660   111378084.94109  20820873.900    86627608.27608
  20289193.840   108495549.12608  20289196.820    84385503.70308
  23228463.300   124300195.87506  23228465.900    96677945.92205
 15 02 19 00 03 30.0000000  0 13G16G18G21G25G27G29G31R04R09R10R16R19
                                R20
  22869753.660   120181373.49909  22869749.880    93647824.45746
  23197975.240   121906262.90909  23197972.660    94991909.24446
  20917456.240   109922349.29008  20917452.420    85653929.63048
  23571713.940   123870389.23208  23571714.440    96522444.40346
  23993765.480   126088103.42808  23993765.540    98250479.19845
  22849853.760   120077255.80909  22849851.380    93566893.33647
  21966820.340   115436436.79209  21966817.520    89950463.42648
  22908454.660   122673731.21608  22908456.920    95412907.89607
  20063429.700   107137617.72609  20063431.080    83329265.61606
  20021352.740   106725078.86609  20021358.100    83008423.95707
  23588757.800   126006881.02307  23588764.600    98005352.02306
  20832886.380   111442339.52209  20832885.680    86677584.07208
  20286025.800   108478608.25908  20286028.780    84372327.49208
 15 02 19 00 04  0.0000000  0 13G16G18G21G25G27G29G31R04R09R10R16R19
                                R20
  22853341.200   120095125.43709  22853337.600    93580618.20246
  23183828.180   121831919.37009  23183825.660    94933979.25346
  20920079.440   109936134.29909  20920075.640    85664671.19748
  23588940.580   123960915.57108  23588941.100    96592984.39946
  23980292.620   126017303.21508  23980292.740    98195310.23445
  22862687.300   120144696.13909  22862684.880    93619444.16447
  21980180.660   115506646.00509  21980177.960    90005171.86948
  22896205.600   122608137.75608  22896207.640    95361890.78807
  20078469.140   107217927.39809  20078470.440    83391728.67506
  20012852.260   106679766.13709  20012857.500    82973180.72307
  23614443.980   126144089.18107  23614450.780    98112068.74006
  20844921.360   111506718.90309  20844920.760    86727656.91808
  20282919.840   108461998.92608  20282922.720    84359409.13008
 15 02 19 00 04 30.0000000  0 12G16G18G21G25G27G29G31R04R09R10R19R20
  22836951.480   120008997.01309  22836947.900    93513505.14746
  23169709.000   121757723.12808  23169706.640    94876164.02946
  20922779.840   109950324.94408  20922776.060    85675728.85748
  23606209.060   124051662.18008  23606209.700    96663696.00646
  23966834.860   125946582.24108  23966835.060    98140203.06146
  22875528.800   120212178.41709  22875526.080    93672027.74547
  21993609.980   115577217.88409  21993607.440    90060162.92348
  22884046.780   122543027.11808  22884048.580    95311249.19707
  20093627.560   107298872.28009  20093628.800    83454685.79706
  20004497.260   106635229.22209  20004502.440    82938540.91107
  20856978.820   111571218.53909  20856978.400    86777823.29908
  20279875.120   108445716.93708  20279877.860    84346745.37108
 15 02 19 00 05  0.0000000  0 12G16G18G21G25G27G29G31R04R09R10R19R20
  22820585.300   119922992.33809  22820581.840    93446488.53747
  23155618.780   121683678.59309  23155616.620    94818467.04846
  20925557.540   109964921.96708  20925553.740    85687103.16648
  23623519.600   124142629.82408  23623520.160    96734579.89646
  23953392.520   125875942.33308  23953392.540    98085159.03046
  22888378.560   120279704.53208  22888376.080    93724645.50148
  22007108.180   115648151.54609  22007105.720    90115435.88448
  22871979.080   122478404.95308  22871980.480    95260987.52307
  20108904.720   107380451.11509  20108905.880    83518135.98606
  19996288.540   106591472.30609  19996293.760    82904507.75207
  20869058.800   111635838.54309  20869058.460    86828083.30308
  20276891.780   108429763.00408  20276894.320    84334336.76908
 15 02 19 00 05 30.0000000  0 13G16G18G21G25G27G29G31R04R09R10R19R20
                                R21
  22804243.460   119837115.80209  22804240.180    93379571.78547
  23141558.400   121609790.82108  23141556.200    94760892.22146
  20928412.900   109979926.74009  20928409.000    85698795.19848
  23640872.460   124233819.97108  23640873.180    96805637.14846
  23939966.060   125805385.94908  23939965.900    98030180.08946
  22901236.960   120347276.41308  22901234.720    93777298.90947
  22020675.280   115719447.07409  22020672.800    90170990.81948
  22860003.980   122414277.97908  22860005.140    95211110.99907
  20124300.500   107462663.33409  20124301.580    83582078.80606
  19988227.160   106548500.84409  19988232.380    82871085.49507
  20881161.480   111700579.90809  20881161.180    86878437.68908
  20273969.880   108414138.10708  20273972.320    84322184.08608
  23158089.720   123923619.01207  23158092.220    96385045.24805
 15 02 19 00 06  0.0000000  0 13G16G18G21G25G27G29G31R04R09R10R19R20
                                R21
  22787925.700   119751365.79108  22787922.480    93312753.59647
  23127527.740   121536059.09709  23127525.360    94703438.97246
  20931344.880   109995334.10009  20931340.880    85710800.93748
  23658266.740   124325227.65808  23658267.620    96876863.89246
  23926554.720   125734909.18908  23926554.680    97975263.19246
  22914103.300   120414890.35908  22914101.440    93829985.07247
  22034310.080   115791098.19609  22034307.540    90226822.83648
  22848121.480   122350646.25808  22848122.400    95161619.66707
  20139813.520   107545501.80809  20139814.560    83646508.71006
  19980312.980   106506313.40309  19980318.100    82838273.03707
  20893285.700   111765436.86308  20893285.540    86928881.98308
  20271108.600   108398837.22808  20271110.940    84310283.40608
  23144136.080   123848951.58207  23144138.660    96326970.68406
 15 02 19 00 06 30.0000000  0 12G16G18G21G25G27G29G31R04R09R10R19R20
  22771632.340   119665743.96609  22771629.300    93246035.30847
  23113527.120   121462485.59508  23113524.640    94646109.02646
  20934353.200   110011142.55209  20934349.060    85723119.21148
  23675702.160   124416851.27708  23675703.120    96948258.89546
  23913158.480   125664511.46708  23913158.540    97920407.87846
  22926977.620   120482545.29908  22926976.100    93882703.19748
  22048011.920   115863101.74809  22048009.360    90282929.46848
  22836332.080   122287513.07308  22836332.520    95112516.08307
  20155443.040   107628962.62609  20155444.060    83711422.67306
  19972546.320   106464911.76209  19972551.200    82806071.75907
  20905431.240   111830407.47809  20905431.180    86979414.69008
  20268307.580   108383858.39908  20268309.780    84298633.20808
 15 02 19 00 07  0.0000000  0 12G16G18G21G25G27G29G31R04R09R10R19R20
  22755364.440   119580255.64109  22755361.340    93179421.04646
  23099557.820   121389076.37508  23099555.080    94588907.06946
  20937438.280   110027354.71208  20937434.080    85735752.08248
  23693179.100   124508693.29008  23693180.320    97019824.07046
  23899777.940   125594196.29408  23899778.040    97865616.89846
  22939860.440   120550244.96209  22939859.000    93935456.17747
  22061781.020   115935458.55809  22061778.420    90339311.38148
  22824637.000   122224886.03908  22824637.260    95063806.19407
  20171189.180   107713046.32009  20171190.280    83776821.08706
  19964928.200   106424302.15509  19964932.940    82774486.51107
  20917598.400   111895493.37609  20917598.360    87030037.05808
  20265567.240   108369204.11808  20265569.300    84287235.44208
 15 02 19 00 07 30.0000000  0 12G16G18G21G25G27G29G31R04R09R10R19R20
  22739121.520   119494898.31009  22739118.340    93112908.85747
  23085619.360   121315829.35208  23085616.640    94531831.50446
  20940598.960   110043964.34208  20940594.780    85748694.64948
  23710696.640   124600747.85908  23710697.700    97091554.89746
  23886412.220   125523958.96208  23886412.340    97810886.56246
  22952750.720   120617984.37409  22952749.560    93988240.08547
  22075615.940   116008161.16109  22075613.220    90395962.72848
  22813036.220   122162764.19908  22813036.340    95015489.24007
  20187050.440   107797744.85709  20187051.560    83842697.72106
  19957458.120   106384482.08909  19957462.780    82743515.35007
  20929785.880   111960688.08809  20929785.780    87080744.04708
  20262886.300   108354868.18608  20262888.360    84276085.30208
 15 02 19 00 08  0.0000000  0 13G16G18G21G25G27G29G31R04R09R10R19R20
                                R21
  22722904.460   119409676.74009  22722901.120    93046502.45147
  23071712.820   121242750.36208  23071710.120    94474886.86546
  20943835.660   110060973.38109  20943831.460    85761948.44748
  23728255.000   124693016.76808  23728255.760    97163452.73346
  23873061.780   125453802.21008  23873061.800    97756219.02647
  22965649.240   120685765.90509  22965647.760    94041056.85647
  22089516.760   116081210.10409  22089513.880    90452883.96348
  22801530.880   122101154.37008  22801530.960    94967570.49107
  20203026.720   107883057.73609  20203027.860    83909052.15306
  19950137.040   106345456.95109  19950141.740    82713162.46307
  20941994.040   112025993.04709  20941993.880    87131536.77808
  20260265.040   108340851.94608  20260267.260    84265183.80108
  23088724.300   123552421.68807  23088725.760    96096340.27606
 15 02 19 00 08 30.0000000  0 13G16G18G21G25G27G29G31R04R09R10R19R20
                                R21
  22706713.540   119324592.68409  22706710.000    92980203.20947
  23057838.640   121169841.25909  23057836.060    94418074.64446
  20947147.960   110078379.71408  20947143.780    85775511.82848
  23745853.820   124785498.04808  23745854.560    97235516.05246
  23859726.520   125383725.30808  23859726.540    97701613.70046
  22978555.620   120753589.09009  22978554.220    94093906.03647
  22103482.800   116154601.98209  22103479.800    90510072.40348
  22790121.760   122040059.58808  22790121.880    94920052.35607
  20219117.260   107968980.79709  20219118.480    83975881.17606
  19942965.360   106307228.40009  19942970.180    82683429.15207
  20954222.440   112091405.92009  20954221.840    87182413.45808
  20257703.300   108327153.37208  20257705.600    84254529.35008
  23074971.760   123478829.14607  23074973.320    96039101.73406
 15 02 19 00 09  0.0000000  0 12G16G18G21G25G27G29G31R04R09R10R19R20
  22690549.140   119239647.93609  22690545.520    92914012.50747
  23043997.380   121097105.07308  23043994.820    94361397.12746
  20950535.660   110096182.29008  20950531.500    85789383.96448
  23763492.840   124878191.03808  23763493.460    97307744.33346
  23846406.540   125313728.54608  23846406.560    97647070.82547
  22991469.920   120821453.78208  22991468.040    94146787.61447
  22117513.660   116228334.67509  22117510.580    90567526.41948
  22778809.520   121979483.97508  22778809.900    94872938.00707
  20235321.620   108055511.15709  20235322.860    84043182.55206
  19935943.500   106269798.62809  19935948.540    82654317.09807
  20966470.700   112156925.29009  20966469.860    87233372.96808
  20255200.880   108313771.90608  20255203.300    84244121.55008
 15 02 19 00 09 30.0000000  0 12G16G18G21G25G27G29G31R04R09R10R19R20
  22674411.520   119154844.28409  22674407.880    92847931.73947
  23030189.380   121024544.15208  23030187.080    94304856.21846
  20953998.440   110114379.62408  20953994.340    85803563.69748
  23781171.880   124971093.93008  23781172.140    97380136.20346
  23833101.660   125243811.26808  23833101.720    97592589.87946
  23004392.060   120889359.45809  23004390.320    94199701.07747
  22131608.660   116302404.48609  22131605.540    90625243.13448
  22767594.920   121919430.79708  22767595.540    94826230.00507
  20251639.000   108142644.80709  20251640.220    84110953.15506
  19929071.980   106233169.74109  19929077.120    82625827.96207
  20978738.460   112222548.87909  20978737.400    87284413.51408
  20252757.300   108300705.24508  20252759.800    84233958.60208
 15 02 19 00 10  0.0000000  0 13G16G18G21G25G27G29G31R04R09R10R11R19
                                R20
  22658301.240   119070184.53809  22658297.640    92781963.11447
  23016415.360   120952161.73808  23016413.220    94248454.38046
  20957536.220   110132971.12208  20957532.180    85818050.59748
  23798890.800   125064206.29008  23798891.120    97452691.26246
  23819811.940   125173974.07008  23819812.040    97538171.33446
  23017322.200   120957306.99309  23017320.160    94252647.20047
  22145767.420   116376809.64809  22145764.360    90683221.15648
  22756478.780   121859904.55108  22756479.500    94779931.84907
  20268068.900   108230378.94809  20268070.040    84179190.81106
  19922351.340   106197344.40909  19922356.500    82597963.82207
  23601781.400   126120762.32007                                
  20991025.480   112288275.75709  20991024.360    87335534.40908
  20250372.440   108287952.55208  20250374.960    84224039.85508
 15 02 19 00 10 30.0000000  0 14G16G18G21G25G27G29G31R04R09R10R11R19
                                R20R21
  22642218.860   118985671.26809  22642215.360    92716108.62647
  23002675.960   120879961.14009  23002673.900    94192194.20246
  20961148.900   110151956.12008  20961144.900    85832844.10248
  23816649.200   125157527.35408  23816649.620    97525408.92145
  23806537.500   125104217.43108  23806537.740    97483815.56546
  23030260.240   121025296.39209  23030258.020    94305625.89347
  22159989.540   116451547.77409  22159986.560    90741458.62848
  22745461.840   121800909.49008  22745462.500    94734046.82507
  20284610.700   108318710.61809  20284611.840    84247893.19806
  19915782.040   106162325.54709  19915787.120    82570726.92207
  23579589.780   126002176.84607  23579590.800    98001706.53104
  21003331.660   112354105.14509  21003330.420    87386735.04408
  20248046.240   108275513.16508  20248048.780    84214364.77008
  23020362.920   123186609.61507  23020365.040    95811815.84006
 15 02 19 00 11  0.0000000  0 14G16G18G21G25G27G29G31R04R09R10R11R19
                                R20R21
  22626163.540   118901300.11609  22626160.160    92650364.90447
  22988970.460   120807938.46708  22988968.320    94136072.68446
  20964834.960   110171326.77708  20964831.000    85847938.12148
  23834445.880   125251049.64308  23834446.220    97598283.47246
  23793277.220   125034534.90408  23793277.580    97429517.55147
  23043205.020   121093321.02109  23043202.680    94358632.06747
  22174273.440   116526610.45109  22174270.540    90799949.00348
  22734543.600   121742442.67708  22734544.240    94688572.64307
  20301262.480   108407630.00709  20301263.660    84317052.69806
  19909363.040   106128108.36309  19909368.120    82544113.56207
  23557450.100   125883870.60807  23557451.840    97909690.61804
  21015655.360   112420028.64909  21015654.240    87438008.88208
  20245777.180   108263379.13108  20245779.680    84204927.20308
  23006809.680   123114084.66007  23006811.900    95755407.61606
 15 02 19 00 11 30.0000000  0 13G16G18G21G25G27G29G31R04R09R10R11R19
                                R20
  22610137.780   118817084.35209  22610134.360    92584742.23547
  22975301.540   120736107.72008  22975299.360    94080100.69846
  20968596.300   110191092.93908  20968592.340    85863340.32548
  23852282.560   125344782.84408  23852283.240    97671322.27246
  23780033.200   124964937.34308  23780033.540    97375285.73947
  23056158.460   121161391.73209  23056156.080    94411674.11547
  22188620.600   116602005.27509  22188617.740    90858698.19448
  22723726.800   121684519.13208  22723727.560    94643521.01707
  20318025.640   108497144.49609  20318026.880    84386675.05306
  19903096.780   106094706.22609  19903101.980    82518134.10907
  23535365.760   125765858.54008  23535367.840    97817903.44804
  21027998.360   112486055.95409  21027997.500    87489363.45708
  20243567.020   108251560.44208  20243569.420    84195734.90108
 15 02 19 00 12  0.0000000  0 13G16G18G21G25G27G29G31R04R09R10R11R19
                                R20
  22594140.440   118733018.13309  22594137.040    92519236.10746
  22961668.140   120664463.81409  22961665.980    94024274.33546
  20972431.180   110211245.47209  20972427.180    85879043.60748
  23870157.720   125438718.08808  23870158.580    97744518.54746
  23766803.940   124895417.00708  23766804.180    97321114.11047
  23069119.380   121229500.64608  23069116.620    94464746.02147
  22203029.080   116677722.03609  22203026.240    90917698.24548
  22713010.660   121627134.62708  22713011.420    94598888.61907
  20334898.160   108587243.05409  20334899.480    84456751.70006
  19896982.280   106062113.45409  19896987.580    82492784.18407
  23513335.860   125648137.13707  23513338.000    97726342.36105
  21040358.900   112552177.65009  21040358.400    87540791.44508
  20241413.960   108240047.56308  20241416.300    84186780.44608
 15 02 19 00 12 30.0000000  0 13G16G18G21G25G27G29G31R04R09R10R11R19
                                R20
  22578172.560   118649106.70409  22578169.080    92453850.58647
  22948071.500   120593012.69509  22948069.240    93968598.16946
  20976339.940   110231786.30408  20976335.940    85895049.44348
  23888071.620   125532857.39208  23888072.660    97817873.84546
  23753590.040   124825977.07408  23753590.080    97267005.09547
  23082088.180   121297650.72109  23082085.340    94517849.92947
  22217498.980   116753761.25909  22217496.100    90976949.56948
  22702396.400   121570296.13508  22702397.220    94554680.92507
  20351879.980   108677925.26609  20351881.380    84527282.28806
  19891020.660   106030335.28309  19891026.060    82468067.83507
  23491361.580   125530713.65407  23491363.880    97635012.99105
  21052737.360   112618395.39708  21052737.100    87592294.13008
  20239318.500   108228842.64308  20239320.840    84178065.51408
 15 02 19 00 13  0.0000000  0 14G16G18G21G25G27G29G31R04R09R10R11R19
                                R20R21
  22562234.300   118565351.03208  22562230.680    92388586.42447
  22934511.820   120521755.56509  22934509.340    93913073.15746
  20980322.140   110252712.85708  20980318.120    85911355.84148
  23906023.820   125627198.16708  23906025.020    97891386.09246
  23740391.100   124756616.03908  23740391.020    97212957.56747
  23095064.320   121365840.84709  23095061.720    94570985.03447
  22232029.480   116830118.80809  22232026.540    91036448.92848
  22691884.500   121514006.02008  22691885.580    94510899.73107
  20368970.220   108769186.19609  20368971.580    84598262.99106
  19885212.040   105999372.22709  19885217.420    82443985.45207
  23469443.500   125413590.90807  23469445.820    97543917.52004
  21065133.380   112684706.34908  21065133.140    87643869.31008
  20237280.140   108217942.87808  20237282.520    84169587.93008
  22952999.640   122826137.05008  22953001.520    95531447.48606
 15 02 19 00 13 30.0000000  0 14G16G18G21G25G27G29G31R04R09R10R11R19
                                R20R21
  22546325.800   118481751.75509  22546322.040    92323444.14246
  22920989.280   120450693.51709  22920986.380    93857700.14746
  20984377.200   110274022.30408  20984373.180    85927960.61148
  23924014.060   125721737.60008  23924015.260    97965053.16746
  23727206.860   124687332.41408  23727206.760    97158970.36347
  23108047.580   121434069.58908  23108045.200    94624150.25547
  22246619.720   116906790.44109  22246616.740    91096193.03848
  22681475.500   121458266.25708  22681476.660    94467546.54907
  20386167.900   108861020.65909  20386169.160    84669689.78306
  19879556.400   105969224.61109  19879561.800    82420537.30207
  23447582.100   125296771.24607  23447584.580    97453057.75605
  21077546.380   112751107.38509  21077546.100    87695514.56408
  20235298.280   108207345.21707  20235300.800    84161345.31908
  22939646.480   122754681.10408  22939648.460    95475870.72206
 15 02 19 00 14  0.0000000  0 13G16G18G21G25G27G29G31R04R09R10R11R19
                                R20
  22530448.060   118398314.19308  22530444.420    92258427.87547
  22907504.840   120379832.41209  22907501.880    93802483.73446
  20988505.500   110295716.50208  20988501.460    85944865.19348
  23942042.500   125816477.71808  23942043.760    98038876.59846
  23714037.860   124618129.26408  23714037.800    97105045.87847
  23121038.920   121502339.61008  23121036.500    94677347.65847
  22261269.800   116983776.57909  22261266.760    91156182.21248
  22671170.320   121403083.46908  22671171.660    94424626.66107
  20403472.920   108953428.36408  20403474.140    84741562.42606
  19874054.620   105939897.59309  19874060.140    82397727.38408
  23425778.880   125180262.61907  23425781.740    97362439.97705
  21089976.560   112817600.16109  21089976.220    87747231.14908
  20233373.240   108197051.51608  20233375.820    84153339.12208
 15 02 19 00 14 30.0000000  0 14G16G18G21G22G25G27G29G31R04R09R10R11
                                R19R20
  22514601.200   118315038.68209  22514597.640    92193537.88047
  22894058.880   120309173.39909  22894055.600    93747424.78446
  20992706.380   110317792.10909  20992702.340    85962066.96948
  24545016.160   128984928.73708  24545015.260   100507735.64445
  23960108.700   125911415.60408  23960109.780    98112854.16446
  23700883.880   124549004.82208  23700883.860    97051182.72547
  23134037.600   121570649.05409  23134035.120    94730575.77647
  22275978.820   117061072.86109  22275975.800    91216413.06748
  22660969.600   121348459.66008  22660970.560    94382141.49507
  20420884.200   109046403.96909  20420885.540    84813876.75806
  19868706.760   105911391.02809  19868712.380    82375555.59907
  23404034.360   125064067.02907  23404037.000    97272065.59105
  21102423.260   112884181.58108  21102422.900    87799016.68308
  20231504.540   108187058.64408  20231507.100    84145566.90508
 15 02 19 00 15  0.0000000  0  8G16G18G21G22G25G27G29G31
  22498783.200   118231914.55709  22498779.660    92128765.84947
  22880649.440   120238706.51109  22880646.220    93692515.54146
  20996977.280   110340235.48009  20996973.180    85979555.31448
  24527214.800   128891383.65608  24527214.200   100434844.10445
  23978209.880   126006537.16608  23978210.840    98186974.83145
  23687742.400   124479946.33608  23687742.400    96997370.96747
  23147041.480   121638985.16208  23147039.120    94783824.63847
  22290743.900   117138663.92809  22290740.880    91276873.61848
 15 02 19 00 15 30.0000000  0  8G16G18G21G22G25G27G29G31
  22483000.020   118148973.20009  22482996.620    92064136.23847
  22867282.440   120168462.77009  22867279.600    93637780.18746
  21001323.400   110363074.14609  21001319.240    85997351.66748
  24509400.220   128797770.29408  24509400.040   100361899.27445
  23996351.400   126101870.22308  23996352.120    98261260.30746
  23674618.940   124410982.70808  23674618.960    96943633.10447
  23160056.000   121707376.58209  23160054.060    94837116.60247
  22305569.980   117216575.77509  22305566.960    91337584.12248
 15 02 19 00 16  0.0000000  0  8G16G18G21G22G25G27G29G31
  22467248.080   118066195.65009  22467244.700    91999634.26247
  22853954.500   120098424.47909  22853951.920    93583204.92446
  21005740.420   110386285.34809  21005736.200    86015438.32448
  24491569.040   128704070.30308  24491569.020   100288886.95745
  24014528.880   126197392.46908  24014529.240    98335693.20645
  23661509.540   124342092.85608  23661509.660    96889952.72647
  23173077.020   121775802.67009  23173074.780    94890435.59047
  22320452.560   117294784.62309  22320449.600    91398526.05348
 15 02 19 00 16 30.0000000  0  8G16G18G21G22G25G27G29G31
  22451528.500   117983588.31009  22451525.120    91935264.92947
  22840666.780   120028598.18809  22840664.340    93528794.85846
  21010228.880   110409872.15709  21010224.600    86033817.66848
  24473722.660   128610290.26408  24473722.880   100215812.23345
  24032742.820   126293106.67108  24032743.140    98410275.69446
  23648415.020   124273280.81008  23648415.220    96836332.98947
  23186105.540   121844267.13508  23186103.700    94943784.47947
  22335391.900   117373291.75509  22335389.060    91459700.41948
 15 02 19 00 17  0.0000000  0  8G16G18G21G22G25G27G29G31
  22435841.580   117901152.53509  22435838.060    91871029.26847
  22827419.940   119958986.19608  22827417.560    93474551.75846
  21014788.420   110433832.90109  21014784.160    86052488.38448
  24455861.460   128516431.86208  24455861.920   100142676.39445
  24050992.860   126389011.19408  24050993.220    98485006.45746
  23635335.220   124204546.11808  23635335.480    96782773.51547
  23199141.260   121912769.23908  23199139.140    94997162.78147
  22350387.380   117452094.00209  22350384.680    91521104.74048
 15 02 19 00 17 30.0000000  0  8G16G18G21G22G25G27G29G31
  22420188.240   117818893.09209  22420184.560    91806931.00747
  22814214.780   119889593.55008  22814212.720    93420479.61546
  21019419.260   110458168.45308  21019415.080    86071451.15648
  24437986.240   128422499.91908  24437986.860   100069483.24746
  24069279.220   126485107.08008  24069279.540    98559886.35845
  23622270.580   124135891.07408  23622270.820    96729276.11347
  23212184.820   121981311.73909  23212182.200    95050572.48247
  22365439.000   117531190.96409  22365436.400    91582738.70448
 15 02 19 00 18  0.0000000  0  8G16G18G21G22G25G27G29G31
  22404568.660   117736811.30909  22404564.920    91742971.19647
  22801051.720   119820422.03108  22801049.660    93366579.76446
  21024120.960   110482876.48209  21024116.820    86090704.18348
  24420097.460   128328496.41508  24420098.020    99996234.31045
  24087601.520   126581392.28308  24087602.020    98634913.77746
  23609220.880   124067314.84208  23609221.140    96675840.14047
  23225235.680   122049893.92709  23225233.300    95104013.07947
  22380546.100   117610579.12409  22380543.520    91644599.58148
 15 02 19 00 18 30.0000000  0  8G16G18G21G22G25G27G29G31
  22388982.680   117654906.36809  22388978.920    91679149.17947
  22787930.720   119751471.34108  22787928.540    93312851.97746
  21028892.720   110507952.73008  21028888.620    86110244.12248
  24402195.060   128234420.67508  24402195.460    99922929.06146
  24105958.980   126677862.29308  24105959.720    98710085.18646
  23596185.500   123998814.25408  23596185.800    96622463.08947
  23238293.280   122118512.09908  23238290.300    95157481.79347
  22395707.540   117690252.69009  22395704.940    91706682.84948
 15 02 19 00 19  0.0000000  0  8G16G18G21G22G25G27G29G31
  22373431.180   117573182.51309  22373427.320    91615468.26347
  22774852.620   119682745.93509  22774850.520    93259299.74946
  21033734.680   110533397.70408  21033730.620    86130071.37048
  24384279.780   128140277.30608  24384280.020    99849571.10945
  24124351.800   126774517.96908  24124352.720    98785401.25046
  23583164.960   123930391.37208  23583165.280    96569146.58647
  23251358.040   122187168.74308  23251355.420    95210980.38647
  22410923.140   117770210.57209  22410920.460    91768987.65948
 15 02 19 00 19 30.0000000  0  8G16G18G21G22G25G27G29G31
  22357914.440   117491641.64409  22357910.700    91551929.93847
  22761818.120   119614248.56309  22761815.840    93205925.21246
  21038646.380   110559209.30308  21038642.400    86150184.31048
  24366352.000   128046068.53508  24366352.120    99776162.16545
  24142779.760   126871357.77808  24142780.300    98860860.83246
  23570159.260   123862045.86508  23570159.600    96515890.38647
  23264429.940   122255863.10808  23264426.700    95264508.46547
  22426192.280   117850449.83509  22426189.520    91831511.73148
 15 02 19 00 20  0.0000000  0  8G16G18G21G22G25G27G29G31
  22342433.120   117410286.92609  22342429.440    91488536.67647
  22748827.520   119545982.32309  22748825.300    93152730.76246
  21043627.880   110585387.24709  21043623.940    86170582.71048
  24348412.540   127951797.58208  24348412.320    99702704.78145
  24161242.840   126968381.14808  24161243.220    98936463.42146
  23557168.460   123793778.51908  23557168.800    96462695.10047
  23277509.080   122324596.06909  23277506.180    95318066.55747
  22441514.560   117930968.55209  22441511.780    91894253.56048
 15 02 19 00 20 30.0000000  0  8G16G18G21G22G25G27G29G31
  22326987.480   117329119.44009  22326983.860    91425289.29947
  22735881.300   119477948.89709  22735878.880    93099717.72546
  21048678.760   110611929.46109  21048674.860    86191264.95548
  24330461.600   127857465.90408  24330461.100    99629200.00745
  24179740.480   127065585.74708  24179740.660    99012207.24346
  23544192.360   123725588.33808  23544192.660    96409559.92547
  23290595.640   122393366.75009  23290592.520    95371654.06346
  22456889.300   118011763.13609  22456886.520    91957210.34648
 15 02 19 00 21  0.0000000  0  8G16G18G21G22G25G27G29G31
  22311577.580   117248139.42809  22311573.920    91362188.00947
  22722979.560   119410149.13309  22722976.780    93046886.77246
  21053798.320   110638832.31609  21053794.420    86212228.22448
  24312499.180   127763074.27308  24312498.400    99555648.51945
  24198271.980   127162968.28808  24198272.100    99088089.70045
  23531230.560   123657473.22008  23531230.800    96356483.24547
  23303689.100   122462172.94708  23303685.900    95425269.24947
  22472315.540   118092828.50309  22472312.740    92020378.14648
 15 02 19 00 21 30.0000000  0  8G16G18G21G22G25G27G29G31
  22296204.060   117167350.61509  22296200.420    91299235.69947
  22710122.960   119342586.97609  22710120.040    92994240.95146
  21058986.520   110666095.77609  21058982.500    86233472.48548
  24294526.160   127668626.56408  24294525.320    99482053.32745
  24216837.380   127260528.94708  24216837.400    99164110.99246
  23518283.280   123589434.71208  23518283.400    96303466.26547
  23316789.800   122531016.25308  23316786.700    95478913.34946
  22487793.060   118174163.28809  22487790.220    92083755.86448
 15 02 19 00 22  0.0000000  0  8G16G18G21G22G25G27G29G31
  22280867.960   117086758.12409  22280864.240    91236436.35647
  22697312.540   119275267.81209  22697309.580    92941784.48246
  21064243.520   110693721.06709  21064239.340    86254998.68648
  24276543.560   127574128.03308  24276542.420    99408418.51245
  24235436.780   127358269.14108  24235437.080    99240272.10945
  23505351.080   123521475.48008  23505351.040    96250511.05147
  23329898.040   122599899.13209  23329894.620    95532588.29947
  22503321.840   118255767.42009  22503318.940    92147343.46948
 15 02 19 00 22 30.0000000  0  8G16G18G21G22G25G27G29G31
  22265569.540   117006364.02709  22265565.820    91173791.61747
  22684548.840   119208194.20309  22684545.640    92889519.34646
  21069569.080   110721706.94709  21069564.740    86276805.86848
  24258551.760   127479581.42408  24258550.320    99334746.18846
  24254069.980   127456187.55408  24254070.400    99316572.12645
  23492433.980   123453595.57408  23492433.720    96197617.66147
  23343013.840   122668822.08009  23343010.680    95586294.47647
  22518901.320   118337637.97009  22518898.360    92211138.66748
 15 02 19 00 23  0.0000000  0  8G16G18G21G22G25G27G29G31
  22250308.280   116926165.54909  22250304.520    91111299.30647
  22671831.400   119141363.92009  22671828.300    92837443.81846
  21074962.020   110750046.98309  21074957.620    86298889.01648
  24240550.260   127384984.28508  24240548.880    99261034.54146
  24272735.880   127554277.77308  24272736.520    99393006.04845
  23479531.020   123385789.88608  23479530.600    96144782.07447
  23356136.160   122737779.91709  23356133.500    95640027.81947
  22534530.100   118419767.36109  22534527.040    92275135.57548
 15 02 19 00 23 30.0000000  0  8G16G18G21G22G25G27G29G31
  22235085.580   116846169.94109  22235081.860    91048965.09147
  22659161.660   119074784.35509  22659158.580    92785563.65947
  21080422.880   110778744.25909  21080418.520    86321250.54448
  24222540.600   127290343.66908  24222539.140    99187288.94645
  24291435.080   127652543.10008  24291435.860    99469576.38246
  23466643.100   123318063.03308  23466642.580    96092007.93047
  23369265.680   122806777.03208  23369263.300    95693791.78647
  22550208.500   118502157.33309  22550205.340    92339335.51548
 15 02 19 00 24  0.0000000  0  8G16G18G21G22G25G27G29G31
  22219901.000   116766375.10509  22219897.380    90986787.31347
  22646539.340   119008453.81809  22646536.200    92733877.54146
  21085950.600   110807793.09109  21085946.360    86343885.99648
  24204522.300   127195657.95408  24204520.640    99113508.19745
  24310166.600   127750978.14108  24310167.580    99546278.97946
  23453769.320   123250411.03608  23453768.920    96039292.11147
  23382402.180   122875809.49009  23382399.860    95747583.34547
  22565935.180   118584801.00609  22565931.940    92403733.14347
 15 02 19 00 24 30.0000000  0  8G16G18G21G22G25G27G29G31
  22204756.080   116686788.98209  22204752.540    90924772.15947
  22633965.920   118942380.44609  22633962.940    92682391.81646
  21091545.900   110837197.26409  21091541.880    86366798.33848
  24186497.060   127100935.43208  24186495.040    99039698.75546
  24328931.360   127849587.03708  24328932.440    99623117.03646
  23440910.780   123182839.34908  23440910.540    95986638.86747
  23395546.200   122944882.88508  23395544.380    95801406.73447
  22581710.680   118667701.05309  22581707.340    92468330.55848
 15 02 19 00 25  0.0000000  0  8G16G18G21G22G25G27G29G31
  22189650.140   116607407.58309  22189646.600    90862916.53147
  22621440.800   118876560.77009  22621437.760    92631103.76046
  21097207.520   110866949.82209  21097203.580    86389982.15448
  24168464.140   127006172.60508  24168461.860    98965857.92545
  24347727.760   127948362.37308  24347728.800    99700084.77845
  23428066.360   123115341.87608  23428066.260    95934043.48047
  23408696.940   123013990.98208  23408695.260    95855257.18346
  22597533.220   118750848.39809  22597529.740    92533120.66148
 15 02 19 00 25 30.0000000  0  8G16G18G21G22G25G27G29G31
  22174583.980   116528234.99309  22174580.360    90801223.61047
  22608964.820   118810999.33309  22608961.940    92580016.94946
  21102935.540   110897050.95109  21102931.580    86413437.58348
  24150424.400   126911373.92208  24150421.800    98891989.07945
  24366556.080   128047304.50108  24366556.820    99777182.50945
  23415236.440   123047920.47308  23415236.400    95881507.35647
  23421854.840   123083135.95309  23421853.480    95909136.35947
  22613402.580   118834242.06109  22613399.040    92598102.70647
 15 02 19 00 26  0.0000000  0  8G16G18G21G22G25G27G29G31
  22159558.220   116449274.60309  22159554.640    90739696.03847
  22596538.660   118745699.72909  22596535.940    92529134.14546
  21108729.780   110927499.87509  21108725.760    86437164.01548
  24132378.420   126816542.59208  24132375.600    98818094.82146
  24385416.120   128146413.09608  24385416.500    99854409.92845
  23402421.160   122980576.03708  23402421.100    95829031.19147
  23435019.800   123152318.64709  23435018.380    95963044.88647
  22629318.400   118917880.12809  22629314.900    92663275.17547
 15 02 19 00 26 30.0000000  0  8G16G18G21G22G25G27G29G31
  22144572.960   116370526.77809  22144569.380    90678334.09847
  22584162.480   118680662.57209  22584159.860    92478455.85747
  21114589.640   110958293.46809  21114585.600    86461159.03148
  24114326.340   126721679.55908  24114323.400    98744175.85145
  24404307.260   128245684.71308  24404307.260    99931764.37945
  23389620.200   122913306.63608  23389620.000    95776613.51747
  23448191.640   123221536.73408  23448190.300    96016981.02747
  22645279.800   119001757.94609  22645276.360    92728634.48647
 15 02 19 00 27  0.0000000  0  8G16G18G21G22G25G27G29G31
  22129629.320   116291997.34609  22129625.640    90617142.32947
  22571837.460   118615893.91309  22571834.880    92427986.79046
  21120515.440   110989433.65809  21120511.360    86485424.11248
  24096269.420   126626791.17008  24096266.260    98670237.10545
  24423229.860   128345121.75208  24423229.660   100009247.73845
  23376834.180   122846116.00208  23376833.900    95724257.20347
  23461371.120   123290794.47808  23461369.220    96070948.11346
  22661286.880   119085876.17109  22661283.560    92794181.13347
 15 02 19 00 27 30.0000000  0  8G16G18G21G22G25G27G29G31
  22114727.340   116213686.96209  22114723.600    90556121.24447
  22559563.700   118551394.47009  22559561.020    92377727.49647
  21126506.500   111020917.13209  21126502.540    86509956.69248
  24078207.800   126531878.31408  24078204.540    98596279.28945
  24442183.160   128444720.94108  24442182.760   100086857.45745
  23364062.780   122779002.34408  23364062.540    95671960.87947
  23474557.620   123360090.25009  23474555.740    96124944.77147
  22677338.780   119170230.14209  22677335.600    92859911.44547
 15 02 19 00 28  0.0000000  0  8G16G18G21G22G25G27G29G31
  22099867.040   116135595.85309  22099863.320    90495271.03847
  22547341.280   118487164.95409  22547338.580    92327678.56446
  21132562.180   111052740.00009  21132558.280    86534753.73848
  24060141.680   126436941.18508  24060138.280    98522302.55345
  24461166.480   128544478.73308  24461166.040   100164590.79245
  23351305.720   122711963.43608  23351305.480    95619722.80247
  23487750.800   123429421.11608  23487749.000    96178968.77546
  22693434.580   119254814.76009  22693431.580    92925821.52247
 15 02 19 00 28 30.0000000  0  8G16G18G21G22G25G27G29G31
  22085049.400   116057728.98909  22085045.720    90434595.56547
  22535171.200   118423210.67809  22535168.220    92277844.07147
  21138682.780   111084903.81509  21138678.840    86559816.44748
  24042071.840   126341985.06408  24042068.560    98448310.99146
  24480179.940   128644396.55008  24480179.960   100242448.75845
  23338563.440   122645002.14508  23338563.220    95567545.18747
  23500951.460   123498790.43508  23500949.500    96233022.78046
  22709574.320   119339630.17609  22709571.480    92991911.41147
 15 02 19 00 29  0.0000000  0  8G16G18G21G22G25G27G29G31
  22070275.120   115980090.01309  22070271.520    90374097.69047
  22523054.160   118359535.26609  22523051.060    92228226.89447
  21144868.200   111117408.47009  21144864.240    86585144.75948
  24023999.120   126247014.04308  24023996.000    98374307.84445
  24499223.700   128744474.22908  24499223.920   100320431.34945
  23325836.080   122578119.77908  23325835.940    95515429.07847
  23514159.460   123568199.71808  23514157.700    96287107.90747
  22725757.700   119424674.64309  22725755.040    93058179.79647
 15 02 19 00 29 30.0000000  0  8G16G18G21G22G25G27G29G31
  22055544.040   115902677.59109  22055540.440    90313776.33147
  22510989.940   118296137.59609  22510986.860    92178826.13246
  21151117.440   111150248.66009  21151113.540    86610734.53048
  24005923.420   126152027.12208  24005920.420    98300292.30945
  24518296.720   128844706.64408  24518297.340   100398534.48145
  23313123.000   122511312.56608  23313122.900    95463371.54447
  23527374.260   123637645.06508  23527372.960    96341221.10047
  22741983.500   119509941.73909  22741980.940    93124621.64147
 15 02 19 00 30  0.0000000  0  8G16G18G21G22G25G27G29G31
  22040856.780   115825494.79109  22040853.080    90253633.89647
  22498979.220   118233021.02609  22498976.220    92129644.40846
  21157430.320   111183423.52809  21157426.540    86636585.08148
  23987845.340   126057028.00408  23987842.300    98226267.25245
  24537399.200   128945093.19608  24537400.260   100476757.70245
  23300424.400   122444581.49508  23300424.340    95411373.34647
  23540596.280   123707127.60908  23540595.340    96395363.35747
  22758251.360   119595429.39309  22758248.800    93191235.36247
 15 02 19 00 30 30.0000000  0  8G16G18G21G22G25G27G29G31
  22026213.380   115748542.41409  22026209.560    90193671.01948
  22487022.140   118170186.41709  22487019.240    92080682.38347
  21163806.280   111216929.55809  21163802.540    86662693.68048
  23969765.240   125962017.83008  23969762.280    98152233.59046
  24556530.420   129045630.87907  24556531.960   100555098.69845
  23287740.040   122377924.96508  23287739.940    95359433.23447
  23553825.060   123776645.60808  23553824.420    96449533.20847
  22774560.360   119681132.97009  22774557.740    93258017.32347
 15 02 19 00 31  0.0000000  0  8G16G18G21G22G25G27G29G31
  22011614.800   115671825.45409  22011610.880    90133891.56348
  22475119.780   118107639.51809  22475116.980    92031944.55646
  21170245.700   111250768.55509  21170241.940    86689061.73148
  23951684.000   125867001.41008  23951681.020    98078195.04645
  24575690.780   129146321.13107  24575692.680   100633558.54745
  23275070.440   122311345.80208  23275070.220    95307553.40147
  23567060.860   123846201.76008  23567060.400    96503732.77647
  22790910.420   119767052.39209  22790907.740    93324967.47547
 15 02 19 00 31 30.0000000  0  8G16G18G21G22G25G27G29G31
  21997060.720   115595342.42509  21997056.680    90074294.40048
  22463271.800   118045378.64409  22463269.140    91983429.60847
  21176747.540   111284935.14009  21176743.640    86715685.04748
  23933601.380   125771977.66208  23933598.280    98004150.80346
  24594879.380   129247158.35208  24594881.360   100712132.93545
  23262414.820   122244840.00708  23262414.520    95255730.73047
  23580303.480   123915792.20808  23580302.900    96557959.09347
  22807300.300   119853181.01809  22807297.540    93392080.64748
 15 02 19 00 32  0.0000000  0  8G16G18G21G22G25G27G29G31
  21982552.040   115519098.44009  21982547.980    90014883.50448
  22451479.320   117983409.28709  22451476.760    91935141.82647
  21183311.780   111319430.18409  21183307.800    86742564.30948
  23915518.580   125676952.31708  23915515.480    97930105.30446
  24614096.480   129348144.09508  24614098.100   100790823.07144
  23249773.720   122178410.58008  23249773.480    95203967.57147
  23593553.420   123985420.54008  23593552.640    96612214.92647
  22823729.900   119939518.72309  22823727.080    93459356.74447
 15 02 19 00 32 30.0000000  0  8G16G18G21G22G25G27G29G31
  21968088.700   115443093.24109  21968084.700    89955658.68048
  22439742.300   117921731.05109  22439739.880    91887080.87547
  21189937.720   111354249.86009  21189933.720    86769696.53148
  23897435.480   125581925.18708  23897432.300    97856058.39946
  24633341.240   129449274.07908  24633342.260   100869625.61145
  23237146.520   122112054.65408  23237146.380    95152261.67147
  23606810.020   124055083.38408  23606809.400    96666497.59847
  22840198.180   120026060.00809  22840195.340    93526791.46947
 15 02 19 00 33  0.0000000  0  8G16G18G21G22G25G27G29G31
  21953672.240   115367335.00209  21953668.420    89896626.30148
  22428062.280   117860352.03709  22428060.000    91839253.10147
  21196626.100   111389397.84109  21196622.080    86797084.57448
  23879353.600   125486904.81308  23879350.440    97782016.79946
  24652614.360   129550552.77207  24652615.100   100948543.99945
  23224534.440   122045778.27808  23224534.320    95100617.78146
  23620074.360   124124786.92908  23620073.480    96720812.02847
  22856705.640   120112807.48509  22856702.820    93594386.85848
 15 02 19 00 33 30.0000000  0  8G16G18G21G22G25G27G29G31
  21939301.480   115291817.18409  21939297.880    89837781.26048
  22416438.100   117799266.29609  22416435.840    91791653.83247
  21203375.040   111424864.02009  21203370.960    86824720.56448
  23861271.840   125391884.89908  23861268.420    97707975.48946
  24671913.760   129651969.84108  24671914.100   101027570.20945
  23211935.980   121979572.60008  23211935.700    95049028.96647
  23633344.960   124194522.51309  23633344.000    96775151.35947
  22873250.140   120199749.56909  22873247.360    93662133.89648
 15 02 19 00 34  0.0000000  0  8G16G18G21G22G25G27G29G31
  21924978.840   115216551.93809  21924975.360    89779133.01648
  22404872.080   117738486.06209  22404869.900    91744292.62147
  21210186.020   111460656.12509  21210181.900    86852610.51648
  23843192.480   125296877.80908  23843189.220    97633944.20246
  24691241.100   129753533.54308  24691241.160   101106710.65244
  23199352.940   121913447.51208  23199352.420    94997502.95747
  23646623.220   124264299.77308  23646622.080    96829523.22747
  22889833.000   120286893.15309  22889830.220    93730037.93147
 15 02 19 00 34 30.0000000  0  8G16G18G21G22G25G27G29G31
  21910703.380   115141534.33909  21910699.940    89720677.75248
  22393363.220   117678005.90909  22393360.980    91697165.24147
  21217057.520   111496766.06209  21217053.380    86880748.13148
  23825114.820   125201879.19408  23825111.520    97559919.48746
  24710594.640   129855235.12208  24710594.360   101185958.59144
  23186783.740   121847395.59108  23186783.140    94946033.96747
  23659908.220   124334111.68909  23659906.940    96883922.06547
  22906452.260   120374227.90909  22906449.460    93798090.93547
 15 02 19 00 35  0.0000000  0  8G16G18G21G22G25G27G29G31
  21896476.460   115066771.53309  21896473.000    89662421.02648
  22381912.900   117617833.54609  22381910.580    91650277.69447
  21223990.020   111533196.47109  21223985.900    86909135.46948
  23807040.200   125106896.24308  23807036.540    97485906.94946
  24729974.940   129957077.75208  24729974.480   101265316.38845
  23174229.220   121781421.64008  23174228.800    94894625.72447
  23673200.720   124403963.14008  23673199.060    96938351.75046
  22923108.320   120461755.85809  22923105.480    93866294.49347
 15 02 19 00 35 30.0000000  0  8G16G18G21G22G25G27G29G31
  21882298.020   114992263.21209  21882294.500    89604362.59548
  22370521.040   117557968.70709  22370518.800    91603629.79847
  21230982.780   111569943.49709  21230978.660    86937769.52648
  23788968.580   125011929.08108  23788964.760    97411906.74846
  24749381.340   130059057.45608  24749380.580   101344781.02945
  23161689.000   121715523.21908  23161688.760    94843276.34747
  23686500.120   124473851.62709  23686498.200    96992810.26546
  22939800.160   120549471.53909  22939797.240    93934644.32947
 15 02 19 00 36  0.0000000  0  8G16G18G21G22G25G27G29G31
  21868168.420   114918011.76309  21868164.880    89546504.33148
  22359188.220   117498414.04709  22359185.860    91557223.58647
  21238035.440   111607005.40009  21238031.300    86966648.93648
  23770900.520   124916980.65108  23770896.580    97337921.12246
  24768813.420   130161172.79808  24768812.220   101424351.41545
  23149163.200   121649700.50508  23149163.200    94791985.94347
  23699806.580   124543776.97608  23699804.560    97047297.49546
  22956527.220   120637372.20209  22956524.220    94003138.29547
 15 02 19 00 36 30.0000000  0  8G16G18G21G22G25G27G29G31
  21854088.340   114844020.71909  21854084.880    89488848.97847
  22347915.020   117439172.93409  22347912.520    91511061.70247
  21245147.900   111644381.64709  21245143.780    86995773.29348
  23752836.640   124822054.52308  23752832.320    97263952.86846
  24788271.140   130263423.25808  24788270.080   101504026.96745
  23136652.080   121583954.41008  23136652.180    94740755.25847
  23713120.240   124613740.81108  23713118.280    97101814.71746
  22973289.080   120725455.76109  22973286.020    94071774.79347
 15 02 19 00 37  0.0000000  0  8G16G18G21G22G25G27G29G31
  21840058.520   114770293.97409  21840055.200    89431399.57348
  22336702.260   117380249.29109  22336699.560    91465147.18347
  21252320.100   111682072.08309  21252316.020    87025142.46648
  23734777.700   124727155.00208  23734773.400    97190005.36746
  24807754.320   130365808.73807  24807753.320   101583807.76644
  23124155.900   121518286.53008  23124155.920    94689585.50647
  23726441.400   124683744.48308  23726439.140    97156362.98246
  22990085.400   120813720.58709  22990082.320    94140552.53547
 15 02 19 00 37 30.0000000  0  7G16G18G21G22G27G29G31
  21826078.880   114696831.03209  21826075.740    89374155.73648
  22325549.800   117321642.79909  22325547.000    91419479.81047
  21259551.300   111720072.62409  21259547.320    87054753.29448
  23716723.800   124632282.12308  23716719.340    97116078.58846
  23111674.180   121452694.45708  23111674.080    94638474.83947
  23739769.720   124753785.64008  23739767.540    97210940.49547
  23006915.180   120902161.53609  23006912.180    94209467.50747
 15 02 19 00 38  0.0000000  0  7G16G18G21G22G27G29G31
  21812150.160   114623635.52209  21812147.100    89317120.28248
  22314458.340   117263356.89409  22314455.320    91374062.23547
  21266841.440   111758382.71309  21266837.560    87084605.29748
