     2.11           OBSERVATION DATA    G                   RINEX VERSION / TYPE
SPIDER V4,0,0,3554                      2015 03 31 02:02    PGM / RUN BY / DATE 
EADB                                                        MARKER NAME         
EADB                                                        MARKER NUMBER       
                                                            OBSERVER / AGENCY   
462408              LEICA GRX1200PRO    3.00/2.127          REC # / TYPE / VERS 
103310              LEIAT504                                ANT # / TYPE        
  5238464.6656   142765.3090  3625629.6523                  APPROX POSITION XYZ 
        0.0770        0.0000        0.0000                  ANTENNA: DELTA H/E/N
     1     1                                                WAVELENGTH FACT L1/2
     4    C1    L1    P2    L2                              # / TYPES OF OBSERV 
    30.000                                                  INTERVAL            
  2015    02    19    00    00    0.0000000     GPS         TIME OF FIRST OBS   
  2015    02    19    23    59   30.0000000     GPS         TIME OF LAST OBS    
    16                                                      LEAP SECONDS        
    30                                                      # OF SATELLITES     
   G 1   835   835   835   835                              PRN / # OF OBS      
   G 2   926   926   926   926                              PRN / # OF OBS      
   G 3   845   845   845   845                              PRN / # OF OBS      
   G 4   849   849   849   849                              PRN / # OF OBS      
   G 5   674   674   674   674                              PRN / # OF OBS      
   G 6   726   726   726   726                              PRN / # OF OBS      
   G 7   649   649   649   649                              PRN / # OF OBS      
   G 9   789   789   789   789                              PRN / # OF OBS      
   G10   785   785   785   785                              PRN / # OF OBS      
   G11   479   479   479   479                              PRN / # OF OBS      
   G12   818   818   817   817                              PRN / # OF OBS      
   G13   822   822   822   822                              PRN / # OF OBS      
   G14   897   897   897   897                              PRN / # OF OBS      
   G15   732   732   732   732                              PRN / # OF OBS      
   G16   693   693   693   693                              PRN / # OF OBS      
   G17   928   928   928   928                              PRN / # OF OBS      
   G18   937   937   937   937                              PRN / # OF OBS      
   G19   778   778   778   778                              PRN / # OF OBS      
   G20   816   816   816   816                              PRN / # OF OBS      
   G21   697   697   697   697                              PRN / # OF OBS      
   G22   760   760   760   760                              PRN / # OF OBS      
   G23   728   728   728   728                              PRN / # OF OBS      
   G24   843   843   843   843                              PRN / # OF OBS      
   G25   853   853   853   853                              PRN / # OF OBS      
   G27   834   834   834   834                              PRN / # OF OBS      
   G28   909   909   909   909                              PRN / # OF OBS      
   G29   738   738   738   738                              PRN / # OF OBS      
   G30   695   695   695   695                              PRN / # OF OBS      
   G31   778   778   778   778                              PRN / # OF OBS      
   G32   745   745   745   745                              PRN / # OF OBS      
BIT 2 OF LLI FLAGS DATA COLLECTED UNDER A/S CONDITION       COMMENT             
SNR is mapped to RINEX snr flag value [2-9]                 COMMENT             
Lx:     = 25dBHz -> 1; 26-27dBHz -> 2; 28-31dBHz -> 3       COMMENT             
       32-35dBHz -> 4; 36-38dBHz -> 5; 39-41dBHz -> 6       COMMENT             
       42-44dBHz -> 7; 45-48dBHz -> 8; >=49dBHz -> 9        COMMENT             
                                                            END OF HEADER       
 15 02 19 00 00  0.0000000  0  7G16G18G21G25G27G29G31
  22628321.090   118912627.01508  22628319.324    92659185.72747
  23633956.632   124197315.80207  23633956.607    96777148.07345
  21008611.424   110401005.55209  21008609.471    86026753.20549
  23895956.808   125574089.95507  23895959.210    97849944.52745
  23568298.181   123852254.87607  23568299.961    96508266.89746
  23166401.532   121740256.35308  23166400.701    94862532.42247
  21670553.066   113879517.86109  21670551.777    88737277.63848
 15 02 19 00 00 30.0000000  0  7G16G18G21G25G27G29G31
  22612910.727   118831645.66908  22612909.095    92596083.38546
  23620246.912   124125271.51907  23620246.950    96721009.75644
  21011143.872   110414313.62709  21011141.923    86037123.14049
  23912720.076   125662180.83607  23912722.663    97918586.75546
  23555086.206   123782825.88307  23555088.232    96454166.41746
  23180520.709   121814453.09908  23180519.967    94920348.05147
  21683790.051   113949077.09509  21683788.547    88791479.62148
 15 02 19 00 01  0.0000000  0  7G16G18G21G25G27G29G31
  22597522.766   118750781.35808  22597521.130    92533072.24246
  23606556.804   124053330.54707  23606557.011    96664951.93245
  21013759.852   110428060.07109  21013757.640    86047834.66049
  23929521.571   125750472.56807  23929524.224    97987385.46346
  23541898.875   123713525.58407  23541900.869    96400166.21646
  23194644.048   121888671.74708  23194643.284    94978180.73447
  21697102.019   114019032.42609  21697100.682    88845990.24848
 15 02 19 00 01 30.0000000  0  7G16G18G21G25G27G29G31
  22582156.333   118670030.80008  22582154.729    92470149.74346
  23592885.961   123981491.50107  23592886.804    96608973.56545
  21016457.840   110442238.65409  21016455.652    86058882.91249
  23946359.929   125838959.55407  23946362.732    98056336.30545
  23528735.002   123644349.09207  23528736.917    96346262.50246
  23208770.627   121962906.73108  23208770.037    95036026.14847
  21710487.959   114089376.51509  21710486.568    88900803.80648
 15 02 19 00 02  0.0000000  0  7G16G18G21G25G27G29G31
  22566812.536   118589398.29208  22566811.050    92407319.22146
  23579235.967   123909759.23507  23579236.780    96553078.37345
  21019238.421   110456850.73609  21019236.194    86070268.95549
  23963236.126   125927643.40707  23963238.528    98125440.58845
  23515595.030   123575298.88507  23515597.149    96292457.19246
  23222900.778   122037160.86708  23222900.121    95093886.47746
  21723947.966   114160109.54709  21723946.839    88955920.42648
 15 02 19 00 02 30.0000000  0  7G16G18G21G25G27G29G31
  22551491.185   118508884.98608  22551489.813    92344581.60047
  23565606.784   123838136.11407  23565607.011    96497268.18545
  21022101.407   110471895.05009  21022099.071    86081991.80149
  23980149.277   126016522.80507  23980151.626    98194697.24045
  23502479.223   123506374.35207  23502481.054    96238749.81746
  23237034.202   122111432.75908  23237033.427    95151760.66046
  21737481.541   114231228.62209  21737480.198    89011337.86448
 15 02 19 00 03  0.0000000  0  7G16G18G21G25G27G29G31
  22536193.640   118428495.40608  22536192.209    92281940.37346
  23551998.575   123766626.86607  23551998.728    96441546.79244
  21025046.781   110487373.34209  21025044.507    86094052.80749
  23997100.290   126105599.35507  23997102.407    98264107.54445
  23489387.716   123437577.89307  23489389.463    96185142.22446
  23251171.456   122185724.74808  23251170.747    95209650.49646
  21751088.564   114302733.75809  21751087.266    89067056.12848
 15 02 19 00 03 30.0000000  0  7G16G18G21G25G27G29G31
  22520919.147   118348227.90508  22520917.827    92219394.27046
  23538412.545   123695231.67007  23538412.950    96385914.23945
  21028074.000   110503281.05109  21028071.790    86106448.42949
  24014087.596   126194869.12306  24014090.311    98333668.35745
  23476320.015   123368906.38207  23476321.578    96131631.98346
  23265312.010   122260033.17608  23265311.280    95267553.14646
  21764768.025   114374619.62509  21764766.633    89123071.06648
 15 02 19 00 04  0.0000000  0  7G16G18G21G25G27G29G31
  22505668.919   118268086.34908  22505667.389    92156946.30947
  23524849.225   123623954.38307  23524849.260    96330373.54045
  21031182.858   110519618.58209  21031180.606    86119178.98049
  24031111.826   126284332.86907  24031114.772    98403380.30645
  23463276.299   123300361.44207  23463277.881    96078220.41046
  23279455.738   122334359.05908  23279455.015    95325469.40946
  21778519.806   114446885.06609  21778518.161    89179381.77448
 15 02 19 00 04 30.0000000  0  7G16G18G21G25G27G29G31
  22490442.470   118188070.10308  22490440.613    92094595.98746
  23511308.386   123552796.19807  23511308.335    96274925.68545
  21034373.080   110536383.12609  21034370.948    86132242.27049
  24048172.732   126373987.65906  24048175.719    98473241.15845
  23450256.194   123231940.82607  23450257.746    96024905.66546
  23293602.409   122408700.00808  23293601.656    95383397.41246
  21792342.619   114519525.68809  21792341.273    89235984.82748
 15 02 19 00 05  0.0000000  0  7G16G18G21G25G27G29G31
  22475240.441   118108183.08908  22475238.705    92032346.37146
  23497790.791   123481761.51107  23497790.892    96219574.04544
  21037644.568   110553575.41309  21037642.410    86145638.86049
  24065270.310   126463834.41507  24065272.823    98543251.59745
  23437260.274   123163646.43207  23437261.884    95971689.28346
  23307752.026   122483057.83708  23307751.508    95441338.56646
  21806236.995   114592540.69109  21806235.621    89292879.60848
 15 02 19 00 05 30.0000000  0  7G16G18G21G25G27G29G31
  22460063.451   118028427.06308  22460061.472    91970198.82747
  23484297.192   123410852.82207  23484297.164    96164320.58045
  21040997.327   110571194.40309  21040995.163    86159367.95149
  24082403.851   126553872.43406  24082406.430    98613411.10045
  23424288.188   123095478.28707  23424289.957    95918571.31746
  23321904.937   122557431.73408  23321904.598    95499292.20147
  21820202.141   114665927.80509  21820200.878    89350064.34548
 15 02 19 00 06  0.0000000  0  7G16G18G21G25G27G29G31
  22444911.147   117948801.98008  22444909.415    91908153.31246
  23470827.921   123340071.26207  23470827.810    96109166.16845
  21044430.608   110589236.72709  21044428.520    86173426.91049
  24099573.031   126644098.74306  24099575.973    98683717.26246
  23411339.715   123027434.25407  23411341.650    95865550.03946
  23336060.608   122631819.68908  23336060.205    95557256.79347
  21834237.264   114739682.59709  21834235.828    89407535.58748
 15 02 19 00 06 30.0000000  0  7G16G18G21G25G27G29G31
  22429785.297   117869314.47608  22429783.524    91846215.00547
  23457384.165   123269424.16407  23457383.709    96054116.51045
  21047945.313   110607706.06409  21047943.209    86187818.60049
  24116779.132   126734517.00907  24116782.206    98754172.99945
  23398415.599   122959518.91407  23398417.717    95812629.03746
  23350219.793   122706225.58508  23350219.272    95615235.37046
  21848342.728   114813807.15409  21848341.209    89465294.95148
 15 02 19 00 07  0.0000000  0  7G16G18G21G25G27G29G31
  22414684.527   117789959.30108  22414682.557    91784379.81947
  23443965.563   123198907.21208  23443964.959    95999168.28645
  21051539.545   110626594.69809  21051537.727    86202537.01749
  24134020.485   126825119.58407  24134023.555    98824772.38145
  23385515.008   122891725.41407  23385516.763    95759802.97346
  23364380.914   122780642.62308  23364380.274    95673222.64946
  21862516.797   114888292.04409  21862515.479    89523335.09248
 15 02 19 00 07 30.0000000  0  7G16G18G21G25G27G29G31
  22399609.768   117710741.94008  22399608.194    91722652.00846
  23430572.544   123128526.48607  23430571.979    95944326.21145
  21055214.079   110645904.65909  21055212.100    86217583.74449
  24151297.295   126915909.05306  24151299.961    98895517.40745
  23372638.229   122824057.17107  23372639.977    95707074.53346
  23378544.599   122855073.82208  23378543.780    95731220.96346
  21876759.578   114963138.02109  21876757.922    89581656.61248
 15 02 19 00 08  0.0000000  0  7G16G18G21G25G27G29G31
  22384561.818   117631664.70708  22384560.171    91661033.40347
  23417205.617   123058285.46707  23417205.777    95889593.03545
  21058968.763   110665635.56209  21058966.838    86232958.48849
  24168609.130   127006885.07906  24168612.006    98966407.77345
  23359785.188   122756514.70207  23359787.107    95654444.08646
  23392711.142   122929519.16608  23392710.427    95789230.29746
  21891070.649   115038343.48509  21891069.260    89640258.24048
 15 02 19 00 08 30.0000000  0  7G16G18G21G25G27G29G31
  22369541.301   117552731.60708  22369539.780    91599527.09747
  23403866.661   122988188.49807  23403866.641    95834972.06545
  21062803.585   110685787.84309  21062801.655    86248661.57549
  24185956.987   127098048.43207  24185959.739    99037444.12445
  23346956.524   122689099.68007  23346958.259    95601912.94046
  23406880.575   123003980.50508  23406880.273    95847252.10246
  21905450.044   115113907.56009  21905448.759    89699139.29448
 15 02 19 00 09  0.0000000  0  7G16G18G21G25G27G29G31
  22354547.293   117473937.56408  22354545.783    91538129.15747
  23390554.440   122918231.96307  23390554.027    95780460.50845
  21066717.176   110706353.68509  21066715.114    86264686.91349
  24203339.248   127189391.86207  24203341.919    99108620.80545
  23334150.923   122621805.72807  23334152.862    95549476.13646
  23421051.835   123078450.66707  23421051.503    95905280.76447
  21919896.095   115189821.51009  21919894.483    89758292.99148
 15 02 19 00 09 30.0000000  0  7G16G18G21G25G27G29G31
  22339581.064   117395289.18808  22339579.331    91476844.72347
  23377270.374   122848423.06807  23377269.711    95726064.01945
  21070710.093   110727336.63509  21070708.152    86281037.26649
  24220756.084   127280918.83006  24220759.249    99179940.45546
  23321369.272   122554637.13707  23321371.138    95497137.01846
  23435225.767   123152934.08908  23435225.449    95963319.76546
  21934408.856   115266086.71009  21934407.338    89817720.39448
 15 02 19 00 10  0.0000000  0  7G16G18G21G25G27G29G31
  22324643.255   117316790.59908  22324641.387    91415676.99947
  23364015.022   122778766.69307  23364014.582    95671786.35745
  21074782.592   110748737.64109  21074780.606    86297713.37949
  24238208.305   127372630.61606  24238211.358    99251404.14145
  23308611.864   122487596.09807  23308613.502    95444897.29046
  23449402.261   123227432.94008  23449402.101    96021370.78446
  21948988.469   115342702.99609  21948987.078    89877421.36848
 15 02 19 00 10 30.0000000  0  7G16G18G21G25G27G29G31
  22309733.501   117238439.12208  22309731.600    91354623.91247
  23350788.428   122709261.03407  23350788.203    95617626.16945
  21078933.464   110770550.96009  21078931.450    86314710.76849
  24255694.549   127464521.57906  24255697.243    99323007.44845
  23295877.482   122420677.87407  23295879.321    95392753.26046
  23463580.751   123301941.97108  23463580.387    96079429.77646
  21963633.397   115419662.98909  21963632.228    89937390.15248
 15 02 19 00 11  0.0000000  0  7G16G18G21G25G27G29G31
  22294851.763   117160235.18608  22294849.981    91293685.79447
  23337590.686   122639907.21407  23337590.816    95563584.29445
  21083162.369   110792773.85209  21083160.426    86332027.30949
  24273214.768   127556589.48107  24273217.056    99394748.65645
  23283166.633   122353881.13107  23283168.221    95340703.89746
  23477760.932   123376459.45208  23477760.514    96137495.30946
  21978343.384   115496963.36609  21978341.947    89997624.18248
 15 02 19 00 11 30.0000000  0  7G16G18G21G25G27G29G31
  22279999.534   117082186.44708  22279997.887    91232868.60747
  23324423.523   122570713.70807  23324423.479    95509667.31545
  21087470.064   110815410.63009  21087468.038    86349666.35649
  24290769.413   127648838.69707  24290771.721    99466631.13545
  23270479.742   122287211.13207  23270481.407    95288753.29646
  23491943.767   123450990.50007  23491943.330    96195571.41146
  21993118.389   115574606.32409  21993116.873    90058125.15848
 15 02 19 00 12  0.0000000  0  7G16G18G21G25G27G29G31
  22265176.028   117004288.52308  22265174.385    91172168.94247
  23311286.382   122501677.13207  23311285.858    95455872.64145
  21091854.984   110838453.88409  21091853.070    86367622.14149
  24308357.303   127741262.34207  24308359.365    99538649.53645
  23257815.649   122220661.87407  23257817.300    95236896.77046
  23506128.002   123525528.93907  23506127.617    96253653.28946
  22007956.894   115652583.44209  22007955.485    90118886.51048
 15 02 19 00 12 30.0000000  0  7G16G18G21G25G27G29G31
  22250383.351   116926552.57408  22250381.835    91111595.48447
  23298181.195   122432809.50208  23298180.198    95402209.56145
  21096318.883   110861911.64509  21096316.745    86385900.92349
  24325979.205   127833868.72006  24325982.099    99610810.27745
  23245176.432   122154242.53007  23245178.138    95185141.48646
  23520315.640   123600083.48508  23520315.125    96311747.70146
  22022860.399   115730901.39008  22022859.046    90179913.44548
 15 02 19 00 13  0.0000000  0  7G16G18G21G25G27G29G31
  22235620.198   116848971.64808  22235618.494    91051142.82147
  23285107.012   122364104.33307  23285106.501    95348673.11345
  21100859.652   110885773.60909  21100857.587    86404494.66549
  24343634.515   127926647.65507  24343637.376    99683105.46744
  23232560.289   122087944.00107  23232561.987    95133480.33046
  23534504.436   123674645.13908  23534503.665    96369847.65246
  22037826.384   115809548.42108  22037824.911    90241196.81748
 15 02 19 00 13 30.0000000  0  7G16G18G21G25G27G29G31
  22220887.283   116771549.09508  22220885.505    90990813.56847
  23272064.363   122295565.59307  23272064.090    95295266.33945
  21105477.322   110910039.81709  21105475.348    86423403.40249
  24361322.922   128019599.48806  24361325.068    99755535.48644
  23219967.231   122021767.50407  23219968.949    95081914.28746
  23548694.529   123749215.23607  23548693.838    96427954.19646
  22052854.860   115888523.19208  22052853.350    90302735.57648
 15 02 19 00 14  0.0000000  0  7G16G18G21G25G27G29G31
  22206185.748   116694292.97708  22206184.387    90930614.01047
  23259055.393   122227202.11708  23259055.024    95241996.13845
  21110172.999   110934715.07709  21110170.764    86442630.88049
  24379045.291   128112729.35107  24379046.905    99828104.19445
  23207398.586   121955719.04507  23207400.381    95030448.00847
  23562887.202   123823799.30107  23562886.540    96486071.62446
  22067946.168   115967829.17808  22067944.960    90364532.41448
 15 02 19 00 14 30.0000000  0  7G16G18G21G25G27G29G31
  22191514.678   116617195.67008  22191513.245    90870538.19947
  23246078.242   122159007.25807  23246077.875    95188857.32045
  21114944.229   110959788.34009  21114942.141    86462168.49649
  24396799.093   128206026.83206  24396800.901    99900803.46445
  23194852.514   121889789.14807  23194854.186    94979074.09346
  23577080.892   123898387.45808  23577080.224    96544192.23246
  22083098.360   116047454.35608  22083097.103    90426577.97248
 15 02 19 00 15  0.0000000  0  7G16G18G21G25G27G29G31
  22176875.735   116540267.32008  22176874.217    90810594.04347
  23233135.398   122090992.02908  23233134.904    95135858.48445
  21119792.500   110985266.89709  21119790.443    86482021.92049
  24414586.218   128299499.05606  24414588.521    99973638.88945
  23182330.436   121823985.93607  23182332.040    94927798.90746
  23591276.920   123972987.80808  23591276.368    96602322.34746
  22098312.374   116127404.35308  22098311.104    90488876.63648
 15 02 19 00 15 30.0000000  0  7G16G18G21G25G27G29G31
  22162267.632   116463501.56408  22162265.892    90750776.58547
  23220225.366   122023149.94908  23220224.764    95082994.55745
  21124716.157   111011140.72909  21124714.192    86502183.34749
  24432404.699   128393136.43306  24432407.396   100046602.98845
  23169830.998   121758300.78907  23169832.557    94876615.70646
  23605473.689   124047591.30107  23605472.914    96660454.92746
  22113585.890   116207667.75308  22113584.562    90551419.52048
 15 02 19 00 16  0.0000000  0  7G16G18G21G25G27G29G31
  22147692.810   116386910.57808  22147691.155    90691095.31347
  23207351.156   121955494.61508  23207350.436    95030276.14845
  21129716.650   111037418.40509  21129714.615    86522659.46149
  24450256.865   128486948.16507  24450259.183   100119703.03944
  23157355.937   121692743.87207  23157357.512    94825532.42146
  23619672.771   124122208.45107  23619672.638    96718598.10746
  22128920.717   116288252.12308  22128919.471    90614212.50348
 15 02 19 00 16 30.0000000  0  7G16G18G21G25G27G29G31
  22133150.503   116310490.92708  22133148.975    90631547.55047
  23194511.630   121888022.91408  23194510.717    94977700.83545
  21134792.734   111064093.37409  21134790.786    86543445.15949
  24468140.476   128580927.71006  24468142.505   100192933.84444
  23144904.239   121627309.56807  23144905.544    94774544.69346
  23633873.201   124196833.08507  23633873.212    96776747.11646
  22144314.901   116369149.23108  22144314.063    90677249.15648
 15 02 19 00 17  0.0000000  0  7G16G18G21G25G27G29G31
  22118640.987   116234242.74608  22118639.456    90572133.40147
  23181707.500   121820736.10108  23181706.681    94925269.60145
  21139943.789   111091162.85009  21139941.883    86564538.25949
  24486055.278   128675072.53606  24486057.592   100266293.38245
  23132475.468   121561996.34207  23132476.885    94723651.31746
  23648074.783   124271463.27807  23648074.670    96834900.46346
  22159767.810   116450354.84708  22159766.794    90740526.22848
 15 02 19 00 17 30.0000000  0  7G16G18G21G25G27G29G31
  22104165.769   116158174.96508  22104164.073    90512859.81647
  23168940.076   121753643.71408  23168939.358    94872989.86245
  21145171.166   111118632.15509  21145168.958    86585942.91249
  24504002.924   128769388.33107  24504005.920   100339786.12845
  23120070.968   121496810.81607  23120072.476    94672857.43146
  23662279.190   124346106.18908  23662278.382    96893063.75746
  22175280.378   116531873.09808  22175278.996    90804046.91348
 15 02 19 00 18  0.0000000  0  8G16G18G21G22G25G27G29G31
  22089722.874   116082276.38109  22089721.239    90453718.07447
  23156208.052   121686735.09908  23156206.889    94820853.31045
  21150471.589   111146486.53409  21150469.502    86607647.62949
  24544268.727   128981008.93015  24544268.943   100504679.32354
  24521980.755   128863860.72307  24521983.492   100413400.93944
  23107688.361   121431739.74407  23107689.855    94622152.73147
  23676483.329   124420748.44708  23676482.284    96951226.55046
  22190849.215   116613688.14208  22190847.888    90867798.85848
 15 02 19 00 18 30.0000000  0  8G16G18G21G22G25G27G29G31
  22075313.854   116006556.59309  22075312.169    90394715.65247
  23143512.616   121620020.54108  23143511.224    94768867.96845
  21155846.582   111174732.37309  21155844.508    86629657.38149
  24527225.087   128891437.52915  24527225.921   100434897.09154
  24539989.364   128958496.19306  24539992.171   100487142.84444
  23095328.853   121366790.59207  23095330.592    94571543.05046
  23690688.427   124495396.83607  23690687.687    97009394.11546
  22206475.365   116695804.86408  22206474.300    90931785.87448
 15 02 19 00 19  0.0000000  0  8G16G18G21G22G25G27G29G31
  22060940.266   115931022.88009  22060938.682    90335858.22147
  23130855.557   121553507.80708  23130854.446    94717039.88845
  21161296.771   111203373.34009  21161294.742    86651975.02149
  24510166.627   128801795.12306  24510166.099   100365046.06443
  24558029.482   129053299.09206  24558032.585   100561015.13644
  23082993.703   121301968.53708  23082995.203    94521032.38446
  23704895.445   124570056.96507  23704895.237    97067570.75046
  22222159.634   116778225.47108  22222158.549    90996009.68848
 15 02 19 00 19 30.0000000  0  8G16G18G21G22G25G27G29G31
  22046601.235   115855670.88809  22046599.601    90277142.39447
  23118236.270   121487193.50608  23118235.439    94665366.44545
  21166820.612   111232401.26209  21166818.526    86674594.18249
  24493091.791   128712066.00315  24493090.516   100295106.59252
  24576100.234   129148261.81306  24576103.150   100635012.04644
  23070681.505   121237267.15508  23070682.862    94470615.74946
  23719103.767   124644721.73707  23719103.711    97125751.04346
  22237899.942   116860941.00308  22237898.994    91060463.30348
 15 02 19 00 20  0.0000000  0  7G16G18G21G25G27G29G31
  22032299.093   115780512.15709  22032297.389    90218577.16547
  23105656.944   121421089.39008  23105656.261    94613856.78545
  21172419.649   111261824.43109  21172417.555    86697521.33249
  24594203.231   129243392.76706  24594206.069   100709140.00344
  23058393.803   121172695.71907  23058395.417    94420300.37346
  23733314.812   124719400.46807  23733314.658    97183942.21346
  22253697.620   116943958.17408  22253696.497    91125151.96848
 15 02 19 00 20 30.0000000  0  8G16G18G21G22G25G27G29G31
  22018030.108   115705528.38509  22018028.402    90160148.26847
  23093114.376   121355177.96908  23093113.659    94562497.26845
  21178089.800   111291621.55309  21178087.632    86720739.88049
  24458894.271   128532361.98015  24458893.653   100155081.00055
  24612334.274   129338670.51306  24612337.076   100783382.35245
  23046127.229   121108234.03108  23046128.750    94370070.51746
  23747524.485   124794072.99207  23747524.151    97242128.52646
  22269548.213   117027254.29008  22269547.112    91190057.99447
 15 02 19 00 21  0.0000000  0  7G16G18G21G25G27G29G31
  22003799.163   115630744.92009  22003797.529    90101875.44047
  23080613.703   121289485.39708  23080612.722    94511308.27145
  21183835.324   111321814.30009  21183833.128    86744266.69749
  24630497.430   129434117.38306  24630500.422   100857756.46945
  23033885.815   121043905.30908  23033887.311    94319944.27647
  23761737.761   124868762.32308  23761737.126    97300327.96746
  22285455.913   117110849.63408  22285454.884    91255197.19547
 15 02 19 00 21 30.0000000  0  7G16G18G21G25G27G29G31
  21989603.276   115556144.56109  21989601.630    90043745.29547
  23068151.232   121223994.82708  23068150.134    94460276.68345
  21189651.995   111352381.80209  21189649.976    86768085.53049
  24648688.026   129529712.98806  24648691.741   100932246.44344
  23021666.189   120979690.18208  23021667.426    94269906.54547
  23775950.269   124943449.09007  23775949.320    97358525.43546
  22301416.541   117194722.08008  22301415.452    91320552.30148
 15 02 19 00 22  0.0000000  0  7G16G18G21G25G27G29G31
  21975445.046   115481742.43309  21975443.210    89985769.62047
  23055730.185   121158721.90908  23055729.325    94409414.70345
  21195542.316   111383335.52009  21195540.320    86792205.31649
  24666910.230   129625469.00406  24666913.411   101006861.47844
  23009470.489   120915601.50108  23009471.846    94219967.33947
  23790164.244   125018145.75107  23790163.774    97416730.56046
  22317431.415   117278881.90308  22317430.599    91386131.33747
 15 02 19 00 22 30.0000000  0  7G16G18G21G25G27G29G31
  21961323.315   115407532.70909  21961321.434    89927943.86947
  23043349.662   121093661.50708  23043349.096    94358718.32945
  21201504.428   111414666.47309  21201502.459    86816619.05749
  24685161.075   129721376.84006  24685163.882   101081594.85744
  22997297.316   120851631.57908  22997298.740    94170120.69247
  23804379.131   125092844.98707  23804378.562    97474937.70746
  22333499.421   117363318.47008  22333498.414    91451926.04447
 15 02 19 00 23  0.0000000  0  8G16G18G21G22G25G27G29G31
  21947239.103   115333519.26509  21947237.345    89870271.06847
  23031010.390   121028818.22508  23031009.860    94308191.12645
  21207538.453   111446375.02009  21207536.395    86841327.01949
  24373145.671   128081739.70217  24373145.654    99803954.37456
  24703440.829   129817436.97006  24703443.798   101156446.83745
  22985147.182   120787782.09807  22985148.519    94120367.88047
  23818594.804   125167548.28807  23818594.821    97533148.00646
  22349619.720   117448031.11708  22349618.736    91517935.84947
 15 02 19 00 23 30.0000000  0  8G16G18G21G22G25G27G29G31
  21933193.529   115259709.02809  21933191.597    89812756.60647
  23018713.754   120964199.37408  23018712.834    94257838.79745
  21213644.819   111478464.10009  21213642.662    86866331.50349
  24355957.084   127991416.12817  24355956.622    99733566.19055
  24721749.599   129913652.92605  24721753.258   101231420.17145
  22973020.662   120724057.49308  22973022.231    94070712.38447
  23832811.850   125242259.89707  23832811.927    97591364.83746
  22365792.831   117533021.51508  22365791.996    91584162.08147
 15 02 19 00 24  0.0000000  0  8G16G18G21G22G25G27G29G31
  21919185.457   115186096.54809  21919183.702    89755396.24247
  23006459.063   120899800.10008  23006457.720    94207657.55946
  21219821.759   111510924.82209  21219819.733    86891625.57649
  24338755.345   127901015.50706  24338755.486    99663123.13344
  24740087.158   130010016.19906  24740090.763   101306508.34345
  22960916.622   120660450.49008  22960918.260    94021148.52047
  23847029.410   125316972.43307  23847029.471    97649582.33246
  22382017.097   117618279.63908  22382015.798    91650596.96247
 15 02 19 00 24 30.0000000  0  8G16G18G21G22G25G27G29G31
  21905216.328   115112688.75009  21905214.656    89698195.36847
  22994247.161   120835627.74508  22994246.088    94157653.15446
  21226070.241   111543760.10209  21226068.102    86917211.51049
  24321542.269   127810560.40016  24321544.280    99592650.90154
  24758453.357   130106530.41206  24758456.331   101381714.21344
  22948835.759   120596965.71807  22948837.338    93971679.91747
  23861247.541   125391690.52907  23861247.698    97707804.16045
  22398292.330   117703807.44408  22398291.335    91717241.94247
 15 02 19 00 25  0.0000000  0  8G16G18G21G22G25G27G29G31
  21891286.993   115039489.53809  21891285.380    89641157.03047
  22982079.600   120771686.97108  22982078.640    94107829.20746
  21232390.067   111576971.07309  21232388.017    86943090.19349
  24304318.341   127720053.54917  24304317.705    99522116.64654
  24776848.548   130203196.35706  24776851.296   101457038.27244
  22936778.690   120533605.05107  22936780.465    93922308.00347
  23875467.136   125466415.93907  23875466.935    97766031.74246
  22414618.907   117789603.93108  22414617.994    91784096.31847
 15 02 19 00 25 30.0000000  0  8G16G18G21G22G25G27G29G31
  21877395.964   114966491.87509  21877394.215    89584275.74947
  22969955.018   120707971.33408  22969954.251    94058180.70646
  21238779.203   111610546.92809  21238777.269    86969253.20549
  24287082.279   127629476.74308  24287081.837    99451537.52345
  24795270.212   130300003.82306  24795273.411   101532472.56643
  22924743.356   120470359.41508  22924744.963    93873025.72947
  23889686.605   125541139.78707  23889686.709    97824258.06045
  22430994.513   117875657.29508  22430993.514    91851150.83547
 15 02 19 00 26  0.0000000  0  7G16G18G21G25G27G29G31
  21863547.118   114893715.26309  21863545.321    89527566.71847
  22957876.908   120644500.81108  22957876.319    94008723.18946
  21245241.024   111644503.15309  21245238.827    86995712.61349
  24813722.107   130396968.90506  24813725.359   101608029.67445
  22912733.176   120407245.92808  22912734.724    93823846.43447
  23903909.224   125615879.02807  23903909.359    97882496.40346
  22447421.392   117961981.93408  22447420.612    91918416.74247
 15 02 19 00 26 30.0000000  0  6G16G18G21G27G29G31
  21849736.561   114821140.92009  21849735.001    89471015.29648
  22945842.099   120581257.02608  22945841.326    93959442.34146
  21251770.696   111678817.65109  21251768.782    87022451.18749
  22900744.244   120344243.60208  22900745.717    93774753.73546
  23918130.734   125690612.31907  23918130.567    97940730.12345
  22463895.727   118048554.37108  22463894.607    91985875.74947
 15 02 19 00 27  0.0000000  0  6G16G18G21G27G29G31
  21835966.522   114748778.65509  21835964.914    89414629.12448
  22933852.222   120518250.29308  22933851.340    93910346.19846
  21258369.855   111713496.46909  21258367.836    87049473.64649
  22888778.040   120281360.24408  22888779.437    93725753.72647
  23932352.391   125765347.81807  23932352.410    97998965.53646
  22480418.012   118135379.37808  22480417.074    92053531.55047
 15 02 19 00 27 30.0000000  0  7G16G18G21G22G27G29G31
  21822237.725   114676633.25109  21822235.852    89358411.94248
  22921908.414   120455485.59808  22921907.415    93861438.66545
  21265038.472   111748540.56709  21265036.513    87076780.73449
  24218039.381   127266657.05316  24218035.745    99168820.44351
  22876834.892   120218598.33008  22876836.295    93676848.36747
  23946575.078   125840088.04307  23946575.017    98057204.60746
  22496988.342   118222456.70308  22496987.411    92121383.96847
 15 02 19 00 28  0.0000000  0  6G16G18G21G27G29G31
  21808551.984   114604714.10009  21808550.240    89302371.05448
  22910012.695   120392973.14208  22910011.585    93812727.69846
  21271777.781   111783955.34209  21271775.759    87104376.66049
  22864916.248   120155965.02708  22864917.560    93628043.23447
  23960799.816   125914839.45307  23960799.514    98115452.45246
  22513607.412   118309790.66408  22513606.774    92189436.35547
 15 02 19 00 28 30.0000000  0  6G16G18G21G27G29G31
  21794906.425   114533006.79809  21794904.782    89246495.24948
  22898162.431   120330699.01908  22898161.327    93764202.43646
  21278584.214   111819723.17209  21278582.153    87132247.70749
  22853018.664   120093443.83008  22853020.031    93579325.46747
  23975023.681   125989586.05207  23975023.283    98173696.50445
  22530271.838   118397362.25108  22530271.063    92257673.89847
 15 02 19 00 29  0.0000000  0  7G16G18G21G22G27G29G31
  21781302.153   114461515.14909  21781300.314    89190787.47648
  22886358.036   120268667.22608  22886357.467    93715866.00946
  21285457.826   111855844.24409  21285455.665    87160393.99849
  24166169.305   126994080.05617  24166168.820    98956431.08556
  22841143.045   120031036.37408  22841144.302    93530696.30947
  23989246.930   126064329.48007  23989246.396    98231938.11845
  22546981.317   118485170.15408  22546980.184    92326095.60947
 15 02 19 00 29 30.0000000  0  6G16G18G21G27G29G31
  21767742.746   114390260.35509  21767741.016    89135264.26148
  22874603.770   120206899.42408  22874603.401    93667735.29146
  21292401.808   111892335.93309  21292400.025    87188829.08549
  22829292.397   119968761.48708  22829293.692    93482170.45147
  24003472.991   126139088.47007  24003472.755    98290191.83346
  22563738.667   118573230.65408  22563737.553    92394714.14047
 15 02 19 00 30  0.0000000  0  6G16G18G21G27G29G31
  21754226.707   114319233.31209  21754224.898    89079918.51748
  22862898.426   120145387.04808  22862897.733    93619803.59846
  21299414.161   111929185.34409  21299412.037    87217542.91549
  22817465.120   119906608.16708  22817466.306    93433739.31347
  24017700.206   126213852.08307  24017699.612    98348449.18846
  22580541.356   118661529.81808  22580540.351    92463518.63247
 15 02 19 00 30 30.0000000  0  7G16G18G21G22G27G29G31
  21740751.055   114248418.84309  21740749.415    89024738.41848
  22851238.703   120084115.13408  22851237.930    93572059.28146
  21306490.815   111966373.10009  21306488.733    87246520.39249
  24114235.511   126721158.12617  24114235.849    98743764.18755
  22805657.351   119844558.82608  22805658.695    93385389.21447
  24031924.615   126288602.60707  24031924.871    98406696.27345
  22597385.728   118750047.21808  22597385.041    92532493.16847
 15 02 19 00 31  0.0000000  0  7G16G18G21G22G27G29G31
  21727321.667   114177846.34309  21727319.825    88969746.86448
  22839630.758   120023114.09708  22839629.688    93524526.03146
  21313636.740   112003925.56209  21313634.767    87275782.05349
  24096913.996   126630127.04707  24096914.396    98672831.85855
  22793874.625   119782640.87008  22793875.939    93337141.48647
  24046151.624   126363367.22907  24046151.711    98464954.39946
  22614276.313   118838807.40308  22614275.444    92601656.88947
 15 02 19 00 31 30.0000000  0  6G16G18G21G27G29G31
  21713937.766   114107513.87209  21713936.154    88914942.34648
  22828073.781   119962381.99108  22828072.666    93477202.33546
  21320851.195   112041837.03309  21320848.983    87305323.46749
  22782116.217   119720849.95508  22782117.555    93288992.74247
  24060381.073   126438141.55007  24060381.215    98523220.05946
  22631211.799   118927803.54608  22631210.565    92671004.50047
 15 02 19 00 32  0.0000000  0  7G16G18G21G22G27G29G31
  21700594.955   114037396.89509  21700593.208    88860305.74548
  22816563.413   119901894.84908  22816562.414    93430069.52746
  21328128.206   112080078.85709  21328126.184    87335122.29349
  24062252.613   126447995.90415  24062251.338    98530900.96254
  22770376.900   119659159.49008  22770378.313    93240922.29247
  24074607.110   126512899.75507  24074606.775    98581473.22446
  22648186.541   119017006.00908  22648185.248    92740512.86547
 15 02 19 00 32 30.0000000  0  7G16G18G21G22G27G29G31
  21687298.944   113967525.29509  21687297.161    88805860.34348
  22805105.385   119841682.69608  22805104.267    93383150.98746
  21335473.332   112118677.47409  21335471.288    87365199.14549
  24044916.882   126356886.61816  24044915.813    98459915.57453
  22758661.862   119597596.92908  22758663.208    93192951.48947
  24088835.199   126587668.64807  24088835.082    98639734.66745
  22665205.036   119106439.77008  22665204.222    92810201.43847
 15 02 19 00 33  0.0000000  0  7G16G18G21G22G27G29G31
  21674048.236   113897892.41609  21674046.353    88751600.96448
  22793698.635   119781739.03908  22793697.558    93336441.67046
  21342884.095   112157621.88909  21342882.114    87395545.45349
  24027577.147   126265764.41106  24027577.428    98388911.12845
  22746969.715   119536153.56208  22746970.811    93145073.57647
  24103063.328   126662439.62907  24103063.102    98697997.72245
  22682265.573   119196092.74808  22682264.559    92880060.85447
 15 02 19 00 33 30.0000000  0  7G16G18G21G22G27G29G31
  21660843.362   113828500.39509  21660841.659    88697529.26548
  22782343.159   119722066.79708  22782342.363    93289943.85746
  21350360.519   112196910.79309  21350358.613    87426160.18749
  24010234.244   126174626.30907  24010234.699    98317894.42846
  22735300.169   119474829.27708  22735301.170    93097288.44147
  24117292.178   126737212.70906  24117291.866    98756262.47346
  22699367.234   119285962.36908  22699366.389    92950089.08247
 15 02 19 00 34  0.0000000  0  7G16G18G21G22G27G29G31
  21647684.931   113759352.74809  21647683.050    88643647.99348
  22771040.338   119662669.81808  22771039.391    93243660.51246
  21357902.416   112236543.38609  21357900.294    87457042.73548
  23992888.688   126083477.01807  23992889.268    98246869.47746
  22723653.329   119413625.37508  22723654.543    93049597.10547
  24131521.909   126811988.94807  24131521.782    98814529.63345
  22716509.761   119376047.01808  22716509.045    93020284.83247
 15 02 19 00 34 30.0000000  0  7G16G18G21G22G27G29G31
  21634573.104   113690449.88609  21634571.381    88589957.46248
  22759790.022   119603548.23108  22759788.573    93197591.76346
  21365509.140   112276517.05509  21365507.183    87488191.05149
  23975541.270   125992318.34617  23975539.726    98175836.78355
  22712028.897   119352539.97908  22712030.402    93001998.12947
  24145751.527   126886766.78607  24145751.485    98872798.01146
  22733692.256   119466341.94908  22733691.430    93090644.48046
 15 02 19 00 35  0.0000000  0  7G16G18G21G22G27G29G31
  21621508.513   113621794.37209  21621506.633    88536459.65748
  22748592.559   119544705.41508  22748591.353    93151740.23646
  21373180.201   112316829.97009  21373178.325    87519603.71748
  23958192.305   125901149.79507  23958191.231    98104796.65745
  22700427.461   119291573.39608  22700428.701    92954491.72747
  24159981.692   126961546.49206  24159981.784    98931067.89645
  22750914.465   119556844.86008  22750913.663    93161166.17747
 15 02 19 00 35 30.0000000  0  7G16G18G21G22G27G29G31
  21608491.664   113553390.83609  21608489.958    88483158.20748
  22737449.032   119486146.25308  22737447.783    93106109.74446
  21380916.378   112357483.32209  21380914.431    87551281.65549
  23940842.127   125809977.58507  23940842.400    98033753.49945
  22688848.971   119230728.20808  22688850.215    92907079.92147
  24174212.430   127036330.74406  24174212.470    98989341.26845
  22768176.366   119647555.39208  22768175.448    93231849.64547
 15 02 19 00 36  0.0000000  0  7G16G18G21G22G27G29G31
  21595522.622   113485237.43409  21595520.706    88430051.66448
  22726359.177   119427869.35808  22726358.293    93060699.20046
  21388716.165   112398471.26309  21388714.292    87583220.31249
  23923491.171   125718800.98006  23923492.060    97962706.88546
  22677292.783   119170000.34208  22677294.164    92859759.54447
  24188443.768   127111115.02607  24188443.641    99047614.69246
  22785476.026   119738466.81008  22785475.471    93302689.62947
 15 02 19 00 36 30.0000000  0  7G16G18G21G22G27G29G31
  21582601.518   113417336.92109  21582599.761    88377142.17948
  22715323.686   119369877.65008  22715322.862    93015510.89046
  21396579.308   112439792.64009  21396577.382    87615418.78948
  23906140.757   125627623.25307  23906141.348    97891659.33745
  22665759.119   119109390.12408  22665760.227    92812530.81147
  24202674.913   127185900.28907  24202674.417    99105888.90545
  22802813.717   119829576.49208  22802812.851    93373684.14347
 15 02 19 00 37  0.0000000  0  7G16G18G21G22G27G29G31
  21569728.908   113349690.24209  21569726.981    88324430.48348
  22704342.734   119312172.23408  22704341.846    92970545.65546
  21404505.475   112481444.39809  21404503.433    87647874.70549
  23888790.683   125536444.93207  23888790.388    97820610.71444
  22654247.523   119048896.24608  22654248.585    92765392.74947
  24216906.207   127260684.96407  24216906.117    99164162.64745
  22820188.454   119920880.00508  22820187.326    93444829.68547
 15 02 19 00 37 30.0000000  0  7G16G18G21G22G27G29G31
  21556905.185   113282301.68409  21556903.299    88271919.93048
  22693416.907   119254757.84508  22693416.145    92925807.20246
  21412494.645   112523427.42309  21412492.507    87680588.75148
  23871441.403   125445272.04006  23871441.484    97749566.53946
  22642758.616   118988521.19708  22642759.731    92718347.28047
  24231137.703   127335471.73207  24231137.651    99222437.99645
  22837599.730   120012377.28508  22837599.035    93516126.19246
 15 02 19 00 38  0.0000000  0  7G16G18G21G22G27G29G31
  21544132.648   113215181.29809  21544130.836    88219618.32848
  22682548.705   119197644.58808  22682547.749    92881303.37746
  21420547.915   112565747.67709  21420545.852    87713565.57548
  23854094.688   125354114.68808  23854095.577    97678534.45046
  22631293.476   118928272.53908  22631294.790    92671400.29647
  24245370.925   127410267.59707  24245370.527    99280720.46145
  22855048.837   120104073.14908  22855048.198    93587577.44247
 15 02 19 00 38 30.0000000  0  7G16G18G21G22G27G29G31
  21531408.650   113148316.07909  21531406.742    88167515.57448
  22671735.422   119140820.18608  22671734.294    92837024.64646
  21428662.257   112608388.20309  21428659.931    87746791.96248
  23836749.522   125262960.63007  23836749.854    97607504.70946
  22619849.716   118868135.24108  22619851.140    92624540.08647
  24259602.924   127485057.94207  24259603.079    99338998.53845
  22872532.455   120195949.49508  22872531.785    93659169.33846
 15 02 19 00 39  0.0000000  0  7G16G18G21G22G27G29G31
  21518735.302   113081717.68709  21518733.431    88115620.73348
  22660979.204   119084296.18908  22660978.109    92792979.99346
  21436838.781   112651356.72309  21436836.537    87780273.92548
  23819406.819   125171822.61106  23819407.344    97536488.02845
  22608428.781   118808118.56808  22608430.159    92577773.89247
  24273835.736   127559852.53007  24273835.325    99397279.98845
  22890051.475   120288012.84908  22890050.520    93730906.97146
 15 02 19 00 39 30.0000000  0  7G16G18G21G22G27G29G31
  21506112.309   113015383.06809  21506110.444    88063931.43048
  22650279.553   119028069.29708  22650278.569    92749166.85546
  21445076.575   112694646.15209  21445074.250    87814005.94848
  23802066.085   125080697.93807  23802066.498    97465482.16445
  22597030.094   118748217.00608  22597031.328    92531097.36747
  24288068.777   127634645.35507  24288068.492    99455560.08245
  22907604.406   120380254.68308  22907603.713    93802783.64747
 15 02 19 00 40  0.0000000  0  7G16G18G21G22G27G29G31
  21493540.901   112949320.90409  21493539.241    88012454.42548
  22639638.325   118972149.42608  22639637.334    92705592.96146
  21453376.196   112738261.89209  21453374.194    87847992.24048
  23784730.138   124989594.83008  23784730.146    97394492.70046
  22585654.345   118688437.44508  22585655.515    92484515.90747
  24302302.271   127709443.74507  24302301.536    99513844.51945
  22925192.524   120472679.21308  22925191.775    93874802.69347
 15 02 19 00 40 30.0000000  0  7G16G18G21G22G27G29G31
  21481020.321   112883524.34609  21481018.582    87961184.38748
  22629054.144   118916529.49008  22629053.117    92662252.76746
  21461735.949   112782192.53709  21461733.773    87882223.91148
  23767396.902   124898508.55807  23767397.130    97323516.95746
  22574300.111   118628770.60508  22574301.404    92438022.28447
  24316535.735   127784238.13707  24316535.152    99572125.83145
  22942812.795   120565274.30108  22942812.212    93946954.62447
 15 02 19 00 41  0.0000000  0  7G16G18G21G22G27G29G31
  21468553.016   112818008.27909  21468551.108    87910132.91548
  22618529.886   118861224.38908  22618528.898    92619157.91246
  21470157.565   112826448.98809  21470155.617    87916709.45448
  23750069.025   124807453.51507  23750069.506    97252565.64144
  22562969.874   118569229.02408  22562971.043    92391626.25547
  24330769.977   127859041.01707  24330769.841    99630413.71945
  22960467.295   120658049.41708  22960466.586    94019246.86746
 15 02 19 00 41 30.0000000  0  7G16G18G21G22G27G29G31
  21456136.564   112752759.60109  21456134.767    87859289.79148
  22608063.268   118806221.16308  22608062.242    92576298.27246
  21478638.242   112871014.52809  21478636.082    87951435.85348
  23732745.257   124716418.06108  23732744.754    97181630.05245
  22551660.393   118509797.61408  22551661.682    92345316.09447
  24345003.376   127933837.69107  24345003.450    99688696.78345
  22978152.501   120750986.67808  22978152.046    94091665.43346
 15 02 19 00 42  0.0000000  0  7G16G18G21G22G27G29G31
  21443774.539   112687796.22109  21443772.609    87808668.97948
  22597657.466   118751538.17608  22597656.480    92533688.16546
  21487180.343   112915903.13709  21487178.070    87986413.99248
  23715427.812   124625419.27207  23715427.494    97110722.92346
  22540375.098   118450492.11308  22540376.187    92299104.03247
  24359238.389   128008643.84507  24359238.008    99746987.29045
  22995871.448   120844099.30908  22995870.768    94164220.66646
 15 02 19 00 42 30.0000000  0  7G16G18G21G22G27G29G31
  21431465.029   112623109.68509  21431463.180    87758263.89648
  22587310.759   118697166.83208  22587309.650    92491320.90646
  21495781.415   112961102.35309  21495779.408    88021634.15948
  23698115.451   124534449.01607  23698115.736    97039838.10545
  22529111.404   118391301.50508  22529112.449    92252981.50447
  24373473.399   128083448.39307  24373472.949    99805276.49845
  23013621.058   120937372.92008  23013620.670    94236901.32947
 15 02 19 00 43  0.0000000  0  7G16G18G21G22G27G29G31
  21419209.542   112558706.63409  21419207.749    87708079.70148
  22577025.032   118643114.41108  22577024.028    92449202.15846
  21504442.063   113006614.89909  21504440.111    88057098.47848
  23680810.550   124443514.58108  23680810.059    96968980.78245
  22517870.481   118332230.52308  22517871.648    92206952.17747
  24387709.007   128158256.23307  24387708.363    99863568.29545
  23031401.371   121030809.47307  23031401.172    94309708.92146
 15 02 19 00 43 30.0000000  0  7G16G18G21G22G27G29G31
  21407007.927   112494586.46209  21407005.986    87658115.92948
  22566799.791   118589380.03208  22566798.764    92407331.22746
  21513161.693   113052436.17709  21513159.663    88092803.36648
  23663512.266   124352615.42507  23663511.731    96898150.67845
  22506651.886   118273276.22208  22506652.802    92161013.78547
  24401944.643   128233064.25607  24401944.826    99921860.13545
  23049211.627   121124403.34108  23049211.214    94382639.15746
 15 02 19 00 44  0.0000000  0  7G16G18G21G22G27G29G31
  21394860.901   112430753.50309  21394858.948    87608375.96448
  22556635.791   118535968.00808  22556634.691    92365711.48546
  21521939.990   113098566.72109  21521938.022    88128749.24848
  23646221.452   124261756.92807  23646222.025    96827352.31546
  22495455.762   118214440.66208  22495456.740    92115167.90647
  24416180.373   128307875.08707  24416180.657    99980154.23445
  23067051.968   121218153.59108  23067051.187    94455691.24346
 15 02 19 00 44 30.0000000  0  7G16G18G21G22G27G29G31
  21382768.455   112367207.83409  21382766.596    87558859.86748
  22546533.150   118482878.80508  22546532.115    92324343.28146
  21530776.482   113145002.45409  21530774.297    88164932.94048
  23628939.706   124170940.14507  23628939.781    96756586.32346
  22484281.751   118155721.77208  22484282.836    92069412.95247
  24430416.520   128382686.45207  24430416.478   100038448.75945
  23084920.906   121312055.36708  23084920.412    94528861.38847
 15 02 19 00 45  0.0000000  0  7G16G18G21G22G27G29G31
  21370730.851   112303949.23409  21370728.978    87509567.45948
  22536492.126   118430112.58308  22536491.036    92283226.77146
  21539670.237   113191739.23209  21539668.169    88201351.20648
  23611665.393   124080165.14107  23611665.064    96685852.86745
  22473129.671   118097117.23008  22473130.980    92023747.08947
  24444652.295   128457495.92107  24444652.456   100096741.83645
  23102817.316   121406103.41908  23102817.572    94602145.45247
 15 02 19 00 45 30.0000000  0  7G16G18G21G22G27G29G31
  21358750.157   112240990.79409  21358748.272    87460508.93948
  22526514.731   118377681.79908  22526513.749    92242371.63846
  21548622.970   113238786.32009  21548620.910    88238011.27848
  23594401.430   123989445.12307  23594401.489    96615162.22645
  22462001.250   118038637.76308  22462002.437    91978178.69247
  24458889.774   128532314.12807  24458889.598   100155041.73944
  23120743.747   121500305.45208  23120743.439    94675549.56846
 15 02 19 00 46  0.0000000  0  7G16G18G21G22G27G29G31
  21346824.224   112178319.31209  21346822.492    87411674.02048
  22516598.857   118325573.84308  22516598.052    92201768.04646
  21557631.441   113286126.46509  21557629.321    88274899.71148
  23577146.256   123898767.69908  23577146.227    96544504.78246
  22450893.748   117980267.85508  22450895.024    91932695.66247
  24473126.172   128607126.40407  24473126.562   100213336.94645
  23138695.871   121594643.18508  23138695.020    94749059.44946
 15 02 19 00 46 30.0000000  0  7G16G18G21G22G27G29G31
  21334955.417   112115948.74809  21334953.656    87363073.58848
  22506747.119   118273802.98508  22506746.337    92161427.13947
  21566697.549   113333769.80809  21566695.617    88312024.39948
  23559902.059   123808147.73608  23559901.980    96473892.10146
  22439809.504   117922019.41608  22439810.798    91887307.29547
  24487363.482   128681943.94007  24487364.038   100271636.30945
  23156675.136   121689125.51808  23156674.474    94822681.96146
 15 02 19 00 47  0.0000000  0  7G16G18G21G22G27G29G31
  21323144.094   112053879.01609  21323142.211    87314707.57248
  22496959.539   118222368.78308  22496958.654    92121348.55846
  21575820.631   113381711.71309  21575818.613    88349381.73048
  23542668.735   123717585.26107  23542667.728    96403324.12446
  22428747.886   117863890.03208  22428749.048    91842011.68647
  24501601.082   128756764.34707  24501600.092   100329937.97645
  23174681.061   121783747.10508  23174680.663    94896412.95547
 15 02 19 00 47 30.0000000  0  7G16G18G21G22G27G29G31
  21311390.825   111992115.76509  21311389.102    87266580.36748
  22487236.998   118171276.98108  22487236.096    92081536.77746
  21585000.990   113429954.51009  21584998.942    88386973.51748
  23525446.906   123627086.53207  23525445.843    96332805.85246
  22417709.506   117805883.32608  22417710.739    91796811.68747
  24515839.687   128831591.84707  24515841.423   100388244.81744
  23192713.595   121878508.80408  23192713.516    94970253.15846
 15 02 19 00 48  0.0000000  0  7G16G18G21G22G27G29G31
  21299685.151   111930601.50009  21299683.373    87218647.17448
  22477568.941   118120470.28408  22477567.999    92041947.15847
  21594226.808   113478436.51009  21594224.700    88424751.70148
  23508226.927   123536594.80307  23508225.915    96262293.00246
  22406683.155   117747939.58508  22406684.356    91751660.74247
  24530067.831   128906376.68815  24530071.772   100446543.99856
  23210760.954   121973347.87808  23210760.685    95044153.64246
 15 02 19 00 48 30.0000000  0  7G16G18G21G22G27G29G31
  21288052.886   111869473.69009  21288051.155    87171015.12548
  22467981.035   118070085.93208  22467980.134    92002686.64346
  21603523.584   113527291.49209  21603521.523    88462820.51748
  23491034.489   123446247.99508  23491033.268    96191893.08246
  22395694.716   117690194.13708  22395695.865    91706664.30347
  24544314.598   128981233.70305  24544313.841   100504874.23546
  23228848.446   122068396.85308  23228847.940    95118217.70946
 15 02 19 00 49  0.0000000  0  7G16G18G21G22G27G29G31
  21276472.965   111808620.29609  21276470.957    87123596.90048
  22458452.458   118020012.11308  22458451.460    91963668.09747
  21612869.289   113576403.47509  21612867.231    88501089.59448
  23473848.481   123355934.82207  23473846.906    96121519.36346
  22384722.076   117632532.74308  22384723.229    91661733.37848
  24558554.060   129056059.17404  24558556.414   100563179.65945
  23246953.407   122163538.56508  23246953.120    95192354.02146
 15 02 19 00 49 30.0000000  0  6G16G18G21G22G27G31
  21264945.682   111748044.39009  21264943.746    87076394.89748
  22448983.389   117970252.00608  22448982.578    91924894.01246
  21622263.553   113625770.94309  21622261.548    88539557.75548
  23456669.154   123265658.56708  23456667.363    96051174.41345
  22373765.581   117574955.97308  22373766.708    91616868.38348
  23265075.418   122258770.62508  23265075.206    95266560.71246
 15 02 19 00 50  0.0000000  0  6G16G18G21G22G27G31
  21253485.574   111687821.64809  21253483.922    87029468.08348
  22439588.370   117920881.06608  22439587.514    91886423.17147
  21631720.219   113675465.93609  21631718.351    88578281.12248
  23439511.750   123175495.67708  23439509.269    95980917.75946
  22362839.301   117517537.83008  22362840.229    91572126.99448
  23283228.390   122354164.48308  23283228.130    95340893.49746
 15 02 19 00 50 30.0000000  0  6G16G18G21G22G27G31
  21242083.492   111627903.61609  21242081.756    86982778.71348
  22430258.261   117871851.32708  22430257.438    91848218.19447
  21641229.360   113725436.09109  21641227.186    88617218.90148
  23422366.695   123085398.27407  23422364.142    95910712.11546
  22351933.588   117460227.61108  22351934.493    91527469.70347
  23301401.985   122449666.14708  23301401.564    95415310.29646
 15 02 19 00 51  0.0000000  0  6G16G18G21G22G27G31
  21230743.085   111568309.90609  21230741.586    86936342.05348
  22420996.690   117823181.72408  22420995.755    91810293.83946
  21650793.500   113775696.73309  21650791.660    88656383.04148
  23405237.280   122995386.33907  23405235.525    95840573.13646
  22341051.571   117403042.19208  22341052.460    91482909.66047
  23319598.652   122545289.34408  23319598.222    95489821.78646
 15 02 19 00 51 30.0000000  0  6G16G18G21G22G27G31
  21219461.901   111509026.00509  21219460.046    86890146.81348
  22411800.993   117774857.41208  22411799.961    91772638.53846
  21660409.608   113826229.03609  21660407.332    88695758.86148
  23388121.990   122905445.81908  23388119.960    95770489.75545
  22330189.978   117345964.91408  22330190.870    91438433.89048
  23337814.240   122641014.80807  23337814.172    95564412.93146
 15 02 19 00 52  0.0000000  0  6G16G18G21G22G27G31
  21208242.810   111450069.59709  21208241.067    86844206.74948
  22402674.259   117726896.73108  22402673.353    91735266.60447
  21670079.989   113877047.29509  21670077.746    88735357.49748
  23371024.157   122815595.29008  23371021.395    95700476.45845
  22319352.144   117289011.71708  22319353.073    91394054.79648
  23356052.266   122736855.87608  23356052.337    95639094.16846
 15 02 19 00 52 30.0000000  0  7G16G18G19G21G22G27G31
  21197086.661   111391443.54709  21197085.037    86798524.11048
  22393617.400   117679302.30208  22393616.546    91698180.05447
  24474838.087   128616145.58016  24474837.822   100220372.14255
  21679804.465   113928149.88209  21679802.153    88775177.69348
  23353943.685   122725838.14707  23353940.939    95630535.94346
  22308538.006   117232183.37808  22308538.919    91349772.99147
  23374312.228   122832810.06408  23374311.679    95713863.59246
 15 02 19 00 53  0.0000000  0  7G16G18G19G21G22G27G31
  21185992.183   111333141.45209  21185990.310    86753093.90148
  22384628.944   117632067.89508  22384628.042    91661374.04047
  24460058.242   128538475.28006  24460056.573   100159849.89845
  21689581.448   113979527.62109  21689579.180    88815212.29648
  23336879.540   122636168.71008  23336877.634    95560663.81146
  22297745.987   117175471.18508  22297747.035    91305581.68447
  23392591.111   122928865.61707  23392590.639    95788712.00346
 15 02 19 00 53 30.0000000  0  7G16G18G19G21G22G27G31
  21174957.844   111275155.17109  21174955.926    86707909.78748
  22375707.440   117585184.73208  22375706.354    91624841.72047
  24445291.859   128460878.10506  24445290.061   100099384.59544
  21699408.189   114031167.11509  21699405.789    88855450.86648
  23319831.432   122546578.92008  23319829.678    95490853.71646
  22286974.037   117118864.51808  22286975.093    91261472.60248
  23410886.458   123025009.18607  23410886.200    95863628.95446
 15 02 19 00 54  0.0000000  0  7G16G18G19G21G22G27G31
  21163987.588   111217506.12109  21163985.752    86662988.44748
  22366856.928   117538674.69408  22366855.954    91588600.15447
  24430542.936   128383374.05106  24430541.596   100038991.90845
  21709287.944   114083086.23909  21709285.859    88895907.32348
  23302802.389   122457091.35207  23302800.577    95421123.26946
  22276226.064   117062383.13708  22276227.208    91217461.15448
  23429201.732   123121257.50708  23429202.144    95938627.49446
 15 02 19 00 54 30.0000000  0  7G16G18G19G21G22G27G31
  21153079.941   111160186.20209  21153078.120    86618323.57748
  22358075.794   117492529.30708  22358074.538    91552642.72347
  24415809.948   128305952.46006  24415808.972    99978663.46645
  21719218.621   114135273.29509  21719216.709    88936572.55448
  23285791.049   122367698.19007  23285788.828    95351466.34445
