     2.11           OBSERVATION DATA    G                   RINEX VERSION / TYPE
SPIDER V4,0,0,3554                      2015 03 24 01:06    PGM / RUN BY / DATE 
OJGS                                                        MARKER NAME         
OJGS                                                        MARKER NUMBER       
                                                            OBSERVER / AGENCY   
496552              LEICA GRX1200+GNSS  8.20/4.007          REC # / TYPE / VERS 
10401003            LEIAR25         NONE                    ANT # / TYPE        
  5198100.9450    88691.2920  3684205.7148                  APPROX POSITION XYZ 
        0.1200        0.0000        0.0000                  ANTENNA: DELTA H/E/N
     1     1                                                WAVELENGTH FACT L1/2
     4    C1    L1    P2    L2                              # / TYPES OF OBSERV 
    30.000                                                  INTERVAL            
  2015    02    19    00    00    0.0000000     GPS         TIME OF FIRST OBS   
  2015    02    19    23    59   30.0000000     GPS         TIME OF LAST OBS    
    16                                                      LEAP SECONDS        
    30                                                      # OF SATELLITES     
   G 1   833   833   833   833                              PRN / # OF OBS      
   G 2   925   925   925   925                              PRN / # OF OBS      
   G 3   839   839   839   839                              PRN / # OF OBS      
   G 4   845   845   845   845                              PRN / # OF OBS      
   G 5   675   674   674   674                              PRN / # OF OBS      
   G 6   731   731   731   731                              PRN / # OF OBS      
   G 7   728   727   727   727                              PRN / # OF OBS      
   G 9   783   782   782   782                              PRN / # OF OBS      
   G10   784   784   784   784                              PRN / # OF OBS      
   G11   482   481   481   481                              PRN / # OF OBS      
   G12   811   811   811   811                              PRN / # OF OBS      
   G13   822   822   822   822                              PRN / # OF OBS      
   G14   931   925   923   922                              PRN / # OF OBS      
   G15   732   732   732   732                              PRN / # OF OBS      
   G16   694   694   694   694                              PRN / # OF OBS      
   G17   930   929   929   929                              PRN / # OF OBS      
   G18   939   939   939   939                              PRN / # OF OBS      
   G19   782   782   782   782                              PRN / # OF OBS      
   G20   817   817   817   817                              PRN / # OF OBS      
   G21   676   671   661   661                              PRN / # OF OBS      
   G22   794   793   790   790                              PRN / # OF OBS      
   G23   727   727   727   727                              PRN / # OF OBS      
   G24   842   842   842   842                              PRN / # OF OBS      
   G25   830   830   830   830                              PRN / # OF OBS      
   G27   832   832   832   832                              PRN / # OF OBS      
   G28   914   914   913   913                              PRN / # OF OBS      
   G29   720   720   720   720                              PRN / # OF OBS      
   G30   691   691   690   690                              PRN / # OF OBS      
   G31   762   762   762   762                              PRN / # OF OBS      
   G32   741   741   741   741                              PRN / # OF OBS      
BIT 2 OF LLI FLAGS DATA COLLECTED UNDER A/S CONDITION       COMMENT             
SNR is mapped to RINEX snr flag value [2-9]                 COMMENT             
Lx:     = 25dBHz -> 1; 26-27dBHz -> 2; 28-31dBHz -> 3       COMMENT             
       32-35dBHz -> 4; 36-38dBHz -> 5; 39-41dBHz -> 6       COMMENT             
       42-44dBHz -> 7; 45-48dBHz -> 8; >=49dBHz -> 9        COMMENT             
                                                            END OF HEADER       
 15 02 19 00 00  0.0000000  0  7G16G18G21G25G27G29G31
  22553389.700   118518868.51409  22553386.000    92352359.37247
  23718099.360   124639502.36608  23718097.620    97121691.88145
  21022704.520   110475061.81808  21022700.800    86084452.18248
  23974540.800   125987052.83808  23974541.820    98171728.65946
  23517599.140   123585838.33708  23517599.500    96300662.17046
  23175947.680   121790420.67309  23175945.620    94901614.70947
  21694466.080   114005180.41909  21694463.020    88835190.82948
 15 02 19 00 00 30.0000000  0  7G16G18G21G25G27G29G31
  22538125.260   118438653.07509  22538121.480    92289853.85247
  23704290.800   124566937.77008  23704288.840    97065148.10645
  21025005.280   110487152.58308  21025001.640    86093873.56848
  23991468.360   126076007.40108  23991469.480    98241043.87446
  23504217.080   123515515.36308  23504217.600    96245865.09946
  23190302.280   121865854.08208  23190300.240    94960393.98147
  21707970.400   114076146.00309  21707967.340    88890488.66648
 15 02 19 00 01  0.0000000  0  7G16G18G21G25G27G29G31
  22522884.220   118358561.08509  22522880.440    92227444.51247
  23690500.200   124494467.78008  23690498.120    97008678.05645
  21027389.940   110499684.14809  21027386.340    86103638.42948
  24008432.460   126165153.86208  24008433.720    98310508.62046
  23490860.120   123445324.60608  23490860.540    96191171.04946
  23204661.160   121941310.52408  23204659.220    95019191.17447
  21721548.980   114147501.97709  21721545.940    88946090.70248
 15 02 19 00 01 30.0000000  0  7G16G18G21G25G27G29G31
  22507666.840   118278593.62609  22507663.240    92165132.23147
  23676728.180   124422095.27908  23676725.960    96952283.97745
  21029858.120   110512654.65209  21029854.560    86113745.32348
  24025432.800   126254490.89908  24025434.180    98380121.86145
  23477528.220   123375265.62108  23477528.520    96136579.68846
  23219024.260   122016788.63308  23219022.220    95078005.27447
  21735201.280   114219245.31409  21735198.240    89001994.57648
 15 02 19 00 02  0.0000000  0  7G16G18G21G25G27G29G31
  22492473.380   118198751.98009  22492469.700    92102917.98047
  23662975.060   124349822.06708  23662972.720    96895967.24145
  21032409.560   110526062.51009  21032406.020    86124193.01048
  24042469.120   126344017.12108  24042470.520    98449882.52146
  23464221.280   123305337.81008  23464221.560    96082090.53846
  23233391.420   122092288.23208  23233389.300    95136836.11646
  21748926.780   114291373.18509  21748923.680    89058198.08948
 15 02 19 00 02 30.0000000  0  7G16G18G21G25G27G29G31
  22477304.400   118119038.81509  22477300.780    92040803.84047
  23649241.540   124277652.16408  23649239.240    96839731.01445
  21035044.300   110539908.05709  21035040.780    86134981.75248
  24059541.440   126433732.84108  24059542.880    98519790.85245
  23450939.540   123235542.18908  23450939.820    96027704.38746
  23247762.640   122167809.42108  23247760.540    95195683.77447
  21762725.260   114363884.23209  21762722.080    89114700.18748
 15 02 19 00 03  0.0000000  0  7G16G18G21G25G27G29G31
  22462159.860   118039453.73309  22462156.220    91978789.49747
  23635527.660   124205585.30109  23635525.280    96783575.10145
  21037761.760   110554188.11209  21037758.220    86146109.06748
  24076649.160   126523634.55608  24076650.540    98589844.10145
  23437682.520   123165876.27608  23437682.820    95973419.29046
  23262137.540   122243349.48909  23262135.260    95254546.13447
  21776595.680   114436773.48909  21776592.440    89171496.98748
 15 02 19 00 03 30.0000000  0  7G16G18G21G25G27G29G31
  22447040.300   117960000.36909  22447036.680    91916877.79047
  23621834.420   124133626.94208  23621832.020    96727503.71845
  21040562.040   110568903.54609  21040558.440    86157575.64748
  24093792.560   126613723.80208  24093794.080    98660043.48745
  23424450.640   123096342.30908  23424450.860    95919237.01346
  23276516.380   122318910.15208  23276514.000    95313424.53947
  21790538.080   114510041.00209  21790534.800    89228588.53848
 15 02 19 00 04  0.0000000  0  7G16G18G21G25G27G29G31
  22431946.320   117880681.24509  22431942.700    91855070.68247
  23608162.280   124061779.66308  23608159.780    96671518.87545
  21043444.980   110584053.40809  21043441.320    86169380.72548
  24110971.460   126703999.89608  24110973.060    98730388.46745
  23411243.940   123026940.61108  23411244.180    95865157.82546
  23290899.000   122394490.98108  23290896.540    95372318.67347
  21804551.900   114583684.20409  21804548.620    89285972.82748
 15 02 19 00 04 30.0000000  0  7G16G18G21G25G27G29G31
  22416877.760   117801495.68509  22416874.400    91793367.66747
  23594511.460   123990044.55109  23594508.900    96615621.43245
  21046410.040   110599634.93009  21046406.320    86181522.18348
  24128185.360   126794459.87208  24128186.940    98800876.73545
  23398061.900   122957668.89408  23398062.100    95811179.90346
  23305284.940   122470089.54308  23305282.420    95431226.61546
  21818636.360   114657698.66509  21818633.100    89343646.40848
 15 02 19 00 05  0.0000000  0  7G16G18G21G25G27G29G31
  22401835.320   117722447.25309  22401831.880    91731771.48647
  23580882.780   123918425.71708  23580880.280    96559814.61145
  21049457.300   110615648.55209  21049453.560    86194000.33448
  24145434.460   126885104.39908  24145436.080    98871508.81046
  23384904.920   122888528.77608  23384905.140    95757304.51946
  23319674.460   122545707.26208  23319671.940    95490149.51147
  21832791.280   114732083.24209  21832788.060    89401608.39048
 15 02 19 00 05 30.0000000  0  7G16G18G21G25G27G29G31
  22386819.380   117643538.21309  22386816.080    91670283.93347
  23567276.800   123846926.15308  23567274.280    96504100.70745
  21052586.680   110632093.80209  21052583.000    86206814.82148
  24162718.640   126975933.14708  24162720.100    98942284.42045
  23371773.080   122819520.85308  23371773.420    95703532.17746
  23334067.560   122621343.78908  23334065.240    95549087.04647
  21847016.340   114806836.17409  21847013.080    89459857.40248
 15 02 19 00 06  0.0000000  0  7G16G18G21G25G27G29G31
  22371830.000   117564768.56509  22371826.800    91608904.99347
  23553693.700   123775547.03008  23553691.240    96448480.66045
  21055797.560   110648967.40309  21055793.980    86219963.08348
  24180037.280   127066943.32208  24180038.720    99013201.42646
  23358666.020   122750643.03008  23358666.400    95649861.18946
  23348463.820   122696997.12608  23348461.620    95608037.67447
  21861310.660   114881953.06809  21861307.360    89518390.02948
 15 02 19 00 06 30.0000000  0  7G16G18G21G25G27G29G31
  22356867.660   117486141.19309  22356864.540    91547636.91947
  23540134.260   123704291.92908  23540131.780    96392957.24745
  21059089.960   110666269.34209  21059086.460    86233445.12048
  24197390.460   127158134.79308  24197391.760    99084259.68445
  23345583.920   122681896.23808  23345584.260    95596292.32046
  23362863.440   122772667.36709  23362861.200    95667001.48846
  21875673.920   114957432.25609  21875670.580    89577204.96748
 15 02 19 00 07  0.0000000  0  7G16G18G21G25G27G29G31
  22341932.420   117407656.26609  22341929.360    91486479.84147
  23526598.620   123633161.96208  23526596.160    96337531.32845
  21062463.440   110683997.39309  21062460.040    86247259.18848
  24214777.720   127249505.36108  24214779.060    99155457.50745
  23332526.500   122613279.07208  23332526.760    95542824.43546
  23377266.060   122848353.07009  23377263.800    95725977.34647
  21890105.360   115033269.75109  21890101.980    89636299.09548
 15 02 19 00 07 30.0000000  0  7G16G18G21G25G27G29G31
  22327025.000   117329318.24609  22327022.100    91425437.24547
  23513087.780   123562162.25308  23513085.300    96282206.93745
  21065918.240   110702152.55009  21065914.860    86261406.07148
  24232199.260   127341056.48508  24232200.700    99226796.00445
  23319494.200   122544793.97908  23319494.500    95489459.47046
  23391671.920   122924056.14708  23391669.760    95784966.73047
  21904604.940   115109465.25909  21904601.540    89695672.19148
 15 02 19 00 08  0.0000000  0  7G16G18G21G25G27G29G31
  22312145.840   117251128.38409  22312143.100    91364510.09647
  23499602.160   123491295.23009  23499599.760    96226985.95045
  21069454.140   110720733.51209  21069450.660    86275884.74948
  24249655.000   127432786.90508  24249656.440    99298274.22645
  23306486.940   122476440.43708  23306487.200    95436197.02546
  23406080.840   122999775.57508  23406078.840    95843968.83847
  21919172.120   115186016.14909  21919168.700    89755322.20848
 15 02 19 00 08 30.0000000  0  7G16G18G21G25G27G29G31
  22297295.080   117173086.69609  22297292.180    91303698.39947
  23486141.840   123420561.13708  23486139.320    96171868.51145
  21073070.400   110739736.68209  21073066.800    86290692.41448
  24267144.300   127524693.31807  24267145.720    99369889.57945
  23293504.320   122408216.17708  23293504.580    95383035.29347
  23420492.420   123075509.08308  23420490.420    95902981.92947
  21933805.960   115262917.49709  21933802.580    89815245.30448
 15 02 19 00 09  0.0000000  0  7G16G18G21G25G27G29G31
  22282473.000   117095195.40909  22282469.920    91243003.88647
  23472707.560   123349963.77609  23472705.060    96116857.63645
  21076766.940   110759161.71909  21076763.280    86305828.81648
  24284667.140   127616775.90207  24284668.440    99441642.21245
  23280546.500   122340122.23708  23280546.800    95329975.12546
  23434906.680   123151256.95708  23434904.700    95962006.23047
  21948506.220   115340167.95309  21948502.880    89875440.44248
 15 02 19 00 09 30.0000000  0  7G16G18G21G25G27G29G31
  22267680.140   117017458.05109  22267677.020    91182429.32547
  23459300.120   123279507.28709  23459297.580    96061956.51145
  21080543.840   110779009.09209  21080540.160    86321294.30848
  24302223.520   127709034.91508  24302224.760    99513532.30446
  23267613.740   122272159.81908  23267614.020    95277017.43247
  23449323.960   123227020.34508  23449322.040    96021042.58947
  21963272.580   115417765.77509  21963269.300    89935906.24748
 15 02 19 00 10  0.0000000  0  7G16G18G21G25G27G29G31
  22252916.560   116939875.25609  22252913.400    91121975.21947
  23445919.740   123209193.03909  23445917.320    96007166.22945
  21084400.560   110799276.32109  21084396.900    86337086.95448
  24319813.040   127801468.23008  24319814.400    99585558.22445
  23254705.700   122204327.68508  23254706.140    95224161.27246
  23463743.980   123302797.96508  23463742.100    96080090.05647
  21978104.340   115495707.32609  21978101.100    89996639.89248
 15 02 19 00 10 30.0000000  0  7G16G18G21G25G27G29G31
  22238182.380   116862447.36909  22238179.340    91061641.81547
  23432566.660   123139022.29308  23432564.280    95952487.77245
  21088336.640   110819960.78708  21088332.980    86353204.73248
  24337435.280   127894073.31108  24337436.640    99657717.99545
  23241822.160   122136624.20208  23241822.600    95171405.35246
  23478166.340   123378587.59708  23478164.480    96139146.88447
  21993000.680   115573988.26009  21992997.500    90057638.00248
 15 02 19 00 11  0.0000000  0  7G16G18G21G25G27G29G31
  22223478.760   116785179.02209  22223475.760    91001432.72647
  23419241.860   123069000.32508  23419239.460    95897925.25145
  21092352.360   110841063.90609  21092348.760    86369648.73148
  24355090.560   127986852.00308  24355092.020    99730013.05545
  23228963.680   122069052.21508  23228963.940    95118751.89346
  23492591.340   123454391.57608  23492589.420    96198214.89147
  22007961.780   115652609.44009  22007958.700    90118901.22648
 15 02 19 00 11 30.0000000  0  7G16G18G21G25G27G29G31
  22208805.880   116708071.44809  22208802.740    90941348.89847
  23405945.780   122999129.25509  23405943.520    95843480.29645
  21096447.380   110862583.68609  21096443.860    86386417.39548
  24372778.460   128079802.34008  24372779.800    99802441.84845
  23216129.940   122001610.65108  23216130.020    95066200.06646
  23507018.900   123530208.63409  23507016.860    96257293.07947
  22022986.840   115731566.67609  22022983.840    90180426.30448
 15 02 19 00 12  0.0000000  0  7G16G18G21G25G27G29G31
  22194163.560   116631124.88309  22194160.180    90881390.54047
  23392678.660   122929410.32909  23392676.460    95789153.91445
  21100621.160   110884517.35808  21100617.700    86403508.57248
  24390498.560   128172922.01508  24390499.820    99875002.60345
  23203320.720   121934298.18108  23203320.800    95013748.81346
  23521448.800   123606037.11209  23521446.540    96316380.19247
  22038075.140   115810856.13609  22038072.160    90242210.26248
 15 02 19 00 12 30.0000000  0  7G16G18G21G25G27G29G31
  22179552.100   116554340.99009  22179548.600    90821558.95147
  23379440.980   122859846.07208  23379438.760    95734948.03845
  21104873.420   110906863.58708  21104870.080    86420921.21648
  24408250.680   128266209.90408  24408251.960    99947694.43245
  23190536.100   121867114.56308  23190536.180    94961397.97346
  23535880.600   123681876.40708  23535878.380    96375475.74547
  22053226.140   115890475.06309  22053223.180    90304250.95148
 15 02 19 00 13  0.0000000  0  7G16G18G21G25G27G29G31
  22164972.640   116477725.07109  22164969.120    90761858.23347
  23366233.840   122790442.24308  23366231.600    95680867.16346
  21109204.580   110929624.30208  21109201.300    86438656.84448
  24426035.280   128359668.04008  24426036.320   100020518.91745
  23177776.700   121800062.93308  23177776.740    94909149.99046
  23550314.760   123757729.53308  23550312.760    96434582.02847
  22068439.940   115970423.88509  22068436.980    90366548.70648
 15 02 19 00 13 30.0000000  0  7G16G18G21G25G27G29G31
  22150425.100   116401277.58509  22150421.700    90702288.79647
  23353057.480   122721200.00709  23353055.120    95626912.20245
  21113614.100   110952796.75608  21113610.840    86456713.30648
  24443851.800   128453293.98508  24443852.800   100093474.16245
  23165042.060   121733141.74308  23165042.020    94857003.65347
  23564751.200   123833594.83208  23564749.160    96493697.80746
  22083715.760   116050698.46909  22083712.740    90429100.30048
 15 02 19 00 14  0.0000000  0  7G16G18G21G25G27G29G31
  22135909.800   116324999.00809  22135906.220    90642850.94447
  23339912.100   122652120.53708  23339909.660    95573084.06646
  21118101.520   110976378.20809  21118098.200    86475088.47148
  24461699.740   128547085.25408  24461700.840   100166558.22044
  23152331.940   121666349.41908  23152331.760    94804957.73646
  23579189.900   123909470.39308  23579187.760    96552821.60747
  22099052.720   116131294.65609  22099049.780    90491902.49348
 15 02 19 00 14 30.0000000  0  7G16G18G21G25G27G29G31
  22121427.140   116248891.52009  22121423.480    90583546.42047
  23326798.260   122583207.04809  23326795.900    95519385.28046
  21122666.540   111000367.46609  21122663.220    86493781.40848
  24479579.020   128641041.21308  24479580.220   100239770.61745
  23139646.360   121599686.31508  23139646.120    94753012.50346
  23593630.460   123985356.07908  23593628.620    96611953.26247
  22114450.400   116212210.23409  22114447.560    90554953.55248
 15 02 19 00 15  0.0000000  0  7G16G18G21G25G27G29G31
  22106977.740   116172958.99809  22106973.900    90524378.22547
  23313716.900   122514464.35508  23313714.660    95465819.57845
  21127309.380   111024765.60208  21127306.020    86512792.94348
  24497489.760   128735162.73408  24497491.100   100313112.00945
  23126985.740   121533154.38108  23126985.460    94701169.46747
  23608073.160   124061253.68108  23608071.700    96671094.19847
  22129908.760   116293444.62209  22129906.000    90618253.03848
 15 02 19 00 15 30.0000000  0  7G16G18G21G25G27G29G31
  22092561.280   116097200.08409  22092557.540    90465345.31947
  23300667.780   122445890.92709  23300665.500    95412385.77346
  21132029.100   111049567.67508  21132025.700    86532119.23948
  24515431.140   128829445.28608  24515432.480   100386578.88145
  23114349.360   121466750.00108  23114349.180    94649425.82647
  23622517.560   124137159.07408  23622515.940    96730241.23346
  22145426.600   116374991.37209  22145423.840    90681795.92748
 15 02 19 00 16  0.0000000  0  7G16G18G21G25G27G29G31
  22078178.660   116021619.17909  22078174.940    90406451.12247
  23287652.020   122377492.58109  23287649.600    95359088.39345
  21136825.800   111074774.51708  21136822.380    86551760.93248
  24533403.500   128923890.37808  24533404.580   100460172.42745
  23101737.740   121400475.68508  23101737.580    94597783.54746
  23636964.120   124213074.97208  23636961.980    96789396.49846
  22161003.880   116456850.31309  22161001.140    90745582.08248
 15 02 19 00 16 30.0000000  0  7G16G18G21G25G27G29G31
  22063830.020   115946216.87109  22063826.320    90347696.09847
  23274669.740   122309270.37308  23274667.280    95305928.25245
  21141699.060   111100383.69208  21141695.640    86571716.13648
  24551406.340   129018495.41008  24551407.340   100533890.56844
  23089150.600   121334329.84408  23089150.480    94546241.37247
  23651412.120   124288999.33808  23651409.760    96848558.31346
  22176639.800   116539017.23509  22176637.060    90809608.22448
 15 02 19 00 17  0.0000000  0  7G16G18G21G25G27G29G31
  22049516.160   115870997.20809  22049512.460    90289083.38647
  23261721.900   122241229.39508  23261719.480    95252909.34746
  21146649.040   111126396.33308  21146645.680    86591985.73048
  24569439.880   129113261.76908  24569440.820   100607734.43944
  23076588.320   121268314.86908  23076588.260    94494801.17747
  23665861.980   124364933.97808  23665859.920    96907728.06847
  22192334.240   116621491.86609  22192331.420    90873874.13448
 15 02 19 00 17 30.0000000  0  7G16G18G21G25G27G29G31
  22035237.320   115795960.86109  22035233.440    90230613.51747
  23248808.820   122173370.92509  23248806.440    95200032.64846
  21151675.220   111152809.53908  21151671.960    86612567.44148
  24587503.560   129208186.88808  24587504.680   100681702.02945
  23064050.620   121202429.19408  23064050.660    94443461.72147
  23680313.660   124440877.68308  23680311.720    96966904.93846
  22208086.440   116704269.99409  22208083.640    90938376.54348
 15 02 19 00 18  0.0000000  0  7G16G18G21G25G27G29G31
  22020993.400   115721108.35109  22020989.440    90172286.90147
  23235930.700   122105696.09809  23235928.360    95147299.06145
  21156777.040   111179620.41208  21156773.880    86633459.03248
  24605596.960   129303268.28608  24605598.120   100755791.40245
  23051537.280   121136671.41708  23051537.260    94392221.93847
  23694766.760   124516828.89208  23694764.640    97026087.65346
  22223895.600   116787347.60709  22223892.840    91003112.30448
 15 02 19 00 18 30.0000000  0  7G16G18G21G25G27G29G31
  22006784.820   115646442.29009  22006781.000    90114105.57347
  23223088.160   122038208.27008  23223085.840    95094711.17746
  21161954.500   111206828.39208  21161951.340    86654660.07248
  24623720.060   129398505.47508  24623721.360   100830002.14945
  23039048.460   121071041.97808  23039048.180    94341082.14247
  23709221.200   124592787.48708  23709218.840    97085276.13646
  22239761.420   116870722.61809  22239758.640    91068079.80648
 15 02 19 00 19  0.0000000  0  7G16G18G21G25G27G29G31
  21992612.580   115571967.38409  21992608.880    90056073.18647
  23210282.180   121970912.62808  23210279.940    95042273.05046
  21167207.800   111234434.60208  21167204.620    86676171.40248
  24641873.040   129493899.96608  24641874.340   100904335.46645
  23026584.560   121005543.59908  23026584.060    94290044.47947
  23723677.560   124668756.37908  23723675.340    97144472.62046
  22255683.740   116954394.65309  22255680.900    91133278.76448
 15 02 19 00 19 30.0000000  0  7G16G18G21G25G27G29G31
  21978476.880   115497684.00809  21978473.180    89998190.04447
  23197512.980   121903810.50209  23197510.860    94989985.70646
  21172536.240   111262435.61908  21172533.060    86697990.38748
  24660055.460   129589449.22808  24660056.760   100978789.38945
  23014145.140   120940174.57608  23014144.560    94239107.59847
  23738135.500   124744733.13008  23738133.660    97203675.25047
  22271661.760   117038359.46809  22271658.920    91198705.85148
 15 02 19 00 20  0.0000000  0  8G16G18G21G22G25G27G29G31
  21964377.520   115423591.23709  21964373.840    89940455.42647
  23184780.500   121836901.22208  23184778.460    94937848.63046
  21177939.060   111290827.37508  21177935.820    86720113.82748
  24556232.080   129043867.33406  24556230.860   100553658.42745
  24678266.500   129685149.01508  24678267.800   101053360.60745
  23001729.720   120874931.80808  23001729.220    94188269.11647
  23752594.520   124820714.61308  23752592.780    97262881.57847
  22287694.380   117122611.37909  22287691.540    91264356.65448
 15 02 19 00 20 30.0000000  0  8G16G18G21G22G25G27G29G31
  21950315.520   115349695.04109  21950311.920    89882873.99747
  23172086.040   121770191.61408  23172083.920    94885867.16046
  21183416.840   111319612.90408  21183413.480    86742544.11848
  24539151.080   128954097.59608  24539151.040   100483726.77746
  24696506.860   129781002.40408  24696508.220   101128051.51045
  22989339.080   120809819.42208  22989338.720    94137532.20947
  23767054.960   124896704.96708  23767053.220    97322094.78646
  22303781.880   117207151.94609  22303779.120    91330232.38448
 15 02 19 00 21  0.0000000  0  7G16G18G21G25G27G29G31
  21936291.500   115275998.06609  21936287.820    89825447.78347
  23159430.220   121703685.05708  23159428.060    94834043.90746
  21188969.320   111348791.13909  21188965.880    86765280.40548
  24714776.240   129877008.73408  24714777.500   101202861.59645
  22976973.260   120744837.89808  22976973.160    94086897.30647
  23781517.120   124972704.23808  23781515.060    97381314.95845
  22319923.860   117291978.71009  22319921.160    91396331.12448
 15 02 19 00 21 30.0000000  0  8G16G18G21G22G25G27G29G31
  21922304.620   115202497.06209  21922301.080    89768174.29847
  23146812.520   121637378.80808  23146810.300    94782376.71946
  21194595.300   111378355.35908  21194591.760    86788317.46848
  24504941.040   128774329.87706  24504940.220   100343630.13943
  24733073.520   129973161.74107  24733074.780   101277785.97745
  22964631.480   120679981.97908  22964631.500    94036360.25747
  23795980.100   125048707.12508  23795977.880    97440537.95046
  22336118.820   117377083.64709  22336116.140    91462646.61848
 15 02 19 00 22  0.0000000  0  7G16G18G21G25G27G29G31
  21908355.940   115129196.97109  21908352.420    89711057.35047
  23134234.000   121571278.33709  23134231.820    94730869.89346
  21200294.940   111408306.84909  21200291.360    86811656.29348
  24751399.080   130069463.10708  24751400.200   101352825.94044
  22952314.260   120615254.38008  22952314.300    93985923.19847
  23810444.240   125124715.95008  23810442.240    97499765.55747
  22352366.720   117462466.78509  22352364.000    91529178.89547
 15 02 19 00 22 30.0000000  0  8G16G18G21G22G25G27G29G31
  21894445.820   115056098.79709  21894442.300    89654097.72847
  23121694.980   121505385.33108  23121692.800    94679524.71146
  21206067.820   111438643.45408  21206064.220    86835295.21448
  24470668.540   128594224.14708  24470666.660   100203288.20145
  24769752.540   130165910.89808  24769753.440   101427979.97545
  22940021.360   120550654.25308  22940021.540    93935585.47147
  23824909.200   125200730.18008  23824907.520    97558997.31846
  22368666.840   117548124.37309  22368664.080    91595925.03547
 15 02 19 00 23  0.0000000  0  8G16G18G21G22G25G27G29G31
  21880575.020   114983207.07809  21880571.380    89597298.98547
  23109196.420   121439705.06808  23109194.320    94628345.31546
  21211914.180   111469366.28009  21211910.540    86859235.08348
  24453510.400   128504064.90608  24453508.780   100133034.74946
  24788134.180   130262506.38808  24788135.140   101503249.14945
  22927753.120   120486183.98308  22927753.300    93885348.93847
  23839375.440   125276751.87708  23839373.720    97618234.90846
  22385019.140   117634056.38109  22385016.400    91662885.00447
 15 02 19 00 23 30.0000000  0  8G16G18G21G22G25G27G29G31
  21866743.440   114910521.82409  21866739.900    89540661.13147
  23096738.400   121374237.98909  23096736.380    94577332.03546
  21217833.260   111500471.42709  21217829.660    86883472.85748
  24436339.040   128413827.54408  24436336.700   100062709.48246
  24806543.140   130359246.01507  24806544.320   101578630.59745
  22915509.120   120421841.16508  22915509.200    93835211.71247
  23853842.880   125352778.22009  23853840.460    97677476.25945
  22401422.700   117720257.60009  22401419.980    91730054.74647
 15 02 19 00 24  0.0000000  0  7G16G18G21G22G27G29G31
  21852951.700   114838046.24809  21852948.300    89484186.67947
  23084321.700   121308987.94509  23084319.720    94526487.87246
  21223825.040   111531958.69308  21223821.460    86908008.39348
  24419152.900   128323518.48005                                
  22903289.680   120357627.22508  22903289.660    93785174.91147
  23868311.660   125428810.72508  23868309.140    97736722.38946
  22417877.280   117806726.73909  22417874.580    91797433.25348
 15 02 19 00 24 30.0000000  0  7G16G18G21G22G27G29G31
  21839200.440   114765782.96209  21839197.180    89427877.63847
  23071946.920   121243957.98209  23071944.940    94475815.20246
  21229889.300   111563826.74409  21229885.700    86932840.64348
  24401955.040   128233140.48806                                
  22891094.740   120293542.48608  22891094.540    93735238.78747
  23882781.380   125504849.58208  23882779.460    97795973.33246
  22434382.360   117893461.36509  22434379.720    91865018.63047
 15 02 19 00 25  0.0000000  0  7G16G18G21G22G27G29G31
  21825489.980   114693733.78809  21825486.600    89371735.42447
  23059614.480   121179150.67208  23059612.440    94425316.03746
  21236025.880   111596074.65209  21236022.240    86957968.88648
  24384744.920   128142694.59909                                
  22878924.260   120229586.86208  22878924.060    93685403.27547
  23897252.040   125580894.44608  23897250.600    97855228.95247
  22450937.400   117980458.50309  22450934.800    91932808.56847
 15 02 19 00 25 30.0000000  0  7G16G18G21G22G27G29G31
  21811819.620   114621895.65609  21811816.320    89315757.66947
  23047323.940   121114563.67209  23047321.860    94374988.53146
  21242233.440   111628695.67709  21242229.780    86983387.86548
  24367522.360   128052183.63606  24367521.980    99780923.02444
  22866777.420   120165755.28908  22866777.160    93635664.41547
  23911723.220   125656940.27709  23911721.660    97914485.40746
  22467540.900   118067710.29509  22467538.260    92000796.92847
 15 02 19 00 26  0.0000000  0  7G16G18G21G22G27G29G31
  21798188.040   114550261.31709  21798184.820    89259938.71247
  23035073.980   121050190.11808  23035071.880    94324827.35346
  21248509.860   111661678.58409  21248506.220    87009088.83248
  24350285.520   127961615.09408  24350284.040    99710345.15346
  22854652.400   120102038.17308  22854652.120    93586014.74947
  23926192.860   125732977.28808  23926190.440    97973735.06245
  22484190.500   118155204.42109  22484187.840    92068974.12847
 15 02 19 00 26 30.0000000  0  7G16G18G21G22G27G29G31
  21784600.760   114478859.95209  21784597.520    89204301.30547
  23022870.360   120986059.73009  23022868.240    94274855.63246
  21254860.060   111695049.31709  21254856.480    87035091.99748
  24333039.560   127870987.37008  24333037.860    99639726.28745
  22842554.260   120038462.49608  22842554.080    93536475.27547
  23940665.600   125809032.24208  23940663.320    98032998.61146
  22500890.860   118242965.37609  22500888.200    92137359.24547
 15 02 19 00 27  0.0000000  0  7G16G18G21G22G27G29G31
  21771058.580   114407695.21309  21771055.260    89148848.26647
  23010713.780   120922176.58408  23010711.700    94225076.57046
  21261284.020   111728807.78608  21261280.480    87061397.28948
  24315785.380                                                  
  22830483.340   119975029.99608  22830483.240    93487047.37547
  23955142.020   125885107.02808  23955140.240    98092277.59646
  22517641.740   118330991.82609  22517639.160    92205951.23747
 15 02 19 00 27 30.0000000  0  7G16G18G21G22G27G29G31
  21757555.900   114336738.02509  21757552.500    89093556.95447
  22998598.700   120858511.95008  22998596.720    94175467.78946
  21267775.520   111762921.17708  21267771.980    87087979.15648
  24298518.940   127689577.62904  24298516.860    99498366.66844
  22818433.720   119911709.40408  22818433.660    93437706.66147
  23969616.380   125961170.19808  23969614.880    98151547.54546
  22534436.660   118419249.64809  22534434.140    92274723.52247
 15 02 19 00 28  0.0000000  0  7G16G18G21G22G27G29G31
  21744096.240   114266006.74009  21744092.840    89038441.67947
  22986528.860   120795084.96208  22986527.000    94126044.19246
  21274337.300   111797403.90608  21274333.760    87114848.82548
  24281242.760   127598789.51807  24281240.300    99427618.65342
  22806408.520   119848516.79808  22806408.520    93388465.71847
  23984091.440   126037237.20408  23984090.040    98210820.50246
  22551278.120   118507752.19109  22551275.700    92343686.48547
 15 02 19 00 28 30.0000000  0  7G16G18G21G22G27G29G31
  21730676.560   114195485.77709  21730673.160    88983490.29847
  22974501.460   120731880.56509  22974499.660    94076794.03946
  21280965.780   111832237.17608  21280962.260    87141991.63148
  24263953.720   127507935.40408  24263951.960    99356824.87743
  22794404.380   119785434.60908  22794404.360    93339310.79847
  23998563.900   126113290.89208  23998562.240    98270083.07345
  22568162.320   118596479.24509  22568159.920    92412824.40947
 15 02 19 00 29  0.0000000  0  7G16G18G21G22G27G29G31
  21717306.940   114125227.74009  21717303.460    88928743.78448
  22962526.500   120668951.64408  22962524.640    94027758.54046
  21287670.400   111867470.04808  21287666.880    87169445.82748
  24246663.020   127417074.90009  24246660.700    99286021.63555
  22782430.860   119722513.24008  22782430.800    93290281.20147
  24013043.600   126189381.56908  24013041.640    98329374.51246
  22585098.320   118685478.32909  22585095.940    92482174.29747
 15 02 19 00 29 30.0000000  0  7G16G18G21G22G27G29G31
  21703977.900   114055182.84109  21703974.360    88874163.34348
  22950594.560   120606248.82609  22950592.700    93978899.21846
  21294440.920   111903048.93409  21294437.400    87197169.63348
  24229359.840   127326146.47807  24229359.320    99215173.87145
  22770477.960   119659700.70208  22770477.960    93241336.37447
  24027520.500   126265456.97608  24027518.640    98388654.00046
  22602075.720   118774694.77409  22602073.320    92551693.55847
 15 02 19 00 30  0.0000000  0  7G16G18G21G22G27G29G31
  21690694.680   113985378.82309  21690691.000    88819770.61848
  22938711.040   120543800.48609  22938709.120    93930238.20346
  21301281.860   111938997.87209  21301278.280    87225181.79248
  24212051.200   127235182.87307  24212049.840    99144292.29045
  22758550.640   119597022.78508  22758550.820    93192496.47247
  24041999.260   126341543.11308  24041997.600    98447941.81646
  22619098.800   118864151.52109  22619096.340    92621400.06547
 15 02 19 00 30 30.0000000  0  7G16G18G21G22G27G29G31
  21677451.960   113915787.76209  21677448.300    88765543.82248
  22926870.680   120481578.97709  22926868.720    93881753.94146
  21308187.040   111975284.81708  21308183.460    87253457.33848
  24194730.220   127144161.44108  24194728.600    99073361.55546
  22746643.280   119534449.29408  22746643.400    93143737.94047
  24056473.860   126417609.48607  24056472.580    98507214.23246
  22636161.260   118953815.43209  22636158.860    92691268.00547
 15 02 19 00 31  0.0000000  0  7G16G18G21G22G27G29G31
  21664259.000   113846458.21109  21664255.300    88711520.80748
  22915082.940   120419633.82209  22915081.000    93833485.02446
  21315165.220   112011955.29009  21315161.600    87282031.72648
  24177407.000   127053128.33608  24177405.900    99002434.91444
  22734764.700   119472026.80808  22734764.660    93095097.05747
  24070953.640   126493702.23908  24070952.400    98566507.25646
  22653271.480   119043730.21609  22653269.160    92761331.41947
 15 02 19 00 31 30.0000000  0  7G16G18G21G22G27G29G31
  21651112.160   113777370.80309  21651108.380    88657686.45747
  22903344.120   120357945.76209  22903342.200    93785416.42646
  21322212.000   112048986.23209  21322208.320    87310887.00848
  24160077.800   126962063.95708  24160076.340    98931468.67345
  22722910.760   119409733.57808  22722910.700    93046556.91747
  24085434.620   126569799.80408  24085433.460    98625804.03946
  22670424.840   119133871.66909  22670422.580    92831571.45547
 15 02 19 00 32  0.0000000  0  7G16G18G21G22G27G29G31
  21638006.460   113708499.65909  21638002.660    88604020.62747
  22891649.420   120296489.48109  22891647.400    93737528.44146
  21329321.700   112086347.70609  21329317.940    87339999.85348
  24142738.020   126870943.24507  24142736.720    98860465.32644
  22711076.040   119347541.74408  22711076.020    92998095.77447
  24099911.420   126645874.75008  24099910.120    98685083.16946
  22687615.480   119224208.82309  22687613.260    92901963.99847
 15 02 19 00 32 30.0000000  0  7G16G18G21G22G27G29G31
  21624950.160   113639888.64709  21624946.420    88550557.51047
  22880007.180   120235309.06209  22880005.080    93689855.41746
  21336502.020   112124080.18709  21336498.260    87369401.79648
  24125396.200   126779811.83908  24125395.160    98789458.21047
  22699268.460   119285492.84508  22699268.400    92949746.02148
  24114391.500   126721968.01608  24114390.220    98744376.55346
  22704850.800   119314780.66809  22704848.600    92972539.40847
 15 02 19 00 33  0.0000000  0  7G16G18G21G22G27G29G31
  21611941.600   113571528.33109  21611937.880    88497289.73048
  22868415.700   120174395.24509  22868413.480    93642390.11746
  21343750.320   112162169.94009  21343746.540    87399082.12648
  24108050.180   126688658.47406  24108049.240    98718431.49454
  22687485.900   119223575.33408  22687485.760    92901498.63248
  24128872.960   126798068.11608  24128871.540    98803675.31645
  22722128.000   119405572.39709  22722125.740    93043286.15447
 15 02 19 00 33 30.0000000  0  7G16G18G21G22G27G29G31
  21598979.320   113503410.84809  21598975.520    88444211.17448
  22856873.580   120113741.00609  22856871.420    93595127.11046
  21351064.400   112200605.69809  21351060.700    87429032.07748
  24090698.920   126597477.84408  24090698.260    98647382.01445
  22675726.540   119161779.24108  22675726.320    92853345.84547
  24143353.820   126874165.08608  24143352.080    98862971.69745
  22739444.620   119496571.39709  22739442.320    93114194.41747
 15 02 19 00 34  0.0000000  0  7G16G18G21G22G27G29G31
  21586064.680   113435543.93409  21586060.880    88391327.87048
  22845382.340   120053354.42909  22845380.220    93548072.65547
  21358444.980   112239390.96009  21358441.320    87459254.36348
  24073343.900   126506277.56607  24073343.060    98576317.29643
  22663991.440   119100110.14908  22663991.060    92805292.02648
  24157834.820   126950264.24308  24157833.380    98922269.72546
  22756801.180   119587780.35709  22756798.820    93185266.27947
 15 02 19 00 34 30.0000000  0  7G16G18G21G22G27G29G31
  21573198.060   113367929.71509  21573194.380    88338641.47848
  22833942.440   119993237.43309  22833940.280    93501228.26946
  21365891.900   112278524.84408  21365888.300    87489748.30348
  24055985.520   126415060.05608  24055984.560    98505239.21446
  22652280.520   119038567.88808  22652280.060    92757337.03348
  24172316.340   127026365.54108  24172315.280    98981569.35246
  22774197.100   119679196.27409  22774194.740    93256499.41147
 15 02 19 00 35  0.0000000  0  7G16G18G21G22G27G29G31
  21560379.640   113300568.99109  21560376.060    88286152.61548
  22822554.160   119933391.59909  22822551.940    93454595.17446
  21373404.480   112318003.81309  21373400.920    87520511.13648
  24038623.960   126323826.46808  24038622.960    98434148.66846
  22640593.300   118977151.03708  22640592.820    92709479.77048
  24186798.200   127102467.51708  24186797.200    99040869.52147
  22791631.620   119770815.08209  22791629.260    93327890.62747
 15 02 19 00 35 30.0000000  0  7G16G18G21G22G27G29G31
  21547610.180   113233465.22109  21547606.720    88233863.97348
  22811218.200   119873820.74509  22811215.900    93408176.35046
  21380982.740   112357827.95708  21380979.200    87551542.95048
  24021260.080   126232580.96708  24021259.080    98363048.96046
  22628930.240   118915861.12008  22628929.720    92661721.42948
  24201280.560   127178571.65008  24201279.360    99100171.43346
  22809104.500   119862635.32409  22809102.120    93399438.81647
 15 02 19 00 36  0.0000000  0  7G16G18G21G22G27G29G31
  21534890.340   113166622.00509  21534886.800    88181778.33848
  22799935.320   119814528.98709  22799933.020    93361974.99846
  21388626.560   112397996.91409  21388623.060    87582843.43148
  24003894.640   126141327.49908  24003893.580    98291942.95546
  22617291.560   118854699.54608  22617291.040    92614063.08348
  24215763.260   127254679.03807  24215762.040    99159475.86946
  22826615.460   119954655.68509  22826613.080    93471142.93047
 15 02 19 00 36 30.0000000  0  7G16G18G21G22G27G29G31
  21522220.900   113100043.60609  21522217.380    88129899.07848
  22788706.380   119755520.76909  22788704.120    93315994.59146
  21396336.120   112438511.13309  21396332.660    87614412.95648
  23986528.440   126050070.14008  23986527.360    98220833.58946
  22605677.600   118793668.20808  22605677.120    92566506.21448
  24230246.800   127330792.10208  24230245.980    99218784.64146
  22844164.300   120046875.14909  22844161.920    93543002.19547
 15 02 19 00 37  0.0000000  0  7G16G18G21G22G27G29G31
  21509600.140   113033721.08309  21509596.660    88078219.19248
  22777529.760   119696787.38909  22777527.560    93270228.35446
  21404108.920   112479357.66709  21404105.520    87646241.42648
  23969160.020   125958800.76608  23969158.940    98149714.71746
  22594086.340   118732755.97008  22594085.820    92519042.15548
  24244729.680   127406899.14408  24244728.780    99278088.77246
  22861748.260   120139279.44009  22861745.900    93615005.48047
 15 02 19 00 37 30.0000000  0  7G16G18G21G22G27G29G31
  21497029.860   112967664.23909  21497026.500    88026746.33748
  22766407.440   119638339.12509  22766405.240    93224684.27047
  21411946.200   112520542.98308  21411942.840    87678333.88848
  23951791.420   125867529.63908  23951790.280    98078594.18246
  22582519.240   118671970.84108  22582518.700    92471677.14048
  24259213.100   127483008.34608  24259211.940    99337394.61746
  22879368.460   120231873.95109  22879366.060    93687156.97947
 15 02 19 00 38  0.0000000  0  7G16G18G21G22G27G29G31
  21484510.600   112901875.44609  21484507.280    87975482.33448
  22755339.820   119580178.39409  22755337.620    93179364.24346
  21419847.620   112562065.37508  21419844.280    87710688.99148
  23934423.320   125776260.08308  23934422.220    98007474.86146
  22570976.460   118611312.80208  22570975.820    92424411.13148
  24273696.740   127559119.33908  24273695.180    99396701.84645
  22897024.320   120324655.87409  22897021.900    93759454.51847
 15 02 19 00 38 30.0000000  0  7G16G18G21G22G27G29G31
  21472042.860   112836357.34309  21472039.620    87924429.27348
  22744327.560   119522308.69009  22744325.300    93134270.99246
  21427812.980   112603923.65608  21427809.660    87743305.82748
  23917056.400   125684996.00308  23917055.380    97936360.08546
  22559457.980   118550782.53108  22559457.320    92377244.71948
  24288180.540   127635232.93408  24288178.640    99456011.12645
  22914715.420   120417622.85909  22914712.980    93831896.25947
 15 02 19 00 39  0.0000000  0  7G16G18G21G22G27G29G31
  21459626.720   112771110.04809  21459623.460    87873587.22748
  22733370.680   119464730.00509  22733368.360    93089404.52046
  21435841.540   112646114.00508  21435838.160    87776181.42548
  23899690.440   125593737.24308  23899689.460    97865249.59946
  22547963.300   118490377.73508  22547962.700    92330176.08248
  24302664.540   127711347.18808  24302662.740    99515320.88246
  22932440.780   120510769.84709  22932438.340    93904478.27347
 15 02 19 00 39 30.0000000  0  7G16G18G21G22G27G29G31
  21447262.460   112706135.59409  21447259.260    87822957.79048
  22722469.540   119407444.20909  22722467.120    93044766.24446
  21443932.920   112688634.47009  21443929.460    87809314.25348
  23882325.980   125502486.48208  23882324.820    97794145.50546
  22536492.440   118430098.09608  22536491.880    92283204.95348
  24317148.660   127787461.33208  24317147.200    99574630.54146
  22950199.700   120604093.44909  22950197.340    93977197.88947
 15 02 19 00 40  0.0000000  0  7G16G18G21G22G27G29G31
  21434950.420   112641435.80409  21434947.340    87772542.38048
  22711624.720   119350454.38509  22711622.260    93000358.61146
  21452086.840   112731483.65908  21452083.320    87842703.22848
  23864963.420   125411246.07308  23864962.140    97723049.46846
  22525045.400   118369943.67608  22525044.960    92236331.40348
  24331632.940   127863575.83908  24331631.660    99633940.47446
  22967991.740   120697591.09309  22967989.380    94050053.12647
 15 02 19 00 40 30.0000000  0  7G16G18G21G22G27G29G31
  21422691.780   112577016.57909  21422688.680    87722345.59848
  22700837.300   119293766.25709  22700834.800    92956186.07546
  21460303.600   112774662.96709  21460300.080    87876349.45148
  23847604.020   125320022.80908  23847602.620    97651966.89446
  22513622.800   118309917.99608  22513622.340    92189558.15948
  24346117.800   127939693.88708  24346116.600    99693253.19246
  22985817.040   120791263.37709  22985814.660    94123044.45747
 15 02 19 00 41  0.0000000  0  7G16G18G21G22G27G29G31
  21410486.460   112512877.58609  21410483.420    87672367.17048
  22690107.280   119237379.58209  22690104.800    92912248.41846
  21468582.420   112818168.14709  21468578.760    87910249.59448
  23830247.680   125228816.36108  23830246.220    97580897.44246
  22502224.180   118250018.47508  22502223.740    92142883.21548
  24360602.800   128015812.54508  24360601.400    99752566.39145
  23003674.500   120885104.63709  23003672.100    94196167.43747
 15 02 19 00 41 30.0000000  0  7G16G18G21G22G27G29G31
  21398334.300   112449017.80709  21398331.320    87622606.30748
  22679434.480   119181293.50009  22679431.940    92868545.00946
  21476922.360   112861994.57209  21476918.580    87944400.06348
  23812894.600   125137627.52508  23812893.200    97509842.34946
  22490849.020   118190242.12008  22490848.620    92096304.25648
  24375087.520   128091929.49308  24375085.700    99811878.28845
  23021563.060   120979109.05009  23021560.620    94269417.56547
 15 02 19 00 42  0.0000000  0  7G16G18G21G22G27G29G31
  21386236.700   112385444.57409  21386233.700    87573068.73548
  22668820.360   119125515.84209  22668817.760    92825081.91046
  21485324.060   112906145.69309  21485320.160    87978803.54148
  23795545.840   125046461.87708  23795544.200    97438804.80046
  22479498.320   118130594.10508  22479497.860    92049825.30748
  24389572.680   128168049.58308  24389570.900    99871192.59145
  23039483.140   121073279.34609  23039480.760    94342796.94947
 15 02 19 00 42 30.0000000  0  7G16G18G21G22G27G29G31
  21374193.840   112322159.10909  21374190.840    87523755.39248
  22658265.180   119070047.81009  22658262.480    92781860.08246
  21493787.020   112950618.83509  21493783.060    88013457.94748
  23778201.880   124955321.77408  23778200.100    97367786.96746
  22468171.880   118071073.24208  22468171.300    92003445.44348
  24404058.040   128244171.47308  24404056.560    99930508.26145
  23057433.900   121167610.88809  23057431.480    94416301.97347
 15 02 19 00 43  0.0000000  0  7G16G18G21G22G27G29G31
  21362205.600   112259160.41209  21362202.540    87474665.49248
  22647768.860   119014888.99709  22647766.080    92738879.21446
  21502310.320   112995409.05309  21502306.280    88048359.41348
  23760862.840   124864207.07308  23760860.900    97296788.84846
  22456869.080   118011676.60908  22456868.460    91957162.36748
  24418543.380   128320292.43208  24418542.020    99989823.26246
  23075414.240   121262097.91009  23075411.740    94489928.15247
 15 02 19 00 43 30.0000000  0  7G16G18G21G22G27G29G31
  21350272.360   112196450.86709  21350269.240    87425800.92048
  22637331.800   118960041.64609  22637328.940    92696141.03846
  21510893.720   113040514.84809  21510889.660    88083506.79348
  23743529.240   124773120.66608  23743527.240    97225812.77446
  22445589.980   117952404.31209  22445589.300    91910976.19048
  24433028.580   128396412.23908  24433027.280   100049137.35145
  23093423.680   121356737.89809  23093421.140    94563673.53047
 15 02 19 00 44  0.0000000  0  7G16G18G21G22G27G29G31
  21338395.240   112134036.18809  21338392.180    87377166.10548
  22626955.040   118905511.47009  22626952.120    92653650.01446
  21519537.540   113085938.13709  21519533.440    88118901.56348
  23726202.300   124682068.87108  23726200.300    97154863.64746
  22434335.260   117893259.86309  22434334.460    91864889.61048
  24447514.300   128472534.96108  24447512.900   100108453.73845
  23111462.300   121451531.35209  23111459.840    94637538.47147
 15 02 19 00 44 30.0000000  0  7G16G18G21G22G27G29G31
  21326574.140   112071915.80209  21326571.080    87328760.62448
  22616638.640   118851298.35609  22616635.580    92611406.04246
  21528240.900   113131674.26909  21528236.780    88154540.11048
  23708882.040   124591051.92208  23708879.980    97083941.60346
  22423104.400   117834240.59909  22423103.520    91818900.60448
  24461999.980   128548657.67608  24461998.640   100167770.09645
  23129529.120   121546472.78009  23129526.680    94711518.72547
 15 02 19 00 45  0.0000000  0  7G16G18G21G22G27G29G31
  21314809.520   112010091.97309  21314806.400    87280586.20948
  22606383.040   118797404.98209  22606379.980    92569411.21746
  21537003.480   113177721.63009  21536999.360    88190421.18348
  23691569.000   124500072.47808  23691566.900    97013048.78246
  22411897.380   117775346.70209  22411896.380    91773009.27248
  24476485.660   128624780.37808  24476484.360   100227086.42645
  23147623.540   121641559.43109  23147621.160    94785612.14947
 15 02 19 00 45 30.0000000  0  7G16G18G21G22G27G29G31
  21303101.980   111948568.24009  21303098.840    87232645.65148
  22596188.860   118743834.32309  22596185.860    92527667.86946
  21545825.180   113224079.97709  21545821.100    88226544.56948
  23674263.840   124409134.27108  23674261.640    96942188.09346
  22400714.420   117716579.42009  22400713.300    91727216.59348
  24490971.580   128700904.24608  24490970.180   100286403.69745
  23165745.280   121736789.53309  23165743.020    94859817.34247
 15 02 19 00 46  0.0000000  0  7G16G18G21G22G27G29G31
  21291451.640   111887344.77809  21291448.340    87184939.05748
  22586056.180   118690587.19309  22586053.340    92486176.61546
  21554705.360   113270745.45109  21554701.340    88262907.27748
  23656966.740   124318238.16608  23656964.440    96871360.17546
  22389555.160   117657936.64709  22389553.920    91681520.93748
  24505457.400   128777027.80208  24505456.040   100345720.73945
  23183893.400   121832158.20909  23183891.240    94934130.50547
 15 02 19 00 46 30.0000000  0  7G16G18G21G22G27G29G31
  21279859.320   111826426.48109  21279855.900    87137470.26248
  22575986.120   118637668.87809  22575983.380    92444941.58946
  21563644.200   113317719.20909  21563640.240    88299510.22048
  23639678.760   124227390.10908  23639676.380    96800569.69846
  22378420.100   117599421.33909  22378418.740    91635924.61748
  24519943.660   128853153.28408  24519942.400   100405039.23745
  23202067.840   121927665.32509  23202065.800    95008551.55347
 15 02 19 00 47  0.0000000  0  7G16G18G21G22G27G29G31
  21268325.020   111765813.23109  21268321.560    87090239.15248
  22565978.520   118585078.94009  22565975.800    92403962.43946
  21572640.820   113364996.64109  21572636.940    88336349.77848
  23622399.940   124136590.05108  23622397.400    96729816.58647
  22367308.780   117541031.06309  22367307.380    91590425.71748
  24534429.760   128929278.25308  24534428.680   100464357.32145
  23220267.620   122023305.54709  23220265.640    95083076.31547
 15 02 19 00 47 30.0000000  0  7G16G18G21G22G27G29G31
  21256849.260   111705507.71309  21256845.780    87043247.85448
  22556033.920   118532820.22109  22556031.220    92363241.37846
  21581695.080   113412577.16109  21581691.260    88373425.50648
  23605130.880   124045841.39308  23605128.280    96659103.53046
  22356221.400   117482766.52209  22356220.000    91545024.80348
  24548916.000   129005403.87908  24548915.020   100523675.96045
  23238492.340   122119076.84209  23238490.380    95157703.21447
 15 02 19 00 48  0.0000000  0  6G16G18G21G22G27G31
  21245422.200   111645457.83709  21245418.680    86996455.74048
  22546142.480   118480840.88409  22546139.860    92322738.01546
  21590796.240   113460404.50809  21590792.540    88410693.56148
  23587861.880   123955092.62908  23587859.180    96588390.37446
  22345147.620   117424573.45209  22345146.260    91499679.57248
  23256731.080   122214921.83909  23256729.080    95232387.54447
 15 02 19 00 48 30.0000000  0  7G16G18G19G21G22G27G31
  21234066.740   111585784.48109  21234063.300    86949957.04048
  22536327.240   118429261.64909  22536324.540    92282546.42446
  24538317.320   128949718.36808  24538313.480   100480295.63345
  21599966.720   113508595.93909  21599963.080    88448245.33048
  23570615.940   123864465.26808  23570613.080    96517771.82446
  22334110.060   117366570.67809  22334108.720    91454482.61948
  23275005.980   122310956.61109  23275003.940    95307219.75047
 15 02 19 00 49  0.0000000  0  7G16G18G19G21G22G27G31
  21222768.060   111526409.70909  21222764.660    86903690.98448
  22526573.380   118378004.86109  22526570.720    92242606.08446
  24523221.740   128870388.43407  24523217.380   100418480.12346
  21609190.860   113557069.59508  21609187.380    88486017.01448
  23553378.400   123773882.07508  23553375.440    96447187.67846
  22323093.480   117308678.11709  22323092.160    91409371.55748
  23293301.160   122407098.08909  23293299.140    95382135.10147
 15 02 19 00 49 30.0000000  0  7G16G18G19G21G22G27G31
  21211532.920   111467368.94409  21211529.580    86857685.20148
  22516887.660   118327106.09809  22516885.000    92202944.72846
  24508145.820   128791165.12708  24508141.960   100356747.78045
  21618474.540   113605856.37809  21618471.160    88524032.67648
  23536156.080   123683378.84208  23536152.980    96376665.83846
  22312104.100   117250928.72709  22312102.800    91364372.05348
  23311622.320   122503376.24609  23311620.320    95457156.94947
 15 02 19 00 50  0.0000000  0  7G16G18G19G21G22G27G31
  21200356.400   111408636.15009  21200353.060    86811919.40248
  22507265.080   118276539.18809  22507262.460    92163541.96246
  24493085.120   128712021.20608  24493081.260   100295077.25344
  21627812.140   113654926.64508  21627808.860    88562269.24448
  23518944.200   123592930.09908  23518940.840    96306186.44446
  22301136.660   117193294.85109  22301135.320    91319462.56448
  23329963.760   122599760.92409  23329961.880    95532261.80247
 15 02 19 00 50 30.0000000  0  7G16G18G19G21G22G27G31
  21189241.340   111350225.93209  21189237.900    86766404.95048
  22497708.580   118226319.28409  22497705.880    92124409.57946
  24478041.880   128632969.42808  24478038.080   100233478.53645
  21637205.800   113704291.15108  21637202.580    88600735.09248
  23501745.660   123502551.22708  23501742.160    96235761.49246
  22290193.580   117135788.88509  22290192.180    91274652.74348
  23348327.180   122696261.19509  23348325.440    95607456.72847
 15 02 19 00 51  0.0000000  0  7G16G18G19G21G22G27G31
  21178187.560   111292138.25209  21178184.100    86721141.81748
  22488218.000   118176445.73909  22488215.300    92085547.09546
  24463015.540   128554006.94207  24463011.680   100171949.36345
  21646654.680   113753945.64709  21646651.520    88639426.90248
  23484560.440   123412242.57009  23484556.820    96165391.23946
  22279274.400   117078408.16709  22279272.980    91229940.49948
  23366711.540   122792871.26509  23366709.840    95682737.19547
 15 02 19 00 51 30.0000000  0  7G16G18G19G21G22G27G31
  21167195.580   111234375.22509  21167192.200    86676131.67248
  22478793.620   118126920.37209  22478791.000    92046955.92146
  24448006.420   128475133.88408  24448002.800   100110489.89245
  21656158.380   113803887.94908  21656155.280    88678342.98348
  23467389.100   123322006.62708  23467385.320    96095077.64646
  22268379.080   117021152.69009  22268377.480    91185325.87048
  23385116.320   122889588.36709  23385114.540    95758101.08747
 15 02 19 00 52  0.0000000  0  7G16G18G19G21G22G27G31
  21156265.980   111176939.65009  21156262.620    86631376.68748
  22469436.180   118077746.76409  22469433.560    92008638.84446
  24433014.500   128396351.46708  24433010.980   100049101.07344
  21665716.780   113854117.54809  21665713.660    88717482.93148
  23450232.260   123231847.24509  23450228.420    96024823.71946
  22257507.740   116964023.56009  22257506.040    91140809.68848
  23403541.180   122986411.13709  23403539.380    95833547.30147
 15 02 19 00 52 30.0000000  0  7G16G18G19G21G22G27G31
  21145399.260   111119834.47809  21145395.880    86586879.15048
  22460146.240   118028927.62909  22460143.580    91970597.96846
  24418039.800   128317660.03308  24418036.380    99987783.10946
  21675329.600   113904632.91909  21675326.400    88756845.56648
  23433090.720   123141767.86308  23433086.760    95954632.10146
  22246660.540   116907021.69609  22246658.960    91096392.66148
  23421985.720   123083337.22308  23421983.840    95909074.01347
 15 02 19 00 53  0.0000000  0  7G16G18G19G21G22G27G31
  21134595.000   111063057.51909  21134591.540    86542637.36848
  22450923.380   117980461.01009  22450920.740    91932831.79546
  24403081.900   128239055.73008  24403078.540    99926533.09745
  21684995.880   113955429.12209  21684992.460    88796427.02248
  23415964.100   123051767.01408  23415960.000    95884501.69146
  22235836.740   116850142.62409  22235835.300    91052071.32748
  23440448.460   123180359.05709  23440446.560    95984675.33747
 15 02 19 00 53 30.0000000  0  7G16G18G19G21G22G27G31
  21123854.800   111006617.16609  21123851.200    86498657.87348
  22441769.080   117932354.79709  22441766.460    91895346.45346
  24388141.580   128160544.24407  24388138.240    99865355.37245
  21694716.160   114006509.38609  21694712.660    88836229.83248
  23398854.060   122961853.28908  23398849.820    95814439.17346
  22225037.520   116793392.37209  22225036.040    91007850.36948
  23458930.040   123277479.89709  23458928.160    96060353.81647
 15 02 19 00 54  0.0000000  0  7G16G18G19G21G22G27G31
  21113178.140   110950510.79509  21113174.480    86454938.62048
  22432682.940   117884606.83809  22432680.380    91858140.26546
  24373218.280   128082121.77008  24373214.900    99804247.03145
  21704489.320   114057867.56508  21704485.740    88876249.19048
  23381760.300   122872025.15808  23381756.000    95744443.33546
  22214262.020   116736766.68209  22214260.520    90963726.46348
