     2.11           OBSERVATION DATA    G                   RINEX VERSION / TYPE
SPIDER V4,0,0,3554                      2015 04 16 04:16    PGM / RUN BY / DATE 
CABS                                                        MARKER NAME         
CABS                                                        MARKER NUMBER       
                                                            OBSERVER / AGENCY   
462287              LEICA GRX1200PRO    8.10/2.127          REC # / TYPE / VERS 
103298              LEIAT504                                ANT # / TYPE        
  5116912.3402   671231.6412  3737143.4301                  APPROX POSITION XYZ 
        0.0600        0.0000        0.0000                  ANTENNA: DELTA H/E/N
     1     1                                                WAVELENGTH FACT L1/2
     4    C1    L1    P2    L2                              # / TYPES OF OBSERV 
    30.000                                                  INTERVAL            
  2015    02    10    00    00    0.0000000     GPS         TIME OF FIRST OBS   
  2015    02    10    23    59   30.0000000     GPS         TIME OF LAST OBS    
    16                                                      LEAP SECONDS        
    30                                                      # OF SATELLITES     
   G 1   802   802   802   802                              PRN / # OF OBS      
   G 2   940   940   940   940                              PRN / # OF OBS      
   G 3   847   847   847   847                              PRN / # OF OBS      
   G 4   832   832   831   831                              PRN / # OF OBS      
   G 5   641   641   641   641                              PRN / # OF OBS      
   G 6   811   811   811   811                              PRN / # OF OBS      
   G 7   672   672   672   672                              PRN / # OF OBS      
   G 9   807   807   807   807                              PRN / # OF OBS      
   G10   752   752   752   752                              PRN / # OF OBS      
   G11   769   769   769   769                              PRN / # OF OBS      
   G12   815   815   815   815                              PRN / # OF OBS      
   G13   791   791   791   791                              PRN / # OF OBS      
   G14   940   940   940   940                              PRN / # OF OBS      
   G15   683   683   683   683                              PRN / # OF OBS      
   G16   666   666   666   666                              PRN / # OF OBS      
   G17   942   942   942   942                              PRN / # OF OBS      
   G18   894   894   893   893                              PRN / # OF OBS      
   G19   750   750   750   750                              PRN / # OF OBS      
   G20   796   796   796   796                              PRN / # OF OBS      
   G21   740   740   740   740                              PRN / # OF OBS      
   G22   657   657   657   657                              PRN / # OF OBS      
   G23   755   755   755   755                              PRN / # OF OBS      
   G24   818   818   818   818                              PRN / # OF OBS      
   G25   855   855   855   855                              PRN / # OF OBS      
   G27   793   793   793   793                              PRN / # OF OBS      
   G28   877   877   877   877                              PRN / # OF OBS      
   G29   765   765   765   765                              PRN / # OF OBS      
   G30   718   718   718   718                              PRN / # OF OBS      
   G31   870   870   870   870                              PRN / # OF OBS      
   G32   769   769   769   769                              PRN / # OF OBS      
BIT 2 OF LLI FLAGS DATA COLLECTED UNDER A/S CONDITION       COMMENT             
SNR is mapped to RINEX snr flag value [2-9]                 COMMENT             
Lx:     = 25dBHz -> 1; 26-27dBHz -> 2; 28-31dBHz -> 3       COMMENT             
       32-35dBHz -> 4; 36-38dBHz -> 5; 39-41dBHz -> 6       COMMENT             
       42-44dBHz -> 7; 45-48dBHz -> 8; >=49dBHz -> 9        COMMENT             
                                                            END OF HEADER       
 15 02 10 00 00  0.0000000  0  5G16G21G25G29G31
  24084839.580   126566685.15706  24084841.200    98623403.11345
  21043274.820   110583314.99408  21043275.860    86168900.05949
  22421521.800   117826064.08408  22421525.900    91812604.03147
  21720584.600   114142870.10708  21720586.380    88942699.05648
  21213978.200   111480215.90009  21213979.420    86867706.41649
 15 02 10 00 00 30.0000000  0  5G16G21G25G29G31
  24067477.900   126475449.43606  24067479.660    98552310.38344
  21038224.760   110556776.81308  21038225.760    86148220.97149
  22435501.940   117899529.78808  22435506.100    91869850.00747
  21732474.760   114205353.27008  21732476.580    88991387.22648
  21221253.640   111518448.72909  21221254.880    86897498.21249
 15 02 10 00 01  0.0000000  0  5G16G21G25G29G31
  24050118.220   126384223.78606  24050120.080    98481225.49545
  21033260.360   110530688.56508  21033261.300    86127892.47749
  22449534.420   117973270.32108  22449538.720    91927310.14547
  21744385.760   114267945.84808  21744387.560    89040160.65748
  21228627.800   111557200.20709  21228629.080    86927694.14649
 15 02 10 00 01 30.0000000  0  5G16G21G25G29G31
  24032761.600   126293014.20306  24032763.440    98410153.12044
  21028382.560   110505055.19108  21028383.420    86107918.43149
  22463619.960   118047289.67408  22463624.400    91984987.53647
  21756318.280   114330651.30608  21756320.020    89089022.04348
  21236101.220   111596473.29909  21236102.500    86958296.53449
 15 02 10 00 02  0.0000000  0  5G16G21G25G29G31
  24015408.700   126201824.17406  24015410.580    98339095.97745
  21023591.760   110479879.11408  21023592.580    86088300.72149
  22477758.820   118121589.50708  22477763.360    92042883.48747
  21768272.600   114393471.42408  21768274.320    89137972.77048
  21243674.080   111636268.87909  21243675.360    86989306.05249
 15 02 10 00 02 30.0000000  0  5G16G21G25G29G31
  23998058.220   126110646.85806  23998060.100    98268048.74445
  21018886.360   110455152.03908  21018887.200    86069032.88349
  22491949.280   118196161.05307  22491953.860    92100991.16347
  21780246.940   114456396.71708  21780248.580    89187005.45148
  21251344.560   111676577.10809  21251345.780    87020715.03549
 15 02 10 00 03  0.0000000  0  5G16G21G25G29G31
  23980711.340   126019488.12006  23980713.120    98197015.98245
  21014267.280   110430878.57608  21014268.160    86050118.50249
  22506192.140   118271008.21907  22506196.720    92159313.61747
  21792241.980   114519430.64408  21792243.540    89236122.78148
  21259113.160   111717400.97009  21259114.340    87052525.81149
 15 02 10 00 03 30.0000000  0  6G16G18G21G25G29G31
  23963368.460   125928350.56806  23963370.080    98125999.72845
  24453053.140   128501658.08405                                
  21009734.800   110407060.41608  21009735.720    86031558.90749
  22520487.600   118346131.69107  22520492.140    92217851.36947
  21804257.800   114582573.59208  21804259.260    89285325.06848
  21266979.840   111758740.47909  21266981.040    87084738.39349
 15 02 10 00 04  0.0000000  0  6G16G18G21G25G29G31
  23946029.240   125837232.42006  23946030.820    98054998.59445
  24437930.660   128422188.98606  24437942.220   100069267.63545
  21005288.280   110383694.02508  21005289.240    86013351.34049
  22534835.040   118421527.98407  22534839.480    92276601.69747
  21816293.620   114645821.90608  21816295.060    89334609.45648
  21274943.700   111800590.97909  21274944.960    87117349.15049
 15 02 10 00 04 30.0000000  0  6G16G18G21G25G29G31
  23928695.380   125746142.43406  23928696.880    97984019.39245
  24422798.040   128342664.21905  24422807.940   100007299.32444
  21000929.300   110360787.59808  21000930.260    85995502.18449
  22549235.780   118497203.89508  22549240.080    92335569.90647
  21828350.600   114709181.87108  21828352.100    89383980.85048
  21283005.900   111842958.16809  21283007.180    87150362.52649
 15 02 10 00 05  0.0000000  0  6G16G18G21G25G29G31
  23911363.500   125655062.56406  23911364.860    97913048.09845
  24407654.920   128263077.17206  24407658.540    99945275.80044
  20996654.160   110338321.66508  20996655.100    85977996.27249
  22563685.940   118573139.28907  22563690.120    92394740.31447
  21840424.840   114772632.99808  21840426.460    89433423.27448
  21291162.440   111885821.09409  21291163.760    87183762.18448
 15 02 10 00 05 30.0000000  0  6G16G18G21G25G29G31
  23894038.300   125564017.73406  23894039.560    97842104.07545
  24392501.820   128183455.43704  24392506.380    99883260.63444
  20992467.360   110316319.91108  20992468.240    85960852.05949
  22578189.820   118649357.33307  22578194.020    92454130.96547
  21852520.860   114836198.57708  21852522.540    89482954.88848
  21299417.560   111929201.74309  21299418.820    87217565.26248
 15 02 10 00 06  0.0000000  0  6G16G18G21G25G29G31
  23876718.440   125473001.24306  23876719.620    97771182.16244
  24377337.420   128103777.52506  24377349.020    99821163.61244
  20988367.240   110294773.72708  20988368.080    85944062.84349
  22592745.700   118725849.15307  22592750.080    92513734.95747
  21864636.860   114899868.88708  21864638.600    89532568.11048
  21307769.320   111973090.30109  21307770.540    87251764.11449
 15 02 10 00 06 30.0000000  0  6G16G18G21G25G29G31
  23859402.000   125382003.22506  23859403.180    97700274.62045
  24362167.920   128024046.52105  24362173.300    99759029.26042
  20984351.640   110273671.82508  20984352.480    85927619.81349
  22607351.300   118802602.76207  22607355.960    92573542.93947
  21876770.660   114963632.27108  21876772.380    89582253.84948
  21316215.240   112017473.73409  21316216.420    87286348.58348
 15 02 10 00 07  0.0000000  0  6G16G18G21G25G29G31
  23842092.520   125291041.53506  23842093.740    97629395.37945
  24346988.920   127944282.17406  24346995.780    99696875.34846
  20980423.900   110253031.40908  20980424.700    85911536.38449
  22622009.760   118879634.25607  22622014.560    92633567.48647
  21888925.220   115027504.46508  21888926.820    89632024.38048
  21324758.160   112062367.12409  21324759.320    87321330.41848
 15 02 10 00 07 30.0000000  0  6G16G18G21G25G29G31
  23824788.520   125200108.78806  23824789.860    97558538.69345
  24331802.180   127864475.99505  24331809.380    99634688.94642
  20976582.240   110232843.28108  20976583.000    85895805.38849
  22636719.180   118956933.89707  22636724.120    92693800.96047
  21901098.560   115091475.29708  21901100.060    89681871.76948
  21333396.040   112107759.66809  21333397.220    87356701.21048
 15 02 10 00 08  0.0000000  0  6G16G18G21G25G29G31
  23807490.440   125109207.04806  23807491.860    97487706.16845
  24316608.140   127784632.25006  24316615.320    99572473.51444
  20972826.800   110213108.38408  20972827.580    85880427.55449
  22651479.800   119034502.20107  22651484.820    92754243.76147
  21913290.760   115155545.24608  21913292.160    89731796.39348
  21342128.800   112153650.63708  21342130.000    87392460.38248
 15 02 10 00 08 30.0000000  0  6G16G18G21G25G29G31
  23790198.780   125018338.99006  23790200.280    97416899.89145
  24301407.500   127704753.45906  24301414.640    99510230.69744
  20969157.860   110193828.01908  20969158.640    85865403.90349
  22666291.820   119112339.63407  22666296.640    92814896.28047
  21925501.780   115219714.63908  21925503.240    89781798.49948
  21350956.400   112200039.84909  21350957.600    87428607.79748
 15 02 10 00 09  0.0000000  0  6G16G18G21G25G29G31
  23772913.760   124927505.55707  23772915.260    97346120.60545
  24286200.600   127624842.13905  24286207.720    99447962.41944
  20965575.220   110175001.21608  20965576.000    85850733.67949
  22681154.960   119190444.95807  22681159.460    92875757.53747
  21937731.400   115283981.93408  21937732.940    89831876.88948
  21359878.320   112246924.65309  21359879.540    87465141.38649
 15 02 10 00 09 30.0000000  0  6G16G18G21G25G29G31
  23755635.580   124836707.90907  23755637.100    97275369.18446
  24270987.840   127544900.68206  24270995.060    99385671.02844
  20962078.800   110156627.33708  20962079.580    85836416.38349
  22696068.900   119268816.92307  22696073.040    92936826.57846
  21949979.440   115348346.00508  21949981.040    89882030.68948
  21368894.080   112294302.56009  21368895.320    87502059.21349
 15 02 10 00 10  0.0000000  0  6G16G18G21G25G29G31
  23738365.100   124745950.62707  23738366.580    97204649.23145
  24255770.120   127464934.26105  24255777.540    99323360.21244
  20958669.500   110138711.26808  20958670.260    85822455.81849
  22711033.980   119347458.22407  22711038.000    92998105.48946
  21962246.240   115412808.69208  21962247.900    89932261.34648
  21378004.040   112342175.63109  21378005.320    87539362.88448
 15 02 10 00 10 30.0000000  0  6G16G18G21G25G29G31
  23721101.880   124655231.55707  23721103.420    97133959.07345
  24240547.440   127384942.70206  24240555.300    99261030.02444
  20955346.100   110121246.79108  20955346.880    85808847.14149
  22726049.420   119426364.81707  22726053.540    93059591.12246
  21974531.200   115477366.59008  21974532.880    89982566.18748
  21387207.160   112390538.34308  21387208.460    87577048.08948
 15 02 10 00 11  0.0000000  0  6G16G18G21G25G29G31
  23703845.920   124564550.68306  23703847.540    97063298.66445
  24225320.160   127304926.33705  24225328.180    99198680.50144
  20952108.320   110104232.14008  20952109.120    85795588.98349
  22741114.800   119505534.39607  22741119.220    93121281.68447
  21986833.680   115542016.89008  21986835.440    90032943.03848
  21396502.800   112439387.37308  21396504.140    87615112.24748
 15 02 10 00 11 30.0000000  0  6G16G18G21G25G29G31
  23686598.280   124473913.66606  23686599.940    96992672.43545
  24210089.380   127224892.02106  24210097.540    99136317.03644
  20948957.420   110087674.08808  20948958.240    85782686.61349
  22756230.900   119584970.14807  22756235.560    93183179.65447
  21999154.460   115606763.12308  21999156.260    90083394.64048
  21405891.400   112488724.90208  21405892.760    87653557.05048
 15 02 10 00 12  0.0000000  0  6G16G18G21G25G29G31
  23669358.700   124383319.31306  23669360.340    96922079.44245
  24194855.100   127144839.34905  24194863.540    99073939.19945
  20945892.520   110071567.97208  20945893.360    85770136.40149
  22771397.100   119664668.71807  22771401.880    93245282.41747
  22011492.900   115671601.79508  22011494.660    90133918.26848
  21415372.080   112538546.20608  21415373.440    87692378.81548
 15 02 10 00 12 30.0000000  0  6G16G18G21G25G29G31
  23652127.840   124292771.14306  23652129.440    96851522.45045
  24179618.280   127064773.53906  24179626.720    99011551.13243
  20942914.020   110055915.63808  20942914.820    85757939.78649
  22786613.760   119744631.93107  22786618.440    93307591.38647
  22023849.180   115736534.25308  22023850.940    90184514.96848
  21424945.000   112588851.85408  21424946.300    87731577.99448
 15 02 10 00 13  0.0000000  0  6G16G18G21G25G29G31
  23634905.860   124202269.54706  23634907.320    96781001.73845
  24164378.980   126984695.31705  24164387.560    98949153.30245
  20940021.740   110040716.39108  20940022.500    85746096.22749
  22801880.440   119824857.63307  22801884.860    93370104.89146
  22036222.920   115801558.34608  22036224.600    90235183.07848
  21434609.520   112639638.71909  21434610.740    87771152.14848
 15 02 10 00 13 30.0000000  0  6G16G18G21G25G29G31
  23617692.760   124111814.52706  23617694.160    96710517.34245
  24149137.700   126904606.18305  24149145.640    98886747.04043
  20937215.340   110025968.49708  20937216.040    85734604.37249
  22817196.600   119905343.60607  22817200.720    93432821.20246
  22048613.840   115866672.66808  22048615.460    90285921.49547
  21444364.960   112690903.42908  21444366.120    87811098.64648
 15 02 10 00 14  0.0000000  0  6G16G18G21G25G29G31
  23600489.440   124021410.80406  23600490.820    96640072.88945
  24133895.220   126824511.69105  24133903.160    98824336.48144
  20934495.320   110011674.84508  20934496.000    85723466.47449
  22832562.540   119986092.25507  22832566.500    93495742.18446
  22061022.200   115931878.80608  22061023.800    90336731.45248
  21454211.520   112742647.29408  21454212.700    87851418.51248
 15 02 10 00 14 30.0000000  0  6G16G18G21G25G29G31
  23583295.300   123931055.15106  23583296.660    96569665.90544
  24118651.580   126744409.37705  24118659.880    98761919.84144
  20931860.640   109997829.81808  20931861.360    85712678.14549
  22847977.220   120067097.92007  22847981.220    93558863.45946
  22073446.940   115997171.26908  22073448.500    90387608.68548
  21464147.900   112794863.23908  21464149.100    87892106.23548
 15 02 10 00 15  0.0000000  0  6G16G18G21G25G29G31
  23566111.280   123840752.57406  23566112.660    96499300.28145
  24103407.700   126664305.56305  24103415.100    98699502.05444
  20929311.940   109984436.67008  20929312.680    85702241.93349
  22863441.280   120148363.39707  22863445.420    93622187.18246
  22085888.680   116062553.10108  22085890.200    90438555.56048
  21474174.420   112847552.98908  21474175.660    87933163.15448
 15 02 10 00 15 30.0000000  0  6G16G18G21G25G29G31
  23548937.300   123750502.70606  23548938.700    96428975.73946
  24088163.960   126584201.15706  24088171.420    98637083.71945
  20926849.020   109971494.31908  20926849.820    85692156.99349
  22878954.360   120229886.16507  22878958.700    93685711.39746
  22098346.940   116128021.61808  22098348.480    90489569.97848
  21484290.420   112900712.82508  21484291.680    87974586.37948
 15 02 10 00 16  0.0000000  0  6G16G18G21G25G29G31
  23531774.080   123660309.30706  23531775.560    96358695.18545
  24072920.960   126504100.51506  24072927.880    98574668.34045
  20924472.120   109959003.75908  20924472.940    85682424.09749
  22894516.720   120311667.29707  22894521.240    93749436.93046
  22110821.820   116193577.68608  22110823.440    90540652.61847
  21494495.760   112954342.50908  21494497.120    88016375.71248
 15 02 10 00 16 30.0000000  0  6G16G18G21G25G29G31
  23514621.260   123570170.40406  23514622.680    96288457.08545
  24057678.880   126424003.09306  24057685.100    98512255.38144
  20922180.580   109946961.39808  20922181.360    85673040.45049
  22910127.640   120393702.81007  22910132.240    93813360.67946
  22123312.720   116259218.05808  22123314.380    90591800.94848
  21504789.580   113008436.98708  21504790.960    88058527.22348
 15 02 10 00 17  0.0000000  0  6G16G18G21G25G29G31
  23497479.860   123480091.53106  23497481.200    96218265.78445
  24042438.520   126343915.28106  24042444.640    98449849.94045
  20919975.080   109935371.01308  20919975.780    85664008.98749
  22925787.640   120475995.76707  22925792.240    93877485.04046
  22135820.240   116324945.60408  22135821.900    90643017.20747
  21515172.200   113062997.97908  21515173.600    88101042.24948
 15 02 10 00 17 30.0000000  0  7G16G18G21G25G27G29G31
  23480353.300   123390090.89906  23480354.620    96148135.44745
  24027203.720   126263856.35806  24027209.420    98387466.94744
  20917858.680   109924248.88008  20917859.320    85655342.39649
  22941499.600   120558562.09607  22941504.260    93941822.41746
  24625803.260   129409464.38905  24625809.620   100838570.15544
  22148347.380   116390776.06108  22148349.000    90694313.65947
  21525646.380   113118040.11608  21525647.800    88143932.20448
 15 02 10 00 18  0.0000000  0  7G16G18G21G25G27G29G31
  23463232.460   123300120.86606  23463233.980    96078028.97145
  24011965.360   126183779.50206  24011970.680    98325069.95044
  20915821.740   109913544.55908  20915822.380    85647001.37749
  22957253.940   120641351.47707  22957258.660    94006333.59546
  24611012.060   129331735.89605  24611017.780   100778002.61245
  22160884.720   116456660.03308  22160886.340    90745651.80648
  21536202.360   113173511.85608  21536203.740    88187156.90748
 15 02 10 00 18 30.0000000  0  7G16G18G21G25G27G29G31
  23446125.920   123210225.75606  23446127.520    96007980.85545
  23996732.160   126103729.76706  23996737.180    98262694.05445
  20913872.480   109903301.23408  20913873.140    85639019.56949
  22973058.640   120724405.69207  22973063.360    94071051.14246
  24596239.340   129254104.34705  24596244.340   100717510.57945
  22173440.140   116522638.94808  22173441.700    90797063.92747
  21546847.800   113229453.65008  21546849.140    88230747.88748
 15 02 10 00 19  0.0000000  0  7G16G18G21G25G27G29G31
  23429032.400   123120398.81006  23429034.040    95937985.85445
  23981502.920   126023702.16206  23981507.700    98200335.38044
  20912009.360   109893510.70608  20912010.060    85631390.59549
  22988912.080   120807716.09407  22988916.740    94135968.30446
  24581483.440   129176561.89805  24581488.280   100657087.96744
  22186011.940   116588703.96108  22186013.420    90848543.14447
  21557580.840   113285855.79808  21557582.140    88274697.58248
 15 02 10 00 19 30.0000000  0  7G16G18G21G25G27G29G31
  23411951.180   123030636.11207  23411952.700    95868040.90945
  23966277.280   125943693.71106  23966281.940    98137991.60744
  20910231.080   109884166.15008  20910231.800    85624109.12649
  23004813.120   120891276.11707  23004817.560    94201079.96346
  24566743.100   129099112.85705  24566748.580   100596734.32444
  22198599.040   116654849.36308  22198600.440    90900084.99347
  21568399.940   113342710.33708  21568401.220    88318999.79148
 15 02 10 00 20  0.0000000  0  7G16G18G21G25G27G29G31
  23394883.720   122940945.81307  23394885.140    95798152.39545
  23951056.800   125863712.98006  23951061.320    98075669.41144
  20908538.740   109875273.22108  20908539.480    85617179.57849
  23020762.660   120975091.13107  23020766.840    94266390.33346
  24552020.080   129021743.40305  24552025.720   100536446.52045
  22211202.400   116721080.50308  22211203.780    90951693.66047
  21579305.920   113400021.48608  21579307.200    88363657.79348
 15 02 10 00 20 30.0000000  0  7G16G18G21G25G27G29G31
  23377829.360   122851324.34107  23377830.640    95728317.49445
  23935841.120   125783757.45506  23935845.840    98013366.83244
  20906931.420   109866827.03908  20906932.180    85610598.14549
  23036759.580   121059154.92507  23036763.480    94331894.55546
  24537313.220   128944453.16905  24537318.460   100476218.33245
  22223820.880   116787391.08208  22223822.260    91003364.22647
  21590297.280   113457781.42508  21590298.560    88408665.50948
 15 02 10 00 21  0.0000000  0  7G16G18G21G25G27G29G31
  23360788.460   122761773.76507  23360789.660    95658537.84546
  23920630.880   125703830.35206  23920635.460    97951086.35944
  20905409.200   109858827.65608  20905409.900    85604364.87049
  23052803.860   121143467.56007  23052807.660    94397592.69446
  24522622.440   128867253.18205  24522627.820   100416062.57845
  22236454.560   116853781.52108  22236455.920    91055097.03047
  21601373.820   113515988.95208  21601375.120    88454021.99648
 15 02 10 00 21 30.0000000  0  7G16G18G21G25G27G29G31
  23343761.460   122672296.18707  23343762.640    95588815.06945
  23905426.800   125623934.90505  23905431.360    97888830.56844
  20903972.060   109851275.29308  20903972.720    85598479.91849
  23068895.320   121228028.67407  23068899.260    94463484.43046
  24507948.020   128790139.02605  24507953.560   100355973.69945
  22249103.320   116920251.51908  22249104.700    91106891.82747
  21612535.260   113574642.61308  21612536.580    88499726.11748
 15 02 10 00 22  0.0000000  0  7G16G18G21G25G27G29G31
  23326748.440   122582892.32407  23326749.680    95519149.72745
  23890229.140   125544072.77506  23890233.460    97826600.74544
  20902619.580   109844167.89608  20902620.220    85592941.69749
  23085033.660   121312836.14707  23085037.840    94529568.15546
  24493289.760   128713109.38705  24493295.340   100295950.67346
  22261766.900   116986799.41708  22261768.360    91158747.31847
  21623780.940   113633739.06508  21623782.300    88545775.27448
 15 02 10 00 22 30.0000000  0  7G16G18G21G25G27G29G31
  23309749.920   122493564.81907  23309751.180    95449543.90245
  23875038.640   125464247.49706  23875042.820    97764399.58144
  20901351.800   109837505.72008  20901352.420    85587750.39549
  23101218.860   121397889.96807  23101223.240    94595843.83546
  24478647.720   128636165.20205  24478653.320   100235994.23945
  22274445.380   117053425.58708  22274446.980    91210663.80347
  21635110.580   113693276.73608  21635111.960    88592168.23548
 15 02 10 00 23  0.0000000  0  7G16G18G21G25G27G29G31
  23292766.260   122404315.52707  23292767.580    95379999.03045
  23859855.760   125384461.65106  23859859.880    97702229.16144
  20900168.760   109831289.01808  20900169.420    85582906.22249
  23117450.840   121483189.43107  23117455.340    94662310.94046
  24464022.000   128559306.63205  24464027.560   100176104.48245
  22287138.740   117120129.78308  22287140.400    91262641.08147
  21646523.820   113753253.66908  21646525.200    88638903.47848
 15 02 10 00 23 30.0000000  0  7G16G18G21G25G27G29G31
  23275797.880   122315146.28507  23275799.240    95310516.52645
  23844680.840   125304718.26706  23844684.980    97640091.77044
  20899070.440   109825517.38708  20899071.100    85578408.85149
  23133729.420   121568734.03507  23133733.980    94728969.04346
  24449412.640   128482534.14805  24449418.040   100116281.83045
  22299846.920   117186911.57508  22299848.560    91314678.82647
  21658020.300   113813668.08508  21658021.660    88685979.61748
 15 02 10 00 24  0.0000000  0  7G16G18G21G25G27G29G31
  23258844.860   122226057.52707  23258846.200    95241096.73145
  23829514.300   125225018.84605  23829518.480    97577988.59046
  20898056.400   109820188.78108  20898057.080    85574256.69649
  23150054.200   121654521.47507  23150058.780    94795816.36646
  24434819.360   128405846.35405  24434824.740   100056525.18745
  22312569.440   117253768.61408  22312571.100    91366775.20447
  21669599.340   113874516.24308  21669600.660    88733393.73148
 15 02 10 00 24 30.0000000  0  7G16G18G21G25G27G29G31
  23241907.820   122137053.07307  23241909.300    95171742.63145
  23814357.020   125145367.63306  23814361.080    97515922.99944
  20897126.920   109815304.42008  20897127.600    85570450.70749
  23166425.360   121740552.92707  23166429.900    94862853.82246
  24420242.540   128329245.34405  24420247.900    99996836.15045
  22325306.640   117320702.97008  22325308.300    91418931.81947
  21681260.900   113935797.96808  21681262.160    88781145.69448
 15 02 10 00 25  0.0000000  0  7G16G18G21G25G27G29G31
  23224986.920   122048133.52707  23224988.480    95102454.70645
  23799209.280   125065766.83806  23799213.380    97453896.67944
  20896281.800   109810863.42308  20896282.520    85566990.20149
  23182842.480   121826826.25007  23182847.080    94930079.73946
  24405682.100   128252729.90505  24405687.440    99937213.79344
  22338058.280   117387712.95408  22338059.860    91471147.37647
  21693004.360   113997510.15908  21693005.640    88829233.08148
 15 02 10 00 25 30.0000000  0  7G16G18G21G25G27G29G31
  23208082.300   121959299.35407  23208083.800    95033233.29345
  23784071.420   124986217.50106  23784075.480    97391910.45345
  20895520.640   109806863.61408  20895521.400    85563873.47249
  23199305.300   121913339.27607  23199309.860    94997492.43846
  24391137.740   128176298.90605  24391142.900    99877657.24444
  22350823.900   117454796.34108  22350825.360    91523420.13147
  21704828.960   114059648.76508  21704830.300    88877652.74548
 15 02 10 00 26  0.0000000  0  7G16G18G21G25G27G29G31
  23191194.560   121870553.68107  23191195.960    94964080.84645
  23768944.080   124906723.67106  23768948.160    97329967.47845
  20894843.560   109803305.49208  20894844.320    85561100.92249
  23215813.880   122000092.41607  23215818.320    95065092.26446
  24376609.740   128099953.62705  24376614.720    99818167.49744
  22363603.600   117521953.91008  22363605.000    91575750.69247
  21716734.600   114122213.10208  21716735.960    88926404.15248
 15 02 10 00 26 30.0000000  0  7G16G18G21G25G27G29G31
  23174323.880   121781897.72007  23174325.180    94894998.29745
  23753827.940   124827287.51406  23753831.660    97268069.40245
  20894250.300   109800188.03208  20894251.080    85558671.74049
  23232367.920   122087084.02007  23232372.240    95132877.88945
  24362097.840   128023693.42705  24362102.680    99758744.01644
  22376397.060   117589184.27508  22376398.520    91628137.97747
  21728720.660   114185200.32708  21728722.120    88975485.07848
 15 02 10 00 27  0.0000000  0  7G16G18G21G25G27G29G31
  23157470.840   121693334.28107  23157472.060    94825987.84645
  23738723.480   124747913.12206  23738727.000    97206219.49145
  20893741.120   109797512.03608  20893741.880    85556586.55749
  23248967.520   122174314.71407  23248971.700    95200849.84645
  24347602.360   127947519.84405  24347607.040    99699388.03044
  22389204.660   117656488.82708  22389206.200    91680583.07247
  21740786.960   114248609.17508  21740788.460    89024894.54148
 15 02 10 00 27 30.0000000  0  7G16G18G21G25G27G29G31
  23140635.540   121604864.08607  23140636.740    94757050.05545
  23723630.720   124668600.91906  23723634.120    97144418.01545
  20893315.460   109795275.13608  20893316.200    85554843.52249
  23265612.080   122261781.74707  23265616.220    95269005.95545
  24333123.140   127871431.19505  24333127.880    99640098.23244
  22402025.880   117723865.13208  22402027.560    91733084.07747
  21752932.740   114312435.67408  21752934.220    89074629.43748
 15 02 10 00 28  0.0000000  0  7G16G18G21G25G27G29G31
  23123818.520   121516490.35107  23123819.740    94688187.41545
  23708550.740   124589356.31606  23708554.220    97082669.21244
  20892973.640   109793478.80408  20892974.360    85553443.78949
  23282301.820   122349486.37107  23282305.980    95337347.17946
  24318660.420   127795429.66105  24318665.340    99580876.33645
  22414861.100   117791314.92608  22414862.940    91785642.34547
  21765158.040   114376680.00208  21765159.500    89124689.92348
 15 02 10 00 28 30.0000000  0  7G16G18G21G25G27G29G31
  23107019.720   121428212.16407  23107020.920    94619399.22845
  23693483.480   124510178.71006  23693486.960    97020972.59345
  20892714.960   109792119.45308  20892715.680    85552384.55849
  23299035.960   122437424.43107  23299040.120    95405870.32146
  24304213.720   127719512.10505  24304218.760    99521719.86045
  22427709.660   117858834.84608  22427711.600    91838255.25147
  21777461.740   114441336.27108  21777463.160    89175071.39748
 15 02 10 00 29  0.0000000  0  7G16G18G21G25G27G29G31
  23090239.960   121340033.86207  23090241.080    94550688.88145
  23678429.900   124431073.71506  23678433.460    96959332.54044
  20892539.780   109791198.89208  20892540.480    85551667.24649
  23315814.780   122525597.67007  23315819.080    95474576.69846
  24289783.520   127643681.25205  24289788.700    99462630.96845
  22440572.020   117926426.63808  22440573.960    91890924.17547
  21789843.960   114506404.88808  21789845.340    89225774.17848
 15 02 10 00 29 30.0000000  0  7G16G18G21G25G27G29G31
  23073479.540   121251957.20507  23073480.620    94482057.73646
  23663390.480   124352043.61506  23663394.280    96897750.84644
  20892447.980   109790716.34308  20892448.640    85551291.24249
  23332638.020   122614004.96106  23332642.560    95543465.46146
  24275369.860   127567936.95505  24275375.180    99403609.48345
  22453447.920   117994089.79708  22453449.860    91943648.70047
  21802304.140   114571883.29708  21802305.540    89276796.28948
 15 02 10 00 30  0.0000000  0  7G16G18G21G25G27G29G31
  23056738.520   121163982.68007  23056739.640    94413506.17645
  23648365.660   124273089.68406  23648369.560    96836228.49344
  20892439.180   109790669.94108  20892439.760    85551255.09349
  23349505.300   122702643.93306  23349510.080    95612534.74446
  24260972.260   127492277.83905  24260977.760    99344654.38546
  22466336.960   118061822.29108  22466338.880    91996427.24847
  21814841.640   114637767.91508  21814843.060    89328134.91548
 15 02 10 00 30 30.0000000  0  7G16G18G21G25G27G29G31
  23040017.240   121076111.99407  23040018.440    94345035.53146
  23633355.860   124194214.17106  23633359.600    96774767.20844
  20892513.120   109791058.45108  20892513.680    85551557.83649
  23366416.400   122791513.45306  23366421.400    95681783.66646
  24246590.880   127416703.90305  24246596.420    99285765.64845
  22479239.120   118129623.49708  22479241.000    92049259.33847
  21827455.900   114704056.18108  21827457.400    89379788.07948
 15 02 10 00 31  0.0000000  0  7G16G18G21G25G27G29G31
  23023315.980   120988346.67707  23023317.320    94276646.99546
  23618361.560   124115419.97306  23618365.280    96713369.32344
  20892669.740   109791881.21608  20892670.240    85552198.95849
  23383371.240   122880612.25606  23383376.360    95751211.26246
  24232225.660   127341214.80605  24232231.160    99226943.02745
  22492154.300   118197493.03908  22492156.180    92102144.67547
  21840146.480   114770745.28508  21840147.980    89431753.57948
 15 02 10 00 31 30.0000000  0  7G16G18G21G25G27G29G31
  23006635.080   120900688.15307  23006636.520    94208341.67046
  23603383.340   124036709.74106  23603386.880    96652036.84043
  20892908.720   109793137.03808  20892909.220    85553177.52549
  23400369.580   122969938.87106  23400374.520    95820816.38746
  24217876.560   127265810.16305  24217882.040    99168186.21945
  22505082.300   118265429.72508  22505084.080    92155082.33447
  21852912.740   114837832.41008  21852914.220    89484029.22448
 15 02 10 00 32  0.0000000  0  7G16G18G21G25G27G29G31
  22989975.000   120813138.68107  22989976.480    94140121.31846
  23588421.720   123958086.16306  23588425.040    96590771.89045
  20893229.980   109794825.37308  20893230.500    85554493.11949
  23417411.240   123059492.53106  23417415.880    95890598.42045
  24203543.600   127190490.19405  24203548.920    99109495.38345
  22518023.140   118333433.38908  22518024.660    92208072.19247
  21865754.300   114905315.43708  21865755.820    89536613.36648
 15 02 10 00 32 30.0000000  0  7G16G18G21G25G27G29G31
  22973336.140   120725700.53807  22973337.560    94071987.72146
  23573477.260   123879552.33506  23573480.540    96529576.86744
  20893633.540   109796946.02708  20893634.060    85556145.57849
  23434496.100   123149272.88607  23434500.440    95960557.10945
  24189226.880   127115255.63005  24189232.120    99050871.10345
  22530976.800   118401504.41008  22530978.100    92261114.52147
  21878670.860   114973192.62308  21878672.400    89589504.63948
 15 02 10 00 33  0.0000000  0  7G16G18G21G25G27G29G31
  22956718.700   120638374.74907  22956720.020    94003941.66246
  23558550.240   123801109.99306  23558553.400    96468453.11545
  20894118.960   109799496.99508  20894119.480    85558133.35249
  23451623.680   123239277.83407  23451627.820    96030690.79445
  24174926.340   127040105.43005  24174931.380    98992312.55345
  22543942.980   118469641.12608  22543944.140    92314208.04647
  21891661.720   115041460.20208  21891663.300    89642700.12148
 15 02 10 00 33 30.0000000  0  7G16G18G21G25G27G29G31
  22940123.480   120551166.05407  22940124.780    93935986.85346
  23543641.640   123722764.77906  23543644.700    96407405.05644
  20894686.740   109802480.83508  20894687.260    85560458.42849
  23468794.280   123329509.11807  23468798.340    96101000.84445
  24160642.420   126965042.40906  24160647.280    98933821.94945
  22556921.960   118537845.61908  22556923.080    92367354.38247
  21904726.980   115110118.70208  21904728.640    89696200.21148
 15 02 10 00 34  0.0000000  0  7G16G18G21G25G27G29G31
  22923550.540   120464074.76307  22923551.820    93868123.52646
  23528751.760   123644517.57907  23528754.660    96346433.35244
  20895336.360   109805894.75608  20895336.900    85563118.63449
  23486007.320   123419964.16406  23486011.440    96171485.26946
  24146374.740   126890065.04206  24146379.520    98875398.10645
  22569913.520   118606116.70408  22569914.680    92420552.60547
  21917865.900   115179164.02708  21917867.560    89750001.72948
 15 02 10 00 34 30.0000000  0  7G16G18G21G25G27G29G31
  22907000.100   120377102.01107  22907001.400    93800352.55646
  23513880.940   123566371.09207  23513883.800    96285540.12444
  20896067.600   109809737.70008  20896068.200    85566113.14749
  23503262.500   123510641.31506  23503266.860    96242142.74646
  24132123.280   126815172.74406  24132128.020    98817040.53345
  22582917.460   118674452.87808  22582918.660    92473801.54947
  21931077.760   115248592.76208  21931079.480    89804102.00148
 15 02 10 00 35  0.0000000  0  7G16G18G21G25G27G29G31
  22890473.000   120290251.99507  22890474.340    93732677.24146
  23499029.980   123488329.45907  23499032.920    96224728.59545
  20896880.680   109814010.55108  20896881.300    85569442.64549
  23520560.080   123601541.59706  23520564.800    96312974.08646
  24117888.360   126740367.66905  24117893.220    98758750.91346
  22595934.040   118742855.68008  22595935.340    92527102.41847
  21944362.640   115318404.90408  21944364.340    89858501.03248
 15 02 10 00 35 30.0000000  0  7G16G18G21G25G27G29G31
  22873969.140   120203524.03307  22873970.500    93665097.02946
  23484198.980   123410392.96306  23484201.980    96163999.00445
  20897774.880   109818709.66408  20897775.500    85573104.30049
  23537899.340   123692661.25006  23537904.420    96383976.36645
  24103669.440   126665647.10805  24103674.360    98700527.16145
  22608962.640   118811321.91108  22608964.060    92580452.70347
  21957719.540   115388595.23108  21957721.140    89913194.75048
 15 02 10 00 36  0.0000000  0  7G16G18G21G25G27G29G31
  22857489.120   120116920.73007  22857490.360    93597613.94546
  23469388.680   123332565.16606  23469391.780    96103354.08345
  20898750.300   109823835.61508  20898750.960    85577098.55149
  23555280.440   123784000.29606  23555285.840    96455149.59146
  24089466.780   126591012.23005  24089471.880    98642370.16445
  22622003.600   118879852.96008  22622005.080    92633853.49647
  21971148.100   115459162.10708  21971149.560    89968181.88148
 15 02 10 00 36 30.0000000  0  7G16G18G21G25G27G29G31
  22841032.960   120030442.99207  22841034.180    93530228.70246
  23454599.400   123254848.13606  23454602.580    96042795.46745
  20899806.620   109829386.61208  20899807.300    85581424.01149
  23572703.020   123875556.51106  23572708.560    96526492.04746
  24075280.060   126516461.86605  24075285.460    98584278.99445
  22635056.560   118948446.69107  22635058.040    92687303.13847
  21984647.580   115530101.77508  21984648.920    90023459.49948
 15 02 10 00 37  0.0000000  0  7G16G18G21G25G27G29G31
  22824601.120   119944093.21607  22824602.360    93462943.18146
  23439831.660   123177244.62006  23439834.960    95982325.30845
  20900943.620   109835361.66608  20900944.320    85586079.90049
  23590166.920   123967328.97206  23590172.400    96598002.99446
  24061109.520   126441996.28205  24061115.160    98526253.92145
  22648121.460   119017103.14608  22648122.940    92740801.63547
  21998217.520   115601412.11508  21998218.860    90079025.95348
 15 02 10 00 37 30.0000000  0  7G16G18G21G25G27G29G31
  22808194.120   119857873.75207  22808195.320    93395759.18746
  23425086.140   123099757.94506  23425089.520    95921946.20245
  20902161.240   109841760.42308  20902161.980    85591065.94849
  23607672.000   124059317.19007  23607677.220    96669682.07245
  24046955.300   126367616.05605  24046961.000    98468295.35845
  22661198.300   119085822.27808  22661199.740    92794348.98047
  22011857.500   115673091.14008  22011859.020    90134879.69248
 15 02 10 00 38  0.0000000  0  7G16G18G21G25G27G29G31
  22791812.020   119771785.49807  22791813.260    93328677.45146
  23410363.200   123022389.38006  23410366.540    95861659.13545
  20903459.100   109848580.75208  20903459.860    85596380.49749
  23625217.620   124151518.75606  23625222.580    96741527.39446
  24032817.160   126293319.88105  24032822.740    98410402.28846
  22674286.760   119154602.47908  22674288.260    92847943.91147
  22025566.880   115745134.98108  22025568.600    90191017.71248
 15 02 10 00 38 30.0000000  0  7G16G18G21G25G27G29G31
  22775455.560   119685831.69107  22775456.820    93261700.47846
  23395663.620   122945142.88606  23395666.880    95801467.18445
  20904837.240   109855822.99208  20904838.000    85602023.80549
  23642803.680   124243933.74406  23642808.480    96813539.02445
  24018695.340   126219109.02705  24018700.720    98352575.69446
  22687387.080   119223444.84908  22687388.620    92901587.28447
  22039345.400   115817542.18008  22039347.360    90247438.86848
 15 02 10 00 39  0.0000000  0  7G16G18G21G25G27G29G31
  22759125.100   119600014.41607  22759126.340    93194829.87846
  23380987.960   122868021.36007  23380991.000    95741372.59745
  20906295.620   109863486.68108  20906296.360    85607995.52149
  23660430.100   124336561.31106  23660434.680    96885716.31544
  24004589.840   126144983.76905  24004595.140    98294815.82446
  22700499.200   119292349.32108  22700500.740    92955279.05547
  22053192.720   115890310.33008  22053194.780    90304141.28648
 15 02 10 00 39 30.0000000  0  7G16G18G21G25G27G29G31
  22742820.940   119514335.45907  22742822.140    93128067.06646
  23366336.760   122791027.56507  23366339.400    95681377.53744
  20907833.820   109871570.11108  20907834.560    85614294.29949
  23678096.640   124429400.34606  23678101.240    96958058.36945
  23990500.600   126070944.14806  23990505.860    98237122.66845
  22713623.020   119361315.40508  22713624.580    93009018.82647
  22067108.320   115963436.87108  22067110.320    90361122.96948
 15 02 10 00 40  0.0000000  0  7G16G18G21G25G27G29G31
  22726543.260   119428795.90907  22726544.480    93061412.88047
  23351710.200   122714163.64606  23351712.460    95621483.66245
  20909451.680   109880072.20908  20909452.420    85620919.31749
  23695803.040   124522448.76306  23695807.580    97030563.59244
  23976427.500   125996989.20106  23976432.660    98179495.51245
  22726758.260   119430341.60707  22726759.880    93062805.44747
  22081091.540   116036918.38408  22081093.360    90418381.24248
 15 02 10 00 40 30.0000000  0  7G16G18G21G25G27G29G31
  22710292.560   119343398.72407  22710293.920    92994869.63346
  23337108.780   122637432.68406  23337110.780    95561693.38844
  20911149.140   109888992.37908  20911149.860    85627870.10149
  23713549.300   124615706.02306  23713553.720    97103231.53644
  23962370.700   125923119.66605  23962375.780    98121934.90845
  22739905.000   119499428.45007  22739906.740    93116639.30947
  22095141.860   116110752.72008  22095143.500    90475914.44548
 15 02 10 00 41  0.0000000  0  7G16G18G21G25G27G29G31
  22694069.160   119258144.89907  22694070.660    92928438.10047
  23322532.920   122560836.61107  23322534.860    95502008.21045
  20912925.620   109898327.82408  20912926.320    85635144.47349
  23731334.940   124709170.22906  23731339.340    97176060.72544
  23948330.020   125849334.71205  23948334.900    98064440.20846
  22753063.120   119568574.86307  22753064.880    93170519.60547
  22109258.640   116184936.55808  22109260.120    90533719.98448
 15 02 10 00 41 30.0000000  0  7G16G18G21G25G27G29G31
  22677873.800   119173037.73707  22677875.320    92862120.84047
  23307983.300   122484379.27406  23307985.340    95442431.15945
  20914781.460   109908080.30308  20914782.160    85642743.81249
  23749160.000   124802841.19106  23749164.240    97249051.03545
  23934305.580   125775635.40905  23934310.240    98007012.24345
  22766232.640   119637781.27907  22766234.460    93224446.64947
  22123441.580   116259468.29008  22123442.980    90591796.61448
 15 02 10 00 42  0.0000000  0  7G16G18G21G25G27G29G31
  22661706.540   119088077.89407  22661708.020    92795918.37646
  23293460.440   122408062.29106  23293462.620    95382963.45145
  20916716.140   109918247.19308  20916716.860    85650666.07049
  23767024.040   124896716.68306  23767028.260    97322200.70945
  23920297.120   125702020.66005  23920301.540    97949650.14845
  22779413.340   119707046.55107  22779415.220    93278419.55347
  22137689.980   116334344.16408  22137691.420    90650141.41148
 15 02 10 00 42 30.0000000  0  7G16G18G21G25G27G29G31
  22645567.820   119003267.98607  22645569.220    92729832.73347
  23278964.860   122331888.71507  23278967.240    95323607.50045
  20918729.560   109928827.87408  20918730.320    85658910.76049
  23784926.840   124990796.09006  23784931.180    97395509.28545
  23906304.800   125628491.05305  23906309.220    97892354.42245
  22792605.300   119776370.94707  22792607.300    93332438.53547
  22152003.500   116409561.98008  22152005.000    90708752.65448
 15 02 10 00 43  0.0000000  0  7G16G18G21G25G27G29G31
  22629458.200   118918611.35907  22629459.580    92663866.53647
  23264497.460   122255862.50106  23264499.920    95264366.38245
  20920821.740   109939822.35608  20920822.480    85667477.89449
  23802868.400   125085079.33806  23802873.020    97468976.68945
  23892328.820   125555047.78605  23892333.300    97835125.97446
  22805808.660   119845755.01207  22805810.700    93386504.01147
  22166381.900   116485120.34608  22166383.460    90767629.26248
 15 02 10 00 43 30.0000000  0  7G16G18G21G25G27G29G31
  22613377.500   118834106.94607  22613378.940    92598018.95247
  23250058.020   122179982.84507  23250060.560    95205239.46545
  20922991.900   109951226.66108  20922992.640    85676364.36749
  23820848.040   125179562.33506  23820852.760    97542599.73246
  23878368.680   125481687.83205  23878373.380    97777962.42346
  22819022.780   119915195.70507  22819024.780    93440613.61546
  22180823.980   116561013.55008  22180825.660    90826766.77448
 15 02 10 00 44  0.0000000  0  7G16G18G21G25G27G29G31
  22597326.400   118749757.63908  22597327.800    92532292.22547
  23235647.440   122104254.18907  23235649.900    95146230.19945
  20925239.960   109963040.30908  20925240.680    85685569.81349
  23838865.660   125274244.45606  23838870.500    97616377.95446
  23864424.640   125408411.94305  23864429.520    97720864.38346
  22832247.800   119984693.36507  22832249.780    93494767.61247
  22195329.300   116637239.40808  22195331.100    90886163.49948
 15 02 10 00 44 30.0000000  0  7G16G18G21G25G27G29G31
  22581305.420   118665566.62907  22581306.780    92466688.84747
  23221266.300   122028680.04807  23221268.640    95087341.34245
  20927565.980   109975263.54508  20927566.680    85695094.41349
  23856921.260   125369125.73206  23856926.080    97690311.32845
  23850496.840   125335221.36005  23850501.820    97663832.80446
  22845483.900   120054248.69907  22845485.740    93548966.54947
  22209897.600   116713796.47808  22209899.540    90945818.31248
 15 02 10 00 45  0.0000000  0  7G16G18G21G25G27G29G31
  22565314.900   118581535.71408  22565316.200    92401210.21247
  23206915.000   121953262.95307  23206917.300    95028574.85246
  20929969.780   109987895.46308  20929970.440    85704937.47049
  23875014.380   125464205.03606  23875019.180    97764399.02245
  23836585.320   125262116.12305  23836590.400    97606867.73446
  22858730.880   120123861.61007  22858732.660    93603210.34746
  22224528.440   116790682.40308  22224530.480    91005729.37747
 15 02 10 00 45 30.0000000  0  7G16G18G21G25G27G29G31
  22549355.320   118497667.62608  22549356.640    92335858.46947
  23192594.260   121878006.72507  23192596.600    94969933.70545
  20932451.320   110000935.81808  20932451.940    85715098.78949
  23893145.080   125559481.88506  23893149.820    97838640.65145
  23822690.220   125189097.03405  23822695.360    97549969.78846
  22871988.820   120193532.76307  22871990.720    93657499.53047
  22239221.480   116867895.11208  22239223.540    91065895.07347
 15 02 10 00 46  0.0000000  0  7G16G18G21G25G27G29G31
  22533426.820   118413963.16908  22533428.240    92270634.22547
  23178304.020   121802911.35407  23178306.440    94911417.89946
  20935009.820   110014380.75208  20935010.420    85725575.36649
  23911312.640   125654952.93106  23911317.320    97913033.59845
  23808811.160   125116161.96606  23808816.200    97493137.32546
  22885257.280   120263259.46607  22885259.340    93711832.00847
  22253975.860   116945429.77308  22253977.880    91126311.63348
 15 02 10 00 46 30.0000000  0  7G16G18G21G25G27G29G31
  22517530.200   118330425.81708  22517531.600    92205540.19947
  23164045.240   121727981.82607  23164047.760    94853031.33645
  20937645.540   110028231.67008  20937646.160    85736368.29549
  23929516.980   125750618.78406  23929521.920    97987578.34945
  23794948.520   125043312.73406  23794953.440    97436371.73646
  22898536.660   120333043.32107  22898538.800    93766209.01547
  22268791.360   117023285.23308  22268793.280    91186978.17047
 15 02 10 00 47  0.0000000  0  7G16G18G21G25G27G29G31
  22501665.380   118247055.63008  22501666.740    92140576.43447
  23149818.220   121653219.16407  23149820.760    94794774.77845
  20940357.900   110042485.45508  20940358.560    85747475.14249
  23947757.840   125846476.29006  23947762.840    98062272.43444
  23781101.880   124970547.57406  23781106.680    97379671.64946
  22911826.540   120402882.41607  22911828.780    93820629.06747
  22283667.080   117101457.12308  22283668.940    91247891.27447
 15 02 10 00 47 30.0000000  0  7G16G18G21G25G27G29G31
  22485833.000   118163855.91208  22485834.360    92075745.49547
  23135623.660   121578626.90007  23135626.060    94736651.00145
  20943146.920   110057142.15308  20943147.640    85758895.95249
  23966035.220   125942525.39005  23966040.400    98137115.81945
  23767271.380   124897867.65606  23767276.060    97323037.99846
  22925126.980   120472777.38307  22925129.400    93875092.64947
  22298602.700   117179943.86608  22298604.540    91309049.71347
 15 02 10 00 48  0.0000000  0  7G16G18G21G25G27G29G31
  22470033.340   118080828.12208  22470034.660    92011048.53047
  23121461.940   121504206.94807  23121464.180    94678661.49545
  20946012.220   110072199.65308  20946012.960    85770629.07349
  23984348.840   126038764.19206  23984353.900    98212107.02145
  23753456.860   124825272.31806  23753461.520    97266470.24545
  22938437.920   120542727.34707  22938440.460    93929599.08747
  22313597.520   117258741.84308  22313599.380    91370450.67747
 15 02 10 00 48 30.0000000  0  7G16G18G21G25G27G29G31
  22454266.760   117997974.50308  22454268.060    91946487.28747
  23107333.580   121429962.35307  23107335.660    94620808.63645
  20948953.660   110087657.09308  20948954.420    85782673.83849
  24002698.540   126135191.40206  24002703.500    98287245.02144
  23739658.440   124752761.64406  23739663.080    97209968.46845
  22951759.440   120612732.16807  22951761.940    93984148.27647
  22328651.080   117337848.49808  22328652.940    91432092.17547
 15 02 10 00 49  0.0000000  0  7G16G18G21G25G27G29G31
  22438533.580   117915296.18408  22438534.800    91882062.64347
  23093238.880   121355894.62807  23093240.920    94563093.59145
  20951970.740   110103511.99508  20951971.500    85795028.31149
  24021083.780   126231804.77206  24021088.540    98362528.07645
  23725875.900   124680334.60106  23725880.500    97153531.85245
  22965091.180   120682790.73807  22965093.620    94038739.34047
  22343762.600   117417259.83508  22343764.420    91493971.08047
 15 02 10 00 49 30.0000000  0  7G16G18G21G25G27G29G31
  22422834.400   117832796.54708  22422835.560    91817777.22847
  23079178.720   121282007.93107  23079180.700    94505519.60345
  20955063.600   110119764.96308  20955064.360    85807692.97149
  24039504.540   126328604.39606  24039509.140    98437956.29544
  23712109.540   124607992.63006  23712114.100    97097161.50945
  22978433.360   120752904.06407  22978435.640    94093373.07546
  22358931.900   117496974.68808  22358933.620    91556086.47547
 15 02 10 00 50  0.0000000  0  7G16G18G21G25G27G29G31
  22407169.720   117750477.98708  22407170.820    91753632.91247
  23065153.520   121208304.97007  23065155.480    94448088.77645
  20958232.000   110136414.88108  20958232.720    85820666.93949
  24057960.480   126425589.24206  24057965.000    98513528.79645
  23698359.480   124535736.02105  23698364.020    97040857.68646
  22991785.960   120823072.14107  22991788.120    94148049.47246
  22374158.500   117576990.72408  22374160.140    91618436.57347
 15 02 10 00 50 30.0000000  0  7G16G18G21G25G27G29G31
  22391539.700   117668341.74608  22391540.840    91689630.65747
  23051163.600   121134787.72107  23051165.740    94390802.67545
  20961475.480   110153459.39108  20961476.160    85833948.38049
  24076451.060   126522757.03906  24076455.640    98589243.86445
  23684625.500   124463563.79706  23684629.980    96984619.62545
  23005148.760   120893293.67407  23005150.800    94202767.52546
  22389441.580   117657303.71508  22389443.220    91681018.05447
 15 02 10 00 51  0.0000000  0  7G16G18G21G25G27G29G31
  22375944.920   117586390.51708  22375946.060    91625772.57647
  23037209.640   121061459.46507  23037211.900    94333663.82645
  20964793.960   110170897.97208  20964794.580    85847536.88849
  24094976.180   126620107.05706  24094981.040    98665100.95245
  23670907.720   124391476.61006  23670912.240    96928447.82646
  23018521.840   120963569.06107  23018523.780    94257527.53646
  22404780.820   117737911.88708  22404782.520    91743829.54547
 15 02 10 00 51 30.0000000  0  7G16G18G21G25G27G29G31
  22360385.840   117504627.17308  22360387.020    91562060.89847
  23023292.380   120988323.79907  23023294.720    94276675.04645
  20968187.300   110188729.93308  20968187.880    85861431.93249
  24113535.600   126717638.69206  24113541.040    98741099.51645
  23657206.360   124319475.12606  23657210.820    96872342.82445
  23031905.280   121033898.99607  23031907.160    94312330.05446
  22420175.780   117818812.80308  22420177.580    91806869.16047
 15 02 10 00 52  0.0000000  0  7G16G18G21G25G27G29G31
  22344862.780   117423053.23108  22344864.020    91498496.80847
  23009412.040   120915382.29607  23009414.480    94219837.56145
  20971655.280   110206954.21208  20971655.820    85875632.67949
  24132129.060   126815350.19305  24132135.120    98817238.25645
  23643521.200   124247558.94606  23643525.740    96816304.27945
  23045298.940   121104282.36107  23045300.700    94367174.20346
  22435625.880   117900003.34308  22435627.800    91870134.44247
 15 02 10 00 52 30.0000000  0  7G16G18G21G25G27G29G31
  22329376.000   117341669.60508  22329377.180    91435081.01447
  22995569.080   120842636.88807  22995571.480    94163152.87646
  20975197.360   110225568.04208  20975197.900    85890136.96449
  24150756.380   126913238.97305  24150762.820    98893515.11745
  23629852.100   124175726.85706  23629856.660    96760331.26246
  23058702.440   121174717.78407  23058704.160    94422058.92946
  22451130.320   117981479.29108  22451132.320    91933622.13947
 15 02 10 00 53  0.0000000  0  7G16G18G21G25G27G29G31
  22313925.920   117260478.81908  22313927.040    91371815.48147
  22981763.860   120770090.05607  22981766.260    94106622.92645
  20978813.320   110244570.22108  20978813.900    85904943.85949
  24169417.460   127011303.86006  24169423.860    98969929.22045
  23616198.960   124103979.09806  23616203.600    96704423.95046
  23072115.880   121245205.74307  23072117.660    94476984.58847
  22466688.620   118063238.22108  22466690.660    91997330.32647
 15 02 10 00 53 30.0000000  0  7G16G18G21G25G27G29G31
  22298512.820   117179482.40508  22298513.960    91308701.40947
  22967996.880   120697744.08507  22967999.180    94050249.48845
  20982502.740   110263958.61408  20982503.380    85920051.70449
  24188111.880   127109543.04106  24188118.100    99046479.07444
  23602561.700   124032315.14706  23602566.420    96648581.94946
  23085539.100   121315745.34307  23085541.020    94531950.48846
  22482300.120   118145276.80208  22482302.180    92061256.42647
 15 02 10 00 54  0.0000000  0  7G16G18G21G25G27G29G31
  22283137.300   117098683.56008  22283138.480    91245741.29047
  22954268.780   120625602.72507  22954271.000    93994035.48546
  20986265.680   110283733.35508  20986266.400    85935460.60549
  24206839.600   127207956.03706  24206845.380    99123164.40245
  23588940.620   123960735.93806  23588945.320    96592805.96946
  23098972.200   121386337.18507  23098974.260    94586957.07746
  22497964.380   118227592.86608  22497966.460    92125398.74047
 15 02 10 00 54 30.0000000  0  7G16G18G21G25G27G29G31
  22267799.760   117018084.21208  22267800.960    91182936.61947
  22940579.840   120553667.70607  22940582.040    93937982.28145
  20990101.860   110303893.02908  20990102.680    85951169.44449
  24225600.100   127306541.44106  24225605.520    99199984.04445
  23575335.660   123889241.39606  23575340.320    96537095.98846
  23112415.240   121456980.81107  23112417.300    94642004.03846
  22513680.860   118310183.52508  22513682.920    92189755.02447
 15 02 10 00 55  0.0000000  0  7G16G18G21G25G27G29G31
  22252500.720   116937687.21908  22252501.900    91120289.62047
  22926931.020   120481943.51107  22926933.180    93882093.34945
  20994011.220   110324436.94908  20994012.060    85967177.69549
  24244393.300   127405298.52306  24244398.100    99276937.52944
  23561746.880   123817832.22706  23561751.560    96481452.51246
  23125868.240   121527676.72407  23125870.280    94697091.73246
  22529449.180   118393046.63308  22529451.200    92254323.60347
 15 02 10 00 55 30.0000000  0  7G16G18G21G25G27G29G31
  22237240.660   116857495.09708  22237241.800    91057802.25847
  22913322.840   120410432.67007  22913324.920    93826370.67746
  20997993.500   110345363.88508  20997994.320    85983484.40349
  24263218.920   127504226.01706  24263223.280    99354023.75444
  23548174.400   123746508.62406  23548179.020    96425875.70946
  23139331.180   121598425.12207  23139333.240    94752220.32546
  22545268.920   118476179.69908  22545270.900    92319102.54247
 15 02 10 00 56  0.0000000  0  7G16G18G21G25G27G29G31
  22222019.840   116777509.08208  22222020.860    90995475.50646
  22899755.440   120339136.30007  22899757.500    93770815.12245
  21002048.260   110366671.65108  21002049.040    86000087.86349
  24282076.480   127603321.76305  24282080.740    99431241.07544
  23534617.920   123675269.70206  23534622.580    96370364.90245
  23152803.920   121669224.93807  23152805.960    94807388.97446
  22561139.280   118559578.76708  22561141.240    92384088.74747
 15 02 10 00 56 30.0000000  0  8G16G18G21G22G25G27G29G31
  22206839.260   116697734.79008  22206840.260    90933313.72847
  22886230.180   120268060.77407  22886232.200    93715431.64445
  21006175.900   110388362.42708  21006176.660    86016989.77349
  24553755.100   129030864.54705  24553763.960   100543556.11845
  24300966.240   127702587.74805  24300970.720    99508591.00345
  23521078.300   123604118.95506  23521082.860    96314922.80646
  23166287.160   121740079.37507  23166289.100    94862600.20746
  22577060.340   118643244.33408  22577062.340    92449282.61847
 15 02 10 00 57  0.0000000  0  8G16G18G21G22G25G27G29G31
  22191695.940   116618156.17008  22191696.900    90871304.42047
  22872744.100   120197190.85107  22872746.060    93660208.37245
  21010372.720   110410416.73708  21010373.440    86034174.94949
  24535656.100   128935751.75806  24535663.980   100469442.84645
  24319884.660   127802004.41205  24319889.500    99586058.37345
  23507552.080   123533038.20306  23507556.520    96259535.28345
  23179777.240   121810969.94507  23179779.060    94917839.58846
