     2.11           OBSERVATION DATA    G                   RINEX VERSION / TYPE
SPIDER V4,0,0,3554                      2015 03 13 00:27    PGM / RUN BY / DATE 
CKHR                                                        MARKER NAME         
CKHR                                                        MARKER NUMBER       
                                                            OBSERVER / AGENCY   
496547              LEICA GRX1200+GNSS  8.10/4.007          REC # / TYPE / VERS 
10301042            LEIAR25         NONE                    ANT # / TYPE        
  5141838.0877   498328.5776  3730203.3049                  APPROX POSITION XYZ 
        0.0720        0.0000        0.0000                  ANTENNA: DELTA H/E/N
     1     1                                                WAVELENGTH FACT L1/2
     4    C1    L1    P2    L2                              # / TYPES OF OBSERV 
    30.000                                                  INTERVAL            
  2015    02    10    07    03   30.0000000     GPS         TIME OF FIRST OBS   
  2015    02    10    23    59   30.0000000     GPS         TIME OF LAST OBS    
    16                                                      LEAP SECONDS        
    28                                                      # OF SATELLITES     
   G 1   432   432   432   432                              PRN / # OF OBS      
   G 2   931   931   930   930                              PRN / # OF OBS      
   G 3   579   579   579   579                              PRN / # OF OBS      
   G 4   296   296   296   296                              PRN / # OF OBS      
   G 5   652   652   651   651                              PRN / # OF OBS      
   G 6   788   788   787   787                              PRN / # OF OBS      
   G 7   664   664   664   664                              PRN / # OF OBS      
   G 9   801   801   801   801                              PRN / # OF OBS      
   G10   762   762   762   762                              PRN / # OF OBS      
   G11   332   332   332   332                              PRN / # OF OBS      
   G12   818   818   818   818                              PRN / # OF OBS      
   G13   793   793   793   793                              PRN / # OF OBS      
   G14   548   548   548   548                              PRN / # OF OBS      
   G15   688   688   688   688                              PRN / # OF OBS      
   G16    43    42    42    42                              PRN / # OF OBS      
   G17   899   899   899   899                              PRN / # OF OBS      
   G18   337   336   335   335                              PRN / # OF OBS      
   G19   109   109   109   109                              PRN / # OF OBS      
   G20   811   811   811   811                              PRN / # OF OBS      
   G21   266   258   255   254                              PRN / # OF OBS      
   G23   683   683   683   683                              PRN / # OF OBS      
   G24   826   826   826   826                              PRN / # OF OBS      
   G25   724   723   723   723                              PRN / # OF OBS      
   G28   658   657   657   657                              PRN / # OF OBS      
   G29   561   561   561   561                              PRN / # OF OBS      
   G30   709   709   709   709                              PRN / # OF OBS      
   G31   614   614   613   613                              PRN / # OF OBS      
   G32   326   326   326   326                              PRN / # OF OBS      
BIT 2 OF LLI FLAGS DATA COLLECTED UNDER A/S CONDITION       COMMENT             
SNR is mapped to RINEX snr flag value [2-9]                 COMMENT             
Lx:     = 25dBHz -> 1; 26-27dBHz -> 2; 28-31dBHz -> 3       COMMENT             
       32-35dBHz -> 4; 36-38dBHz -> 5; 39-41dBHz -> 6       COMMENT             
       42-44dBHz -> 7; 45-48dBHz -> 8; >=49dBHz -> 9        COMMENT             
                                                            END OF HEADER       
 15 02 10 07 03 30.0000000  0 10G01G03G04G11G14G17G19G23G28G32
  20551609.920   107999438.13009  20551611.080    84155411.71649
  20862533.420   109633353.08609  20862534.080    85428588.86049
  20683226.140   108691086.62909  20683225.040    84694348.97348
  20159688.060   105939874.04609  20159684.600    82550537.90948
  23958823.880   125904468.31008  23958824.000    98107378.12546
  24294901.920   127670570.70908  24294900.100    99483556.57346
  22941675.580   120559317.91709  22941672.780    93942313.69348
  23553434.200   123774131.30009  23553431.480    96447364.12246
  24091673.280   126602603.97908  24091670.800    98651366.69644
  20672118.240   108632714.15709  20672116.680    84648861.70248
 15 02 10 07 04  0.0000000  0 10G01G03G04G11G14G17G19G23G28G32
  20547453.240   107977594.31709  20547454.380    84138390.57349
  20856214.140   109600144.87209  20856214.800    85402712.34649
  20689628.940   108724733.34409  20689627.820    84720567.17448
  20163023.300   105957400.23609  20163019.780    82564194.67248
  23973889.260   125983637.67108  23973889.240    98169068.43645
  24276536.680   127574059.66508  24276534.780    99408353.10946
  22960547.000   120658487.15809  22960544.120    94019588.36848
  23534030.820   123672166.42009  23534028.200    96367910.99846
  24097173.500   126631509.29908  24097172.180    98673890.27944
  20681437.360   108681686.78909  20681435.920    84687022.19148
 15 02 10 07 04 30.0000000  0 10G01G03G04G11G14G17G19G23G28G32
  20543351.760   107956040.69209  20543352.860    84121595.53249
  20849961.140   109567284.69909  20849961.820    85377107.02449
  20696096.020   108758717.75009  20696094.860    84747048.50348
  20166450.420   105975409.42609  20166446.880    82578227.79148
  23989023.420   126063168.34808  23989023.280    98231040.31646
  24258214.840   127477776.71108  24258212.660    99333327.36946
  22979466.660   120757909.75909  22979463.680    94097060.43548
  23514657.040   123570357.51709  23514654.620    96288579.41446
  24102753.500   126660832.82508  24102752.540    98696739.66145
  20690817.020   108730977.35109  20690815.620    84725430.40248
 15 02 10 07 05  0.0000000  0 10G01G03G04G11G14G17G19G23G28G32
  20539301.720   107934757.30409  20539302.740    84105011.07649
  20843770.280   109534751.04809  20843770.960    85351756.13549
  20702623.380   108793019.31609  20702622.240    84773776.97348
  20169965.440   105993880.65509  20169961.960    82592620.93648
  24004221.840   126143036.68108  24004221.560    98293275.31344
  24239932.700   127381702.99908  24239930.400    99258464.67746
  22998430.060   120857562.54209  22998427.120    94174711.86848
  23495309.400   123468685.93409  23495307.180    96209354.82646
  24108408.480   126690551.17007  24108407.260    98719896.72145
  20700252.820   108780562.61509  20700251.340    84764068.26648
 15 02 10 07 05 30.0000000  0 10G01G03G04G11G14G17G19G23G28G32
  20535302.320   107913740.26009  20535303.300    84088634.15149
  20837640.560   109502538.55809  20837641.200    85326655.48849
  20709210.160   108827632.97909  20709209.080    84800748.62648
  20173567.420   106012809.04109  20173564.000    82607370.30448
  24019482.980   126223235.52008  24019482.740    98355767.80444
  24221689.800   127285835.86009  24221687.740    99183762.95546
  23017435.760   120957437.95609  23017433.000    94252536.76447
  23475987.420   123367149.06609  23475985.320    96130235.20346
  24114137.780   126720658.17708  24114137.000    98743356.68845
  20709743.420   108830435.81209  20709741.880    84802930.48248
 15 02 10 07 06  0.0000000  0 10G01G03G04G11G14G17G19G23G28G32
  20531353.820   107892990.72409  20531354.800    84072465.66849
  20831571.860   109470646.77309  20831572.420    85301804.74049
  20715856.360   108862558.82509  20715855.320    84827963.52848
  20177256.460   106032195.23209  20177253.060    82622476.39748
  24034806.700   126303762.65308  24034806.560    98418516.10945
  24203486.920   127190178.79108  24203484.720    99109224.83246
  23036483.380   121057533.87509  23036480.880    94330533.48848
  23456691.600   123265749.30809  23456689.540    96051222.41446
  24119940.740   126751151.58208  24119940.640    98767117.65144
  20719288.420   108880594.89209  20719286.840    84842015.45048
 15 02 10 07 06 30.0000000  0 10G01G03G04G11G14G17G19G23G28G32
  20527456.440   107872509.63509  20527457.420    84056506.36049
  20825564.060   109439075.08709  20825564.520    85277203.41449
  20722562.020   108897797.09009  20722560.960    84855421.88048
  20181032.640   106052039.23609  20181029.300    82637939.22549
  24050192.660   126384615.32608  24050192.460    98481518.10245
  24185324.420   127094733.66008  24185322.240    99034851.91046
  23055572.500   121157848.15409  23055570.260    94408700.35448
  23437422.500   123164488.91809  23437420.360    95972318.21946
  24125816.940   126782029.33508  24125815.760    98791178.15245
  20728887.440   108931037.85209  20728885.840    84881321.62848
 15 02 10 07 07  0.0000000  0 10G01G03G04G11G14G17G19G23G28G32
  20523610.780   107852300.60609  20523611.780    84040759.04049
  20819617.580   109407825.59309  20819617.940    85252853.14349
  20729327.600   108933350.45109  20729326.500    84883125.74848
  20184896.500   106072343.74709  20184893.200    82653760.88549
  24065640.640   126465793.71308  24065640.340    98544773.86745
  24167203.160   126999505.48908  24167200.940    98960648.05446
  23074703.320   121258380.93109  23074701.140    94487037.49148
  23418180.960   123063372.80509  23418178.580    95893526.43646
  24131766.500   126813291.83508  24131765.460    98815538.48545
  20738540.540   108981765.11609  20738538.980    84920849.33048
 15 02 10 07 07 30.0000000  0 10G01G03G04G11G14G17G19G23G28G32
  20519817.660   107832367.72309  20519818.700    84025226.90349
  20813732.860   109376900.78109  20813733.140    85228755.86449
  20736153.700   108969222.11909  20736152.660    84911077.65048
  20188848.580   106093111.80509  20188845.340    82669943.74649
  24081150.300   126547298.50607  24081150.060    98608283.95144
  24149124.200   126904499.76508  24149122.080    98886617.55746
  23093875.880   121359132.78609  23093873.720    94565545.32948
  23398967.880   122962406.25609  23398965.220    95814851.19746
  24137789.260   126844940.05008  24137787.980    98840199.29245
  20748247.980   109032777.69509  20748246.380    84960599.35848
 15 02 10 07 08  0.0000000  0 10G01G03G04G11G14G17G19G23G28G32
  20516075.820   107812704.23109  20516076.880    84009904.67149
  20807908.300   109346292.33609  20807908.520    85204905.10349
  20743038.900   109005404.00809  20743037.840    84939271.28948
  20192887.360   106114335.91909  20192884.240    82686481.97549
  24096720.160   126629119.30908  24096719.800    98672040.32844
  24131086.700   126809711.64808  24131084.740    98812756.60546
  23113088.280   121460093.80509  23113086.000    94644216.07347
  23379782.140   122861583.68409  23379779.320    95736288.15446
  24143883.720   126876964.29408  24143881.500    98865153.17945
  20758007.860   109084065.84309  20758006.240    85000564.10848
 15 02 10 07 08 30.0000000  0 10G01G03G04G11G14G17G19G23G28G32
  20512386.520   107793316.85009  20512387.600    83994797.59449
  20802144.940   109316005.41209  20802145.140    85181304.87249
  20749984.340   109041902.13409  20749983.220    84967711.33248
  20197014.020   106136022.08909  20197011.040    82703380.25348
  24112351.140   126711259.37608  24112350.900    98736045.48145
  24113092.040   126715148.85608  24113090.200    98739071.24747
  23132341.060   121561267.27409  23132338.720    94723052.41947
  23360625.300   122760913.28709  23360622.440    95657843.69746
  24150050.080   126909368.04108  24150048.900    98890402.73545
  20767820.820   109135633.22709  20767819.200    85040746.44948
 15 02 10 07 09  0.0000000  0 10G01G03G04G11G14G17G19G23G28G32
  20508749.320   107774203.06209  20508750.400    83979903.70449
  20796441.940   109286035.85309  20796442.200    85157951.94449
  20756989.280   109078713.11409  20756988.120    84996395.16348
  20201227.940   106158166.69509  20201225.040    82720635.75248
  24128041.800   126793712.70308  24128041.760    98800294.69346
  24095140.160   126620810.74309  24095138.440    98665560.99246
  23151633.120   121662647.25009  23151630.780    94802049.71948
  23341497.100   122660393.76809  23341494.180    95579516.81346
  24156287.600   126942145.63307  24156285.540    98915943.66945
  20777685.820   109187474.16309  20777684.240    85081141.94648
 15 02 10 07 09 30.0000000  0 10G01G03G04G11G14G17G19G23G28G32
  20505165.760   107755371.06709  20505166.820    83965229.38849
  20790800.580   109256390.29509  20790800.900    85134851.47749
  20764055.120   109115844.10909  20764053.960    85025328.35748
  20205530.500   106180776.93509  20205527.660    82738254.08148
  24143792.860   126876483.88608  24143793.080    98864791.54546
  24077232.920   126526706.76308  24077231.080    98592233.10947
  23170965.340   121764238.64109  23170963.140    94881211.70548
  23322399.340   122560034.50109  23322396.360    95501314.77146
  24162597.160   126975302.13508  24162595.980    98941779.78145
  20787603.820   109239593.77809  20787602.380    85121754.59448
 15 02 10 07 10  0.0000000  0 10G01G03G04G11G14G17G19G23G28G32
  20501635.480   107736818.98609  20501636.520    83950773.17249
  20785220.180   109227065.28209  20785220.580    85112000.77849
  20771181.380   109153292.36709  20771180.220    85054508.77448
  20209921.080   106203849.71509  20209918.320    82756232.82949
  24159603.260   126959567.50008  24159603.640    98929531.82145
  24059369.960   126432836.37408  24059368.240    98519087.32547
  23190336.780   121866036.02709  23190334.660    94960534.23548
  23303331.880   122459835.11109  23303328.960    95423237.29946
  24168977.720   127008832.51208  24168975.640    98967907.22345
  20797573.920   109291987.21709  20797572.580    85162580.59748
 15 02 10 07 10 30.0000000  0 10G01G03G04G11G14G17G19G23G28G32
  20498158.160   107718545.05809  20498159.120    83936533.70649
  20779700.080   109198057.37109  20779700.560    85089397.19049
  20778367.420   109191055.01209  20778366.320    85083934.16948
  20214399.220   106227382.49909  20214396.520    82774570.02548
  24175472.040   127042958.00808  24175472.520    98994511.28044
  24041551.460   126339199.57708  24041549.760    98446123.50547
  23209746.480   121968034.45509  23209744.380    95040013.37247
  23284294.740   122359795.14509  23284291.960    95345284.07346
  24175428.660   127042731.48708  24175427.300    98994321.88845
  20807595.240   109344649.58809  20807593.940    85203616.16448
 15 02 10 07 11  0.0000000  0 10G01G03G04G11G14G17G19G23G28G32
  20494734.100   107700551.08809  20494735.000    83922512.38649
  20774240.340   109169366.81609  20774240.900    85067040.88349
  20785613.400   109229132.83409  20785612.340    85113605.15248
  20218965.160   106251376.30309  20218962.420    82793266.45548
  24191399.060   127126654.00408  24191399.000    99059728.89044
  24023778.000   126245799.75408  24023776.460    98373344.39546
  23229194.180   122070232.30709  23229192.080    95119647.92447
  23265288.520   122259917.19509  23265285.800    95267457.08946
  24181949.380   127076998.13608  24181947.100    99021023.07445
  20817667.540   109397579.75909  20817666.240    85244860.40248
 15 02 10 07 11 30.0000000  0 10G01G03G04G11G14G17G19G23G28G32
  20491363.760   107682839.68009  20491364.660    83908711.25449
  20768841.220   109140994.59309  20768841.820    85044932.63349
  20792919.780   109267527.64909  20792918.700    85143523.14148
  20223619.120   106275832.46809  20223616.260    82812323.17048
  24207384.140   127210654.59008  24207383.600    99125183.85945
  24006050.340   126152640.42708  24006048.760    98300752.63046
  23248679.680   122172628.66709  23248677.600    95199437.21247
  23246313.980   122160205.34609  23246311.360    95189759.55446
  24188539.740   127111631.52107  24188538.520    99048010.00746
  20827790.700   109450777.12909  20827789.380    85286312.85148
 15 02 10 07 12  0.0000000  0 10G01G03G04G11G14G17G19G23G28G32
  20488046.940   107665409.72509  20488047.920    83895129.43349
  20763502.160   109112937.93509  20763502.760    85023070.27349
  20800286.100   109306237.21309  20800284.960    85173686.38248
  20228360.660   106300749.10009  20228357.740    82831738.68748
  24223426.220   127294954.93408  24223425.700    99190872.33045
  23988368.560   126059722.14508  23988366.960    98228348.72146
  23268202.160   122275219.26409  23268200.020    95279377.75547
  23227371.120   122060659.67609  23227368.520    95112191.49846
  24195199.340   127146627.40308  24195198.020    99075279.44145
  20837963.960   109504237.57709  20837962.660    85327970.28348
 15 02 10 07 12 30.0000000  0 10G01G03G04G11G14G17G19G23G28G32
  20484785.020   107648268.26009  20484786.040    83881772.40949
  20758224.240   109085202.27009  20758224.880    85001458.03749
  20807713.380   109345267.61509  20807712.220    85204099.62948
  20233190.840   106326131.99909  20233188.000    82851517.52648
  24239525.420   127379559.08906  24239525.760    99256797.43345
  23970734.380   125967053.61008  23970732.820    98156139.37246
  23287762.220   122378007.52408  23287760.060    95359472.41348
  23208461.600   121961288.61409  23208458.880    95034759.49147
  24201928.380   127181989.65608  24201926.880    99102834.28044
  20848188.000   109557965.12809  20848186.780    85369835.84648
 15 02 10 07 13  0.0000000  0 10G01G03G04G11G14G17G19G23G28G32
  20481577.420   107631412.14009  20481578.480    83868637.73349
  20753006.480   109057782.77209  20753007.160    84980092.16349
  20815200.820   109384614.54009  20815199.660    85234759.52448
  20238108.940   106351976.81809  20238106.200    82871656.30749
  24255680.960   127464459.56308  24255681.940    99322953.40545
  23953147.440   125874633.41909  23953145.880    98084123.57647
  23307358.540   122480986.93109  23307356.440    95439715.91647
  23189584.980   121862090.38909  23189582.220    94957462.16947
  24208726.340   127217711.65108  24208725.300    99130669.49845
  20858461.740   109611953.56209  20858460.520    85411904.69748
 15 02 10 07 13 30.0000000  0 10G01G03G04G11G14G17G19G23G28G32
  20478423.540   107614838.30709  20478424.600    83855723.02649
  20747848.060   109030674.74809  20747848.740    84958969.00349
  20822747.740   109424274.08509  20822746.620    85265663.01648
  20243114.220   106378279.55509  20243111.480    82892151.90348
  24271892.280   127549649.94108  24271893.180    99389335.40545
  23935607.360   125782459.47208  23935605.980    98012299.63747
  23326989.980   122584151.04408  23326988.060    95520103.46548
  23170740.780   121763063.03409  23170737.960    94880298.00546
  24215591.360   127253787.27508  24215589.680    99158780.26544
  20868783.960   109666196.79009  20868782.760    85454172.08748
 15 02 10 07 14  0.0000000  0 10G01G03G04G11G14G17G19G23G28G32
  20475324.440   107598552.35509  20475325.480    83843032.64749
  20742749.640   109003882.15509  20742750.340    84938091.63949
  20830355.100   109464251.00309  20830354.020    85296813.81048
  20248207.540   106405044.78309  20248204.740    82913007.88848
  24288159.380   127635132.22908  24288159.700    99455944.91944
  23918115.540   125690539.20908  23918114.280    97940673.40647
  23346657.060   122687502.11009  23346655.340    95600636.61447
  23151930.320   121664213.30309  23151927.440    94803272.24847
  24222524.260   127290218.75908  24222522.700    99187168.30245
  20879155.160   109720697.35709  20879153.960    85496640.00648
 15 02 10 07 14 30.0000000  0 10G01G03G04G11G14G17G19G23G28G32
  20472280.580   107582556.80009  20472281.660    83830568.53749
  20737711.340   108977405.87009  20737712.040    84917460.73349
  20838023.160   109504546.41009  20838022.100    85328212.75948
  20253389.120   106432274.07009  20253386.320    82934225.46548
  24304481.880   127720905.58308  24304481.660    99522781.25144
  23900672.680   125598876.19009  23900671.420    97869247.61247
  23366359.540   122791039.30209  23366358.000    95681314.81647
  23133154.380   121565545.05609  23133151.380    94726387.88246
  24229524.420   127327005.24507  24229522.980    99215833.00445
  20889575.220   109775454.75309  20889573.980    85539308.03548
 15 02 10 07 15  0.0000000  0 10G01G03G04G11G14G17G19G23G28G32
  20469291.720   107566850.21609  20469292.860    83818329.62249
  20732732.680   108951242.76909  20732733.400    84897073.88549
  20845751.360   109545158.08909  20845750.380    85359858.18448
  20258658.420   106459964.61209  20258655.700    82955802.48448
  24320858.580   127806964.98407  24320858.360    99589840.39844
  23883278.860   125507470.75708  23883277.620    97798022.55647
  23386096.600   122894757.65809  23386095.100    95762134.18047
  23114412.880   121467058.03009  23114409.880    94649644.76247
  24236591.540   127364142.19708  24236590.320    99244770.76445
  20900043.320   109830464.55109  20900042.040    85582172.77248
 15 02 10 07 15 30.0000000  0 10G01G03G04G11G14G17G19G23G28G32
  20466358.700   107551436.97409  20466359.860    83806319.26549
  20727814.220   108925395.60409  20727814.840    84876933.19649
  20853540.360   109586089.35509  20853539.420    85391752.61848
  20264016.200   106488120.12009  20264013.540    82977741.79248
  24337289.540   127893311.03107  24337289.700    99657122.80344
  23865935.300   125416328.90908  23865934.020    97727002.83447
  23405868.460   122998658.27509  23405866.860    95843095.55447
  23095706.920   121368757.90909  23095704.020    94573047.25847
  24243725.400   127401630.38308  24243723.380    99273982.22044
  20910559.700   109885728.04609  20910558.360    85625235.17248
 15 02 10 07 16  0.0000000  0 10G01G03G04G11G14G17G19G23G28G32
  20463480.880   107536313.77309  20463482.040    83794534.91149
  20722954.840   108899859.34009  20722955.480    84857034.78349
  20861389.360   109627335.81309  20861388.300    85423892.66848
  20269461.540   106516735.40709  20269458.880    83000039.37748
  24353773.940   127979937.01508  24353774.280    99724623.43845
  23848641.520   125325448.74608  23848640.100    97656187.07647
  23425673.720   123102734.21609  23425671.940    95924193.52247
  23077036.140   121270642.79209  23077033.320    94496593.92647
  24250924.960   127439463.18808  24250923.840    99303462.24044
  20921123.160   109941238.93809  20921121.720    85668490.37048
 15 02 10 07 16 30.0000000  0 10G01G03G04G11G14G17G19G23G28G32
  20460658.700   107521483.15909  20460659.820    83782978.54449
  20718154.760   108874634.90209  20718155.440    84837379.34049
  20869298.640   109668898.99009  20869297.460    85456279.50148
  20274994.800   106545812.47209  20274992.020    83022696.78548
  24370311.620   128066841.93008  24370311.900    99792341.44545
  23831398.300   125234834.17808  23831396.740    97585578.26847
  23445512.120   123206984.63209  23445510.160    96005427.50147
  23058401.300   121172716.26209  23058398.520    94420287.54147
  24258189.860   127477639.99608  24258187.880    99333210.30045
  20931733.560   109996996.79309  20931732.120    85711937.99248
 15 02 10 07 17  0.0000000  0 10G01G03G04G11G14G17G19G23G28G32
  20457892.640   107506947.72809  20457893.800    83771652.19349
  20713414.200   108849723.32709  20713414.960    84817967.69549
  20877268.420   109710780.55009  20877267.180    85488914.43748
  20280616.200   106575352.58909  20280613.280    83045715.02048
  24386902.260   128154024.97808  24386902.460    99860276.18045
  23814206.220   125144489.19808  23814204.760    97515179.54447
  23465383.500   123311408.79209  23465381.420    96086796.83147
  23039803.100   121074982.21909  23039800.380    94344131.16247
  24265520.180   127516160.23908  24265518.600    99363225.93045
  20942390.860   110053001.28809  20942389.480    85755577.81748
 15 02 10 07 17 30.0000000  0 10G01G03G04G11G14G17G19G23G28G32
  20455183.180   107492709.45609  20455184.360    83760557.39149
  20708733.220   108825124.65809  20708733.980    84798799.87249
  20885298.820   109752981.33309  20885297.740    85521798.10248
  20286325.800   106605356.55309  20286322.880    83069094.68548
  24403545.220   128241483.88507  24403545.560    99928425.86245
  23797066.020   125054417.21208  23797064.700    97444993.53447
  23485287.520   123416005.11009  23485285.460    96168300.29447
  23021242.140   120977443.75009  23021239.340    94268127.16947
  24272915.380   127555021.95908  24272913.640    99393507.73745
  20953094.760   110109251.18709  20953093.480    85799408.85648
 15 02 10 07 18  0.0000000  0 10G01G03G04G11G14G17G19G23G28G32
  20452530.240   107478768.05509  20452531.420    83749693.90649
  20704111.460   108800836.99609  20704112.260    84779874.38649
  20893389.700   109795500.03809  20893388.920    85554929.51148
  20292123.300   106635822.79209  20292120.460    83092834.56248
  24420239.960   128329215.42507  24420240.340    99996787.93144
  23779978.060   124964619.87008  23779976.840    97375021.52847
  23505223.620   123520770.05409  23505221.620    96249935.17647
  23002718.600   120880102.03009  23002715.760    94192276.48447
  24280374.720   127594221.63908  24280373.820    99424052.72544
  20963844.760   110165743.26009  20963843.560    85843428.59248
 15 02 10 07 18 30.0000000  0 10G01G03G04G11G14G17G19G23G28G32
  20449933.740   107465123.04809  20449934.900    83739061.39049
  20699548.500   108776858.19309  20699549.320    84761189.57849
  20901540.920   109838335.03009  20901540.280    85588307.38648
  20298008.400   106666749.59309  20298005.660    83116933.32548
  24436985.780   128417215.34507  24436986.180   100065359.17744
  23762942.540   124875097.60308  23762941.140    97305263.86647
  23525191.100   123625699.53609  23525189.260    96331698.25547
  22984232.620   120782957.59909  22984229.720    94116579.53547
  24287897.860   127633755.15808  24287896.460    99454858.05845
  20974640.220   110222474.01109  20974639.060    85887634.33148
 15 02 10 07 19  0.0000000  0 10G01G03G04G11G14G17G19G23G28G32
  20447393.980   107451776.46909  20447395.180    83728661.42449
  20695044.380   108753188.60109  20695045.180    84742745.71049
  20909752.640   109881487.28509  20909751.940    85621932.46548
  20303981.300   106698137.93809  20303978.660    83141391.72948
  24453782.520   128505482.03408  24453782.720   100134138.35244
  23745960.140   124785854.35808  23745958.660    97235723.63747
  23545189.720   123730792.01909  23545187.940    96413588.34447
  22965784.740   120686013.49009  22965781.700    94041038.67947
  24295484.380   127673621.71708  24295483.400    99485922.74245
  20985480.920   110279442.56109  20985479.840    85932025.35548
 15 02 10 07 19 30.0000000  0 10G01G03G04G11G14G17G19G23G28G32
  20444911.200   107438729.27509  20444912.440    83718494.74849
  20690598.980   108729827.46209  20690599.740    84724542.19249
  20918024.700   109924956.64909  20918023.880    85655804.65248
  20310041.960   106729987.51809  20310039.480    83166209.54248
  24470629.600   128594012.79408  24470629.640   100203123.26445
  23729031.220   124696892.16708  23729029.800    97166402.39347
  23565219.040   123836045.39509  23565217.180    96495603.83147
  22947375.360   120589272.12609  22947372.320    93965655.81847
  24303133.500   127713818.88408  24303132.660    99517245.06645
  20996366.540   110336646.82209  20996365.520    85976600.05348
 15 02 10 07 20  0.0000000  0 10G01G03G04G11G14G17G19G23G28G32
  20442485.660   107425982.74809  20442486.840    83708562.36049
  20686212.160   108706774.33409  20686212.900    84706578.68449
  20926357.120   109968743.41809  20926356.180    85689924.15848
  20316190.480   106762298.45009  20316188.120    83191386.84548
  24487526.420   128682805.45208  24487526.600   100272312.24945
  23712156.440   124608214.56808  23712155.080    97097302.92047
  23585278.620   123941457.42608  23585276.640    96577742.92647
  22929005.060   120492735.95609  22929002.140    93890432.84547
  24310845.520   127754343.96507  24310844.440    99548823.04346
  21007296.720   110394085.05109  21007295.740    86021357.05948
 15 02 10 07 20 30.0000000  0 10G01G03G04G11G14G17G19G23G28G32
  20440118.160   107413540.97809  20440119.260    83698867.45349
  20681884.360   108684031.59909  20681885.080    84688857.05349
  20934750.420   110012850.47009  20934749.480    85724293.24348
  20322427.360   106795073.27609  20322425.040    83216925.61548
  24504473.080   128771860.74407  24504473.560   100341705.84646
  23695336.840   124519826.63208  23695335.420    97028429.15047
  23605368.420   124047028.58709  23605366.460    96660005.98647
  22910674.860   120396410.27509  22910672.020    93815373.88547
  24318619.720   127795197.75308  24318618.740    99580657.02745
  21018271.620   110451758.38209  21018270.600    86066297.26448
 15 02 10 07 21  0.0000000  0 11G01G03G04G11G14G17G19G23G28G31G32
  20437808.460   107401402.85509  20437809.460    83689409.14849
  20677615.040   108661596.49909  20677615.820    84671375.12649
  20943204.240   110057275.72009  20943203.400    85758910.26848
  20328752.120   106828309.74909  20328749.780    83242824.11248
  24521468.720   128861173.77607  24521469.580   100411300.20045
  23678572.380   124431728.41908  23678570.920    96959781.14147
  23625487.600   124152754.55609  23625485.700    96742389.72347
  22892384.700   120300295.02009  22892381.940    93740478.89947
  24326455.780   127836375.87208  24326454.660    99612743.71744
  24447029.880   128470007.75208  24447034.500   100106509.55945
  21029290.480   110509662.82109  21029289.480    86111417.55348
 15 02 10 07 21 30.0000000  0 11G01G03G04G11G14G17G19G23G28G31G32
  20435557.640   107389574.38309  20435558.640    83680192.13449
  20673405.140   108639473.25509  20673405.900    84654136.20349
  20951719.600   110102024.16009  20951718.880    85793779.12748
  20335165.600   106862012.44609  20335163.240    83269085.90548
  24538513.820   128950746.82507  24538514.920   100481097.18644
  23661864.460   124343927.93508  23661863.140    96891365.15147
  23645636.560   124258637.71908  23645634.780    96824895.94147
  22874136.000   120204397.80309  22874133.300    93665753.81647
  24334354.120   127877880.61308  24334353.380    99645084.95145
  24437903.440   128422049.43607  24437907.240   100069139.56545
  21040353.880   110567801.35709  21040352.940    86156720.25148
 15 02 10 07 22  0.0000000  0 11G01G03G04G11G14G17G19G23G28G31G32
  20433363.800   107378045.46309  20433364.820    83671208.53849
  20669252.380   108617650.10709  20669253.080    84637131.12449
  20960294.320   110147084.42909  20960293.640    85828890.97548
  20341665.660   106896170.21109  20341663.280    83295702.29848
  24555605.920   129040566.21008  24555606.920   100551086.20844
  23645211.500   124256416.22909  23645210.220    96823174.17647
  23665812.800   124364664.66509  23665811.140    96907514.17747
  22855927.080   120108709.59809  22855924.500    93591191.59547
  24342311.860   127919698.61408  24342310.260    99677670.27144
  24428839.020   128374418.00007  24428842.740   100032024.34545
  21051459.280   110626160.90109  21051458.500    86202195.15948
 15 02 10 07 22 30.0000000  0 11G01G03G04G11G14G17G19G23G28G31G32
  20431228.560   107366824.84809  20431229.640    83662465.18549
  20665158.120   108596134.06509  20665158.700    84620365.35349
  20968929.760   110192464.29009  20968929.200    85864251.86548
  20348253.760   106930790.60009  20348251.380    83322679.17948
  24572746.000   129130637.28608  24572746.400   100621271.45943
  23628615.500   124169203.71308  23628614.300    96755216.34147
  23686017.380   124470840.87809  23686015.720    96990248.74247
  22837759.760   120013240.28909  22837757.380    93516799.95247
  24350330.020   127961835.04908  24350329.020    99710503.67645
  24419839.000   128327123.85808  24419842.740    99995171.93645
  21062607.900   110684747.38209  21062607.240    86247846.90348
 15 02 10 07 23  0.0000000  0 11G01G03G04G11G14G17G19G23G28G31G32
  20429151.220   107355908.31009  20429152.300    83653958.76649
  20661121.140   108574919.17409  20661121.660    84603834.24349
  20977625.040   110238158.29209  20977624.500    85899857.53648
  20354928.840   106965867.95409  20354926.420    83350012.14148
  24589932.560   129220952.12808  24589932.700   100691646.63444
  23612075.920   124082287.61509  23612074.780    96687489.47047
  23706248.900   124577158.38809  23706247.200    97073093.40047
  22819633.500   119917986.63009  22819631.260    93442576.34447
  24358407.380   128004282.08608  24358405.840    99743579.24845
  24410902.860   128280164.38507  24410906.500    99958580.21545
  21073798.360   110743553.47809  21073797.720    86293669.77548
 15 02 10 07 23 30.0000000  0 11G01G03G04G11G14G17G19G23G28G31G32
  20427132.580   107345300.27509  20427133.680    83645692.74649
  20657141.920   108554008.15609  20657142.460    84587539.92449
  20986380.920   110284170.06409  20986380.300    85935710.83648
  20361691.420   107001405.06609  20361688.960    83377703.35048
  24607165.660   129311511.47907  24607166.040   100762212.23145
  23595593.900   123995673.96808  23595592.780    96619998.29247
  23726507.700   124683618.38909  23726505.820    97156049.09547
  22801549.480   119822954.71109  22801547.280    93368525.52747
  24366544.400   128047040.75908  24366543.480    99776897.57744
  24402031.240   128233545.35707  24402035.180    99922253.94445
  21085030.960   110802580.82109  21085030.340    86339665.06548
 15 02 10 07 24  0.0000000  0 11G01G03G04G11G14G17G19G23G28G31G32
  20425173.580   107335005.52709  20425174.680    83637670.82749
  20653221.080   108533404.06109  20653221.640    84571484.76749
  20995197.940   110330502.96309  20995197.160    85971814.34848
  20368542.220   107037405.88909  20368539.720    83405755.90148
  24624445.420   129402316.75007  24624446.060   100832969.39446
  23579170.640   123909368.95208  23579169.580    96552747.58547
  23746793.920   124790222.02809  23746791.920    97239116.70647
  22783508.740   119728150.24809  22783506.520    93294651.94647
  24374740.580   128090112.51208  24374739.440    99810459.86645
  24393225.840   128187273.35608  24393230.000    99886198.03846
  21096306.060   110861831.11509  21096305.360    86385834.07248
 15 02 10 07 24 30.0000000  0 11G01G03G04G11G14G17G19G23G28G31G32
  20423273.860   107325022.55209  20423274.980    83629891.84949
  20649358.000   108513103.63309  20649358.560    84555666.23149
  21004075.520   110377154.39609  21004074.600    86008166.07148
  20375480.600   107073867.19109  20375478.080    83434167.25448
  24641770.700   129493362.87006  24641771.940   100903914.17746
  23562806.100   123823372.53508  23562805.080    96485737.33947
  23767106.580   124896964.39709  23767104.440    97322292.42747
  22765511.200   119633572.66809  22765508.860    93220955.16347
  24382995.560   128133492.11207  24382994.480    99844262.03844
  24384486.500   128141348.50607  24384490.660    99850412.62245
  21107622.740   110921300.03609  21107621.940    86432173.43048
 15 02 10 07 25  0.0000000  0 11G01G03G04G11G14G17G19G23G28G31G32
  20421433.400   107315350.83509  20421434.500    83622355.42149
  20645552.240   108493104.67309  20645552.860    84540082.61449
  21013013.400   110424122.97509  21013012.440    86044764.93448
  20382506.240   107110787.15209  20382503.680    83462936.02048
  24659141.100   129584645.73708  24659142.700   100975043.54045
  23546500.460   123737685.49809  23546499.340    96418968.17847
  23787444.880   125003841.77409  23787442.640    97405573.36647
  22747557.060   119539222.85009  22747554.620    93147435.86347
  24391308.320   128177175.69507  24391307.100    99878301.10644
  24375813.220   128095771.29908  24375816.800    99814898.08844
  21118980.340   110980984.23809  21118979.480    86478680.56748
 15 02 10 07 25 30.0000000  0 11G01G03G04G11G14G17G19G23G28G31G32
  20419652.120   107305990.24809  20419653.240    83615061.40849
  20641803.440   108473405.24509  20641804.180    84524732.38349
  21022011.320   110471407.13809  21022010.340    86081609.69148
  20389618.900   107148164.15709  20389616.320    83492060.91448
  24676556.200   129676161.59308  24676557.640   101046354.43444
  23530253.900   123652309.25408  23530252.720    96352441.18447
  23807808.060   125110850.37408  23807805.980    97488956.52347
  22729646.520   119445101.97709  22729644.000    93074094.94047
  24399678.180   128221159.40208  24399676.780    99912573.98444
  24367206.940   128050543.35308  24367209.160    99779655.69645
  21130378.280   111040880.52009  21130377.360    86525352.94248
 15 02 10 07 26  0.0000000  0 11G01G03G04G11G14G17G19G23G28G31G32
  20417930.940   107296945.68309  20417932.180    83608013.65849
  20638112.320   108454008.54409  20638113.100    84509618.04049
  21031070.040   110519010.78309  21031069.080    86118703.38548
  20396819.220   107186001.82809  20396816.640    83521544.77148
  24694015.960   129767911.49408  24694016.980   101117847.76644
  23514067.800   123567250.57209  23514066.620    96286161.65047
  23828196.400   125217991.56808  23828194.680    97572443.00747
  22711780.600   119351215.87309  22711778.060    93000936.96547
  24408105.100   128265444.53708  24408105.100    99947081.70644
  24358668.560   128005671.24908  24358670.200    99744690.60245
  21141816.960   111100990.93709  21141816.080    86572192.17848
 15 02 10 07 26 30.0000000  0 11G01G03G04G11G14G17G19G23G28G31G32
  20416269.260   107288213.58209  20416270.560    83601209.38949
  20634477.860   108434909.28309  20634478.640    84494735.47949
  21040188.580   110566929.10809  21040187.720    86156042.29248
  20404106.260   107224295.29609  20404103.680    83551383.79348
  24711519.100   129859888.64507  24711519.020   101189518.21743
  23497941.680   123482507.04808  23497940.460    96220127.67847
  23848608.620   125325258.66408  23848607.220    97656027.61947
  22693958.980   119257562.64109  22693956.420    92927960.43947
  24416588.260   128310024.12508  24416588.060    99981818.92045
  24350197.080   127961152.78508  24350198.680    99710001.04844
  21153295.220   111161309.14109  21153294.300    86619193.33748
 15 02 10 07 27  0.0000000  0 11G01G03G04G11G14G17G19G23G28G31G32
  20414668.420   107279800.90309  20414669.700    83594654.01649
  20630900.980   108416112.65709  20630901.780    84480088.73349
  21049368.080   110615167.99209  21049367.300    86193630.99048
  20411481.020   107263049.93409  20411478.500    83581582.17248
  24729065.840   129952096.44607  24729065.180   101261368.38144
  23481877.140   123398087.26009  23481875.920    96154346.00147
  23869045.340   125432654.86208  23869044.380    97739712.81047
  22676183.100   119164149.87409  22676180.560    92855171.29547
  24425128.420   128354901.48907  24425127.860   100016788.19645
  24341794.380   127916996.52208  24341795.760    99675593.57445
  21164813.800   111221839.10109  21164812.860    86666359.50148
 15 02 10 07 27 30.0000000  0 11G01G03G04G11G14G17G19G23G28G31G32
  20413128.220   107271706.67009  20413129.440    83588346.78049
  20627381.260   108397615.97309  20627382.060    84465675.70149
  21058608.180   110663725.24309  21058607.460    86231467.74348
  20418943.080   107302263.24309  20418940.560    83612137.94948
  24746655.520   130044530.34408  24746655.160   101333394.64044
  23465874.260   123313991.43208  23465873.120    96088816.76147
  23889505.840   125540175.94908  23889505.140    97823495.29747
  22658453.000   119070977.93509  22658450.480    92782569.80247
  24433724.420   128400072.23408  24433724.040   100051986.03245
  24333460.580   127873202.64908  24333462.320    99641468.64646
  21176371.880   111282576.99109  21176370.900    86713687.67548
 15 02 10 07 28  0.0000000  0 11G01G03G04G11G14G17G19G23G28G31G32
  20411648.640   107263931.03809  20411649.840    83582287.81649
  20623918.260   108379417.63509  20623919.100    84451495.15849
  21067908.760   110712600.01509  21067908.080    86269551.92248
  20426492.240   107341934.10709  20426489.740    83643050.27448
  24764287.480   130137186.74108  24764287.720   101405594.31545
  23449933.360   123230221.31909  23449932.240    96023541.34047
  23909989.540   125647818.54708  23909989.000    97907372.50647
  22640769.000   118978047.94109  22640766.460    92710156.85247
  24442375.220   128445532.93108  24442374.460   100087409.78044
  24325195.960   127829772.91508  24325197.960    99607627.45545
  21187968.980   111343520.01009  21187968.000    86761175.70348
 15 02 10 07 28 30.0000000  0 11G01G03G04G11G14G17G19G23G28G31G32
  20410229.680   107256474.34209  20410230.900    83576477.36749
  20620511.740   108361516.21709  20620512.560    84437545.96849
  21077269.560   110761791.48509  21077268.960    86307882.87248
  20434128.240   107382061.50509  20434125.780    83674318.32448
  24781961.220   130230062.56908  24781961.700   101477964.95145
  23434054.820   123146778.86508  23434053.760    95958521.22647
  23930495.940   125755579.54809  23930495.340    97991341.93846
  22623131.380   118885361.53809  22623128.760    92637933.71247
  24451080.600   128491280.23207  24451080.840   100123056.89345
  24317001.320   127786709.29509  24317002.880    99574071.45545
  21199604.680   111404665.79509  21199603.680    86808821.72148
 15 02 10 07 29  0.0000000  0 11G01G03G04G11G14G17G19G23G28G31G32
  20408871.300   107249336.30709  20408872.560    83570915.23249
  20617161.400   108343909.78909  20617162.200    84423826.63849
  21086690.280   110811298.09509  21086689.780    86346459.38148
  20441850.780   107422643.54809  20441848.320    83705940.65248
  24799676.040   130323154.16607  24799676.600   101550503.73345
  23418238.780   123063665.20608  23418237.880    95893757.33847
  23951024.260   125863455.42308  23951023.480    98075400.88447
  22605540.380   118792919.93809  22605537.560    92565901.31947
  24459840.240   128537309.98407  24459839.240   100158924.24445
  24308876.600   127744012.88008  24308877.740    99540801.60545
  21211278.320   111466011.13209  21211277.320    86856623.23948
 15 02 10 07 29 30.0000000  0 11G01G03G04G11G14G17G19G23G28G31G32
  20407574.880   107242523.85709  20407576.220    83565606.80249
  20613868.140   108326603.42509  20613868.940    84410341.14049
  21096172.140   110861125.48209  21096171.580    86385285.85548
  20449660.860   107463685.75409  20449658.400    83737921.54248
  24817432.420   130416464.55506  24817433.340   101623212.94844
  23402486.900   122980888.65108  23402486.060    95829256.10847
  23971575.060   125971449.50208  23971574.100    98159551.93647
  22587997.420   118700730.86709  22587994.440    92494065.70647
  24468653.940   128583625.85408  24468653.480   100195014.28944
  24300823.120   127701691.90108  24300824.440    99507824.42446
  21222990.660   111527560.09609  21222989.740    86904583.42448
 15 02 10 07 30  0.0000000  0 11G01G03G04G11G14G17G19G23G28G31G32
  20406340.160   107236035.36309  20406341.560    83560550.81349
  20610631.320   108309593.85509  20610632.200    84397086.90549
  21105714.560   110911271.13509  21105713.980    86424360.33948
  20457557.860   107505184.83409  20457555.460    83770258.45348
  24835229.140   130509988.60505  24835230.560   101696088.58444
  23386799.160   122898449.27109  23386798.360    95765017.64847
  23992147.440   126079556.90409  23992146.280    98243791.31246
  22570502.440   118608794.01609  22570499.360    92422426.63247
  24477521.020   128630222.55308  24477520.080   100231323.30644
  24292841.140   127659746.27908  24292842.400    99475139.58945
  21234740.920   111589308.29509  21234740.100    86952698.86048
 15 02 10 07 30 30.0000000  0 11G01G03G04G11G14G17G19G23G28G31G32
  20405166.760   107229868.68409  20405168.140    83555745.58249
  20607450.220   108292877.12809  20607451.140    84384060.86149
  21115316.940   110961731.72809  21115316.320    86463680.20448
  20465541.200   107547137.38009  20465538.820    83802948.70648
  24853065.500   130603720.82807  24853067.500   101769126.49844
  23371175.460   122816346.34909  23371174.660    95701041.34047
  24012740.300   126187771.99708  24012739.000    98328114.56146
  22553055.180   118517108.51409  22553052.200    92350983.41047
  24486440.600   128677094.04608  24486439.780   100267846.45543
  24284930.300   127618175.41008  24284931.700    99442746.82245
  21246528.180   111651250.74309  21246527.380    87000965.65248
 15 02 10 07 31  0.0000000  0 10G01G03G04G11G17G19G23G28G31G32
  20404055.100   107224026.54209  20404056.440    83551193.24049
  20604325.140   108276454.27509  20604326.040    84371263.81049
  21124979.580   111012508.85709  21124978.960    86503246.73748
  20473611.040   107589544.46309  20473608.700    83835993.14748
  23355616.600   122734584.03308  23355615.740    95637330.42347
  24033353.360   126296094.05908  24033352.320    98412521.18647
  22535656.400   118425677.82309  22535653.560    92279738.74047
  24495412.400   128724239.79408  24495411.800   100304583.31045
  24277091.560   127576983.12308  24277093.280    99410649.09646
  21258352.460   111713387.41509  21258351.620    87049383.79948
 15 02 10 07 31 30.0000000  0 10G01G03G04G11G17G19G23G28G31G32
  20403005.960   107218513.24609  20403007.300    83546897.13449
  20601256.480   108260327.83509  20601257.320    84358697.73349
  21134703.000   111063605.38809  21134702.440    86543062.15648
  20481767.920   107632408.77309  20481765.560    83869393.87148
  23340123.720   122653168.11009  23340122.760    95573889.42647
  24053986.900   126404524.07708  24053985.940    98497011.95847
  22518307.180   118334507.55309  22518304.500    92208697.00647
  24504436.260   128771660.55808  24504435.700   100341534.41244
  24269326.020   127536175.32908  24269327.740    99378850.97145
  21270213.940   111775719.73709  21270213.060    87097954.39048
 15 02 10 07 32  0.0000000  0 10G01G03G04G11G17G19G23G28G31G32
  20402018.760   107213325.48809  20402020.120    83542854.69449
  20598243.240   108244492.78409  20598244.040    84346358.71649
  21144486.440   111115017.09509  21144485.920    86583123.16548
  20490010.880   107675725.42809  20490008.460    83903147.07048
  23324696.440   122572096.76509  23324695.360    95510716.92947
  24074639.620   126513055.13708  24074639.000    98581581.42547
  22501007.120   118243595.60209  22501004.480    92137856.55247
  24513511.060   128819349.22007  24513510.960   100378694.34045
  24261633.160   127495750.14408  24261634.720    99347350.93745
  21282111.500   111838241.62709  21282110.600    87146672.69748
 15 02 10 07 32 30.0000000  0 10G01G03G04G11G17G19G23G28G31G32
  20401094.680   107208469.47509  20401096.080    83539070.76049
  20595286.220   108228953.57309  20595287.020    84334250.22749
  21154330.700   111166748.81209  21154330.260    86623433.54348
  20498340.800   107719499.19609  20498338.300    83937256.46348
  23309336.160   122491377.45209  23309334.960    95447818.72847
  24095312.160   126621690.17108  24095311.780    98666231.89846
  22483757.680   118152949.37009  22483755.020    92067223.15747
  24522637.420   128867308.37908  24522636.480   100416065.02945
  24254014.580   127455715.06308  24254016.200    99316154.91246
  21294045.760   111900956.49209  21294044.900    87195541.38248
 15 02 10 07 33  0.0000000  0 10G01G03G04G11G17G19G23G28G31G32
  20400232.660   107203939.46409  20400234.020    83535540.85249
  20592384.040   108213702.72909  20592384.860    84322366.43349
  21164234.480   111218793.72409  21164234.160    86663987.95248
  20506756.280   107763722.86809  20506753.780    83971716.42448
  23294042.060   122411006.05709  23294040.820    95385191.62847
  24116002.820   126730419.94208  24116002.700    98750956.21446
  22466557.860   118062564.16809  22466555.220    91996793.16647
  24531813.460   128915528.63108  24531812.980   100453639.08044
  24246469.260   127416065.47108  24246471.120    99285259.29646
  21306015.120   111963855.84309  21306014.240    87244553.81448
 15 02 10 07 33 30.0000000  0 10G01G03G04G11G17G19G23G28G31G32
  20399433.860   107199741.42309  20399435.180    83532269.62149
  20589537.540   108198744.48909  20589538.400    84310710.64949
  21174198.800   111271156.41609  21174198.480    86704790.00548
  20515258.200   107808400.79909  20515255.720    84006530.35748
  23278815.520   122330990.01209  23278814.300    95322841.42247
  24136712.100   126839247.01308  24136712.020    98835756.35346
  22449409.040   117972447.11809  22449406.420    91926572.12147
  24541039.580   128964012.18508  24541039.040   100491418.36644
  24238998.720   127376808.97108  24239000.560    99254669.90845
  21318020.220   112026942.92709  21318019.280    87293712.54048
 15 02 10 07 34  0.0000000  0 10G01G03G04G11G17G19G23G28G31G32
  20398697.880   107195873.33909  20398699.120    83529255.50549
  20586745.960   108184075.08909  20586746.900    84299279.93749
  21184223.040   111323833.92509  21184222.700    86745837.37148
  20523845.880   107853529.37509  20523843.480    84041695.43848
  23263656.460   122251328.92409  23263655.280    95260767.83147
  24157438.960   126948166.18308  24157439.000    98920628.25246
  22432311.220   117882597.33609  22432308.460    91856559.32447
  24550314.920   129012753.54008  24550314.860   100529398.53245
  24231602.940   127337944.92808  24231605.000    99224386.36746
  21330060.160   112090212.98909  21330059.200    87343013.84048
 15 02 10 07 34 30.0000000  0 10G01G03G04G11G17G19G23G28G31G32
  20398024.920   107192336.83109  20398026.160    83526499.75049
  20584009.320   108169694.38809  20584010.280    84288074.17949
  21194307.260   111376826.65609  21194306.920    86787130.34948
  20532519.300   107899108.50509  20532517.000    84077211.59848
  23248565.520   122172025.64409  23248564.380    95198973.03648
  24178182.940   127057175.30408  24178182.900    99005570.22846
  22415264.880   117793017.64909  22415262.000    91786756.98847
  24559639.120   129061750.74207  24559638.760   100567578.13145
  24224282.360   127299476.22708  24224284.780    99194410.92146
  21342134.740   112153664.89109  21342133.700    87392456.83648
 15 02 10 07 35  0.0000000  0 10G01G03G04G11G17G19G23G28G31G32
  20397415.840   107189136.38609  20397417.140    83524005.87849
  20581328.160   108155605.16509  20581329.100    84277095.54649
  21204452.080   111430137.72709  21204451.720    86828671.39048
  20541279.040   107945141.15409  20541276.860    84113081.14648
  23233543.840   122093086.40309  23233542.800    95137461.91348
  24198944.320   127166275.73108  24198944.260    99090583.34547
  22398270.940   117703713.66309  22398268.080    91717169.49147
  24569011.940   129111004.90707  24569011.600   100605957.84945
  24217038.220   127261408.59008  24217040.600    99164747.91545
  21354244.220   112217300.32309  21354243.180    87442042.83748
 15 02 10 07 35 30.0000000  0 10G01G03G04G11G17G19G23G28G31G32
  20396869.860   107186267.50709  20396871.200    83521770.36749
  20578701.360   108141801.19009  20578702.220    84266339.17549
  21214656.480   111483761.52509  21214656.000    86870456.11048
  20550123.900   107991621.11009  20550121.780    84149299.23648
  23218590.960   122014508.16809  23218589.940    95076232.09747
  24219721.600   127275459.76408  24219721.360    99175661.60746
  22381328.760   117614681.98009  22381325.960    91647794.17847
  24578432.080   129160507.22808  24578431.740   100644530.97144
  24209869.540   127223738.81908  24209871.800    99135394.91946
  21366387.300   112281112.18709  21366386.260    87491766.32748
 15 02 10 07 36  0.0000000  0 10G01G03G04G11G17G19G23G28G31G32
  20396388.540   107183738.31409  20396389.920    83519799.55549
  20576130.160   108128288.87509  20576130.920    84255810.07849
  21224921.680   111537704.93709  21224921.080    86912489.89548
  20559055.200   108038555.26409  20559053.060    84185871.25548
  23203708.600   121936300.37309  23203707.540    95015290.95447
  24240515.660   127384732.03308  24240515.240    99260808.64346
  22364440.100   117525931.73309  22364437.360    91578638.16347
  24587900.340   129210262.50308  24587899.480   100683301.18844
  24202778.480   127186476.39808  24202780.980    99106359.37646
  21378564.920   112345105.86509  21378563.960    87541631.49748
 15 02 10 07 36 30.0000000  0 10G01G03G04G11G17G19G23G28G31G32
  20395970.720   107181542.76509  20395972.120    83518088.71149
  20573612.980   108115060.41709  20573613.680    84245502.17049
  21235246.220   111591960.62409  21235245.600    86954766.98848
  20568071.380   108085935.60709  20568069.240    84222790.95248
  23188895.780   121858458.38209  23188894.680    94954634.83247
  24261324.660   127494082.98108  24261324.220    99346016.96146
  22347604.020   117437458.03209  22347601.400    91509697.62547
  24597414.980   129260260.80508  24597414.380   100722260.77744
  24195764.160   127149616.59607  24195766.840    99077637.49846
  21390775.440   112409272.59909  21390774.620    87591631.50748
 15 02 10 07 37  0.0000000  0 11G01G03G04G11G17G19G20G23G28G31G32
  20395617.880   107179688.70209  20395619.340    83516643.97249
  20571150.960   108102121.93909  20571151.580    84235420.22149
  21245631.420   111646535.32909  21245630.880    86997292.68148
  20577173.640   108133768.40909  20577171.540    84260063.21748
  23174154.200   121780991.22909  23174153.160    94894270.80547
  24282149.380   127603517.10308  24282148.920    99431290.09447
  24546913.840   128994924.24807  24546916.320   100515504.65645
  22330822.200   117349269.82909  22330819.740    91440979.56447
  24606976.480   129310506.71608  24606975.980   100761413.31945
  24188827.980   127113168.50807  24188830.880    99049236.45046
  21403019.860   112473617.52409  21403019.120    87641770.36448
 15 02 10 07 37 30.0000000  0 11G01G03G04G09G11G17G19G20G23G31G32
  20395328.280   107178166.88309  20395329.800    83515458.12549
  20568742.060   108089462.53209  20568742.620    84225555.73449
  21256075.260   111701418.51809  21256074.840    87040058.74348
  24717671.940   129892240.80607  24717676.280   101214740.14945
  20586359.940   108182042.77009  20586357.880    84297679.55448
  23159482.580   121703891.71109  23159481.680    94834193.25248
  24302987.560   127713021.84508  24302986.920    99516618.30746
  24530804.880   128910269.97306  24530806.340   100449540.22045
  22314093.280   117261359.24209  22314090.860    91372477.82847
  24181968.940   127077124.13908  24181971.840    99021149.97346
  21415295.980   112538128.79909  21415295.240    87692038.84948
 15 02 10 07 38  0.0000000  0 11G01G03G04G09G11G17G19G20G23G31G32
  20395104.800   107176992.30109  20395106.260    83514542.84849
  20566388.760   108077095.40209  20566389.300    84215918.99549
  21266580.460   111756624.12609  21266580.180    87083076.04748
  24696183.060   129779317.65307  24696187.260   101126748.10845
  20595632.800   108230771.96809  20595630.760    84335650.31448
  23144884.020   121627176.01509  23144883.160    94774414.75947
  24323841.420   127822608.77508  24323840.680    99602010.50946
  24514717.080   128825726.87007  24514717.600   100383662.43145
  22297420.220   117173741.83609  22297417.720    91304204.55347
  24175189.880   127041499.88508  24175192.760    98993390.88046
  21427606.140   112602818.72409  21427605.300    87742446.55548
 15 02 10 07 38 30.0000000  0 11G01G03G04G09G11G17G19G20G23G31G32
  20394945.280   107176153.86609  20394946.700    83513889.49749
  20564088.540   108065007.79609  20564089.160    84206500.06349
  21277144.760   111812139.80009  21277144.540    87126334.95848
  24674703.440   129666442.48107  24674707.640   101038793.50145
  20604989.800   108279943.30809  20604987.740    84373965.59748
  23130356.740   121550834.44909  23130355.780    94714927.83147
  24344708.060   127932263.18308  24344707.420    99687455.27746
  24498648.240   128741283.06407  24498648.200   100317861.96644
  22280801.160   117086408.08409  22280798.540    91236152.29147
  24168489.060   127006285.77708  24168491.520    98965951.30946
  21439947.680   112667673.58409  21439946.720    87792982.76448
 15 02 10 07 39  0.0000000  0 11G01G03G04G09G11G17G19G20G23G31G32
  20394850.560   107175656.28209  20394852.020    83513501.74349
  20561842.040   108053202.68209  20561842.760    84197301.25449
  21287768.840   111867969.01809  21287768.600    87169838.18648
  24653234.320   129553621.35508  24653238.720   100950881.00046
  20614431.520   108329559.82609  20614429.420    84412627.76848
  23115901.840   121474873.19809  23115900.800    94655737.22747
  24365587.860   128041986.86808  24365587.260    99772954.07846
  24482598.980   128656942.57407  24482598.840   100252142.03645
  22264237.280   116999363.84409  22264234.500    91168325.61947
  24161867.440   126971487.70508  24161869.480    98938835.98646
  21452320.920   112732695.43909  21452319.960    87843649.09148
 15 02 10 07 39 30.0000000  0 11G01G03G04G09G11G17G19G20G23G31G32
  20394821.220   107175502.47209  20394822.780    83513381.86749
  20559649.520   108041681.24809  20559650.280    84188323.49349
  21298452.920   111924113.47609  21298452.620    87213587.05048
  24631776.460   129440858.43408  24631780.960   100863013.84046
  20623958.240   108379622.69409  20623956.100    84451637.74848
  23101520.140   121399296.51209  23101519.100    94596846.29347
  24386480.800   128151779.31008  24386480.300    99858506.42046
  24466569.800   128572707.38307  24466569.780   100186504.18844
  22247729.200   116912612.95409  22247726.320    91100727.54347
  24155325.500   126937109.94608  24155327.580    98912048.18745
  21464725.980   112797884.59809  21464725.040    87894445.79548
 15 02 10 07 40  0.0000000  0 11G01G03G04G09G11G17G19G20G23G31G32
  20394857.580   107175693.74509  20394859.200    83513530.88649
  20557510.920   108030443.12609  20557511.720    84179566.49849
  21309196.940   111980573.07009  21309196.540    87257581.49448
  24610330.060   129328156.30508  24610334.640   100775194.08346
  20633569.960   108430131.77809  20633567.760    84490995.43048
  23087212.200   121324107.66209  23087211.160    94538257.57847
  24407386.420   128261638.33808  24407386.180    99944110.60146
  24450560.800   128488578.44307  24450561.300   100120949.12545
  22231277.340   116826157.85909  22231274.480    91033359.95847
  24148864.220   126903155.07508  24148865.780    98885589.79945
  21477162.580   112863239.71909  21477161.720    87945371.81948
 15 02 10 07 40 30.0000000  0 11G01G03G04G09G11G17G19G20G23G31G32
  20394959.260   107176227.90609  20394960.880    83513947.08749
  20555425.520   108019484.40909  20555426.360    84171027.22449
  21320000.260   112037344.48409  21319999.760    87301818.91348
  24588894.960   129215514.04408  24588899.480   100687420.99645
  20643265.740   108481082.71209  20643263.480    84530697.41248
  23072977.860   121249305.51909  23072976.780    94479970.19047
  24428303.700   128371558.56408  24428303.580   100029762.51546
  24434571.200   128404552.45405  24434572.120   100055474.27344
  22214881.500   116739997.18909  22214878.640    90966221.79147
  24142483.260   126869621.85308  24142484.780    98859460.13345
  21489629.800   112928756.04609  21489629.080    87996423.45348
 15 02 10 07 41  0.0000000  0 11G01G03G04G09G11G17G19G20G23G31G32
  20395127.520   107177111.96109  20395129.160    83514635.93449
  20553394.320   108008810.40209  20553395.220    84162709.79749
  21330864.020   112094433.63709  21330863.440    87346303.91748
  24567472.740   129102940.03308  24567477.220   100599701.07745
  20653046.560   108532480.91909  20653044.280    84570747.91448
  23058818.620   121174898.34709  23058817.500    94421990.57047
  24449233.280   128481543.55608  24449233.300   100115464.85646
