     2.11           OBSERVATION DATA    G                   RINEX VERSION / TYPE
SPIDER V4,0,0,3554                      2015 04 16 03:08    PGM / RUN BY / DATE 
CABS                                                        MARKER NAME         
CABS                                                        MARKER NUMBER       
                                                            OBSERVER / AGENCY   
462287              LEICA GRX1200PRO    8.10/2.127          REC # / TYPE / VERS 
103298              LEIAT504                                ANT # / TYPE        
  5116912.3402   671231.6412  3737143.4301                  APPROX POSITION XYZ 
        0.0600        0.0000        0.0000                  ANTENNA: DELTA H/E/N
     1     1                                                WAVELENGTH FACT L1/2
     4    C1    L1    P2    L2                              # / TYPES OF OBSERV 
    30.000                                                  INTERVAL            
  2015    02    07    00    00    0.0000000     GPS         TIME OF FIRST OBS   
  2015    02    07    23    59   30.0000000     GPS         TIME OF LAST OBS    
    16                                                      LEAP SECONDS        
    30                                                      # OF SATELLITES     
   G 1   804   804   804   804                              PRN / # OF OBS      
   G 2   934   934   934   934                              PRN / # OF OBS      
   G 3   842   842   842   842                              PRN / # OF OBS      
   G 4   832   832   832   832                              PRN / # OF OBS      
   G 5   624   624   624   624                              PRN / # OF OBS      
   G 6   803   803   803   803                              PRN / # OF OBS      
   G 7   671   671   671   671                              PRN / # OF OBS      
   G 9   808   808   808   808                              PRN / # OF OBS      
   G10   728   728   728   728                              PRN / # OF OBS      
   G11   770   770   770   770                              PRN / # OF OBS      
   G12   804   804   804   804                              PRN / # OF OBS      
   G13   790   790   790   790                              PRN / # OF OBS      
   G14   941   941   941   941                              PRN / # OF OBS      
   G15   700   700   700   700                              PRN / # OF OBS      
   G16   666   666   666   666                              PRN / # OF OBS      
   G17   941   941   941   941                              PRN / # OF OBS      
   G18   898   898   898   898                              PRN / # OF OBS      
   G19   750   750   749   749                              PRN / # OF OBS      
   G20   806   806   806   806                              PRN / # OF OBS      
   G21   739   739   739   739                              PRN / # OF OBS      
   G22   657   657   657   657                              PRN / # OF OBS      
   G23   754   754   754   754                              PRN / # OF OBS      
   G24   816   816   816   816                              PRN / # OF OBS      
   G25   855   855   855   855                              PRN / # OF OBS      
   G27   793   793   793   793                              PRN / # OF OBS      
   G28   845   845   845   845                              PRN / # OF OBS      
   G29   763   763   763   763                              PRN / # OF OBS      
   G30   718   718   718   718                              PRN / # OF OBS      
   G31   871   871   871   871                              PRN / # OF OBS      
   G32   772   772   772   772                              PRN / # OF OBS      
BIT 2 OF LLI FLAGS DATA COLLECTED UNDER A/S CONDITION       COMMENT             
SNR is mapped to RINEX snr flag value [2-9]                 COMMENT             
Lx:     = 25dBHz -> 1; 26-27dBHz -> 2; 28-31dBHz -> 3       COMMENT             
       32-35dBHz -> 4; 36-38dBHz -> 5; 39-41dBHz -> 6       COMMENT             
       42-44dBHz -> 7; 45-48dBHz -> 8; >=49dBHz -> 9        COMMENT             
                                                            END OF HEADER       
 15 02 07 00 00  0.0000000  0  5G16G21G25G29G31
  24501509.780   128756300.27605  24501511.500   100329597.27445
  21196193.760   111386934.94008  21196194.760    86795110.09148
  22100753.900   116140394.96408  22100758.480    90499089.79148
  21426006.300   112594826.41708  21426007.700    87736418.22448
  21066837.840   110706978.38909  21066838.820    86265187.49449
 15 02 07 00 00 30.0000000  0  5G16G21G25G29G31
  24484164.140   128665148.27805  24484165.700   100258569.76145
  21189015.280   111349211.76008  21189016.260    86765715.41948
  22113426.780   116206991.96608  22113431.500    90550983.54048
  21437275.460   112654046.30308  21437276.860    87782563.57548
  21071629.560   110732158.93709  21071630.500    86284808.68249
 15 02 07 00 01  0.0000000  0  5G16G21G25G29G31
  24466815.300   128573979.67905  24466816.780   100187529.30345
  21181920.560   111311928.71508  21181921.520    86736663.70948
  22126154.140   116273874.96208  22126158.880    90603100.14247
  21448570.600   112713402.83208  21448572.040    87828815.41048
  21076525.640   110757887.89509  21076526.540    86304857.20749
 15 02 07 00 01 30.0000000  0  5G16G21G25G29G31
  24449464.060   128482798.74205  24449465.500   100116479.26945
  21174910.460   111275090.39108  21174911.440    86707958.53948
  22138936.520   116341046.77008  22138941.160    90655441.79147
  21459892.140   112772898.35708  21459893.680    87875175.54948
  21081526.500   110784167.44009  21081527.400    86325334.76349
 15 02 07 00 02  0.0000000  0  5G16G21G25G29G31
  24432110.020   128391603.24305  24432111.600   100045417.87144
  21167984.500   111238694.27308  21167985.500    86679597.94848
  22151773.260   116408503.90508  22151777.740    90708005.77947
  21471239.220   112832528.35908  21471240.900    87921640.47548
  21086631.400   110810993.70209  21086632.300    86346238.33249
 15 02 07 00 02 30.0000000  0  5G16G21G25G29G31
  24414754.040   128300397.69805  24414755.680    99974348.60845
  21161143.400   111202744.10508  21161144.400    86651584.84748
  22164664.900   116476249.42608  22164669.240    90760794.47047
  21482612.460   112892295.35908  21482614.180    87968212.15748
  21091840.740   110838368.86309  21091841.680    86367569.61449
 15 02 07 00 03  0.0000000  0  5G16G21G25G29G31
  24397396.260   128209182.33805  24397397.940    99903271.74845
  21154387.080   111167239.51908  21154388.080    86623918.95448
  22177611.140   116544282.07408  22177615.420    90813806.89847
  21494011.480   112952197.56608  21494013.220    88014889.19648
  21097154.160   110866291.19709  21097155.180    86389327.26549
 15 02 07 00 03 30.0000000  0  5G16G21G25G29G31
  24380036.760   128117957.81706  24380038.460    99832187.73344
  21147715.540   111132180.50008  21147716.540    86596600.25248
  22190611.800   116612600.99808  22190616.100    90867042.40347
  21505435.920   113012233.12008  21505437.640    88061670.13848
  21102571.420   110894759.24109  21102572.520    86411510.14849
 15 02 07 00 04  0.0000000  0  5G16G21G25G29G31
  24362675.720   128026724.93906  24362677.460    99761097.20344
  21141128.780   111097567.21908  21141129.800    86569628.88148
  22203666.760   116681205.47808  22203671.180    90920500.42147
  21516885.440   113072400.43608  21516887.120    88108553.75348
  21108092.200   110923771.36409  21108093.360    86434116.98549
 15 02 07 00 04 30.0000000  0  5G16G21G25G29G31
  24345313.400   127935485.10606  24345315.160    99690001.22344
  21134627.240   111063401.67108  21134628.260    86543006.39248
  22216776.200   116750096.19508  22216780.720    90974181.47947
  21528360.080   113132699.69208  21528361.720    88155540.18248
  21113716.500   110953327.41809  21113717.680    86457147.66649
 15 02 07 00 05  0.0000000  0  5G16G21G25G29G31
  24327949.480   127844236.65406  24327951.260    99618898.55644
  21128210.240   111029680.37408  21128211.280    86516730.07148
  22229939.400   116819269.04108  22229943.940    91028082.37747
  21539858.820   113193126.01008  21539860.500    88202625.61348
  21119443.540   110983423.03509  21119444.680    86480598.78149
 15 02 07 00 05 30.0000000  0  5G16G21G25G29G31
  24310584.840   127752984.49206  24310586.540    99547793.00645
  21121878.680   110996407.90108  21121879.720    86490803.48648
  22243156.980   116888727.66408  22243161.500    91082205.96147
  21551382.280   113253682.41908  21551383.960    88249812.41348
  21125273.780   111014060.94809  21125274.880    86504472.46449
 15 02 07 00 06  0.0000000  0  5G16G21G25G29G31
  24293219.460   127661728.66006  24293221.180    99476684.57645
  21115632.460   110963583.76808  21115633.480    86465226.25149
  22256428.740   116958470.84008  22256433.140    91136551.26847
  21562930.160   113314367.08308  21562931.820    88297099.15148
  21131206.900   111045239.41209  21131207.940    86528767.35049
 15 02 07 00 06 30.0000000  0  5G16G21G25G29G31
  24275854.000   127570472.80406  24275855.740    99405576.17244
  21109472.100   110931210.82308  21109473.100    86440000.59448
  22269754.960   117028500.52508  22269759.260    91191119.82147
  21574502.640   113375181.06508  21574504.320    88344486.66248
  21137243.100   111076959.64709  21137244.120    86553484.40049
 15 02 07 00 07  0.0000000  0  5G16G21G25G29G31
  24258488.180   127479214.97705  24258489.960    99334466.21245
  21103397.020   110899285.99408  21103398.000    86415124.11849
  22283134.940   117098813.13608  22283139.220    91245908.84047
  21586099.000   113436120.31608  21586100.680    88391971.78048
  21143381.480   111109216.99609  21143382.520    86578619.98349
 15 02 07 00 07 30.0000000  0  5G16G21G25G29G31
  24241122.340   127387957.34805  24241124.160    99263356.42445
  21097407.520   110867810.82208  21097408.480    86390598.02548
  22296568.820   117169408.87308  22296573.160    91300918.48147
  21597719.140   113497184.23808  21597720.760    88439554.05148
  21149621.980   111142011.05809  21149623.060    86604173.78749
 15 02 07 00 08  0.0000000  0  5G16G21G25G29G31
  24223756.560   127296700.35706  24223758.460    99192247.11745
  21091503.600   110836785.63208  21091504.560    86366422.56448
  22310056.460   117240287.22008  22310060.960    91356148.33347
  21609362.820   113558371.85908  21609364.420    88487232.70648
  21155964.380   111175340.78509  21155965.540    86630144.99049
 15 02 07 00 08 30.0000000  0  5G16G21G25G29G31
  24206390.940   127205443.75506  24206392.880    99121138.10345
  21085684.960   110806208.62708  21085685.920    86342596.33949
  22323597.480   117311445.95708  22323602.140    91411596.67947
  21621029.480   113619680.51608  21621031.060    88535005.67948
  21162408.100   111209202.81209  21162409.300    86656530.97349
 15 02 07 00 09  0.0000000  0  5G16G21G25G29G31
  24189025.840   127114189.99506  24189027.840    99050031.31645
  21079952.020   110776082.02108  21079953.000    86319121.07648
  22337192.180   117382886.06808  22337196.880    91467264.28547
  21632719.240   113681110.73508  21632720.860    88582873.37448
  21168953.240   111243597.59409  21168954.460    86683332.08849
 15 02 07 00 09 30.0000000  0  5G16G21G25G29G31
  24171661.300   127022938.48006  24171663.240    98978926.26245
  21074304.440   110746403.86408  21074305.440    86295995.25349
  22350840.020   117454605.15708  22350844.620    91523149.27447
  21644431.480   113742659.21308  21644433.200    88630833.21548
  21175599.080   111278521.67409  21175600.320    86710545.63849
 15 02 07 00 10  0.0000000  0  5G16G21G25G29G31
  24154298.240   126931694.53206  24154300.000    98907827.11544
  21068743.120   110717178.98508  21068744.120    86273222.63549
  22364541.580   117526606.88408  22364546.060    91579254.49947
  21656166.820   113804328.82808  21656168.580    88678887.45448
  21182346.260   111313978.08509  21182347.480    86738173.99349
 15 02 07 00 10 30.0000000  0  5G16G21G25G29G31
  24136936.800   126840459.05006  24136938.360    98836734.53945
  21063267.940   110688406.85208  21063268.980    86250802.80949
  22378296.700   117598890.50108  22378301.060    91635579.37947
  21667925.100   113866119.09608  21667926.900    88727035.70148
  21189194.420   111349965.12209  21189195.580    86766215.82049
 15 02 07 00 11  0.0000000  0  5G16G21G25G29G31
  24119576.780   126749231.06106  24119578.240    98765647.80944
  21057878.660   110660086.06508  21057879.700    86228734.67449
  22392104.860   117671453.05808  22392109.080    91692121.61347
  21679705.620   113928026.19908  21679707.420    88775274.99248
  21196142.860   111386479.26309  21196143.960    86794668.38349
 15 02 07 00 11 30.0000000  0  5G16G21G25G29G31
  24102218.380   126658011.77006  24102219.720    98694567.85844
  21052575.240   110632216.54908  21052576.280    86207018.18049
  22405966.020   117744294.15908  22405970.200    91748880.89447
  21691508.160   113990049.10908  21691509.980    88823604.52448
  21203191.260   111423518.80009  21203192.340    86823530.35449
 15 02 07 00 12  0.0000000  0  5G16G21G25G29G31
  24084862.000   126566803.38206  24084863.300    98623496.40644
  21047357.820   110604799.16108  21047358.880    86185653.99449
  22419880.280   117817414.13808  22419884.460    91805857.47347
  21703332.740   114052187.77008  21703334.540    88872024.25048
  21210339.540   111461083.46709  21210340.640    86852801.50949
 15 02 07 00 12 30.0000000  0  5G16G21G25G29G31
  24067507.800   126475606.82206  24067509.180    98552434.16545
  21042226.500   110577833.96908  21042227.520    86164642.16849
  22433847.500   117890812.08108  22433851.740    91863050.65847
  21715179.140   114114440.98808  21715180.940    88920533.24548
  21217587.400   111499171.40409  21217588.560    86882480.41349
 15 02 07 00 13  0.0000000  0  5G16G21G25G29G31
  24050155.900   126384422.45806  24050157.340    98481381.44345
  21037181.300   110551321.32408  21037182.300    86143982.98149
  22447867.560   117964487.28908  22447871.880    91920459.88947
  21727047.120   114176807.56008  21727048.900    88969130.56748
  21224934.520   111537781.00909  21224935.720    86912565.81149
 15 02 07 00 13 30.0000000  0  5G16G21G25G29G31
  24032807.000   126293253.38606  24032808.440    98410340.63045
  21032222.540   110525262.67808  21032223.480    86123677.55749
  22461940.520   118038440.64108  22461945.000    91978085.85547
  21738936.760   114239287.87408  21738938.540    89017816.51648
  21232380.920   111576912.20009  21232382.160    86943057.63448
 15 02 07 00 14  0.0000000  0  5G16G21G25G29G31
  24015463.180   126202111.08106  24015464.620    98339320.64845
  21027351.980   110499667.51508  21027352.880    86103733.29049
  22476068.120   118112681.34108  22476072.740    92035935.72947
  21750849.700   114301890.55508  21750851.440    89066597.82448
  21239928.200   111616573.38409  21239929.440    86973962.43949
 15 02 07 00 14 30.0000000  0  6G16G18G21G25G29G31
  23998120.280   126110973.46306  23998121.760    98268304.34545
  24487802.200   128684273.14205  24487811.020   100273488.19944
  21022565.440   110474513.95708  21022566.340    86084133.13149
  22490245.860   118187186.01208  22490250.620    92093991.29447
  21762781.440   114364592.05108  21762783.160    89115456.11848
  21247571.720   111656740.05609  21247572.920    87005261.12749
 15 02 07 00 15  0.0000000  0  6G16G18G21G25G29G31
  23980781.380   126019857.29906  23980782.920    98197304.74545
  24472712.160   128604974.93805  24472721.160   100211698.39444
  21017865.760   110449816.76408  21017866.620    86064888.58049
  22504476.540   118261969.29208  22504481.380    92152263.96747
  21774734.700   114427406.45408  21774736.340    89164402.39048
  21255314.140   111697426.27509  21255315.260    87036964.65649
 15 02 07 00 15 30.0000000  0  6G16G18G21G25G29G31
  23963445.980   125928758.92106  23963447.480    98126319.00044
  24457609.920   128525614.52405  24457618.780   100149860.02043
  21013252.040   110425571.39708  21013252.900    86045996.09849
  22518759.240   118337025.80307  22518763.980    92210749.54747
  21786708.420   114490328.39408  21786709.980    89213432.45848
  21263154.140   111738625.48009  21263155.220    87069067.91649
 15 02 07 00 16  0.0000000  0  6G16G18G21G25G29G31
  23946114.620   125837682.03806  23946116.120    98055350.02945
  24442496.320   128446196.10305  24442504.840   100087976.36444
  21008724.640   110401779.81508  21008725.540    86027457.21849
  22533094.200   118412356.88308  22533098.900    92269449.06647
  21798702.820   114553358.94508  21798704.320    89262547.16548
  21271091.760   111780337.86809  21271092.860    87101571.06149
 15 02 07 00 16 30.0000000  0  6G16G18G21G25G29G31
  23928787.220   125746625.95806  23928788.580    97984397.25544
  24427372.120   128366721.06705  24427380.800   100026048.69043
  21004283.420   110378441.08608  21004284.300    86009271.20949
  22547481.140   118487960.54508  22547485.720    92328360.98247
  21810717.340   114616495.30608  21810718.780    89311744.31948
  21279126.480   111822560.62509  21279127.600    87134471.89749
 15 02 07 00 17  0.0000000  0  6G16G18G21G25G29G31
  23911464.320   125655593.25406  23911465.500    97913462.69545
  24412237.860   128287192.59305  24412246.340    99964079.25642
  20999928.500   110355555.94808  20999929.360    85991438.64649
  22561920.080   118563837.11908  22561924.580    92387485.55047
  21822751.960   114679737.49008  21822753.400    89361023.93148
  21287258.160   111865292.97809  21287259.300    87167769.81648
 15 02 07 00 17 30.0000000  0  6G16G18G21G25G29G31
  23894145.980   125564584.60306  23894147.000    97842546.87645
  24397093.940   128207612.67406  24397102.080    99902069.74744
  20995659.760   110333123.77308  20995660.600    85973959.04249
  22576410.680   118639985.29708  22576415.160    92446821.76847
  21834806.420   114743084.49908  21834807.940    89410385.22848
  21295486.460   111908532.92909  21295487.600    87201463.26548
 15 02 07 00 18  0.0000000  0  6G16G18G21G25G29G31
  23876832.740   125473602.98606  23876833.720    97771652.13044
  24381941.000   128127985.42605  24381948.920    99840023.32144
  20991477.580   110311146.49408  20991478.400    85956833.90449
  22590953.160   118716406.44307  22590957.740    92506370.69347
  21846880.920   114806537.15808  21846882.560    89459828.85548
  21303811.360   111952280.42409  21303812.460    87235552.20048
 15 02 07 00 18 30.0000000  0  6G16G18G21G25G29G31
  23859525.060   125382650.90506  23859526.120    97700780.38744
  24366779.540   128048314.29305  24366787.240    99777942.66843
  20987382.120   110289625.01908  20987382.940    85940063.93649
  22605547.460   118793100.61407  22605552.300    92566132.36847
  21858975.480   114870094.98808  21858977.200    89509354.42948
  21312232.640   111996534.54409  21312233.700    87270035.90548
 15 02 07 00 19  0.0000000  0  6G16G18G21G25G29G31
  23842222.340   125291724.94506  23842223.540    97629929.00145
  24351609.480   127968596.81605  24351616.740    99715825.82342
  20983372.600   110268555.04908  20983373.420    85923645.78849
  22620192.620   118870062.17207  22620197.620    92626102.41147
  21871089.040   114933752.11008  21871090.760    89558957.37048
  21320749.060   112041288.56709  21320750.080    87304909.15048
 15 02 07 00 19 30.0000000  0  6G16G18G21G25G29G31
  23824925.600   125200830.03906  23824926.880    97559101.79844
  24336431.720   127888839.44805  24336438.720    99653678.00244
  20979449.420   110247938.68108  20979450.220    85907581.09349
  22634889.260   118947294.65307  22634894.400    92686283.54946
  21883222.240   114997512.10208  21883223.860    89608640.47148
  21329361.120   112086545.30009  21329362.160    87340174.11848
 15 02 07 00 20  0.0000000  0  6G16G18G21G25G29G31
  23807634.900   125109967.03406  23807636.300    97488299.45045
  24321246.780   127809043.93405  24321253.400    99591500.34144
  20975612.920   110227777.70608  20975613.700    85891871.25249
  22649637.260   119024796.50007  22649642.400    92746674.58246
  21895374.740   115061373.46608  21895376.280    89658402.56048
  21338068.360   112132302.31009  21338069.460    87375828.91148
 15 02 07 00 20 30.0000000  0  6G16G18G21G25G29G31
  23790350.480   125019136.94306  23790351.860    97417522.77245
  24306054.980   127729212.90306  24306061.300    99529295.08043
  20971862.500   110208068.94508  20971863.260    85876513.78749
  22664436.520   119102567.05707  22664441.520    92807274.97346
  21907546.280   115125334.90108  21907547.720    89708242.62548
  21346870.420   112178557.34809  21346871.540    87411871.77748
 15 02 07 00 21  0.0000000  0  6G16G18G21G25G29G31
  23773072.520   124928340.51907  23773073.780    97346772.31845
  24290856.800   127649347.37606  24290862.620    99467062.83844
  20968198.260   110188813.33908  20968199.020    85861509.42649
  22679286.740   119180604.61207  22679291.420    92868083.42146
  21919736.380   115189394.26208  21919737.840    89758158.99648
  21355766.740   112225307.65409  21355767.860    87448300.57148
 15 02 07 00 21 30.0000000  0  6G16G18G21G25G29G31
  23755801.980   124837583.38407  23755803.300    97276052.46945
  24275653.160   127569454.62506  24275658.860    99404809.39243
  20964621.120   110170015.52208  20964621.900    85846861.78849
  22694188.540   119258912.68907  22694192.860    92929102.67546
  21931945.860   115253555.67808  21931947.360    89808154.88648
  21364757.820   112272555.93609  21364758.960    87485117.39748
 15 02 07 00 22  0.0000000  0  6G16G18G21G25G29G31
  23738538.120   124746861.09607  23738539.500    97205359.80745
  24260443.620   127489531.21605  24260449.120    99342532.05644
  20961129.800   110151668.47308  20961130.560    85832565.39549
  22709140.460   119337484.65207  22709144.580    92990327.55447
  21944173.380   115317812.01308  21944174.960    89858224.73748
  21373842.180   112320294.46509  21373843.360    87522316.23248
 15 02 07 00 22 30.0000000  0  6G16G18G21G25G29G31
  23721282.060   124656179.78907  23721283.480    97134699.07545
  24245229.480   127409584.32006  24245235.200    99280236.46744
  20957725.080   110133776.58508  20957725.840    85818623.67549
  22724143.300   119416324.90107  22724147.480    93051761.49046
  21956419.800   115382167.53708  21956421.440    89908371.89047
  21383020.360   112368525.99009  21383021.540    87559899.22648
 15 02 07 00 23  0.0000000  0  6G16G18G21G25G29G31
  23704033.280   124565536.41206  23704034.680    97064067.90946
  24230010.660   127329612.20006  24230016.540    99217921.23444
  20954406.340   110116336.55708  20954407.120    85805034.05349
  22739196.080   119495428.00107  22739200.500    93113400.25547
  21968683.980   115446616.27208  21968685.640    89958591.68048
  21392291.140   112417244.30708  21392292.340    87597861.53348
 15 02 07 00 23 30.0000000  0  6G16G18G21G25G29G31
  23686792.680   124474936.35106  23686794.160    96993470.44845
  24214788.140   127249620.56806  24214793.940    99155590.69143
  20951174.000   110099350.35108  20951174.760    85791798.06149
  22754299.460   119574796.98307  22754304.120    93175246.20047
  21980966.580   115511161.94608  21980968.260    90008886.99848
  21401654.920   112466451.52908  21401656.120    87636204.81348
 15 02 07 00 24  0.0000000  0  6G16G18G21G25G29G31
  23669560.280   124384379.68807  23669561.760    96922906.83945
  24199562.300   127169611.30205  24199568.120    99093246.32543
  20948028.100   110082818.51608  20948028.880    85778916.11649
  22769453.140   119654430.07707  22769457.980    93237297.94247
  21993267.220   115575802.54508  21993268.960    90059256.28448
  21411111.160   112516144.50809  21411112.380    87674926.59648
 15 02 07 00 24 30.0000000  0  6G16G18G21G25G29G31
  23652336.460   124293868.71206  23652337.960    96852378.82545
  24184333.700   127089587.48305  24184339.740    99030890.63144
  20944968.480   110066740.02608  20944969.240    85766387.43049
  22784657.180   119734327.29807  22784662.060    93299555.49247
  22005585.960   115640537.94808  22005587.720    90109699.43948
  21420659.680   112566322.15909  21420660.860    87714026.04848
 15 02 07 00 25  0.0000000  0  6G16G18G21G25G29G31
  23635121.300   124203403.10806  23635122.760    96781886.16145
  24169102.540   127009549.86406  24169108.320    98968524.12544
  20941994.840   110051113.20608  20941995.580    85754210.69149
  22799911.020   119814485.79007  22799915.740    93362016.62446
  22017922.160   115705364.90608  22017923.940    90160213.93348
  21430299.680   112616980.38309  21430300.800    87753499.96848
 15 02 07 00 25 30.0000000  0  6G16G18G21G25G29G31
  23617915.240   124112985.13106  23617916.700    96711430.62344
  24153869.380   126929501.56406  24153875.080    98906149.30844
  20939107.240   110035938.79208  20939107.960    85742386.48549
  22815214.600   119894905.62107  22815219.020    93424681.39946
  22030275.860   115770283.67508  22030277.580    90210799.96848
  21440031.000   112668118.37809  21440032.060    87793347.74148
 15 02 07 00 26  0.0000000  0  6G16G18G21G25G29G31
  23600718.440   124022615.37906  23600719.880    96641012.65345
  24138634.520   126849444.73505  24138640.380    98843767.78743
  20936305.640   110021216.24208  20936306.320    85730914.37549
  22830567.540   119975585.54207  22830571.780    93487548.83346
  22042646.820   115835293.00408  22042648.460    90261456.57048
  21449853.080   112719733.50508  21449854.140    87833567.30148
 15 02 07 00 26 30.0000000  0  6G16G18G21G25G29G31
  23583531.480   123932297.06606  23583532.840    96570634.76945
  24123398.800   126769383.50506  24123404.680    98781382.83944
  20933590.100   110006946.16508  20933590.800    85719794.84249
  22845969.940   120056526.34407  22845974.180    93550619.56146
  22055035.200   115900393.88208  22055036.780    90312184.49847
  21459765.840   112771825.41308  21459766.960    87874158.38048
 15 02 07 00 27  0.0000000  0  6G16G18G21G25G29G31
  23566354.180   123842029.89706  23566355.520    96500296.71645
  24108162.520   126689318.20506  24108168.400    98718994.66444
  20930960.380   109993127.23708  20930961.120    85709026.85049
  22861421.340   120137725.10007  22861425.700    93613891.29846
  22067440.380   115965583.34808  22067441.920    90362981.46847
  21469768.500   112824389.78509  21469769.640    87915117.61148
 15 02 07 00 27 30.0000000  0  6G16G18G21G25G29G31
  23549187.040   123751816.17806  23549188.360    96430000.33044
  24092926.300   126609252.44006  24092932.040    98656606.10244
  20928416.500   109979759.54608  20928417.300    85698610.47249
  22876921.860   120219181.88407  22876926.400    93677364.09846
  22079862.360   116030861.31708  22079863.860    90413847.40247
  21479860.880   112877425.51908  21479862.040    87956444.14048
 15 02 07 00 28  0.0000000  0  6G16G18G21G25G29G31
  23532030.040   123661655.45606  23532031.340    96359745.23645
  24077690.260   126529186.77705  24077695.620    98594217.59045
  20925958.060   109966840.67508  20925958.900    85688543.82949
  22892471.060   120300894.08807  22892475.820    93741035.92546
  22092300.720   116096225.28508  22092302.180    90464780.34347
  21490042.240   112930929.04208  21490043.460    87998135.17148
 15 02 07 00 28 30.0000000  0  6G16G18G21G25G29G31
  23514884.040   123571552.30206  23514885.260    96289534.98845
  24062455.380   126449126.77906  24062460.400    98531833.51445
  20923585.600   109954373.32408  20923586.440    85678829.02249
  22908069.420   120382863.90807  22908074.280    93804908.49046
  22104755.880   116161677.51408  22104757.360    90515782.06547
  21500312.760   112984901.07908  21500314.020    88040191.28448
 15 02 07 00 29  0.0000000  0  6G16G18G21G25G29G31
  23497749.120   123481507.37507  23497750.320    96219370.12645
  24047221.940   126369074.01506  24047226.440    98469455.02345
  20921298.940   109942356.55508  20921299.720    85669465.31949
  22923716.580   120465089.59507  22923721.420    93868980.44146
  22117227.420   116227216.19608  22117229.020    90566851.14647
  21510671.880   113039338.67208  21510673.160    88082610.16348
 15 02 07 00 29 30.0000000  0  6G16G18G21G25G29G31
  23480625.600   123391522.99007  23480626.920    96149252.44845
  24031990.600   126289032.16606  24031994.620    98407085.05844
  20919098.120   109930790.75608  20919098.840    85660453.01849
  22939412.400   120547571.22607  22939417.260    93933251.81946
  22129715.540   116292841.88508  22129717.200    90617988.02247
  21521119.400   113094240.73908  21521120.700    88125390.97448
 15 02 07 00 30  0.0000000  0  7G16G18G21G25G27G29G31
  23463514.860   123301605.67107  23463516.280    96079187.01545
  24016762.540   126209008.39606  24016766.340    98344729.14644
  20916984.000   109919680.48108  20916984.640    85651795.67349
  22955157.680   120630312.83407  22955162.540    93997725.77746
  24618331.740   129370202.08505  24618335.780   100807971.00744
  22142221.080   116358558.71308  22142222.680    90669195.92847
  21531655.860   113149610.03909  21531657.140    88168535.86548
 15 02 07 00 30 30.0000000  0  7G16G18G21G25G27G29G31
  23446413.700   123211738.56007  23446415.160    96009160.72145
  24001535.120   126128987.54606  24001538.540    98282375.46644
  20914952.920   109909006.88108  20914953.540    85643478.58849
  22970948.740   120713295.02007  22970953.580    94062387.19946
  24603548.320   129292513.87405  24603552.240   100747434.89444
  22154740.240   116424347.16908  22154741.840    90720459.63747
  21542277.280   113205425.83808  21542278.560    88212028.68248
 15 02 07 00 31  0.0000000  0  7G16G18G21G25G27G29G31
  23429326.980   123121947.13507  23429328.520    95939193.38845
  23986312.840   126048995.10206  23986316.080    98220043.94144
  20913009.320   109898793.28608  20913009.980    85635519.95749
  22986789.920   120796540.79107  22986794.660    94127254.00747
  24588784.200   129214928.12605  24588788.580   100686962.93345
  22167277.500   116490230.69208  22167279.100    90771797.42747
  21552987.880   113261710.09608  21552989.140    88255886.52848
 15 02 07 00 31 30.0000000  0  7G16G18G21G25G27G29G31
  23412253.080   123032223.01707  23412254.600    95869278.50545
  23971094.600   125969023.98806  23971097.640    98157728.97444
  20911151.240   109889029.36208  20911151.960    85627911.71549
  23002679.260   120880039.55507  23002683.800    94192317.95046
  24574034.560   129137422.97705  24574039.280   100626569.43745
  22179830.840   116556198.70208  22179832.400    90823201.04547
  21563785.340   113318450.76808  21563786.560    88300100.02148
 15 02 07 00 32  0.0000000  0  7G16G18G21G25G27G29G31
  23395191.640   122942564.52707  23395193.040    95799414.75845
  23955880.320   125889074.52706  23955883.340    98095430.90243
  20909378.120   109879711.93708  20909378.860    85620651.38849
  23018615.940   120963787.12207  23018620.280    94257575.75746
  24559300.600   129059999.22005  24559305.860   100566252.92444
  22192399.460   116622247.11008  22192400.980    90874667.30947
  21574668.560   113375642.42308  21574669.780    88344664.92648
 15 02 07 00 32 30.0000000  0  7G16G18G21G25G27G29G31
  23378143.300   122852974.81107  23378144.620    95729604.61344
  23940670.720   125809150.02306  23940673.760    98033152.24744
  20907690.000   109870841.17708  20907690.760    85613739.11249
  23034600.120   121047783.93507  23034604.220    94323027.79246
  24544583.860   128982662.14305  24544589.360   100505990.36745
  22204983.540   116688376.64908  22204984.980    90926196.79447
  21585637.400   113433284.05508  21585638.640    88389580.45948
 15 02 07 00 33  0.0000000  0  7G16G18G21G25G27G29G31
  23361108.800   122763457.86207  23361110.040    95659851.16445
  23925466.900   125729255.39106  23925469.980    97970896.89245
  20906087.320   109862419.33908  20906088.100    85607176.64849
  23050632.020   121132031.55207  23050635.980    94388675.27046
  24529883.580   128905400.21005  24529890.280   100445805.73845
  22217583.320   116754589.05808  22217584.740    90977790.85347
  21596692.000   113491376.32308  21596693.260    88434847.14748
 15 02 07 00 33 30.0000000  0  7G16G18G21G25G27G29G31
  23344087.680   122674011.32507  23344088.900    95590152.55845
  23910268.600   125649389.15706  23910271.540    97908663.63144
  20904569.320   109854442.16608  20904570.080    85600960.67649
  23066710.640   121216524.97807  23066714.640    94454514.27746
  24515199.360   128828233.25905  24515205.440   100385675.73345
  22230197.980   116820879.66208  22230199.440    91029445.84847
  21607831.140   113549912.85208  21607832.440    88480460.00848
 15 02 07 00 34  0.0000000  0  7G16G18G21G25G27G29G31
  23327081.080   122584641.07607  23327082.260    95520513.41945
  23895076.900   125569557.76906  23895080.040    97846457.56644
  20903136.640   109846913.19808  20903137.360    85595093.96049
  23082836.600   121301267.46007  23082840.800    94520547.36346
  24500531.620   128751153.44505  24500537.440   100325613.65444
  22242828.180   116887251.95108  22242829.660    91081164.50647
  21619055.140   113608895.37008  21619056.460    88526420.39648
 15 02 07 00 34 30.0000000  0  7G16G18G21G25G27G29G31
  23310088.660   122495345.56907  23310089.840    95450932.52345
  23879892.080   125489761.75006  23879895.180    97784279.02243
  20901788.640   109839829.49408  20901789.380    85589574.19749
  23099009.280   121386255.45107  23099013.640    94586771.75146
  24485879.940   128674158.21305  24485885.700   100265617.47645
  22255473.220   116953702.33408  22255474.760    91132944.01547
  21630363.060   113668318.93508  21630364.400    88572724.45648
 15 02 07 00 35  0.0000000  0  7G16G18G21G25G27G29G31
  23293111.060   122406127.90707  23293112.240    95381412.29845
  23864714.820   125410004.78106  23864717.800    97722130.89244
  20900525.440   109833191.43608  20900526.180    85584401.69849
  23115228.760   121471489.22307  23115233.200    94653187.66546
  24471244.480   128597248.70105  24471250.180   100205688.07844
  22268133.300   117020231.63708  22268134.920    91184785.01747
  21641754.740   113728182.50508  21641756.060    88619371.37348
 15 02 07 00 35 30.0000000  0  7G16G18G21G25G27G29G31
  23276148.520   122316989.26607  23276149.740    95311953.64745
  23849545.420   125330289.34606  23849548.320    97660015.13644
  20899346.760   109826997.60408  20899347.500    85579575.34449
  23131494.720   121556967.54607  23131499.260    94719794.12445
  24456625.220   128520424.55705  24456630.840   100145825.19344
  22280808.220   117086838.97808  22280809.960    91236686.82647
  21653229.700   113788483.76108  21653230.980    88666359.34248
 15 02 07 00 36  0.0000000  0  7G16G18G21G25G27G29G31
  23259201.460   122227931.72207  23259202.700    95242558.17945
  23834384.440   125250617.66106  23834387.180    97597933.42344
  20898252.680   109821248.25108  20898253.420    85575095.33549
  23147807.000   121642689.48407  23147811.600    94786590.41746
  24442022.180   128443685.76505  24442027.760   100086028.86345
  22293497.860   117153523.60208  22293499.660    91288648.85747
  21664787.500   113849220.32308  21664788.760    88713686.50148
 15 02 07 00 36 30.0000000  0  7G16G18G21G25G27G29G31
  23242270.460   122138958.93507  23242271.800    95173228.77145
  23819232.500   125170994.17606  23819235.400    97535889.29444
  20897243.380   109815944.46208  20897244.120    85570962.52049
  23164165.760   121728655.88407  23164170.420    94853577.19146
  24427435.740   128367034.19105  24427441.280   100026300.44844
  22306202.540   117220286.89408  22306204.340    91340672.18047
  21676428.000   113910391.56108  21676429.240    88761352.38248
 15 02 07 00 37  0.0000000  0  7G16G18G21G25G27G29G31
  23225355.240   122050069.18007  23225356.620    95103964.05545
  23804089.720   125091418.85206  23804092.660    97473882.66344
  20896318.200   109811082.70808  20896318.960    85567174.15149
  23180570.280   121814862.78907  23180574.940    94920751.36046
  24412865.400   128290466.77205  24412870.820    99966637.63245
  22318921.440   117287125.02308  22318923.220    91392753.81547
  21688150.220   113971992.17708  21688151.440    88809352.83348
 15 02 07 00 37 30.0000000  0  7G16G18G21G25G27G29G31
  23208456.400   121961265.37607  23208457.840    95034766.31145
  23788956.740   125011895.30206  23788959.900    97411916.40444
  20895477.200   109806663.29408  20895478.000    85563730.46449
  23197020.620   121901310.32107  23197025.220    94988113.03945
  24398311.360   128213984.57005  24398316.480    99907041.21244
  22331654.740   117354038.44308  22331656.400    91444894.11547
  21699953.940   114034021.13608  21699955.220    88857687.07148
 15 02 07 00 38  0.0000000  0  7G16G18G21G25G27G29G31
  23191574.160   121872548.74007  23191575.520    94965636.48944
  23773834.160   124932425.57606  23773837.200    97349992.02445
  20894720.160   109802685.13808  20894720.980    85560630.60849
  23213516.600   121987997.17607  23213521.080    95055661.20545
  24383773.460   128137587.26105  24383778.440    99847510.94245
  22344402.240   117421026.55808  22344403.800    91497092.63047
  21711838.640   114096475.69808  21711839.980    88906352.94148
 15 02 07 00 38 30.0000000  0  7G16G18G21G25G27G29G31
  23174709.420   121783924.03007  23174710.660    94896578.29045
  23758722.960   124853015.44506  23758725.980    97288114.13545
  20894047.620   109799150.93208  20894048.460    85557876.69849
  23230058.540   122074925.41107  23230062.940    95123397.46145
  24369252.140   128061277.77705  24369256.940    99788049.10445
  22357164.240   117488091.00308  22357165.720    91549350.62347
  21723804.480   114159356.57308  21723805.880    88955351.00248
 15 02 07 00 39  0.0000000  0  7G16G18G21G25G27G29G31
  23157861.800   121695389.13207  23157862.960    94827590.07845
  23743622.780   124773663.75006  23743625.740    97226281.79445
  20893458.680   109796055.88208  20893459.480    85555464.97849
  23246645.500   122162089.98007  23246649.820    95191317.88445
  24354746.720   127985052.19505  24354751.500    99728652.65944
  22369939.980   117555228.01708  22369941.480    91601665.16347
  21735850.220   114222657.28508  21735851.660    89004676.21248
 15 02 07 00 39 30.0000000  0  7G16G18G21G25G27G29G31
  23141032.080   121606948.25107  23141033.140    94758675.13145
  23728534.780   124694375.41206  23728537.520    97164498.79545
  20892953.660   109793401.80008  20892954.420    85553396.86949
  23263277.740   122249492.46807  23263282.080    95259423.70646
  24340257.680   127908912.90605  24340262.400    99669323.43145
  22382729.800   117622439.23708  22382731.380    91654037.52847
  21747975.900   114286378.14008  21747977.340    89054328.80448
 15 02 07 00 40  0.0000000  0  7G16G18G21G25G27G29G31
  23124220.320   121518602.00607  23124221.340    94689833.90745
  23713459.060   124615152.14807  23713461.740    97102766.49844
  20892532.200   109791187.03108  20892532.960    85551671.08549
  23279954.860   122337130.87107  23279959.260    95327713.33246
  24325785.040   127832859.02105  24325789.800    99610060.75246
  22395533.440   117689723.03808  22395535.120    91706466.45147
  21760180.880   114350515.61408  21760182.260    89104306.03148
 15 02 07 00 40 30.0000000  0  7G16G18G21G25G27G29G31
  23107427.100   121430353.14207  23107428.120    94621068.57645
  23698396.240   124535997.37706  23698398.840    97041087.55045
  20892194.420   109789411.96908  20892195.180    85550287.92849
  23296676.780   122425004.84907  23296681.300    95396186.53946
  24311328.780   127756891.15105  24311333.660    99550865.13846
  22408351.000   117757079.86008  22408352.780    91758952.28247
  21772464.820   114415067.99608  21772466.160    89154606.56148
 15 02 07 00 41  0.0000000  0  7G16G18G21G25G27G29G31
  23090652.980   121342204.55907  23090653.980    94552381.38245
  23683346.960   124456914.84806  23683349.780    96979464.89445
  20891940.300   109788076.62008  20891941.060    85549247.40749
  23313443.500   122513114.60406  23313448.180    95464843.46746
  24296889.020   127681010.47306  24296894.020    99491737.43344
  22421182.500   117824510.16808  22421184.420    91811495.36947
  21784827.520   114480034.16808  21784828.800    89205229.52548
 15 02 07 00 41 30.0000000  0  7G16G18G21G25G27G29G31
  23073897.900   121254156.13207  23073898.880    94483772.23446
  23668311.420   124377905.02906  23668314.560    96917898.91044
  20891769.400   109787178.67108  20891770.140    85548547.71649
  23330254.480   122601457.39407  23330259.380    95533681.97246
  24282465.560   127605215.22005  24282470.720    99432676.25945
  22434027.580   117892011.59008  22434029.560    91864093.86847
  21797268.200   114545410.08108  21797269.460    89256171.77048
 15 02 07 00 42  0.0000000  0  7G16G18G21G25G27G29G31
  23057162.100   121166208.99707  23057163.120    94415242.02146
  23653290.340   124298970.73906  23653293.720    96856391.76144
  20891681.520   109786716.85908  20891682.220    85548187.86949
  23347109.460   122690031.37406  23347114.460    95602700.62346
  24268058.180   127529504.58705  24268063.500    99373681.04446
  22446886.000   117959582.95608  22446887.980    91916746.87047
  21809786.180   114611192.38408  21809787.500    89307430.68348
 15 02 07 00 42 30.0000000  0  7G16G18G21G25G27G29G31
  23040446.020   121078365.57407  23040447.140    94346792.61746
  23638284.380   124220115.21906  23638287.860    96794945.99444
  20891676.680   109786691.15408  20891677.320    85548167.84949
  23364008.340   122778836.45006  23364013.520    95671899.33446
  24253667.120   127453879.51905  24253672.540    99314752.51546
  22459757.740   118027224.46408  22459759.720    91969454.52147
  21822381.240   114677379.51308  21822382.580    89359005.04548
 15 02 07 00 43  0.0000000  0  7G16G18G21G25G27G29G31
  23023749.880   120990627.04507  23023751.160    94278424.94846
  23623293.840   124141339.90706  23623297.160    96733562.71744
  20891754.420   109787099.59108  20891755.020    85548486.12049
  23380950.960   122867870.58506  23380956.140    95741276.53845
  24239292.080   127378339.02005  24239297.480    99255889.87545
  22472642.480   118094934.43508  22472644.460    92022215.52047
  21835052.660   114743967.94408  21835054.000    89410892.10948
 15 02 07 00 43 30.0000000  0  7G16G18G21G25G27G29G31
  23007074.120   120902995.70207  23007075.560    94210140.80246
  23608319.140   124062647.48206  23608322.240    96672244.03144
  20891914.720   109787941.81808  20891915.300    85549142.41149
  23397937.060   122957132.79906  23397942.100    95810831.47545
  24224933.220   127302883.06405  24224938.660    99197093.09245
  22485540.340   118162713.02108  22485542.360    92075029.98047
  21847799.940   114810955.36808  21847801.320    89463090.07648
 15 02 07 00 44  0.0000000  0  7G16G18G21G25G27G29G31
  22990419.060   120815472.87907  22990420.580    94141941.21846
  23593360.860   123984041.21906  23593363.860    96610992.49145
  20892157.520   109789217.79308  20892158.100    85550136.67949
  23414966.600   123046622.74206  23414971.340    95880563.87845
  24210590.540   127227512.39205  24210595.880    99138362.76945
  22498451.280   118230560.02708  22498453.220    92127897.76347
  21860622.800   114878339.93908  21860624.180    89515597.50348
 15 02 07 00 44 30.0000000  0  7G16G18G21G25G27G29G31
  22973785.180   120728060.99507  22973786.660    94073828.06546
  23578419.620   123905524.28106  23578422.460    96549810.53244
  20892482.640   109790926.37608  20892483.240    85551468.05549
  23432039.280   123136339.23507  23432043.720    95950472.81245
  24196264.100   127152226.85105  24196269.260    99079698.79445
  22511375.200   118298474.82008  22511376.940    92180818.36146
  21873520.700   114946119.12908  21873522.100    89568412.42948
 15 02 07 00 45  0.0000000  0  7G16G18G21G25G27G29G31
  22957172.480   120640760.21207  22957173.900    94005801.50046
  23563495.640   123827097.51706  23563498.340    96488698.85145
  20892889.680   109793065.36208  20892890.280    85553134.79949
  23449154.540   123226279.52507  23449158.780    96020556.12745
  24181953.620   127077024.75505  24181958.620    99021099.85445
  22524311.640   118366455.28908  22524313.120    92233790.14047
  21886492.900   115014288.81808  21886494.380    89621531.63748
 15 02 07 00 45 30.0000000  0  7G16G18G21G25G27G29G31
  22940581.940   120553576.05207  22940583.300    93937865.80146
  23548589.900   123748767.00906  23548592.540    96427662.17245
  20893379.200   109795637.79908  20893379.760    85555139.30449
  23466312.780   123316446.26907  23466316.960    96090815.90045
  24167659.820   127001909.84606  24167664.620    98962568.84244
  22537261.160   118434504.62708  22537262.500    92286815.57647
  21899539.700   115082850.40708  21899541.240    89674956.22948
 15 02 07 00 46  0.0000000  0  7G16G18G21G25G27G29G31
  22924013.720   120466509.57407  22924015.080    93870021.80046
  23533702.820   123670534.72906  23533705.540    96366702.02145
  20893950.760   109798641.61908  20893951.360    85557479.95349
  23483513.700   123406837.64306  23483517.980    96161250.71045
  24153382.460   126926881.31606  24153387.140    98904105.14545
  22550223.560   118502621.76808  22550224.800    92339893.84747
  21912660.420   115151800.41308  21912662.020    89728683.48448
 15 02 07 00 46 30.0000000  0  7G16G18G21G25G27G29G31
  22907468.080   120379561.72507  22907469.400    93802270.23846
  23518834.780   123592402.24406  23518837.400    96305819.63144
  20894604.140   109802075.29608  20894604.780    85560155.55249
  23500756.880   123497451.51506  23500761.340    96231858.89346
  24139121.260   126851938.13906  24139125.900    98845707.94245
  22563198.480   118570805.25408  22563199.760    92393023.80147
  21925854.400   115221135.11708  21925856.020    89782710.49448
 15 02 07 00 47  0.0000000  0  7G16G18G21G25G27G29G31
  22890945.600   120292735.90907  22890946.940    93734613.76246
  23503986.420   123514373.68306  23503988.920    96245018.24245
  20895339.420   109805939.25008  20895340.060    85563166.43349
  23518042.340   123588288.24006  23518047.180    96302640.72645
  24124876.520   126777081.71105  24124881.200    98787378.31346
  22576186.220   118639056.17008  22576187.540    92446206.32147
  21939121.440   115290853.49708  21939123.020    89837036.47348
 15 02 07 00 47 30.0000000  0  7G16G18G21G25G27G29G31
  22874446.560   120206033.14907  22874447.880    93667053.17846
  23489158.240   123436451.03906  23489160.740    96184299.38145
  20896156.240   109810231.70208  20896156.900    85566511.20649
  23535369.740   123679345.75006  23535374.920    96373594.59145
  24110648.100   126702311.14905  24110652.920    98729115.59845
  22589186.440   118707372.81408  22589187.800    92499440.04147
  21952460.880   115360952.13908  21952462.360    89891658.75648
 15 02 07 00 48  0.0000000  0  7G16G18G21G25G27G29G31
  22857971.040   120119453.50207  22857972.260    93599588.53146
  23474350.340   123358635.76706  23474352.960    96123664.15545
  20897054.200   109814950.54008  20897054.860    85570188.22849
  23552738.820   123770621.71906  23552744.360    96444718.67846
  24096435.720   126627625.12905  24096440.660    98670918.75546
  22602198.760   118775753.30308  22602200.160    92552723.51947
  21965871.900   115431427.11508  21965873.280    89946574.28948
 15 02 07 00 48 30.0000000  0  7G16G18G21G25G27G29G31
  22841519.360   120032999.24807  22841520.480    93532221.57746
  23459563.280   123280930.31406  23459566.000    96063114.51345
  20898033.160   109820094.88408  20898033.800    85574196.81449
  23570149.420   123862114.86106  23570155.020    96516012.00246
  24082239.380   126553023.56005  24082244.440    98612787.70245
  22615223.280   118844197.71008  22615224.680    92606056.79247
  21979354.020   115502275.72608  21979355.300    90001780.97148
 15 02 07 00 49  0.0000000  0  7G16G18G21G25G27G29G31
  22825091.880   119946672.10607  22825092.980    93464953.68946
  23444797.540   123203337.10406  23444800.460    96002652.33745
  20899092.840   109825663.48508  20899093.500    85578535.99149
  23587601.260   123953824.01406  23587606.880    96587473.63346
  24068059.080   126478506.36905  24068064.180    98554722.40945
  22628259.800   118912705.30008  22628261.260    92659439.30747
  21992906.720   115573495.53008  21992908.000    90057276.88748
 15 02 07 00 49 30.0000000  0  7G16G18G21G25G27G29G31
  22808689.420   119860476.81007  22808690.560    93397788.52746
  23430054.180   123125861.80306  23430057.240    95942282.05145
  20900233.580   109831658.20608  20900234.280    85583207.20549
  23605094.580   124045750.80107  23605100.000    96659104.85145
  24053895.340   126404076.25605  24053900.420    98496724.97245
  22641308.760   118981278.26308  22641310.280    92712872.75847
  22006530.000   115645086.68608  22006531.380    90113062.17748
 15 02 07 00 50  0.0000000  0  7G16G18G21G25G27G29G31
  22792311.680   119774411.38707  22792312.860    93330724.57746
  23415333.120   123048503.24106  23415336.300    95882002.73345
  20901454.540   109838074.54908  20901455.280    85588206.96349
  23622628.380   124137890.28606  23622633.540    96730901.82145
  24039747.420   126329729.38606  24039752.520    98438792.37645
  22654369.440   119049912.46908  22654370.960    92766353.92646
  22020222.640   115717042.56208  22020224.240    90169131.66848
 15 02 07 00 50 30.0000000  0  7G16G18G21G25G27G29G31
  22775959.240   119688478.65007  22775960.400    93263764.00546
  23400635.120   122971265.01606  23400638.240    95821817.17145
  20902755.680   109844912.23508  20902756.440    85593535.03849
  23640202.480   124230242.18806  23640207.420    96802864.30345
  24025615.720   126255466.65205  24025620.700    98380925.36446
  22667441.860   119118608.37608  22667443.420    92819883.17647
  22033984.360   115789361.48808  22033986.180    90225484.05748
 15 02 07 00 51  0.0000000  0  7G16G18G21G25G27G29G31
  22759632.700   119602682.01107  22759633.840    93196909.48246
  23385960.940   122894151.22006  23385963.720    95761728.57845
  20904137.140   109852171.95408  20904137.900    85599191.97049
  23657816.900   124322806.71006  23657821.660    96874992.47445
  24011500.380   126181289.48505  24011505.120    98323125.01746
  22680526.240   119187366.83908  22680527.820    92873461.17147
  22047815.060   115862042.34608  22047816.980    90282118.47248
 15 02 07 00 51 30.0000000  0  7G16G18G21G25G27G29G31
  22743332.520   119517023.85607  22743333.640    93130162.87146
  23371311.120   122817164.76607  23371313.500    95701739.17745
  20905598.760   109859852.98408  20905599.560    85605177.19549
  23675471.540   124415583.17106  23675476.260    96947285.78345
  23997401.360   126107198.18006  23997406.080    98265391.59246
  22693622.420   119256187.81908  22693624.120    92927087.88647
  22061714.260   115935082.63108  22061716.120    90339032.94948
 15 02 07 00 52  0.0000000  0  7G16G18G21G25G27G29G31
  22727058.920   119431505.92907  22727060.100    93063525.52946
  23356686.080   122740308.24307  23356688.120    95641851.05944
  20907140.300   109867953.99208  20907141.080    85611489.67449
  23693166.200   124508570.19906  23693170.960    97019743.17445
  23983318.660   126033192.65606  23983323.340    98207724.98945
  22706730.520   119325071.16508  22706732.220    92980763.19247
  22075681.380   116008479.67208  22075683.060    90396225.42048
 15 02 07 00 52 30.0000000  0  7G16G18G21G25G27G29G31
  22710812.060   119346128.83607  22710813.380    92996997.94146
  23342085.880   122663583.02307  23342087.620    95582065.21844
  20908761.420   109876473.14308  20908762.200    85618127.98249
  23710900.560   124601765.17306  23710905.280    97092362.61944
  23969252.000   125959271.49106  23969256.720    98150124.12046
  22719850.040   119394014.94708  22719851.820    93034485.59747
  22089715.640   116082229.71208  22089717.160    90453692.94647
 15 02 07 00 53  0.0000000  0  7G16G18G21G25G27G29G31
  22694592.700   119260895.69507  22694594.080    92930582.51846
  23327511.200   122586992.76707  23327512.820    95522384.55145
  20910462.100   109885410.30008  20910462.860    85625092.00749
  23728674.500   124695168.09806  23728679.180    97165144.04245
  23955201.620   125885435.76006  23955206.180    98092589.84145
  22732981.200   119463019.96408  22732983.040    93088255.70547
  22103816.720   116156330.93608  22103818.080    90511434.12548
 15 02 07 00 53 30.0000000  0  7G16G18G21G25G27G29G31
  22678401.100   119175808.28907  22678402.540    92864280.65447
  23312962.600   122510540.22307  23312964.280    95462811.19144
  20912242.120   109894764.39508  20912242.880    85632380.91849
  23746487.820   124788777.71006  23746492.480    97238086.58545
  23941167.460   125811685.37505  23941171.800    98035122.04046
  22746123.920   119532085.62308  22746125.800    93142073.09447
  22117984.080   116230780.67008  22117985.340    90569446.87347
 15 02 07 00 54  0.0000000  0  7G16G18G21G25G27G29G31
  22662237.540   119090867.98707  22662238.960    92798093.41046
  23298440.600   122434227.74607  23298442.460    95403346.97045
  20914101.120   109904533.56908  20914101.900    85639993.27149
  23764340.220   124882592.15606  23764344.840    97311188.70045
  23927149.380   125738019.79906  23927153.540    97977720.35045
  22759277.960   119601210.82007  22759279.920    93195936.85647
  22132217.100   116305575.66108  22132218.360    90627728.64748
 15 02 07 00 54 30.0000000  0  7G16G18G21G25G27G29G31
  22646102.480   119006077.44807  22646103.860    92732022.86446
  23283945.800   122358058.09607  23283947.860    95343994.04545
  20916038.980   109914717.09408  20916039.780    85647928.49049
  23782231.460   124976610.73406  23782236.140    97384449.89145
  23913147.500   125664439.32906  23913151.440    97920384.95745
  22772443.440   119670396.09707  22772445.480    93249847.44847
  22146515.400   116380713.53308  22146516.720    90686277.60748
 15 02 07 00 55  0.0000000  0  7G16G18G21G25G27G29G31
  22629996.200   118921438.72807  22629997.600    92666070.61746
  23269478.780   122282034.02807  23269481.040    95284754.56945
  20918055.580   109925314.48308  20918056.400    85656186.20249
  23800161.220   125070832.29306  23800166.200    97457869.23446
  23899161.840   125590944.14205  23899165.640    97863116.00946
  22785620.240   119739640.76407  22785622.340    93303804.30047
  22160878.500   116456191.69908  22160879.860    90745091.73648
 15 02 07 00 55 30.0000000  0  7G16G18G21G25G27G29G31
  22613920.180   118836959.04007  22613921.660    92600242.30346
  23255041.020   122206163.26607  23255043.360    95225634.55445
  20920151.700   109936329.76508  20920152.520    85664769.54549
  23818130.500   125165260.80106  23818135.580    97531449.84446
  23885193.280   125517539.46305  23885197.220    97805917.59146
  22798809.280   119808949.62107  22798811.400    93357811.18446
  22175306.840   116532012.75408  22175308.300    90804173.04248
 15 02 07 00 56  0.0000000  0  7G16G18G21G25G27G29G31
  22597872.540   118752627.94408  22597874.000    92534529.76146
  23240630.800   122130436.66307  23240633.140    95166626.85845
  20922324.720   109947749.01008  20922325.500    85673667.66449
  23836136.740   125259882.66406  23836141.780    97605181.13246
  23871239.420   125444212.80505  23871243.740    97748779.96846
  22812008.160   119878310.14607  22812010.240    93411858.31946
  22189797.460   116608161.49708  22189799.060    90863509.69248
 15 02 07 00 56 30.0000000  0  7G16G18G21G25G27G29G31
  22581854.980   118668454.74908  22581856.360    92468940.26247
  23226249.940   122054863.94207  23226252.200    95107739.07645
  20924575.920   109959579.09808  20924576.680    85682885.91949
  23854180.960   125354704.15706  23854185.940    97679067.96245
  23857301.900   125370971.70205  23857306.500    97691709.00746
  22825218.300   119947729.64307  22825220.340    93465951.41947
  22204351.300   116684642.69208  22204353.060    90923105.39448
 15 02 07 00 57  0.0000000  0  7G16G18G21G25G27G29G31
  22565867.900   118584441.74608  22565869.180    92403475.58247
  23211898.960   121979448.22407  23211901.180    95048973.63245
  20926905.100   109971818.86208  20926905.840    85692423.39849
  23872262.820   125449724.02106  23872267.720    97753109.35545
  23843380.720   125297816.18505  23843385.520    97634704.73946
  22838439.580   120017207.71207  22838441.560    93520090.15247
  22218967.920   116761453.81608  22218969.780    90982958.19047
 15 02 07 00 57 30.0000000  0  7G16G18G21G25G27G29G31
  22549911.400   118500589.87508  22549912.700    92338136.46247
  23197578.000   121904190.64607  23197580.200    94990331.40445
  20929311.840   109984466.31808  20929312.580    85702278.56649
  23890381.880   125544939.84806  23890386.700    97827303.46545
  23829475.720   125224745.01405  23829480.560    97577766.18146
  22851671.860   120086743.13707  22851673.720    93574273.58047
  22233646.560   116838590.69308  22233648.440    91043064.81047
 15 02 07 00 58  0.0000000  0  7G16G18G21G25G27G29G31
  22533986.160   118416902.42608  22533987.500    92272925.46047
  23183287.740   121829095.05407  23183290.060    94931815.41645
  20931796.120   109997521.15608  20931796.820    85712451.17149
  23908538.180   125640351.63106  23908542.860    97901650.27445
  23815587.080   125151759.37706  23815591.900    97520894.29946
  22864915.080   120156336.44207  22864916.920    93628502.11046
  22248386.960   116916051.93108  22248388.780    91103424.18748
 15 02 07 00 58 30.0000000  0  7G16G18G21G25G27G29G31
  22518092.540   118333380.92008  22518093.900    92207843.77446
  23169028.720   121754164.08107  23169031.140    94873427.68445
  20934357.680   110010982.14008  20934358.360    85722940.25349
  23926731.240   125735957.86506  23926736.040    97976148.56944
  23801714.760   125078859.16006  23801719.420    97464088.96346
  22878169.080   120225987.10007  22878171.080    93682775.32247
  22263188.580   116993834.64808  22263190.320    91164034.05247
 15 02 07 00 59  0.0000000  0  7G16G18G21G25G27G29G31
  22502230.720   118250026.27308  22502232.040    92142892.11147
  23154801.260   121679399.07007  23154803.720    94815169.28945
  20936995.960   110024846.58108  20936996.680    85733743.72049
  23944960.780   125831756.05305  23944965.660    98050796.47344
  23787858.460   125006043.08706  23787862.900    97407349.20745
  22891433.700   120295693.64007  22891435.840    93737092.09246
  22278050.600   117071934.73908  22278052.300    91224891.23047
 15 02 07 00 59 30.0000000  0  7G16G18G21G25G27G29G31
  22486401.240   118166841.73608  22486402.540    92078073.00047
  23140606.140   121604803.91807  23140608.620    94757043.24245
  20939711.160   110039115.10108  20939711.880    85744862.04949
  23963226.860   125927746.03905  23963231.900    98125593.82344
  23774018.360   124933312.25606  23774022.540    97350675.86745
  22904709.180   120365456.88707  22904711.400    93791453.04946
  22292972.680   117150350.52208  22292974.380    91285994.40047
 15 02 07 01 00  0.0000000  0  7G16G18G21G25G27G29G31
  22470604.640   118083829.96408  22470605.880    92013388.50647
  23126443.900   121530381.47307  23126446.280    94699051.77945
  20942502.980   110053786.33708  20942503.720    85756294.19449
  23981529.360   126023926.72806  23981534.380    98200539.78844
  23760194.400   124860666.87706  23760198.500    97294069.09246
  22917995.340   120435276.70407  22917997.720    93845858.08746
  22307954.360   117229079.46108  22307956.060    91347341.59047
 15 02 07 01 00 30.0000000  0  7G16G18G21G25G27G29G31
  22454840.920   118000991.39608  22454842.160    91948838.98847
  23112314.860   121456133.21307  23112317.060    94641196.02745
  20945370.980   110068857.82408  20945371.720    85768038.20749
