     2.11           OBSERVATION DATA    G                   RINEX VERSION / TYPE
SPIDER V4,0,0,3554                      2015 04 15 10:43    PGM / RUN BY / DATE 
CABS                                                        MARKER NAME         
CABS                                                        MARKER NUMBER       
                                                            OBSERVER / AGENCY   
462287              LEICA GRX1200PRO    8.10/2.127          REC # / TYPE / VERS 
103298              LEIAT504                                ANT # / TYPE        
  5116912.3402   671231.6412  3737143.4301                  APPROX POSITION XYZ 
        0.0600        0.0000        0.0000                  ANTENNA: DELTA H/E/N
     1     1                                                WAVELENGTH FACT L1/2
     4    C1    L1    P2    L2                              # / TYPES OF OBSERV 
    30.000                                                  INTERVAL            
  2015    02    03    00    00    0.0000000     GPS         TIME OF FIRST OBS   
  2015    02    03    23    59   30.0000000     GPS         TIME OF LAST OBS    
    16                                                      LEAP SECONDS        
    30                                                      # OF SATELLITES     
   G 1   797   797   797   797                              PRN / # OF OBS      
   G 2   941   941   941   941                              PRN / # OF OBS      
   G 3   847   847   847   847                              PRN / # OF OBS      
   G 4   832   832   832   832                              PRN / # OF OBS      
   G 5   646   646   646   646                              PRN / # OF OBS      
   G 6   827   827   827   827                              PRN / # OF OBS      
   G 7   672   672   671   671                              PRN / # OF OBS      
   G 9   808   808   808   808                              PRN / # OF OBS      
   G10   753   753   753   753                              PRN / # OF OBS      
   G11   769   769   769   769                              PRN / # OF OBS      
   G12   828   828   828   828                              PRN / # OF OBS      
   G13   792   792   792   792                              PRN / # OF OBS      
   G14   941   941   941   941                              PRN / # OF OBS      
   G15   699   699   699   699                              PRN / # OF OBS      
   G16   658   658   658   658                              PRN / # OF OBS      
   G17   943   943   943   943                              PRN / # OF OBS      
   G18   897   897   897   897                              PRN / # OF OBS      
   G19   750   750   750   750                              PRN / # OF OBS      
   G20   813   813   813   813                              PRN / # OF OBS      
   G21   741   741   741   741                              PRN / # OF OBS      
   G22   657   657   657   657                              PRN / # OF OBS      
   G23   755   755   755   755                              PRN / # OF OBS      
   G24   815   815   815   815                              PRN / # OF OBS      
   G25   856   856   856   856                              PRN / # OF OBS      
   G27   794   794   794   794                              PRN / # OF OBS      
   G28   857   857   857   857                              PRN / # OF OBS      
   G29   784   784   784   784                              PRN / # OF OBS      
   G30   707   707   707   707                              PRN / # OF OBS      
   G31   870   870   870   870                              PRN / # OF OBS      
   G32   767   767   767   767                              PRN / # OF OBS      
BIT 2 OF LLI FLAGS DATA COLLECTED UNDER A/S CONDITION       COMMENT             
SNR is mapped to RINEX snr flag value [2-9]                 COMMENT             
Lx:     = 25dBHz -> 1; 26-27dBHz -> 2; 28-31dBHz -> 3       COMMENT             
       32-35dBHz -> 4; 36-38dBHz -> 5; 39-41dBHz -> 6       COMMENT             
       42-44dBHz -> 7; 45-48dBHz -> 8; >=49dBHz -> 9        COMMENT             
                                                            END OF HEADER       
 15 02 03 00 00  0.0000000  0  4G21G25G29G31
  21480256.820   112879552.86208  21480257.700    87958118.85948
  21723031.080   114155405.16408  21723035.040    88952328.53048
  21062956.920   110686798.24608  21062958.280    86249560.31648
  20967397.860   110184428.30109  20967398.520    85858007.64249
 15 02 03 00 00 30.0000000  0  4G21G25G29G31
  21470367.200   112827582.86608  21470368.120    87917622.77248
  21733911.860   114212584.11008  21733915.820    88996883.54048
  21073178.960   110740515.48608  21073180.300    86291417.89848
  20968733.180   110191445.70909  20968733.860    85863475.73549
 15 02 03 00 01  0.0000000  0  4G21G25G29G31
  21460555.460   112776022.05808  21460556.440    87877445.54048
  21744847.860   114270053.20408  21744851.880    89041664.64048
  21083434.820   110794410.24208  21083436.120    86333413.81148
  20970175.840   110199027.00709  20970176.520    85869383.23549
 15 02 03 00 01 30.0000000  0  4G21G25G29G31
  21450822.180   112724873.48708  21450823.200    87837589.52748
  21755839.360   114327813.66108  21755843.420    89086672.78048
  21093724.420   110848482.45008  21093725.720    86375547.99348
  20971726.000   110207173.09309  20971726.700    85875730.82449
 15 02 03 00 02  0.0000000  0  4G21G25G29G31
  21441168.240   112674141.74508  21441169.260    87798058.31848
  21766887.040   114385869.22208  21766891.140    89131910.86248
  21104048.220   110902734.43508  21104049.520    86417822.25348
  20973384.360   110215887.62309  20973385.040    85882521.35749
 15 02 03 00 02 30.0000000  0  4G21G25G29G31
  21431593.680   112623827.04208  21431594.640    87758852.07248
  21777990.720   114444218.90508  21777994.820    89177378.13548
  21114405.840   110957164.15608  21114407.180    86460235.01848
  20975150.700   110225169.68409  20975151.380    85889754.12249
 15 02 03 00 03  0.0000000  0  4G21G25G29G31
  21422098.380   112573928.87008  21422099.280    87719970.39648
  21789150.040   114502861.01508  21789154.160    89223073.26948
  21124796.580   111011768.14408  21124798.000    86502783.57248
  20977024.700   110235017.60209  20977025.400    85897427.82049
 15 02 03 00 03 30.0000000  0  4G21G25G29G31
  21412684.340   112524457.69008  21412685.180    87681421.43548
  21800366.680   114561804.57008  21800370.800    89269003.29348
  21135222.060   111066554.55608  21135223.580    86545474.27448
  20979007.980   110245439.70909  20979008.680    85905548.92849
 15 02 03 00 04  0.0000000  0  4G21G25G29G31
  21403349.140   112475400.92008  21403349.960    87643195.39748
  21811638.140   114621036.01908  21811642.180    89315157.65548
  21145679.440   111121508.58208  21145681.060    86588295.58148
  20981098.000   110256422.74609  20981098.680    85914107.13049
 15 02 03 00 04 30.0000000  0  4G21G25G29G31
  21394095.400   112426772.21708  21394096.260    87605302.92148
  21822966.680   114680567.73808  21822970.700    89361546.00048
  21156170.860   111176641.44008  21156172.560    86631256.24248
  20983297.080   110267978.84809  20983297.740    85923111.87749
 15 02 03 00 05  0.0000000  0  4G21G25G29G31
  21384921.420   112378562.66608  21384922.300    87567737.05648
  21834350.500   114740389.97908  21834354.500    89408160.71547
  21166694.280   111231942.23608  21166696.000    86674347.76048
  20985603.280   110280097.97109  20985603.920    85932555.34149
 15 02 03 00 05 30.0000000  0  4G21G25G29G31
  21375829.740   112330785.68608  21375830.620    87530508.25948
  21845791.800   114800514.70608  21845795.780    89455011.12848
  21177251.720   111287421.65208  21177253.420    86717578.46548
  20988018.880   110292791.88209  20988019.460    85942446.69249
 15 02 03 00 06  0.0000000  0  4G21G25G29G31
  21366818.880   112283433.37808  21366819.760    87493610.37148
  21857288.920   114860932.96808  21857292.920    89502090.28147
  21187841.220   111343069.65308  21187842.900    86760940.53948
  20990542.080   110306051.35609  20990542.640    85952778.74049
 15 02 03 00 06 30.0000000  0  4G21G25G29G31
  21357886.740   112236494.71108  21357887.640    87457034.80648
  21868839.660   114921632.84708  21868843.700    89549388.87847
  21198460.260   111398872.94608  21198461.880    86804423.61648
  20993170.600   110319864.29609  20993171.180    85963542.05949
 15 02 03 00 07  0.0000000  0  4G21G25G29G31
  21349036.660   112189987.25808  21349037.540    87420795.25348
  21880447.060   114982630.22208  21880451.080    89596919.28848
  21209111.640   111454846.32808  21209113.280    86848039.23148
  20995907.380   110334246.14809  20995907.980    85974748.68749
 15 02 03 00 07 30.0000000  0  4G21G25G29G31
  21340267.460   112143904.81908  21340268.320    87384886.88048
  21892109.760   115043918.02208  21892113.820    89644676.00548
  21219793.880   111510981.61308  21219795.500    86891781.00748
  20998751.060   110349189.90609  20998751.700    85986393.16949
 15 02 03 00 08  0.0000000  0  4G21G25G29G31
  21331579.460   112098249.18108  21331580.300    87349311.07548
  21903827.920   115105497.17908  21903831.960    89692659.74548
  21230506.920   111567278.81108  21230508.520    86935648.93948
  21001701.700   110364695.90709  21001702.420    85998475.76249
 15 02 03 00 08 30.0000000  0  4G21G25G29G31
  21322972.520   112053019.65608  21322973.360    87314067.30548
  21915601.180   115167365.76308  21915605.180    89740869.01947
  21241250.180   111623734.58208  21241251.680    86979640.43848
  21004758.960   110380761.88809  21004759.720    86010994.70249
 15 02 03 00 09  0.0000000  0  4G21G25G29G31
  21314447.460   112008220.32408  21314448.320    87279158.74748
  21927430.020   115229526.73608  21927434.060    89789306.11547
  21252023.980   111680350.93108  21252025.380    87023757.06648
  21007923.400   110397390.90409  21007924.160    86023952.36849
 15 02 03 00 09 30.0000000  0  4G21G25G29G31
  21306004.700   111963853.50708  21306005.600    87244587.21548
  21939314.740   115291981.46408  21939318.800    89837972.12047
  21262828.420   111737128.38908  21262829.760    87067999.23248
  21011195.020   110414583.32309  21011195.800    86037349.04849
 15 02 03 00 10  0.0000000  0  4G21G25G29G31
  21297643.580   111919915.65108  21297644.480    87210349.94148
  21951254.480   115354725.16608  21951258.520    89886863.29847
  21273662.360   111794060.79608  21273663.600    87112362.13348
  21014573.000   110432334.58809  21014573.740    86051181.19549
 15 02 03 00 10 30.0000000  0  4G21G25G29G31
  21289366.060   111876416.78708  21289366.940    87176454.73948
  21963250.860   115417766.38208  21963254.800    89935986.30347
  21284527.220   111851155.95308  21284528.460    87156851.85548
  21018058.840   110450652.69609  21018059.540    86065455.03549
 15 02 03 00 11  0.0000000  0  4G21G25G29G31
  21281170.180   111833346.85608  21281171.000    87142893.76648
  21975301.860   115481094.76708  21975305.740    89985333.07847
  21295420.840   111908402.38308  21295422.080    87201459.44748
  21021650.520   110469526.97009  21021651.200    86080162.25549
 15 02 03 00 11 30.0000000  0  4G21G25G29G31
  21273056.340   111790707.99708  21273057.060    87109668.69648
  21987407.760   115544711.26508  21987411.560    90034904.35047
  21306343.160   111965799.80908  21306344.400    87246184.70048
  21025348.060   110488957.67209  21025348.700    86095303.04749
 15 02 03 00 12  0.0000000  0  4G21G25G29G31
  21265025.700   111748506.65408  21265026.380    87076784.54948
  21999569.300   115608620.46008  21999573.140    90084703.71147
  21317294.940   112023352.06208  21317296.200    87291030.60148
  21029152.320   110508949.38209  21029152.980    86110880.99549
 15 02 03 00 12 30.0000000  0  4G21G25G29G31
  21257078.300   111706742.90108  21257078.960    87044241.37948
  22011786.420   115672821.92508  22011790.340    90134730.81247
  21328275.860   112081057.38808  21328277.160    87335995.78048
  21033063.080   110529500.67809  21033063.780    86126894.97949
 15 02 03 00 13  0.0000000  0  4G21G25G29G31
  21249213.640   111665414.06808  21249214.320    87012037.10548
  22024058.500   115737312.51908  22024062.560    90184983.20647
  21339285.180   112138912.28108  21339286.600    87381077.50248
  21037079.700   110550608.21609  21037080.440    86143342.40649
 15 02 03 00 13 30.0000000  0  4G21G25G29G31
  21241430.940   111624516.12608  21241431.660    86980168.59248
  22036384.640   115802087.01608  22036388.760    90235456.82847
  21350321.760   112196910.25708  21350323.240    87426270.71648
  21041201.120   110572266.51409  21041201.920    86160218.99349
 15 02 03 00 14  0.0000000  0  5G16G21G25G29G31
  24571262.740   129122856.35006  24571263.720   100615227.23244
  21233733.400   111584065.57008  21233734.120    86948648.69448
  22048767.620   115867159.84708  22048771.760    90286162.91247
  21361388.180   112255064.97908  21361389.760    87471586.07348
  21045430.000   110594489.36209  21045430.840    86177535.49249
 15 02 03 00 14 30.0000000  0  5G16G21G25G29G31
  24553927.820   129031760.12306  24553928.940   100544243.18844
  21226108.100   111543994.37408  21226108.800    86917424.39448
  22061194.400   115932462.66708  22061198.480    90337048.19847
  21372471.240   112313306.67908  21372472.780    87516969.20848
  21049753.260   110617208.12909  21049754.120    86195238.41549
 15 02 03 00 15  0.0000000  0  5G16G21G25G29G31
  24536602.000   128940712.52205  24536603.320   100473297.00144
  21218579.220   111504429.66408  21218579.900    86886594.76248
  22073688.960   115998121.66108  22073693.000    90388211.02547
  21383594.820   112371761.12908  21383596.300    87562518.12248
  21054194.780   110640548.35009  21054195.600    86213425.59549
 15 02 03 00 15 30.0000000  0  5G16G21G25G29G31
  24519270.840   128849636.74005  24519272.300   100402328.88044
  21211131.960   111465293.95108  21211132.640    86856099.41448
  22086236.440   116064058.77708  22086240.500    90439590.57447
  21394743.880   112430349.32208  21394745.280    87608171.24948
  21058739.600   110664431.23309  21058740.340    86232035.62149
 15 02 03 00 16  0.0000000  0  5G16G21G25G29G31
  24501936.600   128758545.15906  24501938.080   100331348.44944
  21203768.880   111426600.44408  21203769.500    86825948.63948
  22098838.940   116130285.60608  22098843.160    90491195.87048
  21405920.440   112489081.91308  21405921.740    87653936.89748
  21063389.780   110688867.92309  21063390.460    86251077.18748
 15 02 03 00 16 30.0000000  0  5G16G21G25G29G31
  24484599.420   128667437.76805  24484600.800   100260355.68845
  21196489.800   111388348.49208  21196490.400    86796141.93648
  22111496.220   116196800.56008  22111500.600    90543025.68047
  21417123.960   112547956.23808  21417125.140    87699812.98648
  21068144.940   110713856.33709  21068145.580    86270548.66849
 15 02 03 00 17  0.0000000  0  5G16G21G25G29G31
  24467259.100   128576314.00605  24467260.480   100189350.14845
  21189294.480   111350536.71708  21189295.060    86766678.22748
  22124207.920   116263601.45708  22124212.360    90595078.31147
  21428353.920   112606969.79208  21428355.020    87745797.56748
  21073004.640   110739394.21409  21073005.260    86290448.30149
 15 02 03 00 17 30.0000000  0  5G16G21G25G29G31
  24449915.900   128485174.78205  24449917.160   100118332.56344
  21182183.000   111313165.70308  21182183.600    86737557.97148
  22136974.080   116330687.97508  22136978.440    90647353.49347
  21439610.040   112666121.35708  21439611.180    87791889.68148
  21077968.580   110765479.91909  21077969.200    86310774.81349
 15 02 03 00 18  0.0000000  0  5G16G21G25G29G31
  24432570.520   128394024.37405  24432571.680   100047306.26144
  21175156.140   111276239.56208  21175156.800    86708784.36348
  22149795.180   116398063.11608  22149799.380    90699853.58147
  21450892.780   112725412.93708  21450893.980    87838090.90248
  21083037.300   110792116.08009  21083037.900    86331530.26049
 15 02 03 00 18 30.0000000  0  5G16G21G25G29G31
  24415222.720   128302861.12805  24415223.940    99976269.97744
  21168213.420   111239755.45108  21168214.120    86680355.19548
  22162670.660   116465723.57408  22162674.660    90752575.99347
  21462201.340   112784840.39408  21462202.680    87884398.00148
  21088209.980   110819298.71509  21088210.640    86352711.52649
 15 02 03 00 19  0.0000000  0  5G16G21G25G29G31
  24397872.960   128211687.91806  24397874.280    99905225.93844
  21161355.340   111203716.14208  21161356.080    86652272.62948
  22175600.680   116533670.84608  22175604.600    90805521.89947
  21473535.800   112844404.06608  21473537.280    87930811.24048
  21093486.840   110847028.77309  21093487.560    86374319.35349
 15 02 03 00 19 30.0000000  0  5G16G21G25G29G31
  24380521.480   128120505.26406  24380522.720    99834174.50545
  21154582.020   111168122.19208  21154582.760    86624537.09248
  22188585.160   116601904.42608  22188589.060    90858690.89547
  21484896.080   112904103.20808  21484897.700    87977330.04648
  21098867.600   110875305.06509  21098868.400    86396352.82149
 15 02 03 00 20  0.0000000  0  5G16G21G25G29G31
  24363168.920   128029316.95106  24363170.120    99763118.66744
  21147893.980   111132976.36008  21147894.700    86597150.74148
  22201624.400   116670426.20508  22201628.380    90912084.46947
  21496282.540   112963939.10708  21496284.160    88023955.41348
  21104352.560   110904128.90609  21104353.400    86418812.95249
 15 02 03 00 20 30.0000000  0  5G16G21G25G29G31
  24345814.800   127938120.12506  24345815.980    99692056.21944
  21141290.520   111098275.16908  21141291.240    86570110.86348
  22214717.660   116739231.90008  22214721.760    90965699.27047
  21507694.020   113023906.50808  21507695.600    88070683.25048
  21109940.800   110933495.57109  21109941.700    86441696.06249
 15 02 03 00 21  0.0000000  0  5G16G21G25G29G31
  24328459.480   127846917.09006  24328460.700    99620988.90145
  21134771.940   111064020.27008  21134772.720    86543418.74648
  22227865.020   116808322.06408  22227869.260    91019535.73647
  21519130.540   113084005.32008  21519132.080    88117513.48548
  21115632.260   110963404.47609  21115633.160    86465001.69249
 15 02 03 00 21 30.0000000  0  5G16G21G25G29G31
  24311103.200   127755708.89206  24311104.460    99549917.55145
  21128338.440   111030212.19708  21128339.240    86517074.79748
  22241066.600   116877696.78008  22241070.840    91073593.93847
  21530591.880   113144234.87908  21530593.400    88164445.60048
  21121426.860   110993855.16309  21121427.740    86488729.49249
 15 02 03 00 22  0.0000000  0  5G16G21G25G29G31
  24293745.980   127664495.92806  24293747.340    99478842.54244
  21121989.900   110996850.42508  21121990.680    86491078.61748
  22254322.120   116947354.75308  22254326.300    91127872.84547
  21542077.680   113204593.22808  21542079.220    88211478.07048
  21127324.240   111024845.77609  21127325.040    86512878.01149
 15 02 03 00 22 30.0000000  0  5G16G21G25G29G31
  24276388.360   127573280.71405  24276389.840    99407765.75145
  21115726.760   110963937.32608  21115727.520    86465432.06148
  22267631.680   117017296.81608  22267635.780    91182373.11147
  21553588.000   113265080.53308  21553589.520    88258611.02548
  21133324.360   111056376.29309  21133325.120    86537447.23349
 15 02 03 00 23  0.0000000  0  5G16G21G25G29G31
  24259030.720   127482065.80805  24259032.240    99336689.22345
  21109549.300   110931474.53908  21109550.040    86440136.39548
  22280995.440   117087523.82708  22280999.500    91237095.42147
  21565122.960   113325697.23608  21565124.440    88305844.80748
  21139427.200   111088446.76609  21139427.960    86562437.20549
 15 02 03 00 23 30.0000000  0  5G16G21G25G29G31
  24241672.980   127390850.92005  24241674.520    99265612.68944
  21103457.280   110899460.65808  21103457.960    86415190.51848
  22294413.020   117158033.90208  22294417.080    91292038.31147
  21576682.020   113386440.59308  21576683.480    88353177.27948
  21145632.260   111121054.55509  21145633.040    86587845.86049
 15 02 03 00 24  0.0000000  0  5G16G21G25G29G31
  24224315.140   127299635.26005  24224316.640    99194535.56344
  21097450.480   110867894.57408  21097451.140    86390593.57648
  22307884.120   117228825.09408  22307888.280    91347200.25147
  21588264.680   113447307.85608  21588266.120    88400606.30748
  21151939.060   111154197.09709  21151939.920    86613671.21149
 15 02 03 00 24 30.0000000  0  5G16G21G25G29G31
  24206957.820   127208422.12506  24206959.320    99123460.38945
  21091529.380   110836779.05508  21091530.040    86366347.73148
  22321409.000   117299898.76608  22321413.260    91402582.30447
  21599871.180   113508300.10708  21599872.600    88448132.73448
  21158347.740   111187874.94009  21158348.640    86639913.67649
 15 02 03 00 25  0.0000000  0  5G16G21G25G29G31
  24189600.540   127117209.25806  24189602.140    99052385.44844
  21085693.300   110806110.58108  21085694.020    86342450.22148
  22334986.980   117371251.08308  22334991.260    91458181.48347
  21611500.500   113569412.50708  21611501.920    88495752.77648
  21164857.380   111222083.42609  21164858.320    86666569.63649
 15 02 03 00 25 30.0000000  0  5G16G21G25G29G31
  24172244.280   127026001.40906  24172245.740    98981314.41244
  21079943.020   110775892.84508  21079943.780    86318903.94948
  22348618.640   117442885.14908  22348622.860    91514000.22247
  21623153.280   113630648.31108  21623154.720    88543468.97848
  21171468.420   111256824.64509  21171469.360    86693640.70048
 15 02 03 00 26  0.0000000  0  5G16G21G25G29G31
  24154889.000   126934798.37906  24154890.240    98910247.11844
  21074278.280   110746124.52708  21074279.100    86295707.86849
  22362303.480   117514798.69908  22362307.520    91570036.71747
  21634828.940   113692004.36808  21634830.420    88591278.88348
  21178180.340   111292095.88309  21178181.240    86721124.77249
 15 02 03 00 26 30.0000000  0  5G16G21G25G29G31
  24137535.240   126843603.44506  24137536.380    98839186.15744
  21068699.720   110716809.05208  21068700.560    86272864.64848
  22376041.820   117586993.80808  22376045.680    91626292.61647
  21646527.720   113753482.09308  21646529.320    88639183.58548
  21184993.340   111327898.18009  21184994.180    86749022.65149
 15 02 03 00 27  0.0000000  0  5G16G21G25G29G31
  24120183.180   126752417.08406  24120184.240    98768131.85843
  21063207.240   110687945.83508  21063208.080    86250373.84048
  22389833.420   117659469.25508  22389837.160    91682766.95747
  21658249.300   113815079.47708  21658250.940    88687181.54048
  21191907.000   111364229.56909  21191907.800    86777332.81049
 15 02 03 00 27 30.0000000  0  5G16G21G25G29G31
  24102833.000   126661241.13106  24102834.120    98697085.67344
  21057800.920   110659535.40608  21057801.740    86228235.85148
  22403678.320   117732224.96908  22403682.040    91739459.68247
  21669993.720   113876796.81308  21669995.360    88735272.95748
  21198921.120   111401088.95009  21198921.880    86806054.39449
 15 02 03 00 28  0.0000000  0  5G16G21G25G29G31
  24085484.900   126570076.37606  24085486.180    98626048.22645
  21052480.760   110631577.80008  21052481.560    86206450.71848
  22417576.320   117805260.01408  22417580.180    91796370.06047
  21681760.600   113938632.14508  21681762.200    88783456.31848
  21206035.320   111438474.52009  21206036.120    86835185.99548
 15 02 03 00 28 30.0000000  0  5G16G21G25G29G31
  24068138.480   126478920.72306  24068139.820    98555017.86645
  21047246.140   110604069.90408  21047246.940    86185016.00748
  22431526.860   117878570.52508  22431530.820    91853495.09947
  21693549.100   114000581.14908  21693550.700    88831728.25548
  21213248.800   111476381.82909  21213249.640    86864724.14548
 15 02 03 00 29  0.0000000  0  5G16G21G25G29G31
  24050794.260   126387776.67106  24050795.700    98483996.57344
  21042097.140   110577011.86308  21042097.920    86163931.83348
  22445530.100   117952157.26308  22445534.120    91910835.38147
  21705359.260   114062644.14808  21705360.880    88880089.02148
  21220561.500   111514810.38709  21220562.380    86894668.47048
 15 02 03 00 29 30.0000000  0  5G16G21G25G29G31
  24033452.920   126296647.27206  24033454.420    98412986.68545
  21037034.540   110550407.73608  21037035.280    86143201.35548
  22459586.100   118026021.28708  22459590.240    91968391.72547
  21717191.300   114124821.93308  21717192.920    88928539.22848
  21227973.460   111553760.55209  21227974.380    86925019.24048
 15 02 03 00 30  0.0000000  0  5G16G21G25G29G31
  24016116.100   126205541.58906  24016117.600    98341995.28445
  21032059.560   110524263.83508  21032060.200    86122829.49648
  22473696.220   118100170.10307  22473700.480    92026169.98247
  21729046.440   114187121.12208  21729048.080    88977084.04148
  21235485.960   111593238.98009  21235486.880    86955781.63748
 15 02 03 00 30 30.0000000  0  6G16G18G21G25G29G31
  23998780.080   126114440.55706  23998781.640    98271007.48844
  24494128.400   128717514.91405  24494130.160   100299366.16544
  21027168.480   110498560.84408  21027169.060    86102801.20048
  22487856.500   118174582.60908  22487860.860    92084153.73047
  21740920.680   114249520.39008  21740922.300    89025706.84148
  21243094.780   111633223.36809  21243095.680    86986938.28648
 15 02 03 00 31  0.0000000  0  6G16G18G21G25G29G31
  23981449.940   126023369.93306  23981451.420    98200043.37345
  24479057.320   128638316.86105  24479059.540   100237653.55444
  21022365.980   110473323.28908  21022366.520    86083135.58549
  22502071.400   118249282.65907  22502075.820    92142361.53347
  21752818.560   114312043.68308  21752820.100    89074426.27248
  21250804.280   111673736.85609  21250805.160    87018507.23048
 15 02 03 00 31 30.0000000  0  6G16G18G21G25G29G31
  23964121.720   125932309.69606  23964123.180    98129087.37344
  24463973.160   128559048.59705  24463975.820   100175886.19444
  21017647.920   110448529.69308  21017648.480    86063815.90449
  22516336.840   118324248.45207  22516341.200    92200776.40647
  21764735.800   114374668.78108  21764737.280    89123225.03848
  21258610.080   111714756.39709  21258610.920    87050470.49648
 15 02 03 00 32  0.0000000  0  6G16G18G21G25G29G31
  23946797.980   125841272.75906  23946799.320    98058149.49645
  24448878.140   128479723.86305  24448880.460   100114074.76643
  21013016.740   110424192.66208  21013017.320    86044851.99249
  22530654.920   118399491.02207  22530659.320    92259406.94347
  21776674.400   114437406.03508  21776675.780    89172111.19348
  21266514.140   111756292.33409  21266514.940    87082836.15348
 15 02 03 00 32 30.0000000  0  6G16G18G21G25G29G31
  23929478.320   125750257.12406  23929479.500    97987228.24144
  24433772.080   128400342.28505  24433774.420   100052219.10441
  21008471.640   110400308.07908  21008472.260    86026240.63549
  22545025.040   118475006.63007  22545029.400    92318250.22747
  21788633.560   114500251.50408  21788634.900    89221081.66848
  21274515.520   111798339.90609  21274516.320    87115600.49148
 15 02 03 00 33  0.0000000  0  6G16G18G21G25G29G31
  23912162.780   125659263.33406  23912163.840    97916323.99744
  24418655.620   128320905.09805  24418658.160    99990320.17044
  21004012.520   110376875.34508  21004013.140    86007981.37249
  22559446.880   118550793.63307  22559451.160    92377304.98546
  21800612.940   114563203.06108  21800614.220    89270134.81248
  21282613.740   111840896.32109  21282614.560    87148761.32448
 15 02 03 00 33 30.0000000  0  6G16G18G21G25G29G31
  23894852.060   125568294.86306  23894853.060    97845439.49645
  24403529.480   128241416.87805  24403531.980    99928381.33743
  20999640.000   110353897.77608  20999640.640    85990076.78349
  22573920.700   118626853.66307  22573924.960    92436572.48447
  21812612.740   114626262.08108  21812614.000    89319271.69748
  21290808.960   111883962.51709  21290809.800    87182319.38648
 15 02 03 00 34  0.0000000  0  6G16G18G21G25G29G31
  23877545.960   125477350.64606  23877546.900    97774573.87344
  24388394.060   128161878.19305  24388396.380    99866403.20943
  20995353.520   110331372.49808  20995354.180    85972524.63449
  22588445.900   118703183.74107  22588450.200    92496050.42247
  21824632.340   114689425.64708  21824633.660    89368490.04448
  21299100.380   111927534.11209  21299101.220    87216271.27048
 15 02 03 00 34 30.0000000  0  6G16G18G21G25G29G31
  23860245.620   125386437.01406  23860246.620    97703732.10644
  24373250.100   128082296.07205  24373252.640    99804391.30244
  20991153.840   110309303.08608  20991154.460    85955327.70049
  22603023.200   118779788.19107  22603027.680    92555742.17047
  21836672.460   114752697.42208  21836673.900    89417792.71148
  21307488.680   111971614.75609  21307489.480    87250619.80748
 15 02 03 00 35  0.0000000  0  6G16G18G21G25G29G31
  23842950.280   125295549.73006  23842951.280    97632910.83645
  24358097.440   128002667.36606  24358099.440    99742343.05343
  20987040.000   110287684.75508  20987040.580    85938482.26649
  22617651.500   118856660.78607  22617656.140    92615642.87147
  21848731.880   114816070.86108  21848733.460    89467174.60048
  21315972.400   112016197.00009  21315973.180    87285359.20448
 15 02 03 00 35 30.0000000  0  6G16G18G21G25G29G31
  23825661.000   125204694.01106  23825662.040    97562114.17445
  24342937.040   127922998.14005  24342938.820    99680263.24244
  20983012.840   110266522.02808  20983013.380    85921991.84449
  22632331.280   118933804.26007  22632336.080    92675754.64047
  21860811.320   114879549.02008  21860812.900    89516638.09048
  21324551.880   112061282.61909  21324552.680    87320490.85148
 15 02 03 00 36  0.0000000  0  6G16G18G21G25G29G31
  23808377.200   125113867.05006  23808378.280    97491339.91845
  24327768.760   127843287.16606  24327770.120    99618150.87944
  20979071.560   110245810.52508  20979072.100    85905853.01649
  22647061.800   119011214.34007  22647066.720    92736074.14746
  21872909.820   114943127.05408  21872911.400    89566179.40248
  21333226.060   112106866.07908  21333226.940    87356010.41848
 15 02 03 00 36 30.0000000  0  6G16G18G21G25G29G31
  23791100.060   125023074.80906  23791101.040    97420592.69745
  24312593.760   127763541.55405  24312594.720    99556011.50443
  20975217.000   110225554.70508  20975217.520    85890069.27249
  22661843.880   119088894.88707  22661848.760    92796604.39846
  21885028.120   115006808.70908  21885029.580    89615801.46348
  21341995.600   112152950.30909  21341996.520    87391920.19948
 15 02 03 00 37  0.0000000  0  6G16G18G21G25G29G31
  23773829.340   124932316.49507  23773830.300    97349871.93345
  24297412.120   127683761.44206  24297412.820    99493845.24244
  20971448.740   110205752.33608  20971449.260    85874638.86149
  22676677.100   119166842.97207  22676681.660    92857343.12746
  21897165.480   115070590.51108  21897166.860    89665501.55148
  21350859.660   112199531.19809  21350860.600    87428216.99048
 15 02 03 00 37 30.0000000  0  6G16G18G21G25G29G31
  23756565.400   124841593.77807  23756566.360    97279178.89445
  24282224.400   127603949.85205  24282225.160    99431654.48944
  20967766.720   110186403.22208  20967767.240    85859561.63949
  22691561.220   119245058.19207  22691565.400    92918290.00246
  21909321.800   115134472.23908  21909323.200    89715279.49547
  21359817.980   112246607.36709  21359818.940    87464899.71148
 15 02 03 00 38  0.0000000  0  6G16G18G21G25G29G31
  23739308.880   124750910.12207  23739309.980    97208516.31545
  24267031.380   127524110.77906  24267032.160    99369442.29844
  20964171.400   110167509.71408  20964171.900    85844839.43449
  22706496.320   119323541.72707  22706500.280    92979445.95846
  21921497.300   115198454.89708  21921498.700    89765136.09448
  21368870.540   112294178.82809  21368871.520    87501968.37548
 15 02 03 00 38 30.0000000  0  6G16G18G21G25G29G31
  23722059.460   124660263.69706  23722060.680    97137882.75245
  24251833.020   127444243.65405  24251833.960    99307208.17744
  20960662.140   110149068.34108  20960662.620    85830469.54349
  22721481.680   119402289.54507  22721485.560    93040807.85346
  21933691.160   115262534.16608  21933692.600    89815067.97147
  21378016.420   112342240.64908  21378017.400    87539419.13748
 15 02 03 00 39  0.0000000  0  6G16G18G21G25G29G31
  23704818.120   124569659.60206  23704819.400    97067282.16945
  24236630.360   127364354.99506  24236631.780    99244957.37444
  20957239.560   110131082.51508  20957240.020    85816454.62449
  22736517.760   119481304.76307  22736521.840    93102378.12446
  21945904.040   115326713.40208  21945905.560    89865077.74547
  21387255.920   112390794.62508  21387256.920    87577253.39448
 15 02 03 00 39 30.0000000  0  6G16G18G21G25G29G31
  23687584.340   124479095.38806  23687585.660    96996712.66145
  24221423.400   127284443.08906  24221425.180    99182688.39544
  20953902.880   110113548.16408  20953903.360    85802791.50649
  22751603.820   119560582.87107  22751608.200    93164153.25746
  21958135.020   115390987.74108  21958136.580    89915161.63547
  21396587.980   112439835.25508  21396589.020    87615466.86348
 15 02 03 00 40  0.0000000  0  6G16G18G21G25G29G31
  23670358.800   124388574.78206  23670360.040    96926177.13545
  24206212.980   127204512.93005  24206214.740    99120405.17545
  20950652.620   110096467.95608  20950653.100    85789482.25949
  22766740.260   119640125.35607  22766744.860    93226134.38746
  21970384.300   115455358.26208  21970385.920    89965320.47347
  21406012.720   112489362.77708  21406013.760    87654059.72148
 15 02 03 00 40 30.0000000  0  6G16G18G21G25G29G31
  23653141.640   124298098.45606  23653142.780    96855676.11744
  24190999.520   127124566.46706  24191001.520    99058109.31843
  20947488.540   110079840.59308  20947489.040    85776525.87849
  22781926.760   119719930.67307  22781931.480    93288320.32746
  21982651.720   115519823.95808  21982653.360    90015553.47247
  21415529.660   112539374.53908  21415530.660    87693029.91148
 15 02 03 00 41  0.0000000  0  6G16G18G21G25G29G31
  23635933.100   124207667.49106  23635934.100    96785210.44045
  24175783.320   127044605.51405  24175785.620    98995802.09644
  20944410.560   110063665.65408  20944411.060    85763922.04049
  22797163.180   119799997.73107  22797167.780    93350710.20747
  21994936.940   115584383.45608  21994938.620    90065859.56448
  21425138.360   112589868.15208  21425139.280    87732375.57348
 15 02 03 00 41 30.0000000  0  6G16G18G21G25G29G31
  23618733.880   124117285.48106  23618734.800    96714782.92344
  24160565.100   126964634.45505  24160567.420    98933487.03444
  20941419.020   110047944.90008  20941419.500    85751672.11249
  22812449.680   119880327.65907  22812453.980    93413304.92746
  22007240.240   115649037.80008  22007241.980    90116239.56048
  21434838.760   112640843.72008  21434839.620    87772096.78148
 15 02 03 00 42  0.0000000  0  6G16G18G21G25G29G31
  23601543.580   124026950.13406  23601544.560    96644391.76244
  24145344.960   126884652.65805  24145347.620    98871163.59945
  20938513.100   110032674.15108  20938513.560    85739772.83549
  22827785.240   119960916.15307  22827789.380    93476101.10746
  22019560.860   115713782.86108  22019562.580    90166690.24547
  21444629.800   112692295.73508  21444630.640    87812189.24648
 15 02 03 00 42 30.0000000  0  6G16G18G21G25G29G31
  23584362.980   123936665.63206  23584364.060    96574040.21044
  24130123.680   126804664.96205  24130126.540    98808835.56344
  20935693.180   110017855.48708  20935693.640    85728225.83649
  22843170.180   120041764.97107  22843174.280    93539100.14146
  22031899.020   115778620.01108  22031900.660    90217212.68147
  21454511.560   112744224.61108  21454512.400    87852653.29748
 15 02 03 00 43  0.0000000  0  6G16G18G21G25G29G31
  23567192.520   123846434.51306  23567193.740    96503730.27245
  24114902.000   126724674.78206  24114904.900    98746505.59845
  20932959.540   110003490.41708  20932960.040    85717032.28549
  22858604.560   120122874.26507  22858608.740    93602302.15446
  22044254.800   115843549.45608  22044256.320    90267807.04047
  21464483.920   112796629.67208  21464484.760    87893488.39748
 15 02 03 00 43 30.0000000  0  6G16G18G21G25G29G31
  23550031.960   123756255.39306  23550033.240    96433460.83644
  24099679.820   126644682.16705  24099682.860    98684173.72944
  20930311.600   109989575.82908  20930312.140    85706189.75849
  22874087.880   120204240.73607  22874092.260    93665704.57646
  22056627.500   115908568.03108  22056628.980    90318470.84447
  21474546.000   112849506.20908  21474546.880    87934690.88348
 15 02 03 00 44  0.0000000  0  6G16G18G21G25G29G31
  23532881.620   123666129.93206  23532882.960    96363233.20844
  24084457.960   126564689.73105  24084460.680    98621841.98145
  20927749.320   109976111.40108  20927749.920    85695698.00649
  22889619.960   120285863.23107  22889624.620    93729306.50046
  22069016.940   115973674.81308  22069018.360    90369203.38047
  21484697.320   112902851.84008  21484698.260    87976258.89548
 15 02 03 00 44 30.0000000  0  6G16G18G21G25G29G31
  23515742.240   123576061.58006  23515743.580    96293050.08145
  24069236.820   126484701.97206  24069239.520    98559513.94344
  20925273.040   109963098.63008  20925273.660    85685558.19449
  22905201.160   120367743.24707  22905205.980    93793109.08546
  22081423.360   116038870.91108  22081424.740    90420005.52547
  21494937.900   112956666.62408  21494938.900    88018192.48148
 15 02 03 00 45  0.0000000  0  6G16G18G21G25G29G31
  23498613.680   123486049.96106  23498614.940    96222911.16345
  24054017.040   126404719.59106  24054019.260    98497190.03444
  20922882.320   109950535.31608  20922882.940    85675768.61249
  22920830.980   120449877.90907  22920835.800    93857110.10046
  22093846.280   116104153.89908  22093847.660    90470875.37347
  21505267.020   113010946.61108  21505268.020    88060488.56248
 15 02 03 00 45 30.0000000  0  6G16G18G21G25G29G31
  23481496.760   123396100.10807  23481498.120    96152820.38945
  24038799.220   126324748.20606  24038801.000    98434874.72545
  20920577.800   109938424.67708  20920578.360    85666331.75849
  22936509.820   120532269.99707  22936514.620    93921311.70146
  22106286.340   116169526.89208  22106287.760    90521815.36447
  21515685.040   113065693.59708  21515686.040    88103148.53948
 15 02 03 00 46  0.0000000  0  7G16G18G21G25G27G29G31
  23464394.940   123306229.67906  23464396.340    96082791.51045
  24023587.220   126244807.05606  24023588.700    98372582.96144
  20918362.400   109926782.19608  20918362.880    85657259.70349
  22952240.500   120614934.59307  22952245.220    93985725.66546
  24627535.320   129418570.57505  24627541.880   100845668.77944
  22118746.320   116235004.65708  22118747.840    90572836.98347
  21526194.500   113120921.04808  21526195.480    88146182.90648
 15 02 03 00 46 30.0000000  0  7G16G18G21G25G27G29G31
  23447298.960   123216389.75006  23447300.320    96012786.38545
  24008371.640   126164848.27306  24008372.900    98310277.44444
  20916226.500   109915557.48008  20916226.920    85648513.17749
  22968013.280   120697820.59607  22968017.940    94050312.14146
  24612740.240   129340821.35305  24612744.280   100785070.62644
  22131216.560   116300536.17408  22131218.080    90623900.49647
  21536785.460   113176576.90208  21536786.420    88189551.09048
 15 02 03 00 47  0.0000000  0  7G16G18G21G25G27G29G31
  23430216.860   123126622.30107  23430218.160    95942837.73245
  23993160.900   126084914.69406  23993162.060    98247991.58344
  20914177.640   109904790.51908  20914178.080    85640123.35049
  22983835.620   120780967.25707  22983840.220    94115101.72446
  24597963.520   129263167.64905  24597966.900   100724561.32644
  22143704.620   116366161.30708  22143706.120    90675036.95147
  21547465.180   113232698.98108  21547466.140    88233282.56848
 15 02 03 00 47 30.0000000  0  7G16G18G21G25G27G29G31
  23413148.340   123036926.42607  23413149.600    95872944.84645
  23977954.660   126005006.04606  23977955.800    98185725.12944
  20912215.180   109894477.87708  20912215.660    85632087.52949
  22999706.900   120864371.28607  22999711.340    94180091.85246
  24583203.880   129185605.17005  24583207.300   100664123.05944
  22156209.780   116431876.33208  22156211.300    90726243.44547
  21558232.760   113289282.78808  21558233.720    88277373.83048
 15 02 03 00 48  0.0000000  0  7G16G18G21G25G27G29G31
  23396092.940   122947299.53407  23396094.120    95803105.72445
  23962752.840   125925120.94406  23962754.020    98123477.01844
  20910338.340   109884615.35308  20910338.860    85624402.45149
  23015626.220   120948027.62507  23015630.380    94245278.57146
  24568460.620   129108129.58005  24568464.300   100603752.55045
  22168731.220   116497676.68308  22168732.720    90777516.42247
  21569086.980   113346322.00208  21569087.920    88321819.96048
 15 02 03 00 48 30.0000000  0  7G16G18G21G25G27G29G31
  23379050.680   122857741.71407  23379051.780    95733320.41545
  23947555.540   125845260.10206  23947556.700    98061247.79645
  20908546.680   109875200.60208  20908547.220    85617066.28649
  23031593.080   121031933.62007  23031596.980    94310659.84546
  24553733.180   129030740.14505  24553737.240   100543444.32945
  22181268.420   116563559.91408  22181269.840    90828853.98047
  21580027.080   113403812.62608  21580028.020    88366617.83548
 15 02 03 00 49  0.0000000  0  7G16G18G21G25G27G29G31
  23362021.660   122768253.81007  23362022.760    95663589.59145
  23932363.400   125765426.41506  23932364.780    97999039.76344
  20906840.200   109866233.32308  20906840.740    85610078.80249
  23047607.280   121116088.47807  23047611.080    94376235.04146
  24539022.740   128953434.94405  24539026.780   100483206.55545
  22193821.260   116629525.37308  22193822.620    90880255.61447
  21591052.680   113461752.49308  21591053.640    88411765.76448
 15 02 03 00 49 30.0000000  0  7G16G18G21G25G27G29G31
  23345006.500   122678838.38007  23345007.540    95593915.22845
  23917177.000   125685622.58206  23917178.460    97936855.00543
  20905218.880   109857713.45208  20905219.420    85603439.94449
  23063668.740   121200491.67907  23063672.540    94442003.74246
  24524328.460   128876215.38305  24524332.540   100423035.49945
  22206389.680   116695572.74508  22206390.960    90931721.08047
  21602163.460   113520139.97308  21602164.440    88457262.49148
 15 02 03 00 50  0.0000000  0  7G16G18G21G25G27G29G31
  23328005.600   122589498.28207  23328006.700    95524299.56745
  23901997.180   125605852.37006  23901998.620    97874696.43444
  20903682.840   109849641.27308  20903683.320    85597149.93649
  23079777.460   121285143.42407  23079781.360    94507966.12846
  24509650.560   128799082.47605  24509654.860   100362931.95045
  22218973.740   116761702.49508  22218975.020    90983250.73547
  21613359.160   113578973.81508  21613360.180    88503107.03248
 15 02 03 00 50 30.0000000  0  7G16G18G21G25G27G29G31
  23311018.960   122500233.10107  23311020.060    95454742.30045
  23886823.940   125526116.48706  23886825.320    97812564.63744
  20902231.580   109842014.65608  20902232.020    85591207.12249
  23095932.920   121370040.79207  23095936.980    94574119.90346
  24494988.740   128722034.30505  24494993.160   100302894.43945
  22231572.980   116827911.91708  22231574.260    91034842.48447
  21624638.960   113638249.59308  21624640.000    88549295.94248
 15 02 03 00 51  0.0000000  0  7G16G18G21G25G27G29G31
  23294046.860   122411044.51807  23294048.020    95385244.69945
  23871657.900   125446417.94206  23871659.160    97750461.90244
  20900865.020   109834833.14308  20900865.420    85585611.14249
  23112135.000   121455183.11107  23112139.240    94640464.55946
  24480343.100   128645071.12405  24480347.580   100242923.18244
  22244187.280   116894200.65508  22244188.580    91086496.03847
  21636002.580   113697965.80408  21636003.600    88595828.04348
 15 02 03 00 51 30.0000000  0  7G16G18G21G25G27G29G31
  23277090.080   122321936.30907  23277091.300    95315809.76145
  23856499.840   125366760.86306  23856501.080    97688391.46244
  20899583.440   109828098.47408  20899583.860    85580363.34749
  23128383.840   121540571.34907  23128388.200    94707000.83246
  24465713.880   128568194.67405  24465718.420   100183019.46545
  22256816.900   116960569.89008  22256818.280    91138212.31947
  21647449.900   113758121.69808  21647450.860    88642702.75448
 15 02 03 00 52  0.0000000  0  7G16G18G21G25G27G29G31
  23260148.720   122232908.80107  23260149.960    95246437.68545
  23841349.820   125287147.22306  23841351.020    97626354.88644
  20898386.460   109821808.68708  20898386.960    85575462.21749
  23144679.040   121626203.42607  23144683.420    94773727.09146
  24451101.000   128491403.94705  24451105.500   100123182.55345
  22269461.480   117027017.78308  22269462.940    91189989.89747
  21658980.260   113818714.10108  21658981.200    88689917.59748
 15 02 03 00 52 30.0000000  0  7G16G18G21G25G27G29G31
  23243222.880   122143963.06307  23243224.180    95177129.32745
  23826208.400   125207578.44806  23826209.620    97564353.27743
  20897273.900   109815962.49208  20897274.460    85570906.74249
  23161020.280   121712077.47207  23161024.680    94840641.89746
  24436504.240   128414697.91705  24436508.740   100063411.68345
  22282120.760   117093542.95008  22282122.320    91241827.67047
  21670593.020   113879739.61908  21670593.940    88737469.93948
 15 02 03 00 53  0.0000000  0  7G16G18G21G25G27G29G31
  23226313.380   122055103.06007  23226314.740    95107887.78645
  23811076.360   125128059.16206  23811077.680    97502390.18744
  20896246.020   109810561.12708  20896246.600    85566697.88549
  23177407.740   121798194.78107  23177412.200    94907746.25545
  24421924.080   128338078.89305  24421928.480   100003708.59445
  22294795.020   117160146.89608  22294796.680    91293726.83247
  21682288.200   113941198.26808  21682289.120    88785359.78148
 15 02 03 00 53 30.0000000  0  7G16G18G21G25G27G29G31
  23209419.960   121966327.64607  23209421.380    95038712.15345
  23795953.660   125048589.37506  23795955.260    97440465.69744
  20895302.320   109805602.00808  20895302.900    85562833.64249
  23193840.880   121884552.04707  23193845.300    94975037.57845
  24407360.120   128261544.41205  24407364.540    99944071.39144
  22307483.760   117226826.77008  22307485.440    91345685.15547
  21694064.900   114003085.54708  21694065.900    88833583.62048
 15 02 03 00 54  0.0000000  0  7G16G18G21G25G27G29G31
  23192543.340   121877640.31507  23192544.680    94969605.16045
  23780841.520   124969174.31006  23780843.200    97378583.85444
  20894443.000   109801086.17008  20894443.580    85559314.81149
  23210319.880   121971149.98207  23210324.280    95042516.46045
  24392812.500   128185096.27105  24392816.820    99884501.46544
  22320187.180   117293583.60308  22320188.860    91397703.44247
  21705923.100   114065400.72908  21705924.120    88882140.89748
 15 02 03 00 54 30.0000000  0  7G16G18G21G25G27G29G31
  23175683.440   121789041.02407  23175684.640    94900566.75845
  23765739.880   124889814.37006  23765741.580    97316744.97244
  20893667.600   109797011.24208  20893668.160    85556139.54749
  23226844.180   122057985.74907  23226848.580    95110180.66345
  24378280.960   128108732.45305  24378285.040    99824997.23844
  22332904.820   117360414.81608  22332906.380    91449779.68747
  21717861.880   114128139.36808  21717862.940    88931028.13548
 15 02 03 00 55  0.0000000  0  7G16G18G21G25G27G29G31
  23158841.000   121700533.24107  23158842.080    94831599.66745
  23750649.620   124810513.58506  23750651.140    97254952.14744
  20892976.200   109793377.65008  20892976.720    85553308.18149
  23243413.880   122145059.88907  23243418.240    95178030.62845
  24363765.680   128032454.39405  24363769.560    99765559.85044
  22345636.840   117427321.43608  22345638.240    91501914.70647
  21729881.060   114191300.75608  21729882.180    88980244.78748
 15 02 03 00 55 30.0000000  0  7G16G18G21G25G27G29G31
  23142016.220   121612118.44907  23142017.300    94762705.04045
  23735571.000   124731274.46106  23735572.440    97193207.43244
  20892368.720   109790185.22408  20892369.240    85550820.58049
  23260028.820   122232371.31807  23260033.100    95246065.48545
  24349266.780   127956262.24705  24349270.580    99706189.41444
  22358383.060   117494302.87808  22358384.360    91554108.03047
  21741980.300   114254882.63108  21741981.440    89029789.10148
 15 02 03 00 56  0.0000000  0  7G16G18G21G25G27G29G31
  23125209.480   121523798.56607  23125210.560    94693884.37245
  23720504.680   124652100.02306  23720505.940    97131513.08445
  20891845.060   109787433.28808  20891845.560    85548676.21649
  23276688.800   122319919.37107  23276693.020    95314284.72045
  24334784.220   127880156.09305  24334788.080    99646885.97746
  22371143.360   117561358.67508  22371144.660    91606359.28747
  21754159.080   114318882.58108  21754160.180    89079659.18648
 15 02 03 00 56 30.0000000  0  7G16G18G21G25G27G29G31
  23108421.320   121435576.17407  23108422.260    94625139.65145
  23705451.160   124572993.61806  23705452.560    97069871.76645
  20891405.300   109785122.33108  20891405.800    85546875.47149
  23293393.720   122407703.66607  23293397.940    95382688.04745
  24320318.060   127804136.61105  24320322.100    99587650.05344
  22383917.820   117628489.11008  22383919.180    91658668.70847
  21766417.200   114383299.01308  21766418.180    89129853.79648
 15 02 03 00 57  0.0000000  0  7G16G18G21G25G27G29G31
  23091651.680   121347451.20807  23091652.560    94556470.86245
  23690410.740   124493956.33906  23690412.220    97008284.29045
  20891048.920   109783249.62608  20891049.440    85545416.23249
  23310143.020   122495721.44807  23310147.400    95451273.30546
  24305868.140   127728202.05505  24305872.260    99528480.31144
  22396706.020   117695691.80208  22396707.500    91711034.43247
  21778753.780   114448127.94708  21778754.680    89180369.83448
 15 02 03 00 57 30.0000000  0  7G16G18G21G25G27G29G31
  23074901.200   121259426.58907  23074902.040    94487880.26946
  23675384.000   124414991.60106  23675385.540    96946753.32244
  20890775.960   109781815.39208  20890776.500    85544298.65049
  23326936.640   122583972.78506  23326941.220    95520040.54646
  24291434.580   127652353.50105  24291438.940    99469377.59844
  22409508.060   117762967.31208  22409509.660    91763456.89547
  21791168.540   114513367.87808  21791169.440    89231206.12948
 15 02 03 00 58  0.0000000  0  7G16G18G21G25G27G29G31
  23058170.160   121171504.22507  23058171.000    94419369.34645
  23660371.440   124336102.03706  23660373.200    96885280.97344
  20890586.320   109780819.00608  20890586.860    85543522.25349
  23343774.460   122672456.76206  23343779.240    95588989.06946
  24277017.480   127576591.00005  24277021.940    99410341.93146
  22422323.800   117830314.69908  22422325.500    91815935.36647
  21803661.100   114579016.58508  21803662.060    89282360.95348
 15 02 03 00 58 30.0000000  0  7G16G18G21G25G27G29G31
  23041458.920   121083686.06107  23041459.800    94350939.63546
  23645373.960   124257290.97706  23645375.840    96823869.76345
  20890479.980   109780260.23608  20890480.500    85543086.85149
  23360656.340   122761172.57906  23360661.280    95658118.23146
  24262616.680   127500914.83405  24262621.280    99351373.54545
  22435153.380   117897734.37908  22435155.060    91868470.16747
  21816231.000   114645071.69208  21816232.000    89333832.45648
 15 02 03 00 59  0.0000000  0  7G16G18G21G25G27G29G31
  23024767.580   120995972.75307  23024768.600    94282591.61545
  23630391.640   124178559.37906  23630393.440    96762520.45444
  20890456.540   109780136.83408  20890456.980    85542990.70149
  23377581.940   122850117.80606  23377586.880    95727426.16045
  24248231.980   127425323.48505  24248236.700    99292471.21145
  22447996.320   117965224.31608  22447997.980    91921059.73147
  21828877.500   114711529.32708  21828878.500    89385617.62048
 15 02 03 00 59 30.0000000  0  7G16G18G21G25G27G29G31
  23008096.520   120908366.08007  23008097.700    94214326.69845
  23615425.020   124099910.23206  23615426.780    96701235.43944
  20890515.920   109780448.49508  20890516.280    85543233.55549
  23394551.180   122939291.85106  23394556.060    95796912.39545
  24233863.540   127349817.50905  24233868.280    99233635.46046
  22460852.540   118032784.19708  22460854.160    91973703.78247
  21841600.240   114778387.72208  21841601.240    89437715.05648
 15 02 03 01 00  0.0000000  0  7G16G18G21G25G27G29G31
  22991445.960   120820866.97107  22991447.260    94146145.58746
  23600474.640   124021345.35806  23600476.360    96640016.06744
  20890657.640   109781193.07808  20890657.980    85543813.75649
  23411563.740   123028692.56906  23411568.340    95866575.27845
  24219511.080   127274395.68505  24219515.760    99174865.23345
  22473721.780   118100412.64408  22473723.400    92026401.26047
  21854398.520   114845643.24208  21854399.520    89490121.94548
 15 02 03 01 00 30.0000000  0  7G16G18G21G25G27G29G31
  22974816.520   120733478.65007  22974817.840    94078050.79446
  23585541.100   123942868.83606  23585542.820    96578865.55945
  20890881.920   109782371.58508  20890882.240    85544732.07849
  23428619.520   123118320.29406  23428623.780    95936415.03545
  24205174.960   127199059.41705  24205179.600    99116161.69145
  22486604.200   118168110.24908  22486605.860    92079152.62147
  21867272.080   114913294.58808  21867273.120    89542837.27348
 15 02 03 01 01  0.0000000  0  7G16G18G21G25G27G29G31
  22958208.280   120646201.65407  22958209.600    94010042.76246
  23570624.740   123864482.07606  23570626.380    96517784.98345
  20891188.340   109783981.86808  20891188.660    85545986.84949
  23445718.020   123208172.56407  23445722.020    96006429.77345
  24190854.920   127123807.38005  24190859.380    99057523.80245
  22499499.540   118235875.31908  22499501.080    92131956.55547
  21880220.280   114981338.04608  21880221.360    89595858.13948
 15 02 03 01 01 30.0000000  0  7G16G18G21G25G27G29G31
  22941621.780   120559038.93807  22941623.060    93942123.77646
  23555726.140   123786188.64806  23555727.700    96456777.12545
  20891576.960   109786024.25308  20891577.320    85547578.31849
  23462859.200   123298249.46907  23462863.100    96076619.54645
  24176551.280   127048640.58505  24176555.480    98998952.30245
  22512407.920   118303708.58908  22512409.280    92184813.64047
  21893242.860   115049772.33608  21893244.000    89649183.55048
 15 02 03 01 02  0.0000000  0  7G16G18G21G25G27G29G31
  22925057.540   120471993.31107  22925058.780    93874296.03046
  23540846.020   123707992.38306  23540847.560    96395844.99944
  20892047.780   109788498.64408  20892048.180    85549506.41549
  23480043.080   123388550.85007  23480047.000    96146984.23445
  24162264.100   126973560.02506  24162268.020    98940448.00945
  22525329.340   118371610.33408  22525330.540    92237724.07247
  21906339.480   115118595.64908  21906340.660    89702812.09948
 15 02 03 01 02 30.0000000  0  7G16G18G21G25G27G29G31
  22908515.960   120385067.19207  22908517.240    93806561.39346
  23525984.940   123629896.20707  23525986.340    96334990.83944
  20892600.840   109791405.09408  20892601.260    85551771.18349
  23497269.400   123479076.21706  23497273.580    96217523.45445
  24147993.360   126898566.30506  24147997.220    98882011.40744
  22538263.820   118439580.93308  22538265.020    92290688.16147
  21919509.820   115187806.22208  21919511.020    89756742.40348
 15 02 03 01 03  0.0000000  0  7G16G18G21G25G27G29G31
  22891997.300   120298261.58907  22891998.660    93738920.68046
  23511143.260   123551902.04306  23511144.640    96274216.20044
  20893235.820   109794741.86808  20893236.220    85554371.27349
  23514537.880   123569823.61106  23514542.440    96288235.69246
  24133738.880   126823658.43606  24133742.780    98823641.65945
  22551211.080   118507618.68908  22551212.260    92343704.57847
  21932753.220   115257400.58208  21932754.380    89810971.76948
 15 02 03 01 03 30.0000000  0  7G16G18G21G25G27G29G31
  22875501.980   120211578.32107  22875503.340    93671375.28746
  23496321.360   123474012.74006  23496322.820    96213523.25745
  20893952.500   109798507.97808  20893952.900    85557305.91149
  23531848.260   123660791.96106  23531853.300    96359120.08145
  24119500.720   126748836.45805  24119504.700    98765338.85645
  22564170.980   118575723.29508  22564172.220    92396773.08647
  21946069.200   115327376.22208  21946070.280    89865498.23148
 15 02 03 01 04  0.0000000  0  7G16G18G21G25G27G29G31
  22859030.140   120125017.72807  22859031.320    93603925.47246
  23481519.580   123396229.32106  23481521.160    96152912.80945
  20894750.360   109802700.88708  20894750.780    85560573.11949
  23549200.360   123751978.49806  23549205.660    96430174.50346
  24105278.580   126674098.80705  24105282.640    98707101.74846
  22577143.220   118643892.96008  22577144.520    92449892.30147
  21959457.040   115397729.25208  21959458.000    89920318.76648
 15 02 03 01 04 30.0000000  0  7G16G18G21G25G27G29G31
  22842582.200   120038582.76807  22842583.280    93536573.56646
  23466738.560   123318555.25906  23466740.320    96092387.59745
  20895629.500   109807320.88808  20895629.960    85564173.12249
  23566594.120   123843383.06106  23566599.460    96501398.80945
  24091072.580   126599446.36005  24091076.720    98648931.00045
  22590127.900   118712127.99008  22590129.180    92503062.44047
  21972916.240   115468457.50808  21972917.100    89975431.67848
 15 02 03 01 05  0.0000000  0  7G16G18G21G25G27G29G31
  22826158.500   119952275.45807  22826159.540    93469321.12746
  23451978.920   123240993.53206  23451980.780    96031949.89545
  20896589.680   109812366.61308  20896590.140    85568104.85949
  23584029.300   123935004.74906  23584034.560    96572792.31246
  24076882.820   126524879.29805  24076887.120    98590826.79445
  22603124.940   118780428.03308  22603126.220    92556283.24747
  21986446.380   115539558.81808  21986447.240    90030835.28648
 15 02 03 01 05 30.0000000  0  7G16G18G21G25G27G29G31
  22809759.380   119866097.46707  22809760.460    93402169.45746
  23437241.100   123163546.52706  23437242.980    95971601.59445
  20897630.760   109817837.42608  20897631.240    85572367.83249
  23601505.600   124026842.15106  23601510.700    96644353.89745
  24062709.280   126450397.33705  24062713.700    98532788.91645
  22616134.240   118848792.42707  22616135.560    92609554.20747
  22000046.880   115611030.22208  22000047.820    90086527.27548
 15 02 03 01 06  0.0000000  0  7G16G18G21G25G27G29G31
  22793385.240   119780050.84907  22793386.360    93335120.16146
  23422525.600   123086217.03806  23422527.640    95911344.87845
  20898752.620   109823732.92608  20898753.120    85576961.73549
  23619022.800   124118894.27906  23619027.600    96716082.79945
  24048551.960   126376000.64905  24048556.520    98474817.48145
  22629155.740   118917221.02908  22629157.100    92662875.18147
  22013717.300   115682869.34008  22013718.420    90142505.80448
 15 02 03 01 06 30.0000000  0  7G16G18G21G25G27G29G31
  22777036.580   119694137.94807  22777037.700    93268175.06246
  23407833.180   123009008.40706  23407835.260    95851182.34145
  20899955.060   109830051.93808  20899955.600    85581885.64449
  23636580.520   124211160.37906  23636585.220    96787978.44545
  24034410.960   126301689.55705  24034415.520    98416912.71644
