     2.11           OBSERVATION DATA    G                   RINEX VERSION / TYPE
SPIDER V4,0,0,3554                      2015 03 27 00:08    PGM / RUN BY / DATE 
CNAJ                                                        MARKER NAME         
CNAJ                                                        MARKER NUMBER       
                                                            OBSERVER / AGENCY   
496642              LEICA GRX1200+GNSS  8.10/4.007          REC # / TYPE / VERS 
10321018            LEIAR25         NONE                    ANT # / TYPE        
  5206098.7325   612081.0247  3621806.3029                  APPROX POSITION XYZ 
        0.0720        0.0000        0.0000                  ANTENNA: DELTA H/E/N
     1     1                                                WAVELENGTH FACT L1/2
     4    C1    L1    P2    L2                              # / TYPES OF OBSERV 
    30.000                                                  INTERVAL            
  2015    01    12    00    00    0.0000000     GPS         TIME OF FIRST OBS   
  2015    01    12    23    59   30.0000000     GPS         TIME OF LAST OBS    
    16                                                      LEAP SECONDS        
    30                                                      # OF SATELLITES     
   G 1   790   790   790   790                              PRN / # OF OBS      
   G 2   937   936   935   935                              PRN / # OF OBS      
   G 3   836   836   834   834                              PRN / # OF OBS      
   G 4   844   844   843   843                              PRN / # OF OBS      
   G 5   650   650   650   650                              PRN / # OF OBS      
   G 6   766   765   761   760                              PRN / # OF OBS      
   G 7   661   661   659   659                              PRN / # OF OBS      
   G 9   810   809   808   808                              PRN / # OF OBS      
   G10   760   760   760   760                              PRN / # OF OBS      
   G11   780   780   780   780                              PRN / # OF OBS      
   G12   840   840   839   839                              PRN / # OF OBS      
   G13   793   792   792   792                              PRN / # OF OBS      
   G14   947   946   945   944                              PRN / # OF OBS      
   G15   705   704   705   704                              PRN / # OF OBS      
   G16   665   665   664   664                              PRN / # OF OBS      
   G17   919   918   918   918                              PRN / # OF OBS      
   G18   902   901   900   899                              PRN / # OF OBS      
   G19   760   760   760   760                              PRN / # OF OBS      
   G20   827   826   827   826                              PRN / # OF OBS      
   G21   744   744   741   741                              PRN / # OF OBS      
   G22   654   654   654   654                              PRN / # OF OBS      
   G23   740   740   738   738                              PRN / # OF OBS      
   G24   838   838   838   838                              PRN / # OF OBS      
   G25   862   862   861   861                              PRN / # OF OBS      
   G27   799   799   799   799                              PRN / # OF OBS      
   G28   839   839   835   835                              PRN / # OF OBS      
   G29   786   786   786   786                              PRN / # OF OBS      
   G30   672   672   667   667                              PRN / # OF OBS      
   G31   847   847   847   847                              PRN / # OF OBS      
   G32   776   776   771   771                              PRN / # OF OBS      
BIT 2 OF LLI FLAGS DATA COLLECTED UNDER A/S CONDITION       COMMENT             
SNR is mapped to RINEX snr flag value [2-9]                 COMMENT             
Lx:     = 25dBHz -> 1; 26-27dBHz -> 2; 28-31dBHz -> 3       COMMENT             
       32-35dBHz -> 4; 36-38dBHz -> 5; 39-41dBHz -> 6       COMMENT             
       42-44dBHz -> 7; 45-48dBHz -> 8; >=49dBHz -> 9        COMMENT             
                                                            END OF HEADER       
 15 01 12 00 00  0.0000000  0  8G02G12G14G21G24G25G29G31
  23596308.880   123999452.77008  23596304.460    96622911.29145
  22522514.560   118356710.93409  22522511.040    92226047.19645
  22690971.860   119241863.87408  22690969.340    92915713.87146
  24101712.600   126655363.62906  24101708.080    98692468.36643
  23826408.100   125208679.57206  23826409.720    97565221.47445
  20726870.660   108920459.43609  20726868.080    84873115.46647
  20081498.460   105529040.32608  20081497.400    82230398.00648
  22349831.760   117449140.71409  22349825.900    91518818.31946
 15 01 12 00 00 30.0000000  0  8G02G12G14G21G24G25G29G31
  23606672.160   124053910.77308  23606667.100    96665346.07444
  22533756.880   118415789.43609  22533752.200    92272082.39844
  22701612.940   119297781.09408  22701610.060    92959285.70846
  24083545.460   126559895.82507  24083541.760    98618078.00043
  23846255.660   125312979.72107  23846257.340    97646494.21544
  20728666.480   108929896.11109  20728663.960    84880468.72147
  20081090.980   105526899.47408  20081089.780    82228729.82448
  22334908.700   117370719.81709  22334903.320    91457711.13346
 15 01 12 00 01  0.0000000  0  8G02G12G14G21G24G25G29G31
  23617113.420   124108778.88208  23617107.720    96708100.43244
  22545023.080   118474993.29609  22545016.940    92318215.30043
  22712326.180   119354078.47308  22712322.980    93003153.77746
  24065388.020   126464478.79307  24065384.880    98543727.17743
  23866134.220   125417443.45206  23866136.160    97727894.51345
  20730503.160   108939547.08309  20730500.660    84887988.93747
  20080768.600   105525205.10408  20080767.140    82227409.54048
  22320039.020   117292580.12009  22320034.180    91396823.06147
 15 01 12 00 01 30.0000000  0  8G02G12G14G21G24G25G29G31
  23627632.520   124164055.55408  23627626.000    96751173.17244
  22556313.120   118534322.29909  22556304.520    92364445.69142
  22723111.080   119410753.29708  22723107.400    93047315.97245
  24047240.640   126369115.14107  24047237.660    98469417.97543
  23886043.860   125522069.32407  23886045.700    97809421.14244
  20732380.640   108949412.81309  20732378.240    84895676.56647
  20080531.160   105523956.17409  20080529.360    82226436.36048
  22305223.180   117214723.67409  22305218.800    91336155.72747
 15 01 12 00 02  0.0000000  0  8G02G12G14G21G24G25G29G31
  23638229.280   124219740.18308  23638221.680    96794563.78444
  22567627.100   118593777.28509  22567616.480    92410774.31442
  22733967.260   119467803.52308  22733963.100    93091770.67945
  24029104.060   126273807.49507  24029101.320    98395152.38144
  23905984.140   125626855.11808  23905985.660    97891072.41044
  20734299.200   108959494.32808  20734296.780    84903532.29046
  20080378.660   105523152.68409  20080376.540    82225810.26848
  22290461.780   117137153.58609  22290457.820    91275711.51147
 15 01 12 00 02 30.0000000  0  8G02G12G14G21G24G25G29G31
  23648902.880   124275829.46308  23648894.740    96838269.71044
  22578964.680   118653357.04009  22578953.600    92457200.15743
  22744893.880   119525224.91208  22744889.480    93136514.59145
  24010978.400   126178557.28907  24010976.020    98320931.58544
  23925954.340   125731798.11807  23925955.720    97972846.12144
  20736258.520   108969790.55608  20736256.160    84911555.33747
  20080310.340   105522791.66009  20080308.080    82225528.94948
  22275755.120   117059871.18208  22275751.520    91215491.47047
 15 01 12 00 03  0.0000000  0  8G02G12G14G21G24G25G29G31
  23659653.080   124332322.03708  23659644.920    96882289.89244
  22590325.960   118713061.98408  22590317.620    92503723.46544
  22755890.520   119583015.21208  22755886.080    93181545.98844
  23992864.180   126083367.22008  23992862.140    98246757.65044
  23945953.980   125836896.31106  23945955.600    98054740.80644
  20738258.800   108980302.43508  20738256.440    84919746.40947
  20080326.000   105522872.70909  20080323.800    82225592.11448
  22261103.740   116982879.09808  22261100.280    91155497.62446
 15 01 12 00 03 30.0000000  0  8G02G12G14G21G24G25G29G31
  23670479.480   124389215.32708  23670471.320    96926622.31144
  22601710.760   118772891.07508  22601705.660    92550343.54944
  22766956.540   119641170.38508  22766952.580    93226861.69344
  23974761.760   125988238.02908  23974759.740    98172631.15244
  23965982.480   125942146.65706  23965984.300    98136754.00645
  20740299.920   108991029.06608  20740297.420    84928104.82946
  20080425.280   105523393.17309  20080423.000    82225997.66448
  22246507.840   116906178.36608  22246504.520    91095730.85646
 15 01 12 00 04  0.0000000  0  8G02G12G14G21G24G25G29G31
  23681382.720   124446513.17808  23681374.940    96971269.97644
  22613120.060   118832849.42408  22613117.160    92597064.27745
  22778092.440   119699692.83008  22778089.240    93272463.56444
  23956672.480   125893178.13207  23956670.560    98098558.66044
  23986040.500   126047552.51905  23986042.480    98218888.39045
  20742382.980   109001976.10908  20742380.440    84936634.99446
  20080608.900   105524357.34009  20080606.460    82226748.94948
  22231968.800   116829776.43008  22231965.600    91036196.89747
 15 01 12 00 04 30.0000000  0  8G02G12G14G21G24G25G29G31
  23692360.880   124504204.88308  23692353.860    97016224.54444
  22624552.440   118892928.66508  22624550.700    92643879.19045
  22789296.080   119758571.56107  22789293.860    93318343.03745
  23938595.180   125798181.09008  23938593.100    98024535.11244
  24006126.140   126153102.76206  24006127.860    98301135.30844
  20744506.380   109013135.48908  20744503.980    84945330.59147
  20080874.940   105525755.42709  20080872.380    82227838.36748
  22217485.620   116753667.73808  22217482.460    90976891.41446
 15 01 12 00 05  0.0000000  0  8G02G12G14G21G24G25G29G31
  23703414.860   124562294.40808  23703408.440    97061489.09244
  22636009.100   118953135.26508  22636008.100    92690793.36646
  22800568.120   119817809.23008  22800566.480    93364502.19244
  23920531.380   125703255.18807  23920529.160    97950567.00244
  24026240.060   126258801.67607  24026241.340    98383498.03743
  20746671.440   109024513.41608  20746669.200    84954196.50446
  20081224.360   105527591.94109  20081221.800    82229269.42948
  22203059.880   116677860.06209  22203056.400    90917820.51346
 15 01 12 00 05 30.0000000  0  8G02G12G14G21G24G25G29G31
  23714543.860   124620777.96008  23714537.860    97107060.68544
  22647489.580   119013466.54108  22647488.900    92737804.70546
  22811907.960   119877400.68308  22811906.360    93410937.05144
  23902480.960   125608400.31107  23902478.700    97876654.23744
  24046381.300   126364644.32807  24046382.300    98465972.86544
  20748877.740   109036107.87408  20748875.740    84963231.15347
  20081656.480   105529863.28808  20081654.020    82231039.31648
  22188691.500   116602353.11109  22188687.460    90858983.92146
 15 01 12 00 06  0.0000000  0  8G02G12G14G21G24G25G29G31
  23725747.620   124679654.77307  23725742.160    97152938.72844
  22658994.160   119073923.87908  22658993.600    92784914.26246
  22823315.140   119937344.00008  22823313.020    93457646.12444
  23884444.700   125513619.79507  23884442.160    97802799.41843
  24066549.840   126470629.96907  24066551.160    98548559.03043
  20751125.500   109047920.26108  20751123.760    84972435.62447
  20082171.200   105532568.93509  20082169.060    82233147.62148
  22174381.020   116527150.40609  22174376.340    90800384.40546
 15 01 12 00 06 30.0000000  0  8G02G12G14G21G24G25G29G31
  23737025.620   124738921.64608  23737020.780    97199120.69545
  22670522.500   119134505.21808  22670521.800    92832120.45146
  22834788.680   119997634.71208  22834785.320    93504625.89144
  23866422.580   125418914.67007  23866420.040    97729003.33843
  24086744.780   126576754.78807  24086746.540    98631253.68044
  20753414.400   109059949.22108  20753413.000    84981808.82647
  20082768.180   105535706.47209  20082766.300    82235592.46548
  22160128.480   116452252.64809  22160123.320    90742022.51146
 15 01 12 00 07  0.0000000  0  8G02G12G14G21G24G25G29G31
  23748378.640   124798582.83707  23748374.180    97245609.91745
  22682075.880   119195217.20308  22682074.840    92879428.45447
  22846329.100   120058276.51808  22846324.380    93551879.26744
  23848416.540   125324293.46607  23848413.900    97655272.67944
  24106966.960   126683023.13706  24106968.900    98714060.10045
  20755745.940   109072201.55709  20755744.900    84991356.10047
  20083448.380   105539280.87409  20083446.560    82238377.71548
  22145935.560   116377668.52309  22145930.040    90683904.99745
 15 01 12 00 07 30.0000000  0  8G02G12G14G21G24G25G29G31
  23759805.160   124858630.09608  23759800.660    97292399.95945
  22693652.980   119256053.42108  22693651.500    92926833.27947
  22857934.360   120119259.59208  22857928.980    93599398.56744
  23830425.700   125229751.77807  23830422.860    97581603.91743
  24127214.600   126789425.88207  24127216.760    98796971.22144
  20758118.800   109084671.04909  20758118.040    85001072.58447
  20084210.240   105543284.21009  20084208.340    82241497.20048
  22131801.460   116303393.63109  22131795.860    90626028.45445
 15 01 12 00 08  0.0000000  0  8G02G12G14G21G24G25G29G31
  23771305.340   124919063.74508  23771300.500    97339491.11445
  22705254.200   119317016.26309  22705252.280    92974336.76347
  22869604.280   120180583.44608  22869599.120    93647183.39544
  23812450.940   125135294.38607  23812448.180    97508000.87444
  24147487.900   126895963.63806  24147490.500    98879987.51145
  20760533.580   109097360.28609  20760532.960    85010960.28947
  20085053.840   105547717.19009  20085051.900    82244951.48048
  22117727.180   116229432.87709  22117721.520    90568396.69346
 15 01 12 00 08 30.0000000  0  8G02G12G14G21G24G25G29G31
  23782878.860   124979882.38308  23782873.680    97386882.25245
  22716879.440   119378105.75909  22716877.280    93021938.92347
  22881338.300   120242245.47508  22881334.020    93695231.69745
  23794492.800   125040924.02607  23794489.740    97434465.62243
  24167786.500   127002634.56506  24167789.480    98963107.63845
  20762990.400   109110269.93809  20762989.920    85021019.75547
  20085979.000   105552578.83609  20085977.000    82248739.77448
  22103713.180   116155788.49809  22103707.580    90511011.43446
 15 01 12 00 09  0.0000000  0  8G02G12G14G21G24G25G29G31
  23794525.880   125041087.46508  23794520.620    97434574.51245
  22728529.420   119439325.58409  22728527.140    93069642.65447
  22893136.460   120304245.76308  22893133.040    93743543.57945
  23776552.120   124946646.17807  23776548.640    97361002.43143
  24188110.660   127109439.58307  24188113.560    99046332.20844
  20765489.840   109123403.65109  20765489.360    85031253.82147
  20086986.140   105557870.98809  20086984.180    82252863.54048
  22089760.500   116082466.02609  22089755.240    90453877.04446
 15 01 12 00 09 30.0000000  0  8G02G12G14G21G24G25G29G31
  23806245.220   125102672.72408  23806239.800    97482562.99845
  22740203.240   119500670.85809  22740200.820    93117444.13847
  22904997.560   120366577.25808  22904994.920    93792113.53545
  23758628.640   124852459.07107  23758624.760    97287609.95242
  24208459.280   127216372.28907  24208461.840    99129656.26644
  20768031.000   109136757.43409  20768030.620    85041659.35147
  20088074.300   105563588.10109  20088072.300    82257318.42448
  22075868.700   116009463.67709  22075863.860    90396992.09346
 15 01 12 00 10  0.0000000  0  8G02G12G14G21G24G25G29G31
  23818036.720   125164637.00208  23818031.060    97530846.85345
  22751901.200   119562143.23309  22751898.720    93165344.66147
  22916921.100   120429237.41208  22916919.200    93840939.60545
  23740723.080   124758365.44107  23740719.300    97214290.33044
  24228832.020   127323431.08307  24228834.180    99213078.61344
  20770614.200   109150332.33109  20770613.840    85052237.18047
  20089243.320   105569729.57709  20089241.060    82262103.99148
  22062038.340   115936784.21409  22062033.900    90340358.75947
 15 01 12 00 10 30.0000000  0  8G02G12G14G21G24G25G29G31
  23829900.480   125226980.76108  23829894.580    97579426.38445
  22763623.560   119623744.59009  22763620.960    93213345.69846
  22928907.120   120492226.17008  22928905.940    93890021.73446
  23722836.360   124664370.20807  23722832.660    97141047.37843
  24249228.920   127430616.24907  24249230.500    99296599.42942
  20773240.060   109164131.09509  20773239.520    85062989.45447
  20090493.220   105576296.21109  20090490.560    82267220.86848
  22048270.200   115864432.29708  22048266.120    90283980.66147
 15 01 12 00 11  0.0000000  0  8G02G12G14G21G24G25G29G31
  23841835.940   125289701.45407  23841829.660    97628299.63945
  22775370.320   119685474.44408  22775367.660    93261446.85246
  22940954.840   120555539.36807  22940954.100    93939356.62645
  23704968.820   124570474.62707  23704965.220    97067882.02144
  24269649.280   127537924.97707  24269650.160    99380216.49744
  20775908.460   109178153.41909  20775907.840    85073915.91947
  20091823.460   105583286.03109  20091820.540    82272667.47148
  22034564.600   115792409.54208  22034560.880    90227859.04247
 15 01 12 00 11 30.0000000  0  8G02G12G14G21G24G25G29G31
  23853842.140   125352793.87508  23853835.620    97677462.55245
  22787140.860   119747329.83708  22787138.040    93309645.83345
  22953063.060   120619170.76107  22953062.620    93988939.50545
  23687120.160   124476678.33207  23687116.980    96994794.08743
  24290092.100   127645352.27707  24290092.900    99463925.99841
  20778618.800   109192396.47309  20778618.180    85085014.40147
  20093233.140   105590694.31509  20093230.120    82278440.15948
  22020921.500   115720715.12508  22020918.020    90171993.28547
 15 01 12 00 12  0.0000000  0  8G02G12G14G21G24G25G29G31
  23865919.620   125416260.17108  23865913.000    97726916.79245
  22798935.760   119809314.18108  22798932.760    93357945.29645
  22965231.920   120683121.28707  22965231.980    94038771.03646
  23669291.500   124382987.26307  23669288.380    96921788.11743
  24310557.640   127752899.32707  24310558.800    99547728.96941
  20781371.840   109206864.44708  20781371.300    85096288.14347
  20094722.780   105598523.38508  20094719.820    82284540.72548
  22007342.160   115649355.09609  22007338.780    90116388.08446
 15 01 12 00 12 30.0000000  0  8G02G12G14G21G24G25G29G31
  23878067.220   125480095.06808  23878060.580    97776658.26645
  22810754.600   119871424.60408  22810751.160    93406343.04244
  22977460.500   120747385.17907  22977460.800    94088846.70245
  23651482.760   124289400.92007  23651479.700    96848863.66744
  24331044.880   127860560.91705  24331047.100    99631621.09744
  20784167.120   109221554.73409  20784166.640    85107735.11347
  20096291.560   105606768.82508  20096288.760    82290965.73548
  21993826.440   115578328.66509  21993822.980    90061042.82746
 15 01 12 00 13  0.0000000  0  8G02G12G14G21G24G25G29G31
  23890284.760   125544297.36208  23890278.060    97826685.98945
  22822597.560   119933661.99908  22822594.220    93454839.68744
  22989748.440   120811959.33107  22989748.940    94139164.21746
  23633694.260   124195921.85007  23633691.480    96776022.91143
  24351553.660   127968335.57807  24351555.980    99715601.26643
  20787004.900   109236468.02508  20787004.560    85119355.84948
  20097939.340   105615429.79008  20097936.980    82297714.55248
  21980374.760   115507638.41609  21980371.040    90005959.50446
 15 01 12 00 13 30.0000000  0  8G02G12G14G21G24G25G29G31
  23902572.420   125608868.90508  23902565.920    97877001.50146
  22834465.100   119996029.86407  22834462.140    93503438.00444
  23002095.840   120876844.99607  23002096.020    94189724.41245
  23615927.280   124102556.51007  23615924.380    96703270.65341
  24372084.420   128076224.74308  24372086.400    99799670.66643
  20789885.920   109251608.62008  20789885.920    85131153.69948
  20099666.560   105624508.56308  20099664.620    82304788.91248
  21966988.220   115437290.49109  21966984.160    89951142.95646
 15 01 12 00 14  0.0000000  0  8G02G12G14G21G24G25G29G31
  23914929.440   125673805.85907  23914923.020    97927601.71945
  22846357.320   120058526.54507  22846354.920    93552136.75245
  23014501.720   120942037.18207  23014501.360    94240523.52644
  23598181.980   124009305.52507  23598176.460    96630607.43342
  24392636.320   128184224.75007  24392638.360    99883826.45844
  20792810.080   109266975.18008  20792810.220    85143127.63548
  20101472.720   105634001.94508  20101470.980    82312186.36248
  21953666.920   115367285.30009  21953662.520    89896593.47246
 15 01 12 00 14 30.0000000  0  8G02G12G14G21G24G25G29G31
  23927355.700   125739107.16607  23927349.640    97978485.83645
  22858274.580   120121153.28808  22858273.040    93600936.75444
  23026965.460   121007533.91507  23026964.860    94291559.93444
  23580459.000   123916171.85007  23580453.500    96558035.78543
  24413208.980   128292334.18007  24413210.720    99968067.38044
  20795777.460   109282568.83308  20795777.620    85155278.51348
  20103358.060   105643909.17409  20103356.260    82319906.27948
  21940411.400   115297626.04509  21940406.620    89842313.51546
 15 01 12 00 15  0.0000000  0  8G02G12G14G21G24G25G29G31
  23939851.500   125804773.66607  23939845.780    98029654.53345
  22870217.400   120183912.68407  22870216.280    93649840.13945
  23039486.800   121073334.67407  23039486.300    94342833.23544
  23562759.300   123823160.79107  23562755.200    96485559.66244
  24433802.620   128400553.48507  24433803.940   100052394.02144
  20798788.680   109298392.89809  20798788.860    85167608.94848
  20105322.760   105654231.74009  20105320.780    82327949.84748
  21927222.640   115228317.90209  21927217.420    89788307.17046
 15 01 12 00 15 30.0000000  0  8G02G12G14G21G24G25G29G31
  23952415.900   125870799.87408  23952410.400    98081103.53645
  22882185.140   120246801.58308  22882184.080    93698844.45945
  23052064.680   121139433.18807  23052064.620    94394338.56745
  23545082.740   123730270.95007  23545079.540    96413178.03344
  24454416.000   128508877.18106  24454416.840   100136801.99243
  20801843.200   109314444.34308  20801843.400    85180116.55748
  20107365.700   105664964.64509  20107363.360    82336313.16048
  21914100.400   115159359.62209  21914094.680    89734573.44145
 15 01 12 00 16  0.0000000  0  8G02G12G14G21G24G25G29G31
  23965048.000   125937182.41408  23965042.960    98132830.21245
  22894177.260   120309818.64408  22894176.040    93747948.63645
  23064698.440   121205824.75107  23064698.580    94446072.17744
  23527429.560   123637503.38908  23527427.080    96340891.66344
  24475048.260   128617301.72706  24475049.180   100221288.50942
  20804940.760   109330722.08109  20804940.960    85192800.50947
  20109486.120   105676105.07609  20109483.380    82344994.04248
  21901044.880   115090752.37209  21901038.680    89681113.23645
 15 01 12 00 16 30.0000000  0  8G02G12G14G21G24G25G29G31
  23977747.460   126003919.41007  23977742.980    98184833.10045
  22906193.800   120372963.56508  22906192.200    93797152.44446
  23077387.640   121272506.19308  23077387.140    94498031.75144
  23509800.200   123544860.49807  23509797.820    96268702.41145
  24495699.420   128725824.72807  24495700.820   100305851.81943
  20808081.400   109347226.31909  20808081.640    85205660.95648
  20111683.460   105687651.19108  20111680.400    82353991.02148
  21888056.400   115022497.59909  21888050.020    89627927.69646
 15 01 12 00 17  0.0000000  0  8G02G12G14G21G24G25G29G31
  23990513.640   126071006.96907  23990509.620    98237109.12245
  22918234.260   120436234.20008  22918232.360    93846454.22146
  23090131.520   121339472.91508  23090130.020    94550213.61443
  23492194.740   123452342.51907  23492192.060    96196610.51944
  24516368.740   128834442.39407  24516369.860   100390489.01241
  20811264.900   109363955.80608  20811265.140    85218696.91648
  20113957.140   105699599.90908  20113953.980    82363301.71848
  21875135.060   114954596.02709  21875128.860    89575017.36446
 15 01 12 00 17 30.0000000  0  8G02G12G14G21G24G25G29G31
  24003347.140   126138448.90607  24003343.680    98289661.24345
  22930299.900   120499637.47008  22930297.500    93895859.32946
  23102930.240   121406727.55307  23102927.940    94602619.79444
  23474614.680   123359957.98108  23474611.860    96124622.59644
  24537056.920   128943158.41208  24537057.620   100475202.73043
  20814492.500   109380916.70108  20814492.540    85231913.17947
  20116308.060   105711955.45408  20116304.940    82372929.40948
  21862282.380   114887055.80209  21862276.680    89522388.61146
 15 01 12 00 18  0.0000000  0  8G02G12G14G21G24G25G29G31
  24016247.160   126206240.02808  24016244.240    98342485.49745
  22942389.940   120563169.63208  22942387.220    93945364.90246
  23115782.400   121474263.69208  23115779.500    94655245.38243
  23457059.860   123267705.89107  23457056.820    96052737.85743
  24557762.800   129051967.35107  24557763.460   100559988.83644
  20817763.520   109398106.18209  20817763.480    85245307.57047
  20118735.400   105724713.18008  20118732.540    82382870.49948
  21849498.240   114819875.69408  21849493.160    89470040.50446
 15 01 12 00 18 30.0000000  0  8G02G12G14G21G24G25G29G31
  24029213.820   126274380.61707  24029211.140    98395582.03846
  22954504.920   120626833.40908  22954501.840    93994973.00146
  23128687.920   121542080.85307  23128684.920    94708089.83044
  23439531.140   123175591.31807  23439527.900    95980960.30844
  24578486.400   129160869.28708  24578487.120   100644847.32044
  20821078.680   109415527.24409  20821078.560    85258882.40348
  20121239.640   105737873.71408  20121236.900    82393125.45548
  21836783.480   114753060.63509  21836779.100    89417976.82946
 15 01 12 00 19  0.0000000  0  8G02G12G14G21G24G25G29G31
  24042247.020   126342870.76907  24042244.660    98448951.00145
  22966645.340   120690630.54408  22966641.920    94044685.05646
  23141646.520   121610178.00407  23141643.740    94761152.56844
  23422029.080   123083618.48907  23422025.720    95909293.18044
  24599227.700   129269864.61908  24599228.260   100729778.67744
  20824438.420   109433182.37909  20824438.240    85272639.65748
  20123820.800   105751437.83308  20123817.980    82403694.89448
  21824139.240   114686614.99109  21824135.240    89366201.03446
 15 01 12 00 19 30.0000000  0  8G02G12G14G21G24G25G29G31
  24055345.080   126411701.55707  24055342.940    98502585.38445
  22978809.760   120754554.83908  22978806.440    94094496.16546
  23154656.480   121678544.77808  23154652.860    94814425.34443
  23404552.860   122991782.47706  23404549.400    95837732.69544
  24619984.780   129378943.04307  24619985.020   100814774.77443
  20827841.340   109451064.67109  20827841.340    85286573.90548
  20126477.060   105765396.81608  20126474.160    82414572.01948
  21811564.520   114620533.73209  21811560.720    89314709.17746
 15 01 12 00 20  0.0000000  0  8G02G12G14G21G24G25G29G31
  24068508.680   126480876.86807  24068506.480    98556488.24445
  22990999.500   120818612.03508  22990996.220    94144410.87546
  23167718.200   121747184.50907  23167714.600    94867910.96144
  23387104.060   122900092.02106  23387100.880    95766285.58743
  24640758.500   129488109.45806  24640758.940   100899839.35343
  20831288.800   109469180.98809  20831288.860    85300690.52648
  20129209.240   105779755.66108  20129206.440    82425760.72048
  21799060.760   114554825.51509  21799057.120    89263507.96447
 15 01 12 00 20 30.0000000  0  8G02G12G14G21G24G25G29G31
  24081737.020   126550392.27707  24081734.800    98610656.10245
  23003213.980   120882799.66308  23003210.820    94194427.16845
  23180830.860   121816091.79208  23180827.400    94921604.80944
  23369683.200   122808546.81807  23369680.460    95694951.73644
  24661548.020   129597359.05207  24661548.600   100984968.73944
  20834780.400   109487529.07609  20834780.500    85314987.71848
  20132016.600   105794509.96708  20132014.080    82437257.59548
  21786627.940   114489489.87409  21786623.960    89212597.07446
 15 01 12 00 21  0.0000000  0  8G02G12G14G21G24G25G29G31
  24095029.380   126620244.46807  24095027.280    98665086.39144
  23015453.200   120947116.70908  23015450.120    94244544.32845
  23193993.500   121885261.90307  23193990.240    94975503.61343
  23352290.520   122717147.93307  23352287.800    95623731.88743
  24682352.740   129706687.92608  24682353.020   101070159.90643
  20838315.960   109506108.14909  20838316.080    85329464.92048
  20134898.640   105809656.75808  20134896.560    82449060.30648
  21774266.220   114424527.87509  21774261.700    89161977.33646
 15 01 12 00 21 30.0000000  0  8G02G12G14G21G24G25G29G31
  24108386.240   126690435.70607  24108384.100    98719780.84345
  23027717.920   121011567.26508  23027714.840    94294765.49446
  23207206.300   121954696.13208  23207203.320    95029608.13444
  23334927.040   122625902.10107  23334924.220    95552631.28144
  24703173.180   129816098.65308  24703173.360   101155414.88943
  20841896.300   109524922.82909  20841896.460    85344125.68547
  20137855.940   105825198.85108  20137854.460    82461171.01048
  21761976.780   114359945.80109  21761971.600    89111653.64046
 15 01 12 00 22  0.0000000  0  8G02G12G14G21G24G25G29G31
  24121806.560   126760959.38307  24121804.220    98774734.34245
  23040007.200   121076146.98508  23040004.120    94345087.29845
  23220467.920   122024386.62107  23220465.160    95083912.39445
  23317592.420   122534807.10208  23317589.240    95481648.20044
  24724007.900   129925584.49508  24724007.660   101240728.39743
  20845520.700   109543969.08709  20845520.960    85358966.91547
  20140887.460   105841130.18008  20140886.520    82473585.03248
  21749759.140   114295741.18909  21749753.240    89061624.03546
 15 01 12 00 22 30.0000000  0  8G02G12G14G21G24G25G29G31
  24135290.040   126831814.28007  24135287.380    98829945.94945
  23052321.380   121140856.84508  23052318.180    94395510.58045
  23233777.980   122094331.36107  23233775.360    95138414.73844
  23300287.200   122443866.24608  23300283.760    95410785.20743
  24744856.700   130035144.25908  24744855.820   101326099.50941
  20849189.540   109563248.38309  20849189.720    85373989.72447
  20143992.980   105857449.99708  20143992.380    82486301.75048
  21737614.020   114231917.82609  21737607.660    89011891.54746
 15 01 12 00 23  0.0000000  0  8G02G12G14G21G24G25G29G31
  24148837.080   126903002.94207  24148834.020    98885417.64645
  23064660.980   121205701.68408  23064657.880    94446038.98944
  23247136.800   122164531.94507  23247134.160    95193116.46544
  23283012.560   122353086.29908  23283009.280    95340047.60544
  24765720.040   130144780.50108  24765719.140   101411530.38343
  20852903.740   109582765.77609  20852903.760    85389198.07547
  20147173.100   105874161.61908  20147172.720    82499323.78548
  21725542.540   114168481.86809  21725535.680    88962460.93646
 15 01 12 00 23 30.0000000  0  8G02G12G14G21G24G25G29G31
  24162446.080   126974517.93707  24162442.620    98941143.57145
  23077025.380   121270676.46408  23077021.800    94496668.67544
  23260542.640   122234979.97007  23260540.060    95248010.97744
  23265768.040   122262464.71208  23265764.820    95269433.38245
  24786596.440   130254485.73008  24786596.180   101497014.89143
  20856662.300   109602516.34409  20856662.220    85404588.11147
  20150426.340   105891257.90008  20150426.100    82512645.54248
  21713544.120   114105430.39709  21713536.860    88913329.92645
 15 01 12 00 24  0.0000000  0  7G02G12G14G21G25G29G31
  24176117.180   127046360.13107  24176113.480    98997124.47545
  23089414.820   121335783.99108  23089409.840    94547401.83143
  23273995.380   122305675.01908  23273992.980    95303097.98744
  23248554.520   122172006.16408  23248551.620    95198946.24045
  20860465.780   109622503.18309  20860465.600    85420162.25547
  20153752.880   105908739.91608  20153752.700    82526267.90448
  21701619.660   114042768.19509  21701612.500    88864502.20446
 15 01 12 00 24 30.0000000  0  7G02G12G14G21G25G29G31
  24189849.980   127118526.77607  24189846.020    99053358.20045
  23101829.520   121401023.68508  23101824.040    94598237.96743
  23287494.220   122376613.10307  23287492.220    95358374.40844
  23231372.440   122081712.70408  23231369.740    95128587.72045
  20864314.120   109642726.26209  20864313.920    85435920.48847
  20157152.420   105926605.76708  20157152.320    82540189.33948
  21689769.620   113980497.07909  21689762.760    88815979.26046
 15 01 12 00 25  0.0000000  0  7G02G12G14G21G25G29G31
  24203644.960   127191020.28507  24203640.860    99109846.63044
  23114270.280   121466399.70008  23114264.240    94649180.31244
  23301039.080   122447795.59806  23301038.080    95413841.23244
  23214222.880   121991590.65408  23214220.480    95058362.78345
  20868208.280   109663190.22909  20868208.060    85451866.43047
  20160625.580   105944857.80908  20160625.440    82554411.69848
  21677995.300   113918623.43709  21677989.000    88767766.02846
 15 01 12 00 25 30.0000000  0  7G02G12G14G21G25G29G31
  24217500.960   127263834.38507  24217496.680    99166584.88245
  23126736.060   121531907.98408  23126730.300    94700225.73744
  23314629.560   122519215.65807  23314629.260    95469493.14744
  23197105.480   121901638.12508  23197103.480    94988269.93245
  20872147.560   109683891.70609  20872147.240    85467997.43547
  20164171.520   105963490.85108  20164171.140    82568930.93848
  21666296.520   113857145.64709  21666290.980    88719861.26747
 15 01 12 00 26  0.0000000  0  7G02G12G14G21G25G29G31
  24231416.980   127336963.66307  24231412.800    99223568.70044
  23139226.460   121597546.41208  23139221.860    94751372.52744
  23328264.600   122590867.00507  23328264.300    95525325.29045
  23180020.360   121811855.23208  23180018.460    94918309.27944
  20876131.460   109704828.09809  20876130.860    85484311.48847
  20167789.340   105982500.20608  20167788.480    82583743.42048
  21654673.060   113796062.80209  21654668.280    88672264.24947
 15 01 12 00 26 30.0000000  0  7G02G12G14G21G25G29G31
  24245393.660   127410412.31407  24245389.900    99280801.42144
  23151742.440   121663320.61407  23151739.360    94802625.11345
  23341944.360   122662752.27508  23341943.740    95581339.78245
  23162968.940   121722250.12708  23162967.340    94848487.15044
  20880161.360   109726005.70209  20880160.380    85500813.52747
  20171479.680   106001889.92609  20171478.200    82598852.28048
  21643126.380   113735383.03009  21643122.200    88624981.31647
 15 01 12 00 27  0.0000000  0  7G02G12G14G21G25G29G31
  24259430.020   127484174.53807  24259426.760    99338278.45244
  23164283.600   121729226.96508  23164281.340    94853980.70245
  23355667.440   122734864.98808  23355666.500    95637531.47545
  23145951.080   121632821.23208  23145949.500    94778802.36244
  20884236.600   109747421.48209  20884235.400    85517501.14046
  20175241.360   106021654.67608  20175239.340    82614253.36848
  21631656.060   113675104.84909  21631652.240    88578011.30748
 15 01 12 00 27 30.0000000  0  7G02G12G14G21G25G29G31
  24273526.060   127558250.68206  24273523.860    99396000.11044
  23176850.540   121795267.73908  23176849.440    94905441.02345
  23369433.500   122807204.08508  23369432.240    95693899.54844
  23128967.580   121543573.47408  23128965.960    94709258.67643
  20888357.760   109769078.36909  20888356.380    85534376.62646
  20179074.460   106041795.57409  20179072.060    82629947.57948
  21620262.940   113615232.96409  21620259.200    88531357.91247
 15 01 12 00 28  0.0000000  0  7G02G12G14G21G25G29G31
  24287680.900   127632635.61406  24287679.080    99453962.30344
  23189442.520   121861440.57208  23189442.060    94957004.17044
  23383241.500   122879763.93108  23383240.160    95750439.62845
  23112018.280   121454505.68408  23112016.280    94639855.21144
  20892524.280   109790973.71309  20892522.760    85551437.91346
  20182978.080   106062307.69909  20182975.460    82645931.03648
  21608946.800   113555766.12809  21608943.120    88485020.11247
 15 01 12 00 28 30.0000000  0  7G02G12G14G21G25G29G31
  24301894.520   127707329.57706  24301892.760    99512165.38144
  23202060.260   121927747.36408  23202059.700    95008671.84145
  23397091.140   122952543.13508  23397089.980    95807150.67745
  23095104.440   121365623.07608  23095101.880    94570596.04444
  20896736.660   109813110.28509  20896735.240    85568687.20447
  20186952.400   106083191.91109  20186949.660    82662204.45748
  21597708.540   113496708.97809  21597704.900    88439001.56447
 15 01 12 00 29  0.0000000  0  7G02G12G14G21G25G29G31
  24316165.820   127782325.72307  24316163.940    99570603.92244
  23214702.760   121994184.16608  23214702.400    95060440.74145
  23410981.100   123025534.16108  23410980.060    95864026.77346
  23078225.460   121276923.41608  23078222.660    94501479.45944
  20900994.080   109835483.89309  20900992.960    85586121.15947
  20190996.160   106104441.89309  20190993.460    82678762.86348
  21586547.700   113438058.92509  21586544.160    88393300.22248
 15 01 12 00 29 30.0000000  0  7G02G12G14G21G25G29G31
  24330495.260   127857626.51907  24330492.820    99629279.86443
  23227371.080   122060754.77908  23227370.160    95112313.93344
  23424911.680   123098738.49208  23424910.400    95921069.09345
  23061382.640   121188413.26108  23061379.900    94432510.55444
  20905297.540   109858099.67309  20905296.860    85603743.83547
  20195110.160   106126060.77809  20195107.480    82695608.73948
  21575465.580   113379822.68509  21575462.300    88347921.33648
 15 01 12 00 30  0.0000000  0  7G02G12G14G21G25G29G31
  24344882.340   127933230.59007  24344879.480    99688192.13244
  23240065.180   122127461.46607  23240063.480    95164293.09444
  23438882.440   123172154.32008  23438880.740    95978276.19645
  23044576.520   121100095.88108  23044573.900    94363691.84144
  20909647.420   109880959.00909  20909647.040    85621556.29147
  20199294.220   106148047.55209  20199291.360    82712741.28248
  21564462.860   113322003.66609  21564459.760    88302867.55947
 15 01 12 00 30 30.0000000  0  7G02G12G14G21G25G29G31
  24359326.540   128009135.92007  24359323.680    99747339.16144
  23252785.020   122194303.55508  23252782.280    95216377.85544
  23452892.660   123245777.96107  23452890.820    96035645.24445
  23027807.460   121011973.52208  23027805.040    94295025.10844
  20914043.720   109904062.13709  20914043.540    85639558.71847
  20203547.820   106170400.22609  20203544.760    82730158.94748
  21553539.820   113264603.47109  21553536.880    88258140.16047
 15 01 12 00 31  0.0000000  0  7G02G12G14G21G25G29G31
  24373827.400   128085339.67006  24373824.820    99806718.64145
  23265530.140   122261280.12207  23265527.000    95268567.34344
  23466941.480   123319605.44408  23466939.680    96093173.05144
  23011075.700   120924047.88408  23011073.300    94226511.60644
  20918486.540   109927408.96409  20918486.420    85657751.04447
  20207870.740   106193116.99609  20207867.360    82747860.34048
  21542696.720   113207623.54709  21542693.880    88213740.23247
 15 01 12 00 31 30.0000000  0  7G02G12G14G21G25G29G31
  24388385.320   128161842.93906  24388383.160    99866331.51644
  23278301.560   122328394.71307  23278298.360    95320864.41344
  23481028.960   123393637.03106  23481027.320    96150859.99645
  22994382.460   120836324.58108  22994380.280    94158155.84545
  20922976.540   109951003.28309  20922976.340    85676136.20547
  20212263.260   106216199.46609  20212259.680    82765846.68048
  21531934.640   113151069.45209  21531931.760    88169672.12047
 15 01 12 00 32  0.0000000  0  7G02G12G14G21G25G29G31
  24402998.840   128238636.99507  24402996.640    99926171.00644
  23291097.720   122395641.06907  23291094.820    95373264.05344
  23495153.040   123467863.08806  23495152.060    96208698.40644
  22977726.860   120748799.38308  22977724.720    94089954.40644
  20927512.480   109974838.93809  20927512.080    85694709.45847
  20216723.680   106239638.66109  20216719.920    82784111.00648
  21521252.860   113094936.79709  21521249.700    88125932.38147
 15 01 12 00 32 30.0000000  0  7G02G12G14G21G25G29G31
  24417668.020   128315723.01107  24417665.480    99986238.00444
  23303919.720   122463021.97407  23303916.220    95425768.70644
  23509314.020   123542284.04906  23509313.200    96266688.70444
  22961109.860   120661477.68008  22961107.760    94021911.53144
  20932095.060   109998919.70509  20932094.500    85713473.68347
  20221252.300   106263437.07909  20221248.600    82802655.22548
  21510652.360   113039230.57809  21510648.560    88082524.96247
 15 01 12 00 33  0.0000000  0  7G02G12G14G21G25G29G31
  24432391.940   128393096.60307  24432388.880   100046529.08444
  23316766.900   122530536.20307  23316763.540    95478377.16144
  23523511.400   123616894.44605  23523510.720    96324826.63043
  22944531.700   120574359.95708  22944529.360    93954027.66444
  20936723.980   110023243.91609  20936723.240    85732427.58747
  20225848.400   106287590.74609  20225844.980    82821476.25648
  21500133.240   112983951.08909  21500128.340    88039450.01746
 15 01 12 00 33 30.0000000  0  7G02G12G14G21G25G29G31
  24447169.360   128470751.57007  24447165.820   100107039.44244
  23329638.800   122598179.12208  23329635.540    95531085.88844
  23537744.100   123691686.94006  23537742.820    96383106.47644
  22927991.960   120487444.26108  22927989.240    93886301.15443
  20941398.600   110047807.97009  20941397.560    85751568.40247
  20230510.920   106312093.64709  20230507.800    82840569.41148
  21489695.000   112929096.01009  21489688.740    87996705.78746
 15 01 12 00 34  0.0000000  0  7G02G12G14G21G25G29G31
  24462000.640   128548689.59006  24461996.400   100167770.31345
  23342536.320   122665955.29807  23342532.240    95583898.50843
  23552011.980   123766662.18408  23552010.040    96441528.74644
  22911492.040   120400736.84808  22911488.660    93818736.93744
  20946119.560   110072616.18309  20946118.280    85770899.49447
  20235240.380   106336947.82909  20235237.440    82859936.31248
  21479338.720   112874671.35209  21479331.360    87954296.94546
 15 01 12 00 34 30.0000000  0  7G02G12G14G21G25G29G31
  24476886.140   128626912.68506  24476881.080   100228723.32744
  23355459.820   122733868.60708  23355454.900    95636817.95142
  23566315.000   123841821.34108  23566312.820    96500094.28444
  22895032.920   120314243.87007  22895028.940    93751339.83743
  20950887.680   110097673.08809  20950886.140    85790424.34147
  20240037.220   106362155.81109  20240034.380    82879578.90548
  21469065.520   112820683.25409  21469057.260    87912228.30746
 15 01 12 00 35  0.0000000  0  7G02G12G14G21G25G29G31
  24491825.180   128705415.99907  24491819.380   100289894.72744
  23368409.280   122801916.65808  23368402.960    95689842.43943
  23580651.860   123917158.65706  23580649.420    96558798.67145
  22878614.880   120227965.26808  22878609.920    93684109.75844
  20955702.700   110122976.80409  20955700.940    85810141.48947
  20244900.740   106387713.79909  20244898.100    82899494.21948
  21458875.200   112767131.28209  21458866.820    87870499.45947
 15 01 12 00 35 30.0000000  0  7G02G12G14G21G25G29G31
  24506817.160   128784196.95307  24506810.560   100351282.45044
  23381384.140   122870099.09008  23381377.880    95742971.58244
  23595021.860   123992670.61506  23595019.300    96617639.16945
  22862237.920   120141902.86208  22862232.740    93617048.15544
  20960564.760   110148527.32809  20960562.720    85830050.96947
  20249830.240   106413618.95709  20249827.860    82919680.05248
  21448768.060   112714017.20909  21448760.000    87829111.85547
 15 01 12 00 36  0.0000000  0  7G02G12G14G21G25G29G31
  24521862.160   128863257.18507  24521854.940   100412887.78344
  23394385.360   122938419.62508  23394378.880    95796208.35044
  23609425.000   124068357.61706  23609422.260    96676615.97745
  22845903.140   120056062.39808  22845897.940    93550159.51744
  20965474.560   110174328.74009  20965472.220    85850155.98746
  20254826.240   106439873.94109  20254824.160    82940138.48848
  21438745.200   112661346.74209  21438737.660    87788069.92947
 15 01 12 00 36 30.0000000  0  7G02G12G14G21G25G29G31
  24536959.640   128942594.77806  24536952.440   100474709.21243
  23407413.000   123006878.95108  23407406.460    95849553.31244
  23623860.840   124144217.17307  23623858.340    96735727.25046
  22829611.100   119970447.03708  22829606.400    93483446.28745
  20970432.240   110200381.89709  20970429.780    85870457.17347
  20259888.500   106466477.05909  20259886.600    82960868.19648
  21428807.040   112609121.90009  21428800.160    87747375.26147
 15 01 12 00 37  0.0000000  0  7G02G12G14G21G25G29G31
  24552108.880   129022205.08906  24552102.140   100536743.19644
  23420466.240   123075474.10608  23420460.220    95903003.98844
  23638328.220   124220243.07906  23638325.920    96794968.19446
  22813361.720   119885056.05308  22813357.740    93416907.87944
  20975437.420   110226684.62109  20975434.820    85890952.75547
  20265016.260   106493423.89309  20265014.260    82981865.72148
  21418953.440   112557342.14909  21418947.280    87707027.37747
 15 01 12 00 37 30.0000000  0  7G02G12G14G21G25G29G31
  24567309.760   129102087.90306  24567303.940   100598989.48944
  23433545.740   123144207.42608  23433540.420    95956562.41644
  23652827.000   124296434.51707  23652824.880    96854338.04146
  22797155.720   119799893.67908  22797152.360    93350547.62045
  20980490.520   110253239.49009  20980488.220    85911644.88747
  20270209.560   106520715.28109  20270207.400    83003131.74248
  21409185.220   112506011.36709  21409179.680    87667029.36747
 15 01 12 00 38  0.0000000  0  7G02G12G14G21G25G29G31
  24582561.680   129182236.89707  24582556.400   100661443.18845
  23446650.560   123213074.85008  23446645.780    96010225.28644
  23667355.900   124372784.34906  23667353.940    96913831.42945
  22780993.060   119714958.58208  22780990.140    93284364.48345
  20985591.080   110280043.01909  20985588.980    85932530.72747
  20275467.260   106548345.14909  20275464.880    83024661.51348
  21399502.020   112455127.73909  21399497.300    87627379.78047
 15 01 12 00 38 30.0000000  0  7G02G12G14G21G25G29G31
  24597864.560   129262653.01307  24597859.760   100724105.04344
  23459781.540   123282079.24408  23459777.300    96063994.92745
  23681914.900   124449292.66006  23681912.980    96973448.17444
  22764874.620   119630255.80008  22764871.860    93218362.31745
  20990739.680   110307098.74009  20990737.820    85953613.11147
  20280789.660   106576314.74409  20280787.180    83046456.00048
  21389904.880   112404696.45109  21389900.900    87588082.68148
 15 01 12 00 39  0.0000000  0  7G02G12G14G21G25G29G31
  24613217.240   129343331.82307  24613212.880   100786971.61745
  23472938.220   123351219.57708  23472934.840    96117870.45644
  23696503.040   124525954.13706  23696501.200    97033184.39645
  22748800.440   119545785.51908  22748797.780    93152541.35445
  20995935.960   110334405.00809  20995934.500    85974890.69647
  20286176.100   106604620.35709  20286173.600    83068512.31848
  21380393.820   112354717.25709  21380390.360    87549137.86248
 15 01 12 00 39 30.0000000  0  7G02G12G14G21G25G29G31
  24628620.400   129424276.52407  24628616.580   100850045.39045
  23486121.800   123420500.86608  23486118.800    96171855.82344
  23711120.460   124602770.73507  23711118.820    97093041.34143
  22732771.860   119461555.52708  22732769.380    93086907.62645
  21001181.100   110361967.71409  21001180.080    85996368.12147
  20291627.300   106633266.07809  20291625.000    83090833.65748
  21370970.260   112305197.28909  21370967.080    87510550.88947
 15 01 12 00 40  0.0000000  0  7G02G12G14G21G25G29G31
  24644072.300   129505477.60007  24644068.760   100913318.89844
  23499331.020   123489915.16108  23499328.060    96225944.86544
  23725762.160                    23725763.640                  
  22716787.880   119377560.18608  22716785.440    93021456.72145
  21006473.700   110389779.67909  21006472.960    86018039.77648
  20297141.340   106662242.21809  20297139.220    83113412.46748
  21361633.140   112256130.98609  21361630.020    87472317.41648
 15 01 12 00 40 30.0000000  0  7G02G12G14G21G25G29G31
  24659573.420   129586937.41607  24659570.360   100976794.06945
  23512566.560   123559467.56308  23512563.320    96280141.48544
  23740439.100   124756830.36107  23740435.880    97213102.92343
  22700849.900   119293806.54508  22700847.260    92956194.17544
  21011814.620   110417845.89109  21011814.160    86039909.52448
  20302718.580   106691551.22909  20302716.700    83136250.64848
  21352383.660   112207524.86409  21352380.540    87434442.52247
 15 01 12 00 41  0.0000000  0  6G02G12G21G25G29G31
  24675124.580   129668660.23506  24675122.240   101040474.14145
  23525829.980   123629164.64308  23525826.360    96334450.88645
  22684959.620   119210303.38708  22684956.640    92891126.80845
  21017205.220   110446173.60309  21017204.980    86061983.05548
  20308360.200   106721198.63709  20308358.480    83159352.53048
  21343223.500   112159387.40709  21343220.300    87396932.82648
 15 01 12 00 41 30.0000000  0  7G02G12G14G21G25G29G31
  24690721.660   129750623.92206  24690719.920   101104341.92645
  23539117.160   123698986.55508  23539113.180    96388857.55845
  23769862.840   124911469.73206  23769863.200    97333611.84943
  22669113.840   119127033.25408  22669110.360    92826241.01644
  21022641.780   110474743.46309  21022641.760    86084245.26448
  20314062.120   106751162.76709  20314060.440    83182701.19948
  21334149.220   112111700.91309  21334145.840    87359774.51148
 15 01 12 00 42  0.0000000  0  7G02G12G14G21G25G29G31
  24706363.820   129832824.34306  24706362.480   101168394.14944
  23552427.460   123768930.95408  23552423.400    96443359.61745
  23784614.700   124988990.62306  23784614.140    97394017.08545
  22653312.480   119043995.97108  22653309.000    92761536.64445
  21028123.880   110503553.58809  21028124.080    86106694.70048
  20319823.660   106781439.58108  20319821.920    83206293.51548
  21325160.680   112064464.85309  21325157.040    87322967.20147
 15 01 12 00 42 30.0000000  0  7G02G12G14G21G25G29G31
  24722056.180   129915288.05206  24722055.240   101232651.55444
  23565766.660   123839027.26209  23565762.520    96497980.08945
  23799391.560   125066642.65305  23799389.380    97454525.14844
  22637561.440   118961222.89908  22637557.720    92697038.18544
  21033657.300   110532633.61709  21033657.800    86129354.44048
  20325650.000   106812056.77309  20325648.160    83230151.06548
  21316263.660   112017710.03509  21316259.780    87286534.86347
 15 01 12 00 43  0.0000000  0  7G02G12G14G21G25G29G31
  24737795.960   129998001.56907  24737795.000   101297103.58444
  23579132.500   123909264.37708  23579128.540    96552710.27944
  23814192.280   125144440.65704  23814193.100    97515129.79842
  22621858.940   118878705.15008  22621854.600    92632738.66744
  21039240.140   110561972.83209  21039240.860    86152216.15448
  20331538.600   106843001.01809  20331536.680    83254263.46848
  21307456.400   111971427.31109  21307452.460    87250470.40747
 15 01 12 00 43 30.0000000  0  7G02G12G14G21G25G29G31
  24753581.460   130080954.65507  24753580.460   101361742.31845
  23592523.320   123979633.14609  23592519.460    96607543.04545
  23829018.860   125222352.91905  23829015.400    97575840.83344
  22606203.760   118796436.05108  22606198.720    92568632.87644
  21044870.880   110591563.22409  21044871.700    86175273.56848
  20337487.580   106874262.42809  20337485.620    83278622.99848
  21298737.580   111925610.01509  21298734.120    87214768.63448
 15 01 12 00 44  0.0000000  0  7G02G12G14G21G25G29G31
  24769412.340   130164145.00207  24769410.900   101426565.91745
  23605939.480   124050134.99109  23605935.480    96662479.52345
  23843866.060   125300377.18706  23843863.000    97636639.05243
  22590596.260   118714418.37908  22590590.540    92504722.97344
  21050549.620   110621405.43109  21050550.460    86198527.19848
  20343496.560   106905839.12909  20343494.580    83303228.20548
  21290107.640   111880260.05809  21290104.700    87179430.99748
 15 01 12 00 44 30.0000000  0  7G02G12G14G21G25G29G31
  24785290.520   130247583.29307  24785288.360   101491582.74145
  23619383.320   124120782.55008  23619379.460    96717529.53245
  23858737.800   125378529.70707  23858734.700    97697537.03644
  22575039.340   118632667.00408  22575033.500    92441020.59844
  21056278.940   110651512.78509  21056279.660    86221987.45048
  20349567.640   106937742.34709  20349565.560    83328087.86048
  21281569.500   111835392.26509  21281566.780    87144469.07947
 15 01 12 00 45  0.0000000  0  7G02G12G14G21G25G29G31
  24801213.100   130331254.05707  24801209.880   101556780.68245
  23632852.100   124191562.04408  23632848.760    96772682.35545
  23873630.960   125456793.72507  23873628.340    97758521.93044
  22559530.920   118551170.72308  22559525.680    92377517.03445
  21062056.340   110681872.37309  21062056.820    86245644.24748
  20355697.900   106969956.69709  20355695.660    83353189.95348
  21273121.000   111790995.02509  21273118.180    87109873.82647
 15 01 12 00 45 30.0000000  0  6G12G14G21G25G29G31
  23646345.380   124262470.29308  23646342.440    96827935.51945
  23888544.280   125535163.00706  23888541.880    97819588.79445
  22544070.820   118469928.38208  22544066.460    92314211.34844
  21067881.260   110712481.22509  21067881.420    86269495.28548
  20361886.460   107002477.69409  20361884.160    83378530.99448
  21264761.780   111747066.64109  21264758.580    87075643.90047
 15 01 12 00 46  0.0000000  0  6G12G14G21G25G29G31
  23659868.460   124333535.90808  23659865.640    96883311.26244
  23903482.300   125613662.89807  23903480.180    97880757.46844
  22528665.040   118388970.88708  22528660.640    92251127.59044
  21073759.180   110743368.45809  21073759.040    86293563.24448
  20368138.460   107035332.01908  20368136.200    83404131.77248
  21256497.600   111703637.85809  21256493.820    87041803.28947
 15 01 12 00 46 30.0000000  0  6G12G14G21G25G29G31
  23673417.700   124404739.86308  23673415.040    96938794.88144
  23918440.940   125692270.94506  23918438.820    97942010.35744
  22513310.380   118308281.19508  22513306.060    92188252.51344
  21079686.480   110774515.41109  21079685.980    86317833.58648
  20374449.800   107068498.45008  20374447.680    83429975.71848
  21248324.960   111660690.67109  21248320.620    87008337.93446
 15 01 12 00 47  0.0000000  0  6G12G14G21G25G29G31
  23686992.340   124476076.66708  23686990.120    96994381.96845
  23933418.600   125770978.79807  23933416.300    98003341.08244
  22498006.180   118227855.89108  22498002.020    92125583.45344
  21085662.240   110805917.03809  21085661.260    86342302.37547
  20380819.160   107101970.08508  20380817.160    83456057.51648
  21240243.280   111618221.87309  21240238.680    86975245.34447
 15 01 12 00 47 30.0000000  0  6G12G14G21G25G29G31
  23700592.940   124547550.48908  23700590.880    97050075.81044
  23948415.680   125849787.68007  23948412.780    98064750.53943
  22482753.500   118147701.23408  22482749.360    92063125.30445
  21091687.300   110837577.92009  21091685.720    86366973.18647
  20387246.980   107135749.32708  20387245.100    83482378.99548
  21232253.680   111576237.18008  21232249.160    86942529.98647
 15 01 12 00 48  0.0000000  0  6G12G14G21G25G29G31
  23714219.080   124619158.89108  23714216.900    97105874.53944
  23963431.060   125928692.13707  23963427.160    98126234.41143
  22467552.180   118067817.36408  22467548.260    92000878.12245
  21097761.340   110869496.47509  21097759.140    86391844.77947
  20393732.560   107169832.48908  20393730.640    83508937.31748
  21224356.140   111534736.06009  21224351.760    86910191.44147
 15 01 12 00 48 30.0000000  0  5G12G21G25G29G31
  23727872.000   124690905.83808  23727869.560    97161781.27144
  22452403.220   117988209.55708  22452399.580    91938846.07744
  21103884.980   110901676.24209  21103882.560    86416919.92347
  20400276.160   107204220.72408  20400274.160    83535733.35247
  21216551.640   111493723.55608  21216547.420    86878233.63547
 15 01 12 00 49  0.0000000  0  6G12G14G21G25G29G31
  23741542.760   124762746.02008  23741540.060    97217760.59344
  23993506.640   126086722.98007  23993499.020    98249367.45143
  22437298.520   117908834.75608  22437295.360    91876995.68744
  21110049.720   110934072.68709  21110047.300    86442163.89047
  20406868.880   107238867.24608  20406866.800    83562730.66947
  21208831.960   111453156.46908  21208827.760    86846622.91447
 15 01 12 00 49 30.0000000  0  6G12G14G21G25G29G31
  23755249.700   124834775.90508  23755246.740    97273887.74844
  24008575.600   126165911.92407  24008568.000    98311073.03842
  22422257.080   117829792.11408  22422254.100    91815404.05545
  21116274.060   110966782.86209  21116271.760    86467652.33347
  20413528.820   107273867.03008  20413526.780    83590003.23448
  21201215.620   111413132.87608  21201211.520    86815435.69747
 15 01 12 00 50  0.0000000  0  6G12G14G21G25G29G31
  23768982.660   124906941.68908  23768979.460    97330120.82244
  24023660.580   126245180.71606  24023655.060    98372872.95742
  22407268.980   117751029.39608  22407266.020    91754030.50045
  21122547.920   110999753.12809  21122545.780    86493343.43747
  20420245.340   107309164.11608  20420243.500    83617507.43848
  21193692.660   111373600.64008  21193688.720    86784631.34647
 15 01 12 00 50 30.0000000  0  6G12G14G21G25G29G31
  23782740.480   124979237.49508  23782737.440    97386455.24745
  24038760.520   126324528.68506  24038755.720    98434702.32443
  22392333.280   117672542.93207  22392330.140    91692872.24345
  21128870.380   111032978.12209  21128868.260    86519233.03647
  20427017.160   107344751.22908  20427015.500    83645237.63448
  21186262.260   111334555.07508  21186258.840    86754206.21847
 15 01 12 00 51  0.0000000  0  6G12G14G21G25G29G31
  23796525.280   125051675.58208  23796522.600    97442900.45645
  24053876.120   126403960.66407  24053871.420    98496597.20744
  22377452.860   117594346.99208  22377449.720    91631940.37744
  21135243.740   111066470.63609  21135241.560    86545331.08447
  20433846.380   107380638.87008  20433844.740    83673202.04448
  21178927.080   111296010.25608  21178924.460    86724171.28547
 15 01 12 00 51 30.0000000  0  6G12G14G21G25G29G31
  23810335.980   125124249.58108  23810333.680    97499451.56745
  24069005.920   126483467.44607  24069001.540    98558550.39843
  22362627.140   117516437.56008  22362623.340    91571231.71244
  21141666.920   111100224.72409  21141664.580    86571632.94347
  20440731.400   107416819.07408  20440729.580    83701394.39948
  21171686.380   111257961.75808  21171684.540    86694523.10648
 15 01 12 00 52  0.0000000  0  6G12G14G21G25G29G31
  23824173.140   125196962.90808  23824171.240    97556111.33145
  24084150.000   126563049.57107  24084145.380    98620562.49343
  22347857.180   117438820.12408  22347852.740    91510750.61044
  21148140.600   111134244.31809  21148138.220    86598141.70947
  20447672.360   107453293.27508  20447670.400    83729815.86148
  21164541.200   111220414.50308  21164539.900    86665265.51548
 15 01 12 00 52 30.0000000  0  6G12G14G21G25G29G31
  23838037.280   125269819.04008  23838035.840    97612882.31444
