     2.11           OBSERVATION DATA    G                   RINEX VERSION / TYPE
SPIDER V4,0,0,3554                      2015 04 16 03:53    PGM / RUN BY / DATE 
CABS                                                        MARKER NAME         
CABS                                                        MARKER NUMBER       
                                                            OBSERVER / AGENCY   
462287              LEICA GRX1200PRO    8.10/2.127          REC # / TYPE / VERS 
103298              LEIAT504                                ANT # / TYPE        
  5116912.3402   671231.6412  3737143.4301                  APPROX POSITION XYZ 
        0.0600        0.0000        0.0000                  ANTENNA: DELTA H/E/N
     1     1                                                WAVELENGTH FACT L1/2
     4    C1    L1    P2    L2                              # / TYPES OF OBSERV 
    30.000                                                  INTERVAL            
  2015    02    09    00    00    0.0000000     GPS         TIME OF FIRST OBS   
  2015    02    09    23    59   30.0000000     GPS         TIME OF LAST OBS    
    16                                                      LEAP SECONDS        
    30                                                      # OF SATELLITES     
   G 1   798   798   798   798                              PRN / # OF OBS      
   G 2   926   926   926   926                              PRN / # OF OBS      
   G 3   847   847   847   847                              PRN / # OF OBS      
   G 4   832   832   832   832                              PRN / # OF OBS      
   G 5   640   640   640   640                              PRN / # OF OBS      
   G 6   788   788   788   788                              PRN / # OF OBS      
   G 7   669   669   669   669                              PRN / # OF OBS      
   G 9   807   807   807   807                              PRN / # OF OBS      
   G10   751   751   751   751                              PRN / # OF OBS      
   G11   765   765   765   765                              PRN / # OF OBS      
   G12   815   815   815   815                              PRN / # OF OBS      
   G13   788   788   788   788                              PRN / # OF OBS      
   G14   942   942   942   942                              PRN / # OF OBS      
   G15   689   689   689   689                              PRN / # OF OBS      
   G16   665   665   665   665                              PRN / # OF OBS      
   G17   942   942   942   942                              PRN / # OF OBS      
   G18   896   896   896   896                              PRN / # OF OBS      
   G19   750   750   750   750                              PRN / # OF OBS      
   G20   792   792   792   792                              PRN / # OF OBS      
   G21   715   715   714   714                              PRN / # OF OBS      
   G22   657   657   657   657                              PRN / # OF OBS      
   G23   755   755   755   755                              PRN / # OF OBS      
   G24   816   816   816   816                              PRN / # OF OBS      
   G25   855   855   855   855                              PRN / # OF OBS      
   G27   792   792   792   792                              PRN / # OF OBS      
   G28   843   843   843   843                              PRN / # OF OBS      
   G29   758   758   758   758                              PRN / # OF OBS      
   G30   687   687   687   687                              PRN / # OF OBS      
   G31   870   870   870   870                              PRN / # OF OBS      
   G32   770   770   770   770                              PRN / # OF OBS      
BIT 2 OF LLI FLAGS DATA COLLECTED UNDER A/S CONDITION       COMMENT             
SNR is mapped to RINEX snr flag value [2-9]                 COMMENT             
Lx:     = 25dBHz -> 1; 26-27dBHz -> 2; 28-31dBHz -> 3       COMMENT             
       32-35dBHz -> 4; 36-38dBHz -> 5; 39-41dBHz -> 6       COMMENT             
       42-44dBHz -> 7; 45-48dBHz -> 8; >=49dBHz -> 9        COMMENT             
                                                            END OF HEADER       
 15 02 09 00 00  0.0000000  0  5G16G21G25G29G31
  24223735.940   127296598.10206  24223738.360    99192168.28744
  21088370.360   110820139.69708  21088371.660    86353364.62348
  22311098.080   117245744.77908  22311102.940    91360418.18747
  21620551.400   113616969.25608  21620553.380    88532790.83848
  21158199.540   111187101.32809  21158201.040    86639303.12549
 15 02 09 00 00 30.0000000  0  5G16G21G25G29G31
  24206365.560   127205316.27006  24206368.020    99121039.63945
  21082605.180   110789843.59008  21082606.480    86329757.28748
  22324647.500   117316947.55908  22324652.480    91415900.85247
  21632248.580   113678438.45208  21632250.600    88580688.90448
  21164661.820   111221060.88609  21164663.360    86665765.10549
 15 02 09 00 01  0.0000000  0  5G16G21G25G29G31
  24188995.360   127114035.03506  24188997.820    99049911.39545
  21076925.260   110759995.56108  21076926.580    86306499.10148
  22338250.160   117388429.36808  22338255.140    91471600.95147
  21643968.240   113740025.73308  21643970.320    88628678.97948
  21171225.020   111255550.63209  21171226.580    86692640.21849
 15 02 09 00 01 30.0000000  0  5G16G21G25G29G31
  24171626.100   127022758.60006  24171628.520    98978786.92144
  21071331.240   110730598.81708  21071332.560    86283592.55749
  22351906.420   117460192.73208  22351911.300    91527520.44147
  21655710.720   113801732.88808  21655712.880    88676762.46648
  21177889.320   111290571.71509  21177890.900    86719929.35549
 15 02 09 00 02  0.0000000  0  5G16G21G25G29G31
  24154258.140   126931489.17006  24154260.600    98907667.91244
  21065823.260   110701654.30508  21065824.600    86261038.40949
  22365616.240   117532237.85708  22365620.980    91583659.48347
  21667475.980   113863559.51008  21667478.140    88724939.03448
  21184654.760   111326124.10309  21184656.300    86747632.50249
 15 02 09 00 02 30.0000000  0  5G16G21G25G29G31
  24136891.760   126840227.91006  24136894.100    98836555.24945
  21060401.520   110673163.00008  21060402.900    86238837.40849
  22379379.540   117604564.57308  22379384.140    91640017.94747
  21679263.880   113925505.41108  21679266.040    88773208.55348
  21191521.020   111362206.38509  21191522.520    86775748.54449
 15 02 09 00 03  0.0000000  0  5G16G21G25G29G31
  24119526.680   126748973.41706  24119528.880    98765447.87745
  21055065.460   110645122.04908  21055066.860    86216987.32949
  22393195.760   117677169.68608  22393200.300    91696593.34147
  21691073.700   113987566.65708  21691075.900    88821567.95348
  21198487.340   111398814.48109  21198488.800    86804274.31949
 15 02 09 00 03 30.0000000  0  5G16G21G25G29G31
  24102163.440   126657728.72806  24102165.560    98694348.15645
  21049815.460   110617533.43908  21049816.880    86195489.72549
  22407065.140   117750054.15808  22407069.680    91753386.41247
  21702905.540   114049743.56108  21702907.760    88870017.48548
  21205553.740   111435948.60309  21205555.180    86833209.98649
 15 02 09 00 04  0.0000000  0  5G16G21G25G29G31
  24084802.200   126566494.58906  24084804.320    98623256.63145
  21044651.620   110590397.53408  21044653.040    86174344.88149
  22420987.660   117823217.57608  22420992.260    91810396.83647
  21714759.320   114112035.55908  21714761.520    88918556.69348
  21212720.020   111473607.76709  21212721.480    86862554.77449
 15 02 09 00 04 30.0000000  0  5G16G21G25G29G31
  24067442.960   126475271.23806  24067445.040    98552173.52145
  21039573.700   110563713.01108  21039575.100    86153551.76048
  22434963.040   117896658.27308  22434967.700    91867623.33947
  21726634.540   114174440.30308  21726636.740    88967183.76148
  21219985.640   111511789.04909  21219987.160    86892306.41749
 15 02 09 00 05  0.0000000  0  5G16G21G25G29G31
  24050086.280   126384061.49506  24050088.420    98481101.03744
  21034582.080   110537481.68408  21034583.400    86133111.78749
  22448991.400   117970376.97508  22448996.160    91925066.46347
  21738531.280   114236958.14608  21738533.520    89015898.95748
  21227350.560   111550492.25109  21227352.140    86922464.74248
 15 02 09 00 05 30.0000000  0  5G16G21G25G29G31
  24032732.700   126292868.23406  24032734.900    98410041.36844
  21029677.060   110511705.32508  21029678.300    86113026.32349
  22463072.780   118044374.55108  22463077.680    91982726.88347
  21750449.680   114299589.43808  21750451.860    89064702.55748
  21234814.860   111589717.48409  21234816.480    86953029.83948
 15 02 09 00 06  0.0000000  0  6G16G18G21G25G29G31
  24015382.820   126201694.09406  24015384.980    98338996.63444
  24499903.580   128747864.34405  24499909.920   100323031.42641
  21024858.900   110486385.47408  21024860.100    86093296.58149
  22477207.380   118118652.15208  22477212.420    92040605.50947
  21762389.780   114362334.85308  21762391.920    89113595.07648
  21242378.560   111629464.94309  21242380.180    86984001.87148
 15 02 09 00 06 30.0000000  0  6G16G18G21G25G29G31
  23998037.180   126110542.10906  23998039.380    98267969.13244
  24484818.800   128668597.06105  24484825.540   100261265.02345
  21020128.020   110461524.40508  21020129.220    86073924.33248
  22491395.460   118193211.17107  22491400.620    92098703.43147
  21774351.900   114425195.84508  21774353.960    89162577.65748
  21250041.740   111669734.97109  21250043.320    87015381.09748
 15 02 09 00 07  0.0000000  0  6G16G18G21G25G29G31
  23980692.920   126019397.28906  23980695.040    98196947.22145
  24469720.580   128589256.34605  24469727.260   100199441.36244
  21015481.340   110437105.81908  21015482.560    86054896.87349
  22505633.800   118268034.56207  22505638.960    92157007.35447
  21786332.680   114488154.75608  21786334.620    89211636.53248
  21257800.980   111710509.67409  21257802.500    87047153.58348
 15 02 09 00 07 30.0000000  0  6G16G18G21G25G29G31
  23963352.540   125928273.37406  23963354.720    98125941.60845
  24454611.140   128509856.64605  24454617.260   100137571.65244
  21010921.160   110413142.08708  21010922.420    86036223.84749
  22519924.700   118343134.06107  22519929.780    92215526.42446
  21798334.280   114551223.15908  21798336.160    89260780.72848
  21265658.300   111751799.96709  21265659.800    87079327.82149
 15 02 09 00 08  0.0000000  0  6G16G18G21G25G29G31
  23946016.280   125837171.02006  23946018.420    98054952.78145
  24439490.700   128430399.69505  24439496.680   100075657.45642
  21006447.400   110389632.37508  21006448.680    86017904.60349
  22534267.880   118418508.23607  22534272.880    92274259.52046
  21810356.380   114614399.14608  21810358.200    89310008.75748
  21273613.220   111793603.20109  21273614.700    87111901.75349
 15 02 09 00 08 30.0000000  0  6G16G18G21G25G29G31
  23928683.520   125746086.95106  23928685.600    97983978.22145
  24424359.420   128350883.74605  24424365.300   100013697.20444
  21002059.200   110366572.50708  21002060.500    85999935.88349
  22548662.580   118494152.39308  22548667.420    92333202.98947
  21822397.820   114677677.32908  21822399.700    89359316.42448
  21281664.640   111835913.80909  21281666.140    87144871.04849
 15 02 09 00 09  0.0000000  0  6G16G18G21G25G29G31
  23911355.980   125655029.83606  23911357.880    97913024.65944
  24409218.580   128271318.24506  24409224.120    99951698.40044
  20997757.940   110343969.35408  20997759.220    85982323.05349
  22563109.860   118570072.91507  22563114.640    92392361.80447
  21834459.860   114741064.18508  21834461.840    89408708.77348
  21289813.640   111878737.07009  21289815.160    87178239.81449
 15 02 09 00 09 30.0000000  0  6G16G18G21G25G29G31
  23894032.700   125563995.33506  23894034.500    97842088.71744
  24394067.880   128191700.25605  24394073.240    99889658.66744
  20993542.740   110321818.48108  20993544.000    85965062.64549
  22577608.520   118646263.69307  22577613.360    92451731.21947
  21846541.320   114804553.54208  21846543.440    89458180.98348
  21298058.880   111922066.01709  21298060.380    87212002.61648
 15 02 09 00 10  0.0000000  0  6G16G18G21G25G29G31
  23876715.120   125472990.76406  23876716.780    97771176.09345
  24378908.460   128112038.05104  24378914.180    99827584.51144
  20989414.600   110300125.17108  20989415.820    85948158.78449
  22592159.560   118722729.88807  22592164.540    92511315.25546
  21858643.240   114868150.12608  21858645.440    89507736.74848
  21306401.160   111965904.83909  21306402.620    87246162.72548
 15 02 09 00 10 30.0000000  0  6G16G18G21G25G29G31
  23859402.240   125382011.76706  23859404.060    97700283.38945
  24363740.280   128032328.50205  24363745.660    99765473.40645
  20985372.440   110278883.62208  20985373.620    85931606.93749
  22606761.720   118799465.17207  22606766.900    92571108.95847
  21870764.400   114931847.26708  21870766.580    89557370.87048
  21314839.000   112010245.91909  21314840.440    87280714.20448
 15 02 09 00 11  0.0000000  0  6G16G18G21G25G29G31
  23842095.060   125291062.34306  23842096.940    97629413.72245
  24348564.000   127952576.29105  24348569.380    99703329.12245
  20981416.740   110258096.32008  20981417.900    85915409.05249
  22621415.360   118876471.29007  22621420.700    92631113.72547
  21882905.000   114995646.16208  21882907.100    89607084.28148
  21323372.540   112055089.97709  21323373.940    87315657.60748
 15 02 09 00 11 30.0000000  0  6G16G18G21G25G29G31
  23824793.700   125200143.32406  23824795.680    97558567.74345
  24333380.040   127872783.88805  24333385.100    99641153.46744
  20977547.400   110237762.86708  20977548.540    85899564.82149
  22636120.340   118953747.59507  22636125.800    92691329.02246
  21895064.960   115059546.60808  21895066.920    89656876.81948
  21332001.460   112100435.37609  21332002.900    87350991.66648
 15 02 09 00 12  0.0000000  0  6G16G18G21G25G29G31
  23807498.460   125109256.66806  23807500.520    97487746.96545
  24318188.860   127792954.22105  24318193.540    99578948.79043
  20973764.520   110217883.57708  20973765.620    85884074.48049
  22650876.720   119031293.54407  22650882.180    92751754.40446
  21907244.020   115123547.59508  21907245.920    89706747.69848
  21340725.480   112146280.59408  21340726.960    87386715.19648
 15 02 09 00 12 30.0000000  0  6G16G18G21G25G29G31
  23790209.420   125018402.33706  23790211.540    97416951.39645
  24302990.880   127713088.72606  24302995.400    99516716.21442
  20970067.900   110198457.93908  20970069.060    85868937.63349
  22665684.240   119109107.51407  22665689.580    92812388.63946
  21919441.780   115187646.93908  21919443.660    89756695.21848
  21349544.180   112192623.06009  21349545.680    87422826.18848
 15 02 09 00 13  0.0000000  0  6G16G18G21G25G29G31
  23772927.040   124927582.70606  23772929.120    97346182.85745
  24287786.640   127633190.22306  24287790.740    99454457.88744
  20966457.840   110179487.02008  20966459.000    85854155.10949
  22680542.920   119187189.44007  22680547.920    92873231.66246
  21931658.200   115251844.78508  21931660.120    89806719.49048
  21358457.240   112239461.39609  21358458.760    87459323.58048
 15 02 09 00 13 30.0000000  0  6G16G18G21G25G29G31
  23755651.740   124836800.07907  23755653.740    97275443.16245
  24272576.620   127553262.39706  24272580.620    99392176.69344
  20962933.980   110160969.13108  20962935.160    85839725.59849
  22695452.680   119265539.50907  22695457.340    92934283.63747
  21943893.420   115316141.30308  21943895.400    89856820.64648
  21367464.540   112286794.87509  21367466.080    87496206.79248
 15 02 09 00 14  0.0000000  0  6G16G18G21G25G29G31
  23738383.620   124746055.10706  23738385.580    97204732.81245
  24257361.160   127473306.71205  24257365.260    99329873.81444
  20959496.540   110142905.31508  20959497.720    85825649.90549
  22710413.080   119344156.11907  22710417.600    92995543.30946
  21956147.000   115380534.53208  21956149.080    89906997.16748
  21376565.480   112334620.55609  21376567.060    87533473.54448
 15 02 09 00 14 30.0000000  0  6G16G18G21G25G29G31
  23721123.220   124655350.78306  23721125.260    97134054.13045
  24242141.100   127393327.69206  24242145.580    99267552.78644
  20956145.840   110125297.16708  20956147.000    85811929.28349
  22725424.380   119423040.61607  22725428.920    93057011.72547
  21968419.260   115445025.70108  21968421.360    89957250.01648
  21385760.100   112382938.61008  21385761.700    87571123.96448
 15 02 09 00 15  0.0000000  0  6G16G18G21G25G29G31
  23703870.100   124564684.91806  23703872.200    97063405.40845
  24226916.500   127313323.76805  24226921.020    99205212.23844
  20952880.940   110108139.90808  20952882.060    85798559.99749
  22740485.620   119502188.34207  22740490.440    93118685.25546
  21980709.260   115509610.14008  21980711.380    90007575.54047
  21395047.360   112431743.64108  21395048.980    87609153.85148
 15 02 09 00 15 30.0000000  0  6G16G18G21G25G29G31
  23686625.080   124474061.69706  23686627.220    96992789.93445
  24211688.260   127233300.85006  24211693.020    99142857.00044
  20949702.380   110091436.47508  20949703.520    85785544.34849
  22755597.320   119581601.18207  22755602.480    93180565.38247
  21993017.320   115574289.72308  21993019.480    90057975.19947
  21404427.400   112481036.29408  21404429.020    87647563.69948
 15 02 09 00 16  0.0000000  0  6G16G18G21G25G29G31
  23669388.100   124383480.85306  23669390.180    96922207.45245
  24196456.580   127153259.17405  24196461.520    99080487.03544
  20946609.920   110075185.55408  20946611.100    85772881.30549
  22770759.140   119661276.88107  22770764.440    93242650.31847
  22005343.080   115639062.14008  22005345.300    90108447.19248
  21413899.580   112530813.01408  21413901.180    87686350.74448
 15 02 09 00 16 30.0000000  0  6G16G18G21G25G29G31
  23652159.800   124292945.91506  23652161.780    96851660.76745
  24181222.220   127073203.29405  24181227.380    99018106.10044
  20943603.840   110059388.24508  20943604.980    85760571.72349
  22785971.300   119741216.55707  22785976.580    93304940.94847
  22017686.640   115703927.89608  22017688.880    90158991.91048
  21423463.860   112581073.47208  21423465.420    87725514.72648
 15 02 09 00 17  0.0000000  0  6G16G18G21G25G29G31
  23634940.300   124202457.70106  23634942.240    96781150.48145
  24165985.500   126993135.40005  24165990.860    98955715.71643
  20940683.940   110044043.80608  20940685.020    85748615.03149
  22801233.520   119821418.98507  22801238.600    93367436.32047
  22030047.860   115768886.35108  22030050.080    90209608.86347
  21433119.860   112631815.73408  21433121.360    87765054.13548
 15 02 09 00 17 30.0000000  0  6G16G18G21G25G29G31
  23617729.760   124112016.22606  23617731.720    96710676.61345
  24150746.720   126913056.63705  24150752.360    98893316.90044
  20937850.020   110029151.34908  20937851.060    85737010.52649
  22816545.300   119901881.94607  22816550.080    93430134.69846
  22042426.320   115833935.22208  22042428.500    90260296.27147
  21442866.900   112683036.43908  21442868.360    87804966.35848
 15 02 09 00 18  0.0000000  0  6G16G18G21G25G29G31
  23600528.780   124021624.51606  23600530.720    96640241.52645
  24135506.440   126832970.72405  24135512.340    98830912.51444
  20935102.020   110014710.59508  20935103.040    85725758.00849
  22831906.620   119982606.00407  22831911.240    93493036.52946
  22054822.060   115899074.49208  22054824.120    90311054.11947
  21452704.780   112734734.71308  21452706.240    87845250.71348
 15 02 09 00 18 30.0000000  0  6G16G18G21G25G29G31
  23583337.440   123931283.37006  23583339.400    96569845.84645
  24120265.380   126752879.70306  24120271.220    98768504.12745
  20932440.160   110000722.70508  20932441.200    85714858.35949
  22847317.120   120063589.81607  22847321.820    93556140.77046
  22067234.820   115964303.64208  22067236.840    90361882.00148
  21462633.080   112786908.16608  21462634.580    87885905.33848
 15 02 09 00 19  0.0000000  0  6G16G18G21G25G29G31
  23566155.980   123840994.37206  23566158.060    96499490.77945
  24105023.920   126672786.27005  24105029.640    98706093.86145
  20929864.140   109987186.13808  20929865.240    85704310.39949
  22862776.920   120144832.92207  22862781.780    93619447.06746
  22079664.520   116029621.92808  22079666.460    90412779.34647
  21472651.500   112839555.23208  21472653.000    87926929.00348
 15 02 09 00 19 30.0000000  0  6G16G18G21G25G29G31
  23548984.680   123750758.98106  23548986.880    96429177.51045
  24089782.640   126592692.90906  24089788.040    98643683.61744
  20927373.960   109974100.45608  20927375.080    85694113.77249
  22878285.840   120226333.84507  22878290.900    93682954.25646
  22092110.860   116095027.88608  22092112.780    90463745.01847
  21482759.480   112892673.06708  21482761.040    87968319.51448
 15 02 09 00 20  0.0000000  0  6G16G18G21G25G29G31
  23531823.760   123660577.71606  23531825.880    96358906.39545
  24074541.700   126512601.35706  24074546.900    98581274.84144
  20924969.400   109961464.66008  20924970.560    85684267.70849
  22893843.740   120308091.38807  22893848.900    93746661.42146
  22104573.620   116160520.12908  22104575.560    90514777.91448
  21492956.560   112946259.16608  21492958.160    88010074.89248
 15 02 09 00 20 30.0000000  0  6G16G18G21G25G29G31
  23514673.500   123570452.07906  23514675.580    96288678.65045
  24059301.760   126432513.47906  24059306.520    98518868.89044
  20922650.380   109949277.97308  20922651.500    85674771.59849
  22909450.300   120390104.35607  22909455.560    93810567.60246
  22117052.560   116226097.75908  22117054.640    90565877.34147
  21503242.260   113000311.12308  21503243.920    88052193.28748
 15 02 09 00 21  0.0000000  0  6G16G18G21G25G29G31
  23497534.640   123480386.42606  23497536.640    96218497.63645
  24044063.480   126352434.93906  24044067.780    98456470.22044
  20920417.380   109937543.08708  20920418.440    85665627.54549
  22925105.940   120472374.71907  22925111.220    93874674.36446
  22129548.200   116291763.05808  22129550.360    90617045.09148
  21513616.800   113054829.80108  21513618.500    88094675.35948
 15 02 09 00 21 30.0000000  0  6G16G18G21G25G29G31
  23480410.580   123390399.06706  23480412.660    96148377.64745
  24028830.760   126272385.54306  24028834.820    98394094.27244
  20918273.600   109926277.02408  20918274.580    85656848.80149
  22940813.580   120554918.48807  22940818.860    93938994.15346
  22142063.620   116357531.99508  22142065.760    90668293.60047
  21524083.000   113109829.91708  21524084.680    88137532.58448
 15 02 09 00 22  0.0000000  0  7G16G18G21G25G27G29G31
  23463292.060   123300440.87606  23463294.180    96078280.40045
  24013594.180   126192316.64106  24013597.840    98331703.10244
  20916209.160   109915428.14808  20916210.120    85648395.14449
  22956563.420   120637684.12207  22956568.660    94003486.82846
  24613449.640   129344559.93505  24613454.260   100787981.40145
  22154588.960   116423353.05108  22154591.100    90719582.70847
  21534630.800   113165258.83608  21534632.460    88180723.93748
 15 02 09 00 22 30.0000000  0  7G16G18G21G25G27G29G31
  23446187.760   123210557.36806  23446189.900    96008241.34145
  23998362.840   126112274.79406  23998366.240    98269332.99644
  20914232.260   109905039.48908  20914233.260    85640300.10349
  22972363.660   120720714.48407  22972368.840    94068185.78946
  24598673.400   129266910.02505  24598677.940   100727475.10544
  22167132.440   116489269.31708  22167134.600    90770946.00747
  21545268.080   113221157.88008  21545269.700    88224281.62648
 15 02 09 00 23  0.0000000  0  6G16G18G21G25G29G31
  23429096.660   123120743.40107  23429098.860    95938256.47446
  23983135.600   126032256.04306  23983138.780    98206980.90744
  20912341.740   109895105.09508  20912342.820    85632559.02349
  22988212.920   120804002.35007  22988217.980    94133085.39746
  22179692.700   116555273.59808  22179694.780    90822377.88947
  21555993.220   113277518.69008  21555994.820    88268199.12548
 15 02 09 00 23 30.0000000  0  7G16G18G21G25G27G29G31
  23412018.180   123030995.18607  23412020.280    95868322.82245
  23967912.200   125952257.46106  23967915.300    98144644.51944
  20910536.500   109885618.80708  20910537.600    85625167.12049
  23004109.880   120887541.17107  23004114.780    94198180.54346
  24569170.000   129111857.58905  24569177.120   100606657.19744
  22192268.560   116621359.82108  22192270.540    90873873.62047
  21566804.780   113334333.60108  21566806.380    88312470.47848
 15 02 09 00 24  0.0000000  0  7G16G18G21G25G27G29G31
  23394953.080   122941317.28607  23394955.080    95798443.98245
  23952693.560   125872284.90206  23952696.640    98082328.39144
  20908816.940   109876582.79508  20908818.060    85618126.08449
  23020055.080   120971333.25807  23020059.700    94263473.04346
  24554443.960   129034470.50205  24554450.380   100546355.65945
  22204860.460   116687530.37308  22204862.320    90925435.06347
  21577702.920   113391603.58408  21577704.500    88357096.42748
 15 02 09 00 24 30.0000000  0  7G16G18G21G25G27G29G31
  23377900.980   122851707.76707  23377902.900    95728618.40945
  23937479.700   125792337.55606  23937482.840    98020031.91244
  20907182.300   109867993.09008  20907183.440    85611432.81849
  23036047.660   121055374.39707  23036052.120    94328959.61446
  24539733.960   128957167.93205  24539739.960   100486119.98645
  22217467.580   116753781.33808  22217469.420    90977059.16947
  21588686.540   113449322.98608  21588688.140    88402072.56648
 15 02 09 00 25  0.0000000  0  7G16G18G21G25G27G29G31
  23360862.380   122762169.53507  23360864.280    95658848.38745
  23922271.160   125712418.51206  23922274.420    97957757.51244
  20905632.800   109859850.50408  20905633.900    85605087.96249
  23052087.680   121139664.66707  23052092.020    94394640.31546
  24525040.200   128879950.96405  24525045.960   100425950.98145
  22230089.920   116820112.24908  22230091.800    91028745.57047
  21599755.460   113507490.58508  21599757.080    88447397.95348
 15 02 09 00 25 30.0000000  0  7G16G18G21G25G27G29G31
  23343837.660   122672704.11707  23343839.460    95589135.09545
  23907068.800   125632530.83006  23907072.060    97895507.51744
  20904168.260   109852154.27608  20904169.340    85599090.91449
  23068174.760   121224202.89807  23068179.220    94460514.22546
  24510362.480   128802819.09805  24510368.280   100365848.29845
  22242727.440   116886523.04808  22242729.380    91080494.23747
  21610909.260   113566103.97308  21610910.860    88493070.70948
 15 02 09 00 26  0.0000000  0  7G16G18G21G25G27G29G31
  23326827.060   122583312.97107  23326828.840    95519479.67945
  23891872.900   125552676.99705  23891876.160    97833283.94443
  20902788.580   109844903.91408  20902789.620    85593441.29149
  23084308.860   121308988.17907  23084313.560    94526580.65546
  24495701.000   128725772.45605  24495706.840   100305812.03246
  22255379.940   116953012.65508  22255381.940    91132304.31047
  21622147.440   113625161.01808  21622149.080    88539089.18248
 15 02 09 00 26 30.0000000  0  7G16G18G21G25G27G29G31
  23309830.720   122493997.00607  23309832.520    95449882.85845
  23876683.880   125472858.60806  23876687.160    97771087.94643
  20901493.420   109838097.93608  20901494.480    85588137.94249
  23100489.680   121394018.89607  23100494.560    94592838.32846
  24481055.580   128648810.31205  24481061.480   100245841.60044
  22268047.260   117019580.10508  22268049.360    91184175.04047
  21633469.460   113684658.48808  21633471.060    88585450.83048
 15 02 09 00 27  0.0000000  0  7G16G18G21G25G27G29G31
  23292849.500   122404760.27107  23292851.260    95380347.76645
  23861502.700   125393080.84206  23861505.760    97708923.59744
  20900283.320   109831738.92808  20900284.380    85583182.88549
  23116717.480   121479296.48707  23116722.500    94659288.38046
  24466426.640   128571934.99805  24466432.420   100185938.83546
  22280729.680   117086226.69608  22280731.860    91236107.43447
  21644875.360   113744596.95208  21644876.940    88632156.11248
 15 02 09 00 27 30.0000000  0  7G16G18G21G25G27G29G31
  23275883.460   122315603.09507  23275885.200    95310874.67545
  23846329.320   125313344.83606  23846332.500    97646791.81445
  20899157.860   109825824.79808  20899158.940    85578574.48349
  23132991.800   121564818.70507  23132996.920    94725929.04146
  24451813.940   128495145.22405  24451819.560   100126102.72045
  22293426.840   117152950.85808  22293429.080    91288100.27647
  21656364.420   113804972.43608  21656366.000    88679201.93148
 15 02 09 00 28  0.0000000  0  7G16G18G21G25G27G29G31
  23258932.660   122226526.25507  23258934.500    95241464.18745
  23831164.340   125233652.53806  23831167.540    97584694.02644
  20898116.700   109820353.52308  20898117.760    85574311.15849
  23149312.320   121650583.86407  23149317.460    94792759.00246
  24437217.420   128418440.14405  24437222.840   100066332.60345
  22306138.480   117219750.94308  22306140.760    91340152.27047
  21667936.100   113865782.01408  21667937.640    88726585.99848
 15 02 09 00 28 30.0000000  0  7G16G18G21G25G27G29G31
  23241997.860   122137533.51707  23241999.840    95172119.21946
  23816008.500   125154008.49306  23816011.740    97522633.87644
  20897160.160   109815327.06408  20897161.240    85570394.45249
  23165679.200   121736592.88707  23165684.340    94859778.98846
  24422637.320   128341821.70805  24422642.660   100006629.97945
  22318864.900   117286628.36108  22318867.140    91392264.51747
  21679590.340   113927025.37208  21679591.840    88774308.06848
 15 02 09 00 29  0.0000000  0  7G16G18G21G25G27G29G31
  23225079.260   122048625.83207  23225081.340    95102840.53245
  23800862.040   125074414.12306  23800865.360    97460612.39545
  20896288.020   109810743.95308  20896289.100    85566823.20349
  23182092.180   121822843.95007  23182097.240    94926987.55346
  24408073.580   128265288.98505  24408078.780    99946994.16645
  22331605.720   117353581.65108  22331607.900    91444435.88747
  21691326.480   113988699.18808  21691328.000    88822365.55348
 15 02 09 00 29 30.0000000  0  7G16G18G21G25G27G29G31
  23208176.940   121959803.54807  23208179.020    95033628.39845
  23785725.540   124994871.85406  23785728.980    97398631.55245
  20895499.920   109806602.38108  20895501.000    85563596.01649
  23198550.840   121909335.14907  23198555.820    94994383.25646
  24393526.000   128188841.02505  24393531.040    99887424.38344
  22344360.720   117420609.15108  22344362.800    91496665.08147
  21703143.920   114050800.20708  21703145.480    88870755.94148
 15 02 09 00 30  0.0000000  0  7G16G18G21G25G27G29G31
  23191291.320   121871069.04307  23191293.380    94964484.64745
  23770599.460   124915384.07906  23770603.000    97336693.14145
  20894795.760   109802901.92108  20894796.840    85560712.55249
  23215055.120   121996065.78907  23215060.020    95061965.53646
  24378994.620   128112478.17405  24378999.640    99827920.91145
  22357129.800   117487710.59608  22357131.740    91548951.89947
  21715042.320   114113326.71608  21715043.940    88919477.87148
 15 02 09 00 30 30.0000000  0  7G16G18G21G25G27G29G31
  23174422.720   121782423.90707  23174424.620    94895410.53045
  23755484.440   124835953.49806  23755487.760    97274799.30545
  20894175.500   109799642.31708  20894176.560    85558172.61149
  23231604.860   122083034.90007  23231609.780    95129733.64146
  24364479.420   128036200.26205  24364484.240    99768483.62945
  22369912.760   117554885.40208  22369914.700    91601295.88747
  21727021.180   114176276.07908  21727022.880    88968529.30048
 15 02 09 00 31  0.0000000  0  7G16G18G21G25G27G29G31
  23157571.900   121693872.24207  23157573.680    94826409.23945
  23740381.100   124756584.91906  23740384.460    97212953.81245
  20893639.400   109796824.99808  20893640.460    85555977.30549
  23248200.220   122170243.55907  23248205.080    95197688.42246
  24349980.720   127960009.42905  24349985.500    99709114.17944
  22382709.900   117622135.05808  22382711.900    91653698.19447
  21739080.440   114239647.85508  21739082.160    89017909.89348
 15 02 09 00 31 30.0000000  0  7G16G18G21G25G27G29G31
  23140738.660   121605413.12107  23140740.420    94757480.08045
  23725289.640   124677278.76406  23725292.820    97151156.92945
  20893186.900   109794447.19408  20893187.980    85554124.48049
  23264840.620   122257688.82807  23264845.440    95265827.56846
  24335498.280   127883903.71105  24335502.980    99649811.07444
  22395520.760   117689456.78908  22395522.820    91706156.66747
  21751219.280   114303437.91608  21751221.000    89067616.41148
 15 02 09 00 32  0.0000000  0  7G16G18G21G25G27G29G31
  23123923.600   121517049.54507  23123925.300    94688625.35845
  23710210.680   124598038.75706  23710213.840    97089411.61044
  20892818.020   109792508.67208  20892819.100    85552613.95349
  23281525.980   122345370.46707  23281530.820    95334150.87446
  24321032.100   127807883.83505  24321036.900    99590574.85544
  22408345.480   117756851.17608  22408347.640    91758671.75847
  21763437.400   114367644.62008  21763439.100    89117647.58748
 15 02 09 00 32 30.0000000  0  7G16G18G21G25G27G29G31
  23107126.980   121428782.81307  23107128.620    94619846.09146
  23695144.620   124518866.94706  23695147.740    97027719.40945
  20892532.600   109791008.88508  20892533.680    85551445.29649
  23298256.060   122433287.12107  23298260.940    95402657.34346
  24306582.220   127731949.43905  24306587.260    99531405.22146
  22421183.820   117824317.38908  22421186.100    91811242.81047
  21775734.320   114432265.21308  21775735.980    89168001.27748
 15 02 09 00 33  0.0000000  0  7G16G18G21G25G27G29G31
  23090349.260   121340615.43407  23090350.880    94551144.25345
  23680092.100   124439767.05706  23680095.300    96966083.24845
  20892330.520   109789947.24508  20892331.640    85550618.05049
  23315030.740   122521438.44106  23315035.680    95471346.63046
  24292148.680   127656101.22105  24292154.060    99472302.77145
  22434035.860   117891855.25008  22434038.220    91863869.70247
  21788109.700   114497297.97908  21788111.300    89218676.14448
 15 02 09 00 33 30.0000000  0  7G16G18G21G25G27G29G31
  23073591.000   121252550.14107  23073592.540    94482521.95146
  23665053.760   124360742.10206  23665057.100    96904505.46545
  20892211.980   109789324.27108  20892213.040    85550132.62649
  23331849.860   122609824.02006  23331854.960    95540218.48246
  24277731.640   127580339.74505  24277737.320    99413267.88144
  22446901.620   117959465.10408  22446903.980    91916552.68347
  21800563.160   114562741.13008  21800564.780    89269670.78648
 15 02 09 00 34  0.0000000  0  7G16G18G21G25G27G29G31
  23056852.120   121164586.77207  23056853.680    94413979.07645
  23650029.860   124281793.07106  23650033.400    96842986.85944
  20892176.380   109789137.19408  20892177.400    85549986.85449
  23348713.000   122698441.12306  23348718.240    95609270.72246
  24263330.740   127504663.24305  24263336.600    99354299.21745
  22459780.560   118027144.40108  22459782.940    91969289.77747
  21813093.960   114628590.50308  21813095.580    89320981.96748
 15 02 09 00 34 30.0000000  0  7G16G18G21G25G27G29G31
  23040132.940   121076727.08507  23040134.640    94345516.99946
  23635021.060   124202922.86906  23635024.680    96781529.64444
  20892223.760   109789386.00108  20892224.720    85550180.73649
  23365620.100   122787289.11706  23365625.500    95678502.87846
  24248946.120   127429072.22005  24248951.960    99295397.15244
  22472672.680   118094893.16408  22472675.060    92022080.99947
  21825701.700   114694844.44008  21825703.360    89372608.39148
 15 02 09 00 35  0.0000000  0  7G16G18G21G25G27G29G31
  23023433.600   120988971.75807  23023435.460    94277136.24146
  23620027.640   124124132.96306  23620031.300    96720135.04244
  20892353.620   109790068.14208  20892354.540    85550712.28049
  23382570.760   122876365.71206  23382576.220    95747913.16746
  24234577.540   127353565.30105  24234583.240    99236560.62645
  22485577.760   118162709.93608  22485580.200    92074925.21447
  21838385.540   114761498.27208  21838387.200    89424546.42448
 15 02 09 00 35 30.0000000  0  7G16G18G21G25G27G29G31
  23006754.680   120901323.62107  23006756.680    94208839.01446
  23605050.280   124045426.70006  23605053.780    96658805.56545
  20892565.960   109791183.88308  20892566.860    85551581.69349
  23399564.980   122965670.47906  23399570.300    95817501.26046
  24220225.060   127278143.08705  24220230.640    99177790.08945
  22498495.820   118230594.42108  22498498.200    92127822.19147
  21851145.260   114828550.91908  21851146.920    89476795.21748
 15 02 09 00 36  0.0000000  0  7G16G18G21G25G27G29G31
  22990096.560   120813784.72507  22990098.640    94140626.91446
  23590089.480   123966806.98906  23590092.840    96597543.56844
  20892860.660   109792732.54708  20892861.580    85552788.44649
  23416602.540   123055202.71706  23416607.620    95887266.60245
  24205888.780   127202805.94505  24205894.340    99119085.87145
  22511426.900   118298546.69908  22511429.040    92180772.00547
  21863980.360   114896000.01108  21863982.060    89529352.92948
 15 02 09 00 36 30.0000000  0  7G16G18G21G25G27G29G31
  22973459.440   120726355.75907  22973461.480    94072500.48646
  23575145.460   123888275.44206  23575148.660    96536350.24744
  20893237.380   109794712.31108  20893238.320    85554331.11949
  23433683.020   123144960.17607  23433687.800    95957207.44246
  24191568.680   127127552.70405  24191574.000    99060447.01145
  22524370.560   118366565.09008  22524372.480    92233773.32447
  21876890.200   114963841.93108  21876891.920    89582216.74048
 15 02 09 00 37  0.0000000  0  7G16G18G21G25G27G29G31
  22956843.960   120639040.34207  22956845.940    94004462.52346
  23560219.180   123809836.94306  23560222.340    96475229.43944
  20893696.460   109797124.73508  20893697.380    85556210.93849
  23450806.500   123234943.83307  23450811.140    96027324.55045
  24177264.980   127052385.36606  24177269.980    99001875.12645
  22537327.060   118434650.93508  22537328.820    92286827.19947
  21889874.700   115032076.32008  21889876.500    89635386.38148
 15 02 09 00 37 30.0000000  0  7G16G18G21G25G27G29G31
  22940250.580   120551841.34907  22940252.520    93936515.29146
  23545311.200   123731494.73307  23545314.340    96414183.65345
  20894237.720   109799969.11508  20894238.640    85558427.33649
  23467972.940   123325153.33007  23467977.500    96097617.63645
  24162977.740   126977304.68705  24162982.560    98943370.75545
  22550296.420   118502804.60708  22550298.080    92339933.94047
  21902933.560   115100701.21308  21902935.380    89688860.31648
 15 02 09 00 38  0.0000000  0  7G16G18G21G25G27G29G31
  22923679.480   120464759.84707  22923681.380    93868659.60346
  23530421.980   123653250.79107  23530425.000    96353214.43645
  20894861.000   109803244.48908  20894861.900    85560979.58849
  23485181.920   123415586.99606  23485186.560    96168085.39145
  24148706.780   126902309.97105  24148711.540    98884933.35344
  22563278.380   118571025.20608  22563280.120    92393092.82047
  21916066.140   115169713.55808  21916068.000    89742636.15248
 15 02 09 00 38 30.0000000  0  7G16G18G21G25G27G29G31
  22907130.940   120377797.16007  22907132.840    93800896.50146
  23515551.820   123575107.15006  23515554.700    96292323.36045
  20895565.920   109806948.95008  20895566.860    85563866.18549
  23502433.040   123506242.92906  23502437.940    96238726.34346
  24134452.000   126827400.41805  24134456.800    98826562.32946
  22576272.760   118639311.34208  22576274.600    92446302.77547
  21929271.820   115239109.85608  21929273.700    89796711.17648
 15 02 09 00 39  0.0000000  0  7G16G18G21G25G27G29G31
  22890605.680   120290956.77907  22890607.580    93733228.70346
  23500701.480   123497068.32806  23500704.300    96231513.95745
  20896352.700   109811083.53608  20896353.640    85567087.94649
  23519726.540   123597121.99906  23519731.800    96309541.17646
  24120213.780   126752578.08505  24120218.600    98768259.26245
  22589279.840   118707664.19208  22589281.740    92499564.71247
  21942550.560   115308889.83508  21942552.420    89851085.16548
 15 02 09 00 39 30.0000000  0  7G16G18G21G25G27G29G31
  22874103.620   120204238.28907  22874105.520    93665655.88446
  23485871.060   123419134.45506  23485873.940    96170786.37845
  20897220.740   109815645.16908  20897221.700    85570642.47449
  23537061.820   123688220.56906  23537067.400    96380527.01646
  24105991.600   126677840.32405  24105996.560    98710022.07546
  22602299.060   118776081.08108  22602301.080    92552876.55747
  21955901.360   115379048.27108  21955903.120    89905754.05848
 15 02 09 00 40  0.0000000  0  7G16G18G21G25G27G29G31
  22857625.340   120117644.31707  22857627.140    93598180.08046
  23471061.200   123341308.85606  23471064.180    96110143.12445
  20898169.940   109820633.30908  20898170.920    85574529.34749
  23554438.800   123779538.24506  23554444.740    96451683.60246
  24091785.540   126603187.84805  24091790.720    98651851.34446
  22615330.640   118844562.60408  22615332.660    92606238.76447
  21969323.800   115449583.17808  21969325.440    89960716.30248
 15 02 09 00 40 30.0000000  0  7G16G18G21G25G27G29G31
  22841171.080   120031176.36107  22841172.800    93530802.48446
  23456272.400   123263594.31206  23456275.500    96049586.40845
  20899200.140   109826047.01308  20899201.140    85578747.82749
  23571857.460   123871073.69006  23571863.480    96523009.87946
  24077595.640   126528620.52305  24077601.060    98593746.96045
  22628374.340   118913107.71008  22628376.360    92659650.51547
  21982817.360   115520491.92308  21982818.900    90015969.84548
 15 02 09 00 41  0.0000000  0  7G16G18G21G25G27G29G31
  22824740.960   119944835.34807  22824742.660    93463523.80846
  23441504.920   123185991.99706  23441508.180    95989117.13745
  20900310.860   109831883.97008  20900311.900    85583296.11449
  23589317.220   123962824.44406  23589323.180    96594503.92846
  24063421.720   126454136.90905  24063427.360    98535707.82146
  22641429.820   118981714.75208  22641431.860    92713110.51747
  21996381.240   115591770.49608  21996382.800    90071511.56848
 15 02 09 00 41 30.0000000  0  7G16G18G21G25G27G29G31
  22808335.540   119858624.52507  22808337.260    93396346.55646
  23426759.480   123108505.92906  23426763.020    95928738.48345
  20901502.140   109838144.37208  20901503.200    85588174.35249
  23606818.140   124054790.89206  23606823.880    96666166.03246
  24049264.100   126379738.50305  24049269.740    98477735.05846
  22654497.300   119050384.82008  22654499.320    92766619.64847
  22010015.200   115663417.76508  22010016.880    90127340.58848
 15 02 09 00 42  0.0000000  0  7G16G18G21G25G27G29G31
  22791955.220   119772545.86207  22791957.080    93329272.31447
  23412036.920   123031139.40506  23412040.480    95868452.95445
  20902774.060   109844828.47308  20902775.160    85593382.75449
  23624359.860   124146972.01706  23624365.380    96737995.45246
  24035122.760   126305425.49605  24035128.240    98419828.87645
  22667576.740   119119117.78308  22667578.800    92820177.77747
  22023718.840   115735431.58708  22023720.740    90183455.24248
 15 02 09 00 42 30.0000000  0  7G16G18G21G25G27G29G31
  22775600.420   119686601.01307  22775602.320    93262302.32446
  23397337.640   122953894.46206  23397341.140    95808262.18545
  20904126.240   109851934.30808  20904127.360    85598919.77249
  23641942.000   124239366.18806  23641947.340    96809990.86045
  24020997.640   126231197.36905  24021003.000    98361988.82845
  22680668.060   119187912.65908  22680670.140    92873784.14946
  22037491.640   115807808.75408  22037493.760    90239853.02248
 15 02 09 00 43  0.0000000  0  7G16G18G21G25G27G29G31
  22759271.460   119600791.67307  22759273.240    93195437.91946
  23382662.080   122876773.06907  23382665.220    95748167.66945
  20905558.380   109859460.35408  20905559.520    85604784.23449
  23659564.240   124331972.04706  23659569.400    96882151.24745
  24006888.720   126157053.93706  24006893.820    98304214.78245
  22693770.940   119256768.66608  22693773.080    92927438.15247
  22051333.100   115880546.17008  22051335.300    90296531.51248
 15 02 09 00 43 30.0000000  0  7G16G18G21G25G27G29G31
  22742968.960   119515121.66207  22742970.740    93128682.08546
  23368011.140   122799780.57507  23368013.900    95688173.59245
  20907070.840   109867408.44308  20907071.960    85610977.55449
  23677226.860   124424790.56906  23677231.960    96954477.31145
  23992796.240   126082997.23906  23992801.320    98246508.31046
  22706885.800   119325687.65508  22706887.960    92981141.23947
  22065243.140   115953643.44208  22065245.260    90353490.40948
 15 02 09 00 44  0.0000000  0  7G16G18G21G25G27G29G31
  22726693.000   119429591.35407  22726694.880    93062035.10247
  23353384.880   122722918.03507  23353387.280    95628280.76945
  20908663.000   109875775.31908  20908664.100    85617497.20449
  23694929.340   124517818.85406  23694934.500    97026966.86145
  23978719.900   126009025.49706  23978725.040    98188868.04046
  22720012.200   119394667.56507  22720014.440    93034891.79647
  22079220.860   116027096.29408  22079222.820    90410726.38248
 15 02 09 00 44 30.0000000  0  7G16G18G21G25G27G29G31
  22710443.800   119344201.81207  22710445.760    92995497.82646
  23338783.460   122646186.74807  23338785.560    95568490.22344
  20910334.380   109884558.70108  20910335.520    85624341.40649
  23712671.500   124611054.69906  23712676.620    97099618.12244
  23964659.580   125935137.77206  23964664.660    98131293.23745
  22733149.940   119463707.08107  22733152.260    93088688.80347
  22093265.520   116100900.95508  22093267.320    90468236.49148
 15 02 09 00 45  0.0000000  0  7G16G18G21G25G27G29G31
  22694222.060   119258956.50807  22694224.100    92929072.93447
  23324207.720   122569591.13807  23324209.740    95508805.39145
  20912085.320   109893759.88408  20912086.420    85631511.16349
  23730453.280   124704498.52606  23730458.360    97172431.44645
  23950615.580   125861335.59106  23950620.440    98073785.09945
  22746299.140   119532806.98707  22746301.520    93142532.86647
  22107376.880   116175056.34808  22107378.500    90526019.89348
 15 02 09 00 45 30.0000000  0  7G16G18G21G25G27G29G31
  22678028.200   119173857.12007  22678030.240    92862761.74347
  23309658.120   122493133.40606  23309660.240    95449228.01245
  20913915.460   109903377.40108  20913916.560    85639005.33649
  23748274.440   124798148.66306  23748279.320    97245405.53645
  23936587.780   125787618.55806  23936592.400    98016343.28845
  22759459.860   119601967.21907  22759462.300    93196423.94147
  22121554.360   116249559.50808  22121555.920    90584074.27748
 15 02 09 00 46  0.0000000  0  7G16G18G21G25G27G29G31
  22661862.480   119088905.15207  22661864.440    92796565.41946
  23295135.160   122416815.94806  23295137.460    95389759.92445
  20915824.500   109913409.63608  20915825.640    85646822.67149
  23766134.540   124892003.52006  23766139.380    97318539.15044
  23922576.020   125713986.16806  23922580.500    97958967.44145
  22772631.840   119671186.74607  22772634.360    93250361.21247
  22135797.380   116324407.06508  22135798.940    90642397.03648
 15 02 09 00 46 30.0000000  0  7G16G18G21G25G27G29G31
  22645725.300   119004103.54207  22645727.200    92730486.24646
  23280639.460   122340641.73607  23280641.960    95330403.45545
  20917812.320   109923855.93708  20917813.500    85654962.64749
  23784033.540   124986062.66206  23784038.420    97391831.93445
  23908580.440   125640439.25305  23908584.920    97901658.18745
  22785815.140   119740465.71007  22785817.720    93304344.80047
  22150105.640   116399597.25008  22150107.220    90700986.77248
 15 02 09 00 47  0.0000000  0  7G16G18G21G25G27G29G31
  22629616.940   118919453.47307  22629618.800    92664525.15547
  23266171.740   122264613.83507  23266174.320    95271161.00245
  20919878.820   109934715.50508  20919880.000    85663424.65449
  23801971.060   125080324.59506  23801976.080    97465282.73245
  23894601.060   125566977.53106  23894605.600    97844415.34045
  22799009.700   119809803.52807  22799012.300    93358374.24447
  22164478.620   116475127.26508  22164480.240    90759841.31548
 15 02 09 00 47 30.0000000  0  7G16G18G21G25G27G29G31
  22613537.760   118834957.20007  22613539.680    92598683.91447
  23251732.400   122188734.67007  23251735.040    95212034.44545
  20922023.660   109945986.72608  20922024.820    85672207.43449
  23819946.940   125174787.92006  23819952.140    97538890.45846
  23880637.840   125493600.76106  23880642.420    97787238.66545
  22812215.400   119879199.68107  22812217.940    93412449.15046
  22178915.660   116550994.15708  22178917.360    90818958.35848
 15 02 09 00 48  0.0000000  0  7G16G18G21G25G27G29G31
  22597488.080   118750615.51307  22597490.020    92532963.12147
  23237321.620   122113005.34007  23237324.240    95153024.64546
  20924246.380   109957667.10408  20924247.520    85681309.02749
  23837960.740   125269450.03706  23837966.140    97612653.10645
  23866690.540   125420307.60205  23866695.260    97730127.14346
  22825431.940   119948652.64007  22825434.400    93466568.31447
  22193415.920   116627193.45908  22193417.740    90878334.42548
 15 02 09 00 48 30.0000000  0  7G16G18G21G25G27G29G31
  22581468.440   118666431.42108  22581470.320    92467365.13947
  23222940.100   122037429.42407  23222942.720    95094134.37245
  20926546.980   109969756.71508  20926548.100    85690729.50949
  23856012.380   125364310.74006  23856017.800    97686570.47145
  23852759.400   125347099.06105  23852764.340    97673081.57046
  22838659.440   120018163.08307  22838661.800    93520732.27347
  22207979.100   116703723.72008  22207981.080    90937968.38048
 15 02 09 00 49  0.0000000  0  7G16G18G21G25G27G29G31
  22565479.220   118582407.54808  22565481.100    92401891.99547
  23208588.480   121962010.39007  23208591.100    95035366.35945
  20928925.420   109982255.33308  20928926.500    85700468.69749
  23874101.600   125459369.59406  23874107.000    97760642.24046
  23838844.560   125273975.94205  23838849.600    97616102.50947
  22851897.980   120087731.49107  22851900.240    93574941.40247
  22222604.860   116780583.07308  22222606.960    90997858.77248
 15 02 09 00 49 30.0000000  0  7G16G18G21G25G27G29G31
  22549520.880   118498545.86508  22549522.760    92336545.23847
  23194267.220   121886751.33807  23194269.840    94976722.98945
  20931381.500   109995162.13408  20931382.580    85710525.94849
  23892228.300   125554625.41706  23892233.640    97834867.49045
  23824946.000   125200938.31105  23824951.020    97559190.07047
  22865147.440   120157357.62107  22865149.700    93629195.51347
  22237292.760   116857768.98408  22237294.900    91058003.62648
 15 02 09 00 50  0.0000000  0  7G16G18G21G25G27G29G31
  22533593.920   118414849.21008  22533595.820    92271327.07147
  23179976.820   121811655.11207  23179979.560    94918206.50545
  20933915.100   110008476.17108  20933916.140    85720900.53149
  23910392.260   125650077.35406  23910397.500    97909245.57045
  23811063.760   125127986.52905  23811068.700    97502344.51546
  22878407.720   120227041.38107  22878410.140    93683494.52447
  22252042.420   116935278.92808  22252044.500    91118400.95948
 15 02 09 00 50 30.0000000  0  7G16G18G21G25G27G29G31
  22517698.720   118331319.34608  22517700.600    92206238.87047
  23165717.760   121736724.30007  23165720.700    94859818.91045
  20936525.860   110022195.83108  20936526.900    85731591.18349
  23928593.000   125745723.99906  23928598.260    97983775.36345
  23797197.900   125055120.50706  23797202.740    97445565.81947
  22891678.880   120296782.54907  22891681.520    93737838.27747
  22266853.220   117013109.85808  22266855.200    91179048.40848
 15 02 09 00 51  0.0000000  0  7G16G18G21G25G27G29G31
  22501835.140   118247955.60508  22501837.020    92141280.12547
  23151490.240   121661958.89507  23151493.200    94801560.21745
  20939213.120   110036317.53808  20939214.160    85742595.11549
  23946830.000   125841561.46806  23946835.340    98058453.84144
  23783347.840   124982337.63206  23783352.620    97388851.90746
  22904960.500   120366578.19307  22904963.200    93792224.47547
  22281724.080   117091256.49208  22281726.000    91239941.86248
 15 02 09 00 51 30.0000000  0  7G16G18G21G25G27G29G31
  22486004.060   118164762.63408  22486005.860    92076454.45447
  23137295.220   121587364.12407  23137298.140    94743434.47045
  20941977.200   110050843.01008  20941978.260    85753913.66549
  23965103.640   125937591.11905  23965109.080    98133282.07945
  23769514.040   124909640.45206  23769518.720    97332204.78946
  22918252.780   120436430.17907  22918255.620    93846654.58147
  22296655.020   117169718.76708  22296656.940    91301081.27947
 15 02 09 00 52  0.0000000  0  7G16G18G21G25G27G29G31
  22470205.700   118081741.59208  22470207.420    92011762.74547
  23123133.080   121512941.81207  23123135.880    94685443.10645
  20944817.720   110065770.07508  20944818.780    85765545.14649
  23983413.560   126033810.54806  23983418.860    98208258.21244
  23755696.240   124837027.94606  23755700.900    97275623.63946
  22931555.640   120506338.05807  22931558.720    93901128.23547
  22311645.300   117248492.92108  22311647.220    91362463.71647
 15 02 09 00 52 30.0000000  0  7G16G18G21G25G27G29G31
  22454440.220   117998893.82708  22454441.940    91947206.07847
  23109004.100   121438693.82607  23109006.700    94627587.58145
  20947734.200   110081096.37308  20947735.280    85777487.72249
  24001759.420   126130217.66606  24001764.480    98283380.57444
  23741894.360   124764499.24406  23741898.960    97219107.78246
  22944868.980   120576300.09007  22944872.120    93955644.09146
  22326694.180   117327575.09608  22326696.060    91424086.16947
 15 02 09 00 53  0.0000000  0  7G16G18G21G25G27G29G31
  22438708.220   117916221.94308  22438709.900    91882786.44847
  23094908.880   121364623.32107  23094911.380    94569870.36646
  20950726.540   110096821.17308  20950727.620    85789740.81949
  24020141.000   126226811.79406  24020145.940    98358648.66444
  23728108.520   124692054.97506  23728113.220    97162657.72745
  22958192.780   120646316.54807  22958195.860    94010202.35446
  22341801.260   117406963.11908  22341803.060    91485946.94047
 15 02 09 00 53 30.0000000  0  7G16G18G21G25G27G29G31
  22423010.200   117833728.50408  22423011.840    91818505.87547
  23080848.140   121290733.43907  23080850.540    94512293.88346
  20953794.640   110112944.18708  20953795.740    85802304.20849
  24038558.020   126323592.08806  24038562.920    98434061.81944
  23714338.860   124619695.59906  23714343.560    97106273.83345
  22971527.000   120716388.05807  22971530.000    94064803.51246
  22356966.100   117486654.90108  22356967.820    91548044.41247
 15 02 09 00 54  0.0000000  0  7G16G18G21G25G27G29G31
  22407346.640   117751415.83508  22407348.220    91754366.15647
  23066822.300   121217027.11007  23066824.700    94454860.41345
  20956938.340   110129464.38708  20956939.420    85815177.09749
  24057010.260   126420557.67106  24057015.120    98509619.35145
  23700585.460   124547421.58506  23700590.180    97049956.47945
  22984871.620   120786514.47007  22984874.480    94119447.44346
  22372188.300   117566647.94208  22372189.920    91610376.63147
 15 02 09 00 54 30.0000000  0  7G16G18G21G25G27G29G31
  22391717.820   117669285.77908  22391719.380    91690368.73847
  23052831.740   121143506.03207  23052834.200    94397571.29845
  20960157.300   110146380.15708  20960158.360    85828358.21949
  24075497.220   126517706.53206  24075502.300    98585319.67845
  23686848.180   124475232.16206  23686852.880    96993704.99645
  22998226.560   120856694.87007  22998229.280    94174133.45746
  22387467.160   117646938.72808  22387468.740    91672940.85347
 15 02 09 00 55  0.0000000  0  7G16G18G21G25G27G29G31
  22376123.860   117587339.05808  22376125.480    91626514.17747
  23038876.880   121070172.68707  23038879.420    94340428.48845
  20963451.060   110163688.97708  20963452.080    85841845.60949
  24094018.500   126615036.35006  24094023.840    98661161.03945
  23673127.000   124403126.40906  23673131.560    96937518.73246
  23011591.620   120926928.10607  23011594.160    94228860.62746
  22402801.900   117727523.40708  22402803.540    91735734.08347
 15 02 09 00 55 30.0000000  0  7G16G18G21G25G27G29G31
  22360565.940   117505581.91308  22360567.620    91562807.34347
  23024958.920   120997033.18207  23024961.540    94283436.70445
  20966820.080   110181393.21008  20966821.060    85855641.12649
  24112574.420   126712549.58405  24112580.260    98737145.30845
  23659422.420   124331108.12706  23659426.980    96881400.64346
  23024967.360   120997217.66107  23024969.880    94283631.68447
  22418192.780   117808402.97408  22418194.520    91798757.09647
 15 02 09 00 56  0.0000000  0  7G16G18G21G25G27G29G31
  22345044.000   117424013.74108  22345045.720    91499247.75947
  23011077.880   120924087.69407  23011080.580    94226596.10545
  20970263.740   110199489.61108  20970264.660    85869742.22349
  24131164.300   126810242.56706  24131170.760    98813269.62246
  23645733.980   124259174.95206  23645738.640    96825348.85046
  23038353.420   121067561.10007  23038355.820    94338444.73646
  22433638.820   117889572.35508  22433640.660    91862005.94347
 15 02 09 00 56 30.0000000  0  7G16G18G21G25G27G29G31
  22329558.060   117342634.45908  22329559.740    91435835.36047
  22997233.820   120851336.73807  22997236.600    94169907.09246
  20973781.220   110217974.24508  20973782.160    85884145.84149
  24149787.800   126908111.51205  24149794.720    98889531.07646
  23632061.300   124187324.43106  23632066.040    96769361.45346
  23051749.160   121137955.49807  23051751.480    94393297.49747
  22449139.020   117971026.24508  22449140.940    91925476.48347
 15 02 09 00 57  0.0000000  0  7G16G18G21G25G27G29G31
  22314108.900   117261448.77208  22314110.580    91372573.81347
  22983427.660   120778785.01707  22983430.520    94113373.32245
  20977372.860   110236848.50408  20977373.820    85898853.05349
  24168445.240   127006157.46805  24168452.240    98965930.44445
  23618404.800   124115559.04206  23618409.620    96713440.39846
  23065154.880   121208403.10607  23065157.240    94448191.70446
  22464693.260   118052764.17808  22464695.240    91989168.35047
 15 02 09 00 57 30.0000000  0  7G16G18G21G25G27G29G31
  22298696.820   117180457.80008  22298698.480    91309463.99947
  22969659.720   120706434.15907  22969662.480    94056996.07745
  20981038.200   110256110.16908  20981039.200    85913862.14949
  24187136.120   127104378.31106  24187143.000    99042466.08844
  23604764.320   124043877.95406  23604769.160    96657585.04346
  23078570.600   121278902.98507  23078572.980    94503126.65446
  22480300.800   118134782.34708  22480302.800    92053078.58447
 15 02 09 00 58  0.0000000  0  7G16G18G21G25G27G29G31
  22283322.200   117099663.66408  22283323.860    91246507.56447
  22955930.540   120634287.17007  22955933.200    94000777.67945
  20984776.980   110275757.89308  20984778.060    85929172.06749
  24205860.180   127202772.49405  24205866.580    99119136.80745
  23591139.820   123972281.04106  23591144.740    96601795.27446
  23091996.100   121349454.73207  23091998.620    94558102.02546
  22495961.120   118217077.87308  22495963.120    92117204.95247
 15 02 09 00 58 30.0000000  0  7G16G18G21G25G27G29G31
