     2.11           OBSERVATION DATA    G                   RINEX VERSION / TYPE
SPIDER V4,0,0,3554                      2015 03 24 00:09    PGM / RUN BY / DATE 
CJSR                                                        MARKER NAME         
CJSR                                                        MARKER NUMBER       
                                                            OBSERVER / AGENCY   
496548              LEICA GRX1200+GNSS  8.20/4.007          REC # / TYPE / VERS 
10321013            LEIAR25         NONE                    ANT # / TYPE        
  5147913.4740   536355.0963  3716357.4907                  APPROX POSITION XYZ 
        0.0720        0.0000        0.0000                  ANTENNA: DELTA H/E/N
     1     1                                                WAVELENGTH FACT L1/2
     4    C1    L1    P2    L2                              # / TYPES OF OBSERV 
    30.000                                                  INTERVAL            
  2015    02    09    06    15   30.0000000     GPS         TIME OF FIRST OBS   
  2015    02    09    22    29   30.0000000     GPS         TIME OF LAST OBS    
    16                                                      LEAP SECONDS        
    29                                                      # OF SATELLITES     
   G 1   538   538   538   538                              PRN / # OF OBS      
   G 2   870   870   867   867                              PRN / # OF OBS      
   G 3   685   685   685   685                              PRN / # OF OBS      
   G 4   402   402   402   402                              PRN / # OF OBS      
   G 5   652   652   652   652                              PRN / # OF OBS      
   G 6   801   801   800   800                              PRN / # OF OBS      
   G 7   666   666   666   666                              PRN / # OF OBS      
   G 9   785   785   785   785                              PRN / # OF OBS      
   G10   761   761   761   761                              PRN / # OF OBS      
   G11   438   438   438   438                              PRN / # OF OBS      
   G12   687   687   687   687                              PRN / # OF OBS      
   G13   794   794   792   792                              PRN / # OF OBS      
   G14   574   573   573   573                              PRN / # OF OBS      
   G15   708   708   708   708                              PRN / # OF OBS      
   G17   902   899   898   898                              PRN / # OF OBS      
   G18   301   301   301   301                              PRN / # OF OBS      
   G19   214   214   214   214                              PRN / # OF OBS      
   G20   798   798   798   798                              PRN / # OF OBS      
   G21    71    68    66    66                              PRN / # OF OBS      
   G22    19    19    19    19                              PRN / # OF OBS      
   G23   749   749   748   748                              PRN / # OF OBS      
   G24   803   803   802   802                              PRN / # OF OBS      
   G25   493   492   492   492                              PRN / # OF OBS      
   G27    85    85    85    85                              PRN / # OF OBS      
   G28   765   765   761   761                              PRN / # OF OBS      
   G29   384   384   384   384                              PRN / # OF OBS      
   G30   711   711   711   711                              PRN / # OF OBS      
   G31   429   429   429   429                              PRN / # OF OBS      
   G32   433   433   433   433                              PRN / # OF OBS      
BIT 2 OF LLI FLAGS DATA COLLECTED UNDER A/S CONDITION       COMMENT             
SNR is mapped to RINEX snr flag value [2-9]                 COMMENT             
Lx:     = 25dBHz -> 1; 26-27dBHz -> 2; 28-31dBHz -> 3       COMMENT             
       32-35dBHz -> 4; 36-38dBHz -> 5; 39-41dBHz -> 6       COMMENT             
       42-44dBHz -> 7; 45-48dBHz -> 8; >=49dBHz -> 9        COMMENT             
                                                            END OF HEADER       
 15 02 09 06 15 30.0000000  0 10G01G03G04G11G14G19G22G27G28G32
  21248305.600   111660628.39109  21248305.980    87008305.24148
  21883470.320   114998426.60709  21883471.080    89609165.83148
  20335284.620   106862664.03409  20335282.480    83269613.48548
  20279232.780   106568108.00509  20279229.080    83040084.78248
  22801283.280   119821555.70508  22801280.780    93367435.23646
  21273141.480   111791135.45009  21273137.080    87109962.52948
  24383863.100   128138093.01408  24383860.020    99847870.50145
  23009128.100   120913797.56409  23009128.080    94218543.07147
  24020624.680   126229232.03808  24020620.920    98360434.77145
  20083419.200   105539118.58509  20083417.000    82238282.53948
 15 02 09 06 16  0.0000000  0 10G01G03G04G11G14G19G22G27G28G32
  21239785.760   111615856.33809  21239786.140    86973417.91448
  21870627.280   114930936.40709  21870628.180    89556576.07448
  20335627.360   106864464.78209  20335625.160    83271016.64348
  20274032.800   106540781.63709  20274029.100    83018791.48448
  22807662.760   119855079.88308  22807660.260    93393557.91546
  21285332.580   111855199.68209  21285328.120    87159882.66848
  24401160.680   128228992.04308  24401157.820    99918700.70646
  23028278.240   121014432.18509  23028278.240    94296959.55447
  24017000.780   126210188.10708  24016997.420    98345595.33045
  20084884.720   105546819.74009  20084882.500    82244283.42448
 15 02 09 06 16 30.0000000  0 10G01G03G04G11G14G19G22G27G28G32
  21231297.780   111571251.61509  21231298.140    86938660.97548
  21857845.100   114863766.12309  21857846.080    89504235.59548
  20336022.940   106866543.59009  20336020.760    83272636.46748
  20268903.260   106513825.65909  20268899.600    82997786.80748
  22814141.760   119889126.90109  22814139.320    93420088.00446
  21297603.580   111919683.48909  21297599.120    87210129.74448
  24418458.740   128319893.23908  24418455.940    99989532.60446
  23047472.500   121115298.65409  23047472.700    94375556.69548
  24013469.900   126191633.14208  24013466.760    98331136.90245
  20086441.440   105555000.12209  20086439.220    82250657.73448
 15 02 09 06 17  0.0000000  0 10G01G03G04G11G14G19G22G27G28G32
  21222841.560   111526813.76809  21222841.880    86904034.05748
  21845123.860   114796915.10909  21845124.760    89452143.87748
  20336471.200   106868899.52009  20336469.140    83274472.22348
  20263844.180   106487240.11709  20263840.580    82977070.77248
  22820719.940   119923694.71309  22820717.380    93447023.90446
  21309954.020   111984584.56109  21309949.400    87260701.95748
  24435756.720   128410794.07008  24435753.820   100060364.19146
  23066710.380   121216393.71609  23066710.720    94454331.95348
  24010031.980   126173566.19608  24010028.720    98317058.76245
  20088088.920   105563657.27309  20088086.620    82257403.54548
 15 02 09 06 17 30.0000000  0 10G01G03G04G11G14G19G22G27G28G32
  21214417.560   111482545.89109  21214418.020    86869539.59948
  21832464.000   114730386.28409  21832464.700    89400303.23448
  20336972.760   106871535.46609  20336970.780    83276526.19048
  20258856.360   106461028.90909  20258852.800    82956646.44048
  22827397.600   119958784.96308  22827394.940    93474366.90546
  21322384.080   112049904.23709  21322379.400    87311600.35649
  24453054.900   128501696.10708  24453051.920   100131196.72646
  23085991.900   121317717.72509  23085992.360    94533285.62448
  24006687.240   126155989.70508  24006683.940    98303362.78745
  20089827.340   105572792.11709  20089824.920    82264521.58948
 15 02 09 06 18  0.0000000  0 10G01G03G04G11G14G19G22G27G28G32
  21206025.220   111438444.33809  21206025.760    86835174.74448
  21819864.700   114664175.79009  21819865.280    89348710.65048
  20337526.940   106874447.71809  20337524.980    83278795.44648
  20253939.060   106435188.53909  20253935.580    82936511.07048
  22834173.560   119994392.09808  22834170.800    93502112.67346
  21334892.700   112115636.91709  21334887.940    87362820.57548
  24470352.300   128592593.58808  24470349.440   100202025.70345
  23105315.700   121419264.27608  23105316.320    94612412.68748
  24003435.160   126138899.59408  24003432.040    98290045.82145
  20091655.540   105582399.00809  20091653.080    82272007.46748
 15 02 09 06 18 30.0000000  0 10G01G03G04G11G14G19G22G27G28G32
  21197665.940   111394515.64409  21197666.400    86800944.57048
  21807327.140   114598289.84209  21807327.640    89297370.93648
  20338134.840   106877642.19309  20338132.900    83281284.61948
  20249093.660   106409726.08709  20249090.260    82916670.18248
  22841048.680   120030520.74809  22841045.860    93530264.80446
  21347480.720   112181787.28209  21347476.040    87414366.25748
  24487649.780   128683491.06608  24487646.840   100272854.71045
  23124682.340   121521037.04508  23124683.100    94691716.01347
  24000276.760   126122301.75108  24000273.600    98277112.42145
  20093574.360   105592482.37509  20093571.860    82279864.61648
 15 02 09 06 19  0.0000000  0 10G01G03G04G11G14G19G22G27G28G32
  21189339.020   111350757.33909  21189339.460    86766847.18248
  21794850.820   114532725.81009  21794851.200    89246282.06548
  20338795.940   106881116.29209  20338794.060    83283991.68448
  20244319.900   106384639.81609  20244316.580    82897122.42448
  22848022.260   120067166.80309  22848019.480    93558820.12546
  21360147.320   112248350.57309  21360142.600    87466233.71148
  24504946.280   128774384.02508  24504943.620   100343680.12946
  23144090.960   121623030.78508  23144091.800    94771191.52847
  23997211.320   126106192.99408  23997208.320    98264560.13445
  20095582.960   105603037.59709  20095580.480    82288089.44848
 15 02 09 06 19 30.0000000  0 10G01G03G04G11G14G19G22G27G28G32
  21181044.500   111307169.08009  21181044.960    86732882.28848
  21782435.600   114467483.04209  21782435.960    89195443.53448
  20339510.160   106884869.39909  20339508.320    83286916.15848
  20239617.860   106359929.80409  20239614.440    82877867.84748
  22855093.880   120104328.16509  22855091.160    93587776.96946
  21372892.080   112315324.43909  21372887.440    87518421.08649
  24522241.620   128865270.42908  24522238.900   100414500.48845
  23163541.120   121725242.31608  23163541.960    94850836.75347
  23994238.900   126090572.06008  23994235.660    98252387.98045
  20097680.860   105614062.17309  20097678.440    82296680.01548
 15 02 09 06 20  0.0000000  0 10G01G03G04G11G14G19G22G27G28G32
  21172783.160   111263754.83009  21172783.440    86699052.98448
  21770082.080   114402565.21909  21770082.520    89144858.21848
  20340278.200   106888905.00109  20340276.240    83290060.75948
  20234988.340   106335600.56909  20234984.780    82858909.97248
  22862264.000   120142006.97409  22862261.360    93617137.03146
  21385715.260   112382710.96209  21385710.840    87570930.00248
  24539536.000   128956152.28408  24539533.300   100485317.27845
  23183033.060   121827672.81808  23183033.960    94930652.60047
  23991359.740   126075442.27708  23991356.520    98240598.50645
  20099868.420   105625557.81509  20099866.020    82305637.63148
 15 02 09 06 20 30.0000000  0 10G01G03G04G11G14G19G22G27G28G32
  21164554.880   111220514.54109  21164555.040    86665359.22248
  21757790.340   114337972.02309  21757790.920    89094525.85948
  20341099.980   106893222.93709  20341097.840    83293425.36248
  20230431.360   106311652.65809  20230427.660    82840249.23848
  22869532.220   120180201.24709  22869529.620    93646898.75746
  21398616.480   112450507.75409  21398612.160    87623758.61148
  24556829.000   129047027.66207  24556826.460   100556129.02846
  23202566.120   121930319.36808  23202567.140    95010636.79647
  23988574.000   126060803.00408  23988570.700    98229191.26845
  20102145.260   105637522.41909  20102142.860    82314960.67348
 15 02 09 06 21  0.0000000  0 10G01G03G04G11G14G19G22G27G28G32
  21156359.140   111177446.12309  21156359.420    86631799.41148
  21745559.920   114273701.06009  21745560.420    89044444.58348
  20341974.980   106897820.64909  20341972.700    83297007.95648
  20225946.600   106288084.47009  20225942.780    82821884.38548
  22876897.700   120218906.95608  22876895.160    93677058.99646
  21411595.140   112518711.15109  21411590.880    87676904.06248
  24574120.080   129137892.28308  24574117.760   100626932.37545
  23222139.420   122033177.04909  23222140.460    95090785.51247
  23985881.120   126046651.48808  23985877.560    98218164.12445
  20104510.480   105649951.59209  20104508.080    82324645.72948
 15 02 09 06 21 30.0000000  0 10G01G03G04G11G14G19G22G27G28G32
  21148196.360   111134551.09409  21148196.900    86598374.69148
  21733391.080   114209753.51909  21733391.580    88994615.31848
  20342903.360   106902699.37409  20342901.140    83300809.53348
  20221534.280   106264897.70309  20221530.480    82803816.74248
  22884360.380   120258123.91408  22884357.980    93707617.59546
  21424651.060   112587320.25309  21424646.840    87730365.64348
  24591408.960   129228745.97107  24591406.720   100697727.19646
  23241752.700   122136244.46709  23241753.700    95171097.64447
  23983281.140   126032988.27408  23983277.520    98207517.44645
  20106964.000   105662844.66209  20106961.520    82334692.24548
 15 02 09 06 22  0.0000000  0 10G01G03G04G11G14G19G22G27G28G32
  21140067.540   111091834.03509  21140068.120    86565088.65348
  21721284.700   114146133.64209  21721285.120    88945041.37248
  20343886.020   106907863.46909  20343883.900    83304833.46248
  20217195.560   106242097.72309  20217191.740    82786050.49548
  22891920.780   120297854.75508  22891918.560    93738576.64146
  21437784.600   112656337.69509  21437780.520    87784145.39848
  24608696.320   129319591.24107  24608694.240   100768515.47945
  23261406.220   122239523.40009  23261407.220    95251574.60847
  23980774.800   126019817.22708  23980771.400    98197254.25645
  20109506.200   105676203.95509  20109503.680    82345102.06248
 15 02 09 06 22 30.0000000  0 10G01G03G04G11G14G19G22G27G28G32
  21131971.680   111049289.46009  21131972.140    86531937.00548
  21709239.540   114082835.49209  21709239.900    88895718.13248
  20344921.940   106913307.00009  20344919.840    83309075.15248
  20212929.460   106219679.40309  20212925.720    82768581.65048
  22899577.560   120338091.89608  22899575.460    93769930.19846
  21450994.400   112725755.77809  21450990.380    87838237.35248
  24625980.680   129410420.84008  24625978.800   100839291.50345
  23281098.340   122343005.35109  23281099.280    95332209.76547
  23978360.860   126007131.77908  23978357.460    98187369.48545
  20112135.660   105690021.75809  20112133.160    82355869.15948
 15 02 09 06 23  0.0000000  0 10G01G03G04G11G14G19G22G27G28G32
  21123909.860   111006923.50609  21123910.140    86498924.55348
  21697256.640   114019864.95409  21697256.980    88846650.16448
  20346012.140   106919035.74509  20346010.040    83313539.07848
  20208737.180   106197649.10909  20208733.560    82751415.16048
  22907331.620   120378839.69408  22907329.480    93801681.66746
  21464281.160   112795578.23609  21464277.100    87892644.40548
  24643262.920   129501239.00907  24643261.360   100910058.67445
  23300829.760   122446693.71508  23300830.560    95413005.76447
  23976040.400   125994937.47708  23976036.880    98177867.39945
  20114853.140   105704302.01509  20114850.680    82366996.61348
 15 02 09 06 23 30.0000000  0 10G01G03G04G11G14G19G22G27G28G32
  21115881.880   110964735.93909  21115882.040    86466051.10448
  21685335.840   113957221.35009  21685336.240    88797836.95348
  20347156.600   106925049.48709  20347154.420    83318225.08048
  20204618.880   106176007.28609  20204615.300    82734551.36748
  22915182.480   120420095.69708  22915180.280    93833829.14146
  21477644.540   112865803.04909  21477640.440    87947364.98048
  24660542.520   129592043.24507  24660541.060   100980814.96745
  23320599.740   122550585.32508  23320600.400    95493960.11347
  23973813.180   125983232.94708  23973809.320    98168746.99845
  20117658.100   105719041.99009  20117655.620    82378482.27748
 15 02 09 06 24  0.0000000  0 10G01G03G04G11G14G19G22G27G28G32
  21107887.600   110922725.57009  21107887.780    86433315.73448
  21673477.020   113894903.10609  21673477.640    88749277.28548
  20348354.880   106931346.40109  20348352.700    83323131.72648
  20200574.480   106154753.26109  20200570.840    82717989.75248
  22923129.520   120461856.89908  22923127.320    93866370.27046
  21491083.840   112936426.82109  21491079.800    88002396.43048
  24677818.960   129682830.92707  24677817.640   101051558.37046
  23340407.660   122654676.02708  23340408.340    95575069.61247
  23971678.720   125972016.15008  23971675.000    98160006.60845
  20120549.880   105734238.28609  20120547.420    82390323.52248
 15 02 09 06 24 30.0000000  0 10G01G03G04G11G14G19G22G27G28G32
  21099927.320   110880893.41409  21099927.500    86400719.22548
  21661680.360   113832910.79809  21661681.100    88700971.58448
  20349607.100   106937927.15609  20349605.000    83328259.54848
  20196604.080   106133888.21609  20196600.400    82701731.24548
  22931172.400   120504122.18008  22931170.320    93899304.18346
  21504598.820   113007448.27109  21504594.840    88057737.76248
  24695092.100   129773600.98107  24695090.820   101122288.03745
  23360253.040   122758963.93208  23360253.880    95656332.76147
  23969637.100   125961287.42208  23969633.500    98151646.54645
  20123528.160   105749889.59509  20123525.720    82402519.32548
 15 02 09 06 25  0.0000000  0  9G01G03G04G11G14G19G27G28G32
  21092001.620   110839243.18809  21092001.800    86368264.47148
  21649946.300   113771247.69409  21649946.840    88652922.37748
  20350913.960   106944795.15709  20350911.920    83333611.20248
  20192708.520   106113416.47709  20192704.780    82685779.20848
  22939311.520   120546893.28708  22939309.500    93932632.24546
  21518189.780   113078868.83809  21518185.840    88113390.08848
  23380136.080   122863449.82608  23380137.040    95737750.18947
  23967688.800   125951049.03708  23967685.320    98143668.55345
  20126593.260   105765997.33209  20126590.980    82415070.78448
 15 02 09 06 25 30.0000000  0  9G01G03G04G11G14G19G27G28G32
  21084110.020   110797772.70809  21084110.260    86335949.79248
  21638274.340   113709911.17709  21638275.000    88605127.70648
  20352275.000   106951947.67509  20352273.000    83339184.55248
  20188887.400   106093336.32109  20188883.680    82670132.30748
  22947546.000   120590165.73208  22947544.040    93966350.96746
  21531855.880   113150684.13409  21531851.940    88169350.00248
  23400055.880   122968128.54308  23400056.900    95819317.88347
  23965833.200   125941298.03708  23965829.980    98136070.35145
  20129744.360   105782556.85009  20129742.220    82427974.27848
 15 02 09 06 26  0.0000000  0  9G01G03G04G11G14G19G27G28G32
  21076252.800   110756482.94309  21076253.060    86303775.91548
  21626664.660   113648901.73709  21626665.060    88557587.84748
  20353690.400   106959385.48909  20353688.420    83344980.21048
  20185140.940   106073648.74109  20185137.220    82654791.30248
  22955875.560   120633938.45908  22955873.740    94000459.51246
  21545596.840   113222892.82009  21545592.840    88225616.45548
  23420012.020   123072998.14908  23420013.120    95901034.30447
  23964070.400   125932034.36908  23964067.140    98128851.88345
  20132981.200   105799566.76709  20132979.160    82441228.73148
 15 02 09 06 26 30.0000000  0  9G01G03G04G11G14G19G27G28G32
  21068430.420   110715376.14309  21068430.760    86271744.62348
  21615117.560   113588221.12809  21615117.920    88510304.22748
  20355160.440   106967110.36209  20355158.440    83350999.55548
  20181469.660   106054356.48109  20181466.000    82639758.35048
  22964300.380   120678211.55008  22964298.660    94034957.96346
  21559412.660   113295494.93909  21559408.540    88282189.48048
  23440004.260   123178057.93408  23440005.600    95982898.90847
  23962400.500   125923258.93009  23962397.320    98122013.84445
  20136303.800   105817026.92409  20136301.660    82454834.02048
 15 02 09 06 27  0.0000000  0  9G01G03G04G11G14G19G27G28G32
  21060642.500   110674450.36009  21060642.880    86239854.37248
  21603632.520   113527866.89809  21603632.820    88463274.92248
  20356684.620   106975119.99309  20356682.700    83357240.78148
  20177873.400   106035458.10409  20177869.760    82625032.31448
  22972819.720   120722980.83408  22972817.980    94069843.05646
  21573302.520   113368486.23409  21573298.300    88339065.75048
  23460031.780   123283302.93408  23460033.320    96064907.83347
  23960823.080   125914969.05908  23960819.800    98115554.19445
  20139711.300   105834932.95309  20139709.000    82468786.74148
 15 02 09 06 27 30.0000000  0  9G01G03G04G11G14G19G27G28G32
  21052889.860   110633710.09609  21052890.360    86208108.68548
  21592210.300   113467843.09709  21592210.680    88416503.10748
  20358263.780   106983418.72409  20358261.940    83363707.29148
  20174353.060   106016958.29609  20174349.380    82610616.84648
  22981434.000   120768248.71808  22981432.240    94105116.66346
  21587266.780   113441868.89209  21587262.580    88396246.97648
  23480094.840   123388734.74208  23480096.580    96147062.31547
  23959338.780   125907168.49208  23959335.200    98109475.80045
  20143204.080   105853287.01009  20143201.700    82483088.57448
 15 02 09 06 28  0.0000000  0  9G01G03G04G11G14G19G27G28G32
  21045171.960   110593152.41309  21045172.480    86176505.27548
  21580850.260   113408146.16209  21580850.900    88369986.01748
  20359897.300   106992002.96409  20359895.500    83370396.27348
  20170908.120   105998854.61209  20170904.400    82596510.04648
  22990142.220   120814009.97408  22990140.360    94140774.72546
  21601304.540   113515637.66309  21601300.420    88453729.07548
  23500192.360   123494347.32308  23500194.220    96229357.65647
  23957946.660   125899852.45808  23957943.080    98103774.97345
  20146781.040   105872083.75709  20146778.640    82497735.37348
 15 02 09 06 28 30.0000000  0  9G01G03G04G11G14G19G27G28G32
  21037489.280   110552779.50509  21037489.800    86145045.83248
  21569552.860   113348777.78009  21569553.480    88323724.92148
  20361585.600   107000874.68809  20361583.780    83377309.26348
  20167538.920   105981149.20709  20167535.240    82582713.59248
  22998944.340   120860264.65508  22998942.480    94176817.26146
  21615415.640   113589792.21009  21615411.680    88511511.76448
  23520324.200   123600139.90008  23520326.100    96311793.27147
  23956646.860   125893021.96808  23956643.380    98098452.47945
  20150442.120   105891322.74709  20150439.760    82512726.77148
 15 02 09 06 29  0.0000000  0  9G01G03G04G11G14G19G27G28G32
  21029841.840   110512591.66609  21029842.440    86113730.59748
  21558318.060   113289737.74609  21558318.660    88277719.67148
  20363328.600   107010033.70009  20363326.740    83384446.11548
  20164245.660   105963842.99809  20164242.060    82569228.19648
  23007840.020   120907010.82309  23007838.060    94213242.78346
  21629599.860   113664330.62309  21629595.960    88569593.57548
  23540489.920   123706109.78509  23540491.760    96394367.04347
  23955439.360   125886676.22608  23955435.840    98093507.72145
  20154186.940   105911001.88009  20154184.640    82528061.13648
 15 02 09 06 29 30.0000000  0  9G01G03G04G11G14G19G27G28G32
  21022230.260   110472592.69509  21022230.880    86082562.55248
  21547146.260   113231029.17009  21547146.760    88231972.72348
  20365126.860   107019483.46209  20365125.020    83391809.53148
  20161029.160   105946940.20009  20161025.580    82556057.15048
  23016829.460   120954249.95009  23016827.480    94250052.43146
  21643857.500   113739254.57009  21643853.620    88627975.80448
  23560689.460   123812257.73308  23560691.080    96477079.56047
  23954324.620   125880817.95808  23954321.100    98088942.83445
  20158015.820   105931122.44909  20158013.500    82543739.47348
 15 02 09 06 30  0.0000000  0  9G01G03G04G11G14G19G27G28G32
  21014654.680   110432782.62709  21014655.280    86051541.68948
  21536037.500   113172651.58009  21536037.840    88186483.65548
  20366980.360   107029223.39209  20366978.540    83399399.03848
  20157889.420   105930440.85009  20157885.820    82543200.47648
  23025912.240   121001979.62908  23025910.280    94287244.31547
  21658188.040   113814561.14609  21658183.960    88686656.18648
  23580922.340   123918580.75609  23580923.580    96559928.49947
  23953302.260   125875445.99808  23953299.040    98084756.84845
  20161928.200   105951682.00609  20161925.860    82559759.88048
 15 02 09 06 30 30.0000000  0  9G01G03G04G11G14G19G27G28G32
  21007114.960   110393160.58709  21007115.440    86020667.34048
  21524991.160   113114603.38909  21524991.680    88141251.30248
  20368888.940   107039252.38309  20368887.060    83407213.79948
  20154826.380   105914344.37209  20154822.760    82530657.73548
  23035087.840   121050196.84409  23035085.760    94324816.10446
  21672590.820   113890247.43609  21672586.520    88745632.44748
  23601187.800   124025074.92708  23601188.700    96642910.82546
  23952371.980   125870558.02608  23952368.860    98080948.01945
  20165923.420   105972677.16009  20165921.100    82576119.71148
 15 02 09 06 31  0.0000000  0  9G01G03G04G11G14G19G27G28G32
  20999611.400   110353728.51209  20999611.780    85989941.01248
  21514007.720   113056885.99709  21514008.380    88096276.69548
  20370852.860   107049571.80609  20370850.800    83415254.86548
  20151840.420   105898653.00109  20151836.800    82518430.66048
  23044356.120   121098901.03109  23044353.980    94362767.34046
  21687065.740   113966312.96809  21687061.380    88804904.21548
  23621485.440   124131739.17508  23621486.480    96726025.63946
  23951534.000   125866154.88208  23951530.920    98077516.99145
  20170001.400   105994107.31309  20169999.140    82592818.50948
 15 02 09 06 31 30.0000000  0  9G01G03G04G11G14G19G27G28G32
  20992144.220   110314487.81909  20992144.660    85959363.82548
  21503087.560   112999500.18509  21503088.160    88051560.43448
  20372872.240   107060182.79509  20372870.020    83423523.12748
  20148931.860   105883368.52009  20148928.320    82506520.63648
  23053716.820   121148091.37408  23053714.620    94401097.40446
  21701612.540   114042756.35109  21701608.180    88864470.41548
  23641815.060   124238571.85808  23641816.380    96809271.69747
  23950788.200   125862236.39108  23950785.380    98074463.58345
  20174161.920   106015971.29809  20174159.720    82609855.34648
 15 02 09 06 32  0.0000000  0  9G01G03G04G11G14G19G27G28G32
  20984712.740   110275434.88109  20984713.140    85928932.93348
  21492229.660   112942441.59809  21492230.280    88007099.18448
  20374946.260   107071081.24409  20374944.000    83432015.38548
  20146100.040   105868487.40309  20146096.600    82494924.92348
  23063168.760   121197761.55608  23063166.440    94439801.36546
  21716230.060   114119571.88409  21716225.820    88924326.60048
  23662175.520   124345566.25008  23662176.980    96892643.76947
  23950134.000   125858797.88508  23950131.100    98071784.20245
  20178403.860   106038262.99209  20178401.700    82627225.45948
 15 02 09 06 32 30.0000000  0  9G01G03G04G11G14G19G27G28G32
  20977318.160   110236575.97509  20977318.580    85898653.22348
  21481435.140   112885715.90709  21481435.720    87962897.32648
  20377076.000   107082272.80709  20377073.780    83440736.03948
  20143346.180   105854016.09109  20143342.860    82483648.54448
  23072712.760   121247915.74108  23072710.480    94478882.46546
  21730919.040   114196763.03709  21730914.920    88984475.48248
  23682567.480   124452725.53308  23682568.860    96976144.32447
  23949571.900   125855843.88808  23949569.000    98069482.33145
  20182727.860   106060985.97109  20182725.800    82644931.64348
 15 02 09 06 33  0.0000000  0  9G01G03G04G11G14G19G27G28G32
  20969960.460   110197910.73309  20969960.840    85868524.43448
  21470703.860   112829322.07009  21470704.360    87918954.04748
  20379261.340   107093756.88809  20379259.160    83449684.63948
  20140670.300   105839954.43409  20140667.060    82472691.37848
  23082348.160   121298551.06608  23082346.080    94518338.48946
  21745679.000   114274327.10009  21745674.960    89044914.93448
  23702990.140   124560046.31608  23702991.440    97059770.72646
  23949101.720   125853372.81708  23949098.700    98067556.79945
  20187133.440   106084137.37109  20187131.420    82662971.66548
 15 02 09 06 33 30.0000000  0  9G01G03G04G11G14G19G27G28G32
  20962639.880   110159440.75409  20962640.240    85838547.79548
  21460035.740   112773260.88909  21460036.360    87875270.00248
  20381502.540   107105534.50509  20381500.420    83458861.96648
  20138072.760   105826304.35609  20138069.580    82462054.91648
  23092074.920   121349666.24408  23092073.060    94558168.42546
  21760509.880   114352263.25209  21760505.800    89105644.33848
  23723443.100   124667527.08108  23723444.620    97143521.76547
  23948723.220   125851384.83508  23948720.380    98066007.64045
  20191620.420   106107716.12409  20191618.360    82681344.68648
 15 02 09 06 34  0.0000000  0  9G01G03G04G11G14G19G27G28G32
  20955355.780   110121162.94409  20955356.260    85808720.88948
  21449430.260   112717528.64209  21449430.940    87831842.24948
  20383798.960   107117602.17109  20383796.860    83468265.29648
  20135553.040   105813062.84609  20135549.820    82451736.81848
  23101892.100   121401256.12808  23101890.260    94598368.25646
  21775410.400   114430565.65809  21775406.200    89166659.13248
  23743925.300   124775161.63208  23743927.160    97227392.63347
  23948436.060   125849875.28908  23948432.940    98064831.36945
  20196187.620   106131716.57009  20196185.560    82700046.29948
 15 02 09 06 34 30.0000000  0  9G01G03G04G11G14G19G27G28G32
  20948109.140   110083081.98809  20948109.660    85779047.37848
  21438888.080   112662129.23309  21438888.860    87788673.86448
  20386151.420   107129964.22709  20386149.340    83477898.01748
  20133112.040   105800234.94709  20133108.760    82441741.01148
  23111800.040   121453322.95708  23111798.380    94638939.73346
  21790380.920   114509236.46609  21790376.780    89227960.98748
  23764437.160   124882951.54608  23764439.260    97311384.56847
  23948240.420   125848847.38608  23948237.400    98064030.33145
  20200835.420   106156140.75809  20200833.340    82719078.10048
 15 02 09 06 35  0.0000000  0  9G01G03G04G11G14G19G27G28G32
  20940899.520   110045195.86509  20940900.180    85749525.68348
  21428408.880   112607059.94009  21428409.460    87745762.69648
  20388559.380   107142618.04009  20388557.340    83487758.09448
  20130749.360   105787818.58809  20130746.020    82432065.89048
  23121797.980   121505862.03708  23121796.400    94679879.19446
  21805420.620   114588271.19109  21805416.600    89289546.41748
  23784977.700   124990891.70308  23784979.860    97395493.57347
  23948135.860   125848297.77008  23948132.580    98063602.05545
  20205562.920   106180983.88909  20205560.840    82738436.34848
 15 02 09 06 35 30.0000000  0 10G01G03G04G11G14G19G23G27G28G32
  20933727.660   110007508.13809  20933728.460    85720158.59648
  21417992.940   112552323.51409  21417993.600    87703110.93148
  20391023.400   107155566.64909  20391021.420    83497847.88148
  20128465.820   105775817.91609  20128462.420    82422714.68248
  23131886.000   121558874.29908  23131884.340    94721187.38246
  21820529.840   114667670.65709  21820525.960    89351416.05748
  24821704.900   130438935.75405                                
  23805546.940   125098982.50908  23805549.060    97479719.97447
  23948122.600   125848228.25608  23948119.540    98063547.82745
  20210370.300   106206247.02009  20210368.280    82758121.87648
 15 02 09 06 36  0.0000000  0 10G01G03G04G11G14G19G23G27G28G32
  20926592.320   109970011.63909  20926593.100    85690940.49648
  21407638.860   112497912.03109  21407639.400    87660712.34048
  20393542.040   107168802.40709  20393540.160    83508161.41448
  20126259.980   105764225.19009  20126256.480    82413681.34649
  23142062.240   121612349.99408  23142060.560    94762856.67046
  21835706.660   114747425.19209  21835702.880    89413562.36248
  24801633.720   130333461.09306  24801630.320   101558532.29642
  23826142.900   125207213.68308  23826144.880    97564055.75747
  23948199.140   125848630.38208  23948196.400    98063861.10245
  20215255.720   106231920.15409  20215253.740    82778126.87548
 15 02 09 06 36 30.0000000  0 10G01G03G04G11G14G19G23G27G28G32
  20919496.520   109932722.47509  20919497.220    85661883.96348
  21397349.520   112443840.81609  21397350.040    87618578.90648
  20396118.320   107182340.90809  20396116.480    83518710.84548
  20124134.920   105753056.99409  20124131.320    82404978.81648
  23152329.300   121666302.85508  23152327.460    94804897.79046
  21850953.680   114827548.25009  21850949.940    89475995.83848
  24781560.560   130227975.98606  24781557.740   101476336.07542
  23846767.960   125315598.17708  23846770.080    97648511.01147
  23948368.040   125849518.25708  23948365.560    98064552.91445
  20220221.800   106258016.81209  20220219.820    82798461.90548
 15 02 09 06 37  0.0000000  0 10G01G03G04G11G14G19G23G27G28G32
  20912439.240   109895635.99009  20912440.000    85632985.36648
  21387123.880   112390104.40009  21387124.440    87576706.35548
  20398751.280   107196177.11709  20398749.440    83529492.25848
  20122089.740   105742308.64109  20122085.980    82396603.43849
  23162685.740   121720725.34208  23162683.800    94847304.83746
  21866269.480   114908032.45609  21866265.580    89538710.73448
  24761484.800   130122477.06906  24761482.280   101394129.00644
  23867420.680   125424128.24608  23867423.080    97733079.68547
  23948628.140   125850885.88208  23948625.740    98065618.57845
  20225267.120   106284529.72809  20225265.120    82819121.27848
 15 02 09 06 37 30.0000000  0 10G01G03G04G11G14G19G23G27G28G32
  20905419.100   109858745.13909  20905420.060    85604239.21648
  21376960.480   112336694.91609  21376960.940    87535088.54048
  20401439.440   107210303.23009  20401437.540    83540499.57448
  20120123.100   105731973.43409  20120119.280    82388549.98748
  23173129.580   121775607.91808  23173127.760    94890070.41346
  21881652.120   114988868.26709  21881648.240    89601699.59848
  24741405.440   130016958.92006  24741403.040   101311907.01342
  23888099.180   125532793.63808  23888101.740    97817753.81347
  23948977.940   125852724.33008  23948975.920    98067051.10045
  20230389.800   106311449.03009  20230387.760    82840097.32248
 15 02 09 06 38  0.0000000  0 10G01G03G04G11G14G19G23G27G28G32
  20898438.300   109822060.74309  20898439.300    85575653.94448
  21366861.220   112283622.36809  21366861.560    87493733.28048
  20404184.820   107224729.93709  20404182.880    83551741.11048
  20118237.040   105722062.14009  20118233.240    82380826.85448
  23183662.500   121830958.83608  23183661.000    94933200.90546
  21897103.140   115070063.86209  21897099.360    89664968.81948
  24721324.700   129911433.42506  24721322.340   101229679.30543
  23908804.960   125641602.04808  23908807.460    97902539.39346
  23949418.960   125855042.89108  23949417.380    98068857.71345
  20235591.340   106338782.82409  20235589.300    82861396.34748
 15 02 09 06 38 30.0000000  0 10G01G03G04G11G14G19G23G27G28G32
  20891495.420   109785575.21309  20891496.300    85547223.61748
  21356824.400   112230878.28609  21356824.740    87452633.96748
  20406985.820   107239448.86009  20406983.780    83563210.35448
  20116430.200   105712567.16909  20116426.460    82373428.14049
  23194282.640   121886768.05108  23194281.320    94976688.51546
  21912620.620   115151608.81209  21912616.900    89728510.25948
  24701241.460   129805894.73006  24701239.000   101147441.27242
  23929535.860   125750542.67808  23929538.200    97987427.97846
  23949949.780   125857832.29808  23949948.140    98071031.23645
  20240869.700   106366520.77709  20240867.640    82883010.29148
 15 02 09 06 39  0.0000000  0 10G01G03G04G11G14G19G23G27G28G32
  20884591.180   109749293.09709  20884592.040    85518951.80948
  21346850.640   112178466.32309  21346851.060    87411793.46148
  20409843.120   107254463.90509  20409841.040    83574910.34048
  20114703.460   105703493.21509  20114699.780    82366357.48548
  23204990.260   121943036.75108  23204989.080    95020534.15246
  21928204.860   115233504.81409  21928201.260    89792325.24548
  24681156.780   129700348.49306  24681154.440   101065197.35143
  23950292.120   125859616.89808  23950294.400    98072420.66446
  23950570.760   125861095.38408  23950569.100    98073573.83945
  20246225.260   106394664.71909  20246223.300    82904940.59648
 15 02 09 06 39 30.0000000  0 10G01G03G04G11G14G19G23G27G28G32
  20877726.380   109713218.41909  20877727.360    85490841.64149
  21336940.800   112126389.73309  21336941.240    87371214.27648
  20412757.480   107269778.95209  20412755.460    83586844.09548
  20113057.600   105694844.31209  20113054.000    82359618.03748
  23215785.640   121999766.54608  23215784.540    95064739.08146
  21943856.280   115315753.66809  21943852.760    89856415.17748
  24661071.740   129594800.32506  24661069.360   100982951.97543
  23971073.920   125968825.61608  23971076.300    98157518.16846
  23951282.360   125864834.40508  23951280.840    98076487.29045
  20251658.280   106423215.88409  20251656.480    82927188.21648
 15 02 09 06 40  0.0000000  0 10G01G03G04G11G14G19G23G27G28G32
  20870900.680   109677348.95009  20870901.680    85462891.37948
  21327094.160   112074645.31709  21327094.600    87330893.93348
  20415728.360   107285391.14209  20415726.440    83599009.39548
  20111492.200   105686618.32909  20111488.720    82353208.14048
  23226667.700   122056952.15708  23226666.720    95109299.19346
  21959573.840   115398349.86909  21959570.340    89920775.78048
  24640986.140   129489249.48007  24640983.880   100900704.52044
  23991880.200   126078163.33708  23991882.780    98242716.17546
  23952083.840   125869045.39108  23952082.220    98079768.52445
  20257167.860   106452169.26309  20257166.220    82949749.25148
 15 02 09 06 40 30.0000000  0 10G01G03G04G11G14G19G23G27G28G32
  20864114.080   109641684.60109  20864115.020    85435100.94248
  21317310.600   112023232.09709  21317311.080    87290831.67448
  20418755.620   107301299.53209  20418753.780    83611405.49248
  20110007.240   105678815.04809  20110003.820    82347127.61848
  23237635.980   122114591.28308  23237635.160    95154212.69346
  21975357.080   115481291.02409  21975353.520    89985405.16748
  24620900.260   129383697.28507  24620897.940   100818455.95744
  24012710.320   126187626.82408  24012713.200    98328012.15546
  23952974.800   125873726.45808  23952972.940    98083416.05845
  20262753.500   106481522.03709  20262751.880    82972621.51148
 15 02 09 06 41  0.0000000  0 10G01G03G04G11G14G19G23G27G28G32
  20857367.140   109606228.76409  20857367.960    85407472.97848
  21307590.560   111972152.50109  21307590.880    87251029.35648
  20421839.920   107317507.24909  20421838.080    83624034.82548
  20108603.380   105671437.84809  20108600.000    82341379.10348
  23248690.720   122172684.52808  23248689.960    95199480.05046
  21991206.100   115564577.58709  21991202.560    90050303.69048
  24600814.960   129278148.41007  24600812.680   100736210.00944
  24033564.500   126297216.20608  24033567.620    98413406.24347
  23953955.420   125878878.97808  23953953.440    98087430.95645
  20268415.360   106511274.75509  20268413.640    82995805.39648
 15 02 09 06 41 30.0000000  0 10G01G03G04G11G14G19G23G27G28G32
  20850659.540   109570980.03809  20850660.300    85380006.41248
  21297933.500   111921404.25309  21297933.680    87211485.24648
  20424980.820   107334012.39609  20424978.980    83636895.92948
  20107280.360   105664485.47809  20107277.040    82335961.62948
  23259831.240   122231227.85408  23259830.420    95245098.13646
  22007120.140   115648205.50209  22007116.480    90115468.22948
  24580730.240   129172602.67807  24580728.140   100653966.47143
  24054442.020   126406926.95008  24054445.200    98498894.90647
  23955025.100   125884499.97208  23955022.920    98091810.88545
  20274152.500   106541423.19509  20274150.740    83019297.65648
 15 02 09 06 42  0.0000000  0 10G01G03G04G11G14G19G23G27G28G32
  20843991.620   109535939.45309  20843992.380    85352702.02148
  21288339.540   111870987.42909  21288339.640    87172199.36748
  20428178.300   107350815.07809  20428176.520    83649988.87048
  20106038.360   105657958.79209  20106035.100    82330875.86348
  23271057.040   122290218.90908  23271056.120    95291065.08446
  22023098.680   115732172.70809  22023095.120    90180897.12048
  24560646.600   129067062.64807  24560644.760   100571727.43544
  24075342.340   126516756.83708  24075345.380    98584476.39847
  23956183.920   125890588.34508  23956181.520    98096555.03645
  20279964.600   106571965.67409  20279962.860    83043096.95648
 15 02 09 06 42 30.0000000  0 10G01G03G04G11G14G19G23G27G28G32
  20837363.880   109501109.51209  20837364.520    85325561.76648
  21278808.740   111820903.50209  21278809.060    87133172.93248
  20431432.780   107367917.48009  20431431.080    83663315.36948
  20104877.840   105651860.24509  20104874.640    82326123.70948
  23282368.000   122349657.49108  23282367.020    95337380.77146
  22039141.720   115816478.96909  22039138.260    90246590.22048
  24540564.880   128961532.43107  24540563.380   100489496.00844
  24096265.200   126626705.12708  24096268.020    98670150.16147
  23957431.860   125897144.84008  23957429.180    98101663.95645
  20285851.620   106602901.77109  20285849.900    83067202.96648
 15 02 09 06 43  0.0000000  0 10G01G03G04G11G14G19G23G27G28G32
  20830776.580   109466492.24409  20830777.080    85298587.23748
  21269341.600   111771153.61109  21269342.020    87094406.75648
  20434744.640   107385321.10409  20434742.940    83676876.58348
  20103799.240   105646191.91109  20103796.060    82321706.79148
  23293764.000   122409543.11008  23293763.000    95384044.79646
  22055249.240   115901123.82209  22055245.760    90312547.15448
  24520485.680   128856015.07607  24520484.120   100407274.63544
  24117210.340   126736770.65208  24117212.980    98755915.28047
  23958768.820   125904169.55608  23958766.180    98107137.70345
  20291813.360   106634230.70809  20291811.700    83091615.10148
 15 02 09 06 43 30.0000000  0 10G01G03G04G11G14G19G23G27G28G32
  20824229.520   109432087.03309  20824230.040    85271777.94549
  21259937.760   111721736.10609  21259938.120    87055899.58348
  20438113.580   107403024.68809  20438111.880    83690671.53048
  20102802.420   105640953.23809  20102799.220    82317624.67148
  23305244.320   122469872.07908  23305243.300    95431054.27646
  22071420.520   115986103.55509  22071416.920    90378765.05048
  24500409.120   128750511.56307  24500407.680   100325064.00744
  24138176.980   126846949.52808  24138179.580    98841768.71647
  23960194.460   125911659.98109  23960191.560    98112974.36146
  20297849.160   106665949.12509  20297847.520    83116330.71748
 15 02 09 06 44  0.0000000  0 10G01G03G04G11G14G19G23G27G28G32
  20817722.800   109397894.03309  20817723.360    85245134.01448
  21250597.120   111672650.18109  21250597.480    87017650.77148
  20441539.540   107421027.67509  20441537.760    83704699.78248
  20101887.300   105636144.02609  20101884.160    82313877.19348
  23316808.560   122530641.77708  23316807.460    95478407.18946
  22087655.060   116071415.52409  22087651.280    90445241.82248
  24480335.540   128645023.74407  24480334.060   100242865.63544
  24159164.520   126957238.74208  24159167.240    98927708.10747
  23961708.320   125919614.26108  23961705.320    98119172.44445
  20303958.560   106698054.23609  20303956.940    83141347.64248
 15 02 09 06 44 30.0000000  0 10G01G03G04G11G14G19G23G27G28G32
  20811256.960   109363915.79409  20811257.540    85218657.43548
  21241319.780   111623897.21409  21241320.280    86979661.42248
  20445022.820   107439332.10909  20445021.020    83718962.92548
  20101054.300   105631766.65009  20101051.240    82310466.21148
  23328456.500   122591851.76008  23328455.460    95526103.20646
  22103952.700   116157059.35409  22103948.800    90511977.18248
  24460265.600   128539555.00107  24460264.100   100160682.11944
  24180172.940   127067637.48108  24180175.660    99013732.84747
  23963310.440   125928032.72808  23963307.560    98125732.22746
  20310141.480   106730545.63709  20310139.920    83166665.58048
 15 02 09 06 45  0.0000000  0 10G01G03G04G11G14G19G23G27G28G32
  20804832.380   109330154.53209  20804833.000    85192349.93248
  21232105.980   111575478.53909  21232106.540    86941932.55848
  20448563.700   107457939.55109  20448561.960    83733462.17548
  20100303.820   105627822.96909  20100300.840    82307393.18049
  23340188.080   122653501.22708  23340187.080    95574141.66846
  22120313.280   116243034.36709  22120309.300    90578970.61248
  24440200.000   128434109.17808  24440198.440   100078516.46045
  24201202.040   127178144.79608  24201204.720    99099842.19446
  23965000.880   125936915.74808  23964998.140    98132653.99945
  20316397.800   106763422.77809  20316396.260    83192284.09948
 15 02 09 06 45 30.0000000  0 10G01G03G04G11G14G19G23G27G28G32
  20798448.300   109296606.40409  20798449.000    85166208.50549
  21222954.840   111527389.21809  21222955.520    86904460.33148
  20452161.400   107476845.70509  20452159.760    83748194.18048
  20099635.300   105624309.79709  20099632.320    82304655.60049
  23352002.020   122715583.39308  23352001.060    95622517.31046
  22136735.520   116329334.01309  22136731.680    90646216.98148
  24420138.300   128328683.88808  24420136.700    99996366.78045
  24222250.460   127288753.56108  24222252.940    99186030.59646
  23966778.620   125946257.37708  23966775.720    98139933.13845
  20322726.200   106796678.88109  20322724.680    83218197.90448
 15 02 09 06 46  0.0000000  0 10G01G03G04G11G14G19G23G27G28G32
  20792106.320   109263279.20309  20792107.120    85140239.23749
  21213867.640   111479636.01009  21213868.360    86867250.00848
  20455817.280   107496057.53709  20455815.720    83763164.39348
  20099050.140   105621234.44509  20099047.180    82302259.19248
  23363899.160   122778103.10208  23363898.280    95671233.90146
  22153220.440   116415963.01209  22153216.700    90713720.01148
  24400082.240   128223288.20108  24400080.660    99914240.17045
  24243318.940   127399468.34308  24243321.360    99272301.60546
  23968644.480   125956063.56808  23968641.940    98147574.24745
  20329127.660   106830318.91209  20329126.160    83244410.88048
 15 02 09 06 46 30.0000000  0 10G01G03G04G11G14G19G23G27G28G32
  20785805.780   109230169.26909  20785806.580    85114439.25749
  21204843.520   111432214.16809  21204844.320    86830297.88648
  20459530.620   107515571.10509  20459529.080    83778369.71548
  20098547.600   105618592.94309  20098544.580    82300200.84049
  23375878.360   122841054.19908  23375877.620    95720286.62646
  22169766.780   116502914.94209  22169763.140    90781474.66548
  24380031.420   128117920.04208  24380029.840    99832135.00045
  24264406.120   127510282.16108  24264408.680    99358649.78146
  23970597.660   125966328.18108  23970595.460    98155572.60045
  20335600.900   106864336.19709  20335599.360    83270917.82548
 15 02 09 06 47  0.0000000  0 10G01G03G04G11G14G19G23G27G28G32
  20779547.260   109197279.92009  20779548.020    85088811.16249
  21195882.800   111385125.90509  21195883.680    86793605.70948
  20463301.900   107535388.77909  20463300.300    83793812.01248
  20098128.280   105616388.59009  20098125.120    82298483.12348
  23387939.660   122904436.54008  23387938.940    95769675.41646
  22186374.700   116590190.05109  22186371.160    90849481.14948
  24359986.640   128012583.75908  24359984.920    99750054.67245
  24285512.080   127621195.07908  24285514.980    99445075.15446
  23972638.360   125977052.75508  23972636.040    98163929.33545
  20342146.000   106898731.24209  20342144.560    83297719.10748
 15 02 09 06 47 30.0000000  0 10G01G03G04G11G14G19G23G27G28G32
  20773330.160   109164608.66009  20773330.920    85063353.00949
  21186984.960   111338367.69509  21186985.920    86757170.70748
  20467130.500   107555507.59509  20467128.820    83809488.95848
  20097791.600   105614618.81209  20097788.360    82297104.04348
  23400082.000   122968244.73708  23400081.260    95819396.00946
  22203043.180   116677783.03909  22203039.760    90917735.33848
  24339947.720   127907278.42708  24339945.860    99667998.47045
  24306635.900   127732201.33408  24306639.140    99531573.27946
  23974765.700   125988232.25708  23974763.320    98172640.60345
  20348761.940   106933498.60409  20348760.620    83324810.53048
 15 02 09 06 48  0.0000000  0 10G01G03G04G11G14G19G23G27G28G32
  20767155.280   109132159.32609  20767156.040    85038067.78349
  21178150.480   111291942.18609  21178151.440    86720994.96448
  20471016.940   107575930.61809  20471015.260    83825402.95148
  20097538.180   105613287.15509  20097535.040    82296066.35148
  23412305.600   123032479.64708  23412304.780    95869449.13046
  22219772.300   116765694.60409  22219769.000    90986237.76048
  24319915.660   127802009.11508  24319913.780    99585970.35745
  24327777.680   127843301.45008  24327781.080    99618144.54646
  23976979.960   125999868.62608  23976977.640    98181707.86046
  20355449.040   106968639.26209  20355447.660    83352192.82448
 15 02 09 06 48 30.0000000  0 10G01G03G04G11G14G19G23G27G28G32
  20761022.300   109099930.17709  20761023.060    85012954.11649
  21169378.800   111245846.56509  21169379.740    86685076.26748
  20474960.800   107596655.54009  20474959.160    83841552.19548
  20097367.720   105612391.48709  20097364.680    82295368.38849
  23424609.460   123097136.49408  23424608.540    95919831.02446
  22236561.180   116853920.19909  22236557.820    91054984.88048
  24299890.440   127696775.60008  24299888.460    99503970.15446
  24348936.460   127954490.38608  24348939.860    99704785.01546
  23979280.540   126011958.19808  23979278.420    98191128.21646
  20362206.360   107004148.46209  20362204.880    83379862.29148
 15 02 09 06 49  0.0000000  0 10G01G03G04G11G14G19G23G27G28G32
  20754932.280   109067927.03009  20754933.140    84988016.57049
  21160670.880   111200085.48509  21160671.740    86649418.25848
  20478963.080   107617687.62609  20478961.500    83857940.79548
  20097281.320   105611937.55109  20097278.320    82295014.63848
  23436994.080   123162218.02508  23436993.180    95970543.82546
  22253410.320   116942462.40209  22253406.940    91123978.71548
  24279873.460   127591585.18008  24279871.360    99422003.55646
  24370112.680   128065770.71208  24370116.040    99791496.68546
  23981667.920   126024504.14308  23981665.980    98200904.22045
  20369034.360   107040029.09509  20369032.760    83407821.19648
 15 02 09 06 49 30.0000000  0 10G01G03G04G11G14G19G23G27G28G32
  20748884.680   109036146.99509  20748885.740    84963252.87248
  21152025.920   111154654.94409  21152026.740    86614017.80648
  20483023.080   107639023.17009  20483021.540    83874565.85648
  20097278.400   105611922.10409  20097275.340    82295002.55648
  23449458.320   123227718.16108  23449457.420    96021582.79846
  22270318.560   117031315.59509  22270315.240    91193214.87748
  24259864.400   127486436.22108  24259862.280    99340069.26846
  24391305.100   128177136.24808  24391308.440    99878274.74346
  23984141.160   126037501.44308  23984139.100    98211031.91045
  20375931.880   107076275.31109  20375930.200    83436064.96748
 15 02 09 06 50  0.0000000  0 11G01G03G04G11G14G17G19G23G27G28G32
  20742880.080   109004592.59309  20742881.240    84938664.98549
  21143443.980   111109556.22709  21143444.720    86578875.93448
  20487141.120   107660663.98409  20487139.680    83891428.79348
  20097359.340   105612347.48409  20097356.300    82295333.98448
  23462002.060   123293636.49308  23462001.280    96072947.66145
  24996150.100   131355664.55708  24996150.460   102355055.60545
  22287285.880   117120479.17209  22287282.620    91262692.89948
  24239863.940   127381332.54808  24239861.820    99258170.27546
  24412513.620   128288586.16808  24412516.880    99965118.55447
  23986700.300   126050950.36408  23986698.400    98221511.48945
  20382898.800   107112886.67809  20382897.200    83464593.28348
 15 02 09 06 50 30.0000000  0 11G01G03G04G11G14G17G19G23G27G28G32
  20736915.660   108973249.21809  20736916.840    84914241.53948
  21134922.120   111064773.59509  21134923.000    86543980.36148
  20491314.380   107682594.96609  20491313.040    83908517.82848
  20097521.300   105613198.72809  20097518.300    82295997.25248
  23474622.020   123359955.14408  23474621.220    96124624.42645
  24976711.120   131253507.64807  24976710.000   102275452.73945
  22304308.900   117209935.62509  22304305.700    91332399.12148
  24219869.520   127276260.79409  24219867.380    99176296.16246
  24433734.820   128400102.55308  24433737.980   100052014.14947
  23989342.160   126064833.89208  23989340.440    98232329.75445
  20389931.900   107149845.64209  20389930.300    83493392.44548
 15 02 09 06 51  0.0000000  0 11G01G03G04G11G14G17G19G23G27G28G32
  20730997.900   108942151.13509  20730999.040    84890009.22349
  21126466.700   111020340.12709  21126467.640    86509356.86448
  20495549.240   107704849.53409  20495547.980    83925859.00948
  20097770.800   105614509.83309  20097767.800    82297018.85448
  23487324.200   123426705.49708  23487323.400    96176637.59345
  24957297.180   131151484.58408  24957295.360   102195954.20146
  22321393.600   117299716.11909  22321390.460    91402357.85848
  24199887.880   127171256.60409  24199885.740    99094474.71446
  24454974.600   128511716.39008  24454977.700   100138985.67247
  23992073.080   126079184.02008  23992071.420    98243511.62945
  20397037.140   107187183.50209  20397035.520    83522486.85348
 15 02 09 06 51 30.0000000  0 11G01G03G04G11G14G17G19G23G27G28G32
  20725122.840   108911277.71709  20725124.060    84865951.98449
  21118073.600   110976233.98809  21118074.520    86474988.41649
  20499841.660   107727406.43709  20499840.460    83943435.79148
  20098103.840   105616260.05509  20098100.900    82298382.62448
  23500104.100   123493863.86508  23500103.280    96228968.68245
  24937904.900   131049576.37508  24937902.460   102116545.12046
  22338535.400   117389796.94909  22338532.380    91472550.61448
  24179915.480   127066300.91509  24179913.300    99012691.05246
  24476228.260   128623403.74808  24476231.420   100226014.45647
  23994888.380   126093978.14808  23994886.680    98255039.43545
  20404210.000   107224876.70509  20404208.380    83551858.14748
 15 02 09 06 52  0.0000000  0 11G01G03G04G11G14G17G19G23G27G28G32
  20719291.640   108880634.79409  20719293.000    84842074.35049
  21109743.780   110932459.82209  21109744.540    86440878.63148
  20504192.600   107750270.92309  20504191.420    83961252.23248
  20098521.520   105618454.98809  20098518.620    82300092.92348
  23512962.100   123561432.72308  23512961.180    96281619.62745
  24918535.540   130947790.03508  24918532.980   102037231.06646
  22355734.920   117480180.88209  22355732.000    91542979.56148
  24159953.620   126961400.85109  24159951.400    98930950.74046
  24497496.220   128735167.10907  24497499.640   100313102.46647
  23997788.900   126109219.61908  23997786.940    98266915.85545
  20411450.980   107262927.98009  20411449.360    83581508.45448
 15 02 09 06 52 30.0000000  0 11G01G03G04G11G14G17G19G23G27G28G32
  20713504.440   108850222.88109  20713505.840    84818376.72849
  21101476.860   110889016.85309  21101477.620    86407026.94748
  20508602.020   107773442.69709  20508600.820    83979308.11348
  20099023.780   105621094.50309  20099020.920    82302149.64348
  23525897.740   123629409.54108  23525896.980    96334588.44246
  24899189.760   130846127.42208  24899187.080   101958013.34046
  22372991.680   117570865.42109  22372988.840    91613642.74648
  24140002.700   126856558.37109  24140000.480    98849255.27945
  24518777.980   128847003.69107  24518781.780   100400247.52346
  24000774.040   126124906.04708  24000772.040    98279138.96645
  20418759.560   107301334.94609  20418757.980    83611435.93148
 15 02 09 06 53  0.0000000  0 11G01G03G04G11G14G17G19G23G27G28G32
  20707761.480   108820043.06809  20707762.820    84794859.95549
  21093272.900   110845905.00209  21093273.680    86373433.28048
  20513070.000   107796922.12009  20513068.800    83997603.73048
  20099610.820   105624179.42709  20099607.980    82304553.44548
  23538910.540   123697791.97008  23538909.920    96387873.33246
  24879868.020   130744591.28708  24879865.440   101878894.22246
  22390305.220   117661848.51709  22390302.420    91684538.56448
  24120063.180   126751775.64409  24120060.920    98767606.37645
  24540073.060   128958911.23507  24540077.420   100487447.85646
  24003843.620   126141036.44908  24003841.600    98291708.03945
  20426135.460   107340095.62809  20426133.920    83641639.02948
 15 02 09 06 53 30.0000000  0 11G01G03G04G11G14G17G19G23G27G28G32
  20702062.880   108790096.10509  20702064.080    84771524.61949
  21085131.860   110803123.72209  21085132.720    86340097.19548
  20517596.540   107820709.13209  20517595.360    84016139.01948
  20100282.720   105627710.05709  20100279.880    82307304.55248
  23552000.100   123766577.82808  23551999.700    96441472.57746
  24860570.720   130643183.78008  24860568.120   101799875.33045
  22407675.160   117753127.79209  22407672.380    91755665.17648
  24100135.440   126647054.78409  24100133.140    98686005.67545
  24561381.220   129070887.19907  24561386.140   100574701.50446
  24006997.360   126157609.50408  24006995.340    98304622.00545
  20433578.260   107379207.78509  20433576.740    83672116.00248
 15 02 09 06 54  0.0000000  0 11G01G03G04G11G14G17G19G23G27G28G32
  20696408.160   108760380.02809  20696409.300    84748369.19949
  21077053.240   110760669.82709  21077054.080    86307016.21548
  20522181.180   107844801.30509  20522180.060    84034912.10448
  20101039.040   105631684.13809  20101036.180    82310401.20648
  23565165.620   123835762.13808  23565165.200    96495382.32546
  24841297.800   130541904.13008  24841295.120   101720956.07646
  22425100.520   117844698.37709  22425097.700    91827018.79348
  24080219.400   126542395.35308  24080217.000    98604452.86045
  24582701.560   129182926.23708  24582706.800   100662004.32746
  24010234.520   126174620.32208  24010232.540    98317877.12645
  20441087.000   107418666.49809  20441085.480    83702863.01948
 15 02 09 06 54 30.0000000  0 11G01G03G04G11G14G17G19G23G27G28G32
  20690798.120   108730898.49909  20690799.120    84725396.53849
  21069037.400   110718545.70209  21069038.180    86274192.18949
  20526824.460   107869201.54109  20526823.400    84053925.23248
  20101880.380   105636105.13609  20101877.500    82313846.10348
  23578407.040   123905344.93208  23578406.500    96549602.54946
  24822050.180   130440757.38308  24822047.720   101642140.37546
  22442581.440   117936560.89809  22442578.680    91898599.87348
  24060316.040   126437802.30108  24060313.460    98522951.76445
  24604034.200   129295028.65908  24604039.560   100749356.55646
  24013555.200   126192070.24508  24013553.060    98331474.37345
  20448661.780   107458472.37709  20448660.300    83733880.55648
 15 02 09 06 55  0.0000000  0 11G01G03G04G11G14G17G19G23G27G28G32
  20685233.040   108701653.27009  20685233.940    84702608.00949
  21061084.320   110676751.80009  21061085.060    86241625.49849
  20531526.560   107893910.75209  20531525.480    84073179.13048
