     2.11           OBSERVATION DATA    G                   RINEX VERSION / TYPE
SPIDER V4,0,0,3554                      2015 04 15 07:40    PGM / RUN BY / DATE 
CABS                                                        MARKER NAME         
CABS                                                        MARKER NUMBER       
                                                            OBSERVER / AGENCY   
462287              LEICA GRX1200PRO    8.10/2.127          REC # / TYPE / VERS 
103298              LEIAT504                                ANT # / TYPE        
  5116912.3402   671231.6412  3737143.4301                  APPROX POSITION XYZ 
        0.0600        0.0000        0.0000                  ANTENNA: DELTA H/E/N
     1     1                                                WAVELENGTH FACT L1/2
     4    C1    L1    P2    L2                              # / TYPES OF OBSERV 
    30.000                                                  INTERVAL            
  2015    02    01    00    00    0.0000000     GPS         TIME OF FIRST OBS   
  2015    02    01    23    59   30.0000000     GPS         TIME OF LAST OBS    
    16                                                      LEAP SECONDS        
    30                                                      # OF SATELLITES     
   G 1   802   802   802   802                              PRN / # OF OBS      
   G 2   941   941   941   941                              PRN / # OF OBS      
   G 3   847   847   847   847                              PRN / # OF OBS      
   G 4   832   832   832   832                              PRN / # OF OBS      
   G 5   646   646   646   646                              PRN / # OF OBS      
   G 6   823   823   823   823                              PRN / # OF OBS      
   G 7   671   671   671   671                              PRN / # OF OBS      
   G 9   807   807   807   807                              PRN / # OF OBS      
   G10   752   752   752   752                              PRN / # OF OBS      
   G11   767   767   767   767                              PRN / # OF OBS      
   G12   828   828   828   828                              PRN / # OF OBS      
   G13   792   792   792   792                              PRN / # OF OBS      
   G14   941   941   941   941                              PRN / # OF OBS      
   G15   700   700   700   700                              PRN / # OF OBS      
   G16   658   658   658   658                              PRN / # OF OBS      
   G17   942   942   942   942                              PRN / # OF OBS      
   G18   899   899   899   899                              PRN / # OF OBS      
   G19   750   750   750   750                              PRN / # OF OBS      
   G20   817   817   817   817                              PRN / # OF OBS      
   G21   738   738   738   738                              PRN / # OF OBS      
   G22   657   657   657   657                              PRN / # OF OBS      
   G23   755   755   755   755                              PRN / # OF OBS      
   G24   817   817   817   817                              PRN / # OF OBS      
   G25   856   856   856   856                              PRN / # OF OBS      
   G27   793   793   793   793                              PRN / # OF OBS      
   G28   876   876   876   876                              PRN / # OF OBS      
   G29   771   771   771   771                              PRN / # OF OBS      
   G30   709   709   709   709                              PRN / # OF OBS      
   G31   869   869   869   869                              PRN / # OF OBS      
   G32   768   768   767   767                              PRN / # OF OBS      
BIT 2 OF LLI FLAGS DATA COLLECTED UNDER A/S CONDITION       COMMENT             
SNR is mapped to RINEX snr flag value [2-9]                 COMMENT             
Lx:     = 25dBHz -> 1; 26-27dBHz -> 2; 28-31dBHz -> 3       COMMENT             
       32-35dBHz -> 4; 36-38dBHz -> 5; 39-41dBHz -> 6       COMMENT             
       42-44dBHz -> 7; 45-48dBHz -> 8; >=49dBHz -> 9        COMMENT             
                                                            END OF HEADER       
 15 02 01 00 00  0.0000000  0  5G12G21G25G29G31
  24612550.840   129340073.41206  24612552.360   100784593.82145
  21655055.960   113798118.21408  21655056.900    88673895.73048
  21556088.540   113278089.15608  21556092.820    88268691.66248
  20896385.900   109811453.54009  20896387.360    85567466.67549
  20959941.920   110145248.04109  20959942.740    85827479.61349
 15 02 01 00 00 30.0000000  0  5G12G21G25G29G31
  24628406.320   129423394.37906  24628407.860   100849519.23645
  21643896.660   113739475.70208  21643897.620    88628200.27948
  21566065.760   113330520.29708  21566070.220    88309547.08948
  20905977.900   109861859.80409  20905979.380    85606744.27749
  20959529.040   110143078.12909  20959529.800    85825788.76249
 15 02 01 00 01  0.0000000  0  5G12G21G25G29G31
  24644287.560   129506851.27406  24644289.280   100914550.57145
  21632812.780   113681229.54808  21632813.740    88582813.68048
  21576099.760   113383249.53608  21576104.280    88350634.79948
  20915609.700   109912475.22009  20915611.200    85646184.86349
  20959224.820   110141479.35509  20959225.560    85824542.96349
 15 02 01 00 01 30.0000000  0  5G12G21G25G29G31
  24660193.340   129590436.25006  24660194.980   100979681.73144
  21621803.160   113623373.89608  21621804.140    88537731.37248
  21586189.260   113436270.01708  21586193.720    88391949.44748
  20925279.660   109963291.38708  20925281.200    85685781.87048
  20959027.900   110140444.51309  20959028.640    85823736.59049
 15 02 01 00 02  0.0000000  0  5G12G21G25G29G31
  24676124.040   129674151.49806  24676125.500   101044914.38945
  21610868.540   113565912.46208  21610869.540    88492956.24448
  21596334.700   113489584.00108  21596338.980    88433492.79848
  20934988.040   110014309.39408  20934989.620    85725536.15449
  20958938.840   110139976.56509  20958939.580    85823371.95349
 15 02 01 00 02 30.0000000  0  5G12G21G25G29G31
  24692079.580   129757997.03906  24692080.740   101110248.58445
  21600009.380   113508847.50608  21600010.400    88448490.06248
  21606536.140   113543192.17108  21606540.240    88475265.38148
  20944734.660   110065528.34608  20944736.280    85765447.01948
  20958957.780   110140076.25609  20958958.580    85823449.63249
 15 02 01 00 03  0.0000000  0  5G12G21G25G29G31
  24708059.960   129841973.18406  24708061.020   101175684.51444
  21589226.080   113452180.93208  21589227.100    88404334.30248
  21616793.620   113597095.21708  21616797.620    88517267.74648
  20954519.320   110116947.11808  20954520.960    85805513.58949
  20959084.820   110140744.01609  20959085.660    85823969.96749
 15 02 01 00 03 30.0000000  0  5G12G21G25G29G31
  24724065.420   129926082.60406  24724066.620   101241224.30845
  21578519.500   113395917.36908  21578520.520    88360492.58948
  21627107.740   113651296.41208  21627111.760    88559502.43948
  20964342.400   110168567.82608  20964344.060    85845737.50848
  20959320.740   110141983.80509  20959321.600    85824936.03049
 15 02 01 00 04  0.0000000  0  5G12G21G25G29G31
  24740094.880   130010318.49706  24740096.160   101306862.64945
  21567888.500   113340050.99508  21567889.540    88316960.36648
  21637477.140   113705788.42908  21637481.280    88601963.74348
  20974202.180   110220381.50908  20974203.880    85886111.80048
  20959664.100   110143788.04809  20959664.980    85826341.92749
 15 02 01 00 04 30.0000000  0  4G21G25G29G31
  21557292.260   113284367.04708  21557293.240    88273570.28548
  21647860.800   113760355.22708  21647864.980    88644483.32848
  20984057.420   110272171.10508  20984059.100    85926467.32248
  20960073.820   110145940.90209  20960074.660    85828019.47249
 15 02 01 00 05  0.0000000  0  4G21G25G29G31
  21546830.080   113229387.76208  21546831.020    88230729.29448
  21658357.900   113815517.97308  21658362.060    88687467.27448
  20994006.940   110324455.99408  20994008.600    85967208.78748
  20960649.060   110148963.62209  20960649.860    85830374.83649
 15 02 01 00 05 30.0000000  0  4G21G25G29G31
  21536427.540   113174722.02208  21536428.460    88188132.62648
  21668893.780   113870884.09408  21668897.860    88730609.69548
  21003975.680   110376841.96008  21003977.340    86008029.00748
  20961315.120   110152463.60109  20961315.880    85833102.09149
 15 02 01 00 06  0.0000000  0  4G21G25G29G31
  21526105.520   113120479.69008  21526106.460    88145865.89048
  21679489.060   113926562.29008  21679493.060    88773995.29148
  21013984.220   110429436.83608  21013985.820    86049012.02748
  20962092.720   110156549.68609  20962093.420    85836286.05349
 15 02 01 00 06 30.0000000  0  4G21G25G29G31
  21515862.080   113066650.37608  21515863.040    88103920.98648
  21690141.500   113982541.29508  21690145.460    88817615.28248
  21024030.080   110482227.87108  21024031.600    86090147.88648
  20962979.640   110161210.45609  20962980.320    85839917.81549
 15 02 01 00 07  0.0000000  0  4G21G25G29G31
  21505696.220   113013228.62308  21505697.220    88062293.66148
  21700849.760   114038813.88408  21700853.760    88861464.04248
  21034111.520   110535206.08808  21034113.020    86131429.61248
  20963974.560   110166438.96909  20963975.260    85843991.98149
 15 02 01 00 07 30.0000000  0  4G21G25G29G31
  21495609.580   112960223.01208  21495610.540    88020990.60548
  21711615.280   114095387.63808  21711619.380    88905547.47948
  21044229.820   110588378.07108  21044231.300    86172862.32848
  20965078.940   110172242.77509  20965079.680    85848514.42149
 15 02 01 00 08  0.0000000  0  4G21G25G29G31
  21485597.200   112907607.74908  21485598.160    87979991.71848
  21722433.000   114152235.32208  21722437.120    88949844.37148
  21054379.480   110641715.11008  21054381.000    86214423.64748
  20966287.540   110178594.15809  20966288.300    85853463.54949
 15 02 01 00 08 30.0000000  0  4G21G25G29G31
  21475662.620   112855401.21808  21475663.560    87939311.30848
  21733306.180   114209374.53908  21733310.360    88994368.42448
  21064563.640   110695233.43708  21064565.200    86256126.23548
  20967603.760   110185511.20309  20967604.560    85858853.44449
 15 02 01 00 09  0.0000000  0  4G21G25G29G31
  21465805.960   112803604.34908  21465806.940    87898950.13248
  21744234.680   114266804.31508  21744238.920    89039118.88948
  21074781.800   110748930.53008  21074783.420    86297968.12348
  20969027.420   110192992.61809  20969028.220    85864683.11649
 15 02 01 00 09 30.0000000  0  4G21G25G29G31
  21456027.300   112752217.38108  21456028.340    87858908.35048
  21755218.420   114324524.23708  21755222.760    89084095.44148
  21085033.860   110802805.45008  21085035.480    86339948.58348
  20970558.440   110201038.10709  20970559.240    85870952.32049
 15 02 01 00 10  0.0000000  0  4G21G25G29G31
  21446327.940   112701246.90508  21446329.000    87819191.10548
  21766258.420   114382539.32408  21766262.800    89129301.98648
  21095320.360   110856861.49408  21095321.980    86382070.17548
  20972197.700   110209652.30809  20972198.480    85877664.67849
 15 02 01 00 10 30.0000000  0  4G21G25G29G31
  21436707.560   112650691.58008  21436708.620    87779797.35548
  21777354.140   114440847.09008  21777358.520    89174736.59948
  21105640.540   110911094.56808  21105642.180    86424329.71048
  20973944.660   110218832.46109  20973945.440    85884818.03849
 15 02 01 00 11  0.0000000  0  4G21G25G29G31
  21427167.280   112600557.08808  21427168.300    87740731.52848
  21788506.400   114499452.09208  21788510.820    89220402.82448
  21115995.100   110965508.41908  21115996.780    86466730.10748
  20975800.240   110228583.48909  20975801.000    85892416.23649
 15 02 01 00 11 30.0000000  0  4G21G25G29G31
  21417706.100   112550838.16308  21417707.080    87701989.51848
  21799714.020   114558347.95208  21799718.400    89266295.69248
  21126382.540   111020095.01308  21126384.260    86509265.10748
  20977763.140   110238898.55909  20977763.900    85900453.94449
 15 02 01 00 12  0.0000000  0  4G21G25G29G31
  21408325.160   112501541.07208  21408326.120    87663576.20948
  21810977.900   114617539.43908  21810982.180    89312418.92248
  21136803.620   111074858.23408  21136805.420    86551937.74148
  20979834.280   110249782.42309  20979835.020    85908934.87349
 15 02 01 00 12 30.0000000  0  4G21G25G29G31
  21399024.440   112452665.44808  21399025.400    87625491.32148
  21822297.800   114677025.33508  21822301.960    89358771.55448
  21147257.840   111129795.51308  21147259.680    86594746.00048
  20982013.400   110261233.76509  20982014.140    85917857.99149
 15 02 01 00 13  0.0000000  0  4G21G25G29G31
  21389805.800   112404221.09408  21389806.780    87587742.48448
  21833675.280   114736814.04608  21833679.360    89405360.14648
  21157746.560   111184913.95908  21157748.440    86637695.43848
  20984301.980   110273260.41109  20984302.740    85927229.39949
 15 02 01 00 13 30.0000000  0  4G21G25G29G31
  21380667.700   112356199.92308  21380668.640    87550323.40748
  21845108.580   114796896.62208  21845112.660    89452177.71748
  21168267.880   111240203.50908  21168269.740    86680778.19648
  20986698.380   110285853.53609  20986699.120    85937042.21149
 15 02 01 00 14  0.0000000  0  4G21G25G29G31
  21371609.140   112308597.02408  21371610.080    87513230.25148
  21856596.580   114857267.09508  21856600.700    89499219.62548
  21178820.460   111295657.26508  21178822.260    86723988.90748
  20989201.380   110299006.80009  20989202.100    85947291.50649
 15 02 01 00 14 30.0000000  0  4G21G25G29G31
  21362631.780   112261420.75208  21362632.720    87476469.53448
  21868140.620   114917931.81808  21868144.760    89546490.83847
  21189405.220   111351280.28408  21189406.980    86767331.51748
  20991812.140   110312726.37109  20991812.860    85957982.07349
 15 02 01 00 15  0.0000000  0  4G21G25G29G31
  21353734.860   112214667.10908  21353735.780    87440038.13648
  21879739.840   114978886.36208  21879743.960    89593987.87348
  21200021.040   111407066.63708  21200022.760    86810801.39648
  20994529.780   110327007.57109  20994530.500    85969110.28049
 15 02 01 00 15 30.0000000  0  4G21G25G29G31
  21344918.620   112168337.41608  21344919.500    87403937.08648
  21891394.280   115040131.12008  21891398.440    89641711.05348
  21210667.860   111463015.88808  21210669.560    86854398.20548
  20997354.280   110341850.52109  20997355.040    85980676.21249
 15 02 01 00 16  0.0000000  0  4G21G25G29G31
  21336183.980   112122436.59408  21336184.820    87368170.22848
  21903104.600   115101669.15108  21903108.760    89689662.75148
  21221346.040   111519129.97908  21221347.760    86898123.47148
  21000286.160   110357257.87509  21000287.000    85992681.94049
 15 02 01 00 16 30.0000000  0  4G21G25G29G31
  21327529.580   112076957.57508  21327530.440    87332732.04048
  21914869.320   115163493.08508  21914873.480    89737837.24448
  21232053.960   111575400.37308  21232055.680    86941970.52148
  21003324.060   110373222.15509  21003324.940    86005121.63549
 15 02 01 00 17  0.0000000  0  4G21G25G29G31
  21318957.260   112031909.97108  21318958.120    87297630.03048
  21926689.900   115225610.82908  21926694.120    89786240.65948
  21242792.920   111631833.81608  21242794.600    86985944.62448
  21006469.380   110389750.86809  21006470.280    86018001.13949
 15 02 01 00 17 30.0000000  0  4G21G25G29G31
  21310466.600   111987291.56408  21310467.520    87262862.44448
  21938565.860   115288019.41408  21938570.120    89834870.71448
  21253562.200   111688426.54108  21253563.840    87030042.84148
  21009721.500   110406840.68209  21009722.380    86031317.87149
 15 02 01 00 18  0.0000000  0  4G21G25G29G31
  21302057.920   111943103.78108  21302058.880    87228430.41248
  21950497.200   115350718.80108  21950501.400    89883727.36047
  21264361.440   111745176.84308  21264363.040    87074263.85448
  21013080.300   110424491.29009  21013081.180    86045071.57949
 15 02 01 00 18 30.0000000  0  4G21G25G29G31
  21293731.800   111899349.77008  21293732.780    87194336.39348
  21962484.360   115413711.53308  21962488.500    89932812.59447
  21275191.120   111802087.34008  21275192.700    87118609.68548
  21016546.200   110442704.63609  21016547.040    86059263.79349
 15 02 01 00 19  0.0000000  0  4G21G25G29G31
  21285488.780   111856032.22108  21285489.720    87160582.47148
  21974527.580   115476998.87408  21974531.620    89982127.38947
  21286051.220   111859157.54608  21286052.780    87163079.96348
  21020119.360   110461481.74009  21020120.200    86073895.28849
 15 02 01 00 19 30.0000000  0  4G21G25G29G31
  21277328.440   111813148.95608  21277329.320    87127166.95448
  21986626.260   115540577.67008  21986630.240    90031669.29347
  21296940.840   111916383.03008  21296942.420    87207671.23948
  21023799.120   110480819.03509  21023799.940    86088963.30649
 15 02 01 00 20  0.0000000  0  4G21G25G29G31
  21269250.020   111770696.34108  21269250.840    87094087.01748
  21998779.560   115604443.63208  21998783.560    90081434.96347
  21307859.040   111973758.64508  21307860.600    87252379.49848
  21027584.580   110500711.81409  21027585.400    86104464.16349
 15 02 01 00 20 30.0000000  0  4G21G25G29G31
  21261254.600   111728679.81808  21261255.320    87061346.88048
  22010988.220   115668600.61808  22010992.260    90131427.40647
  21318806.460   112031287.81408  21318808.000    87297207.41448
  21031476.380   110521163.53509  21031477.220    86120400.56049
 15 02 01 00 21  0.0000000  0  4G21G25G29G31
  21253342.160   111687099.73908  21253342.880    87028946.82648
  22023252.140   115733048.12808  22023256.240    90181646.24147
  21329782.760   112088968.64408  21329784.260    87342153.51148
  21035474.400   110542173.37209  21035475.300    86136771.85749
 15 02 01 00 21 30.0000000  0  4G21G25G29G31
  21245511.660   111645950.40408  21245512.380    86996882.41848
  22035570.060   115797779.59008  22035574.260    90232086.33047
  21340786.460   112146793.64108  21340787.960    87387211.94048
  21039577.260   110563734.10209  21039578.200    86153572.41649
 15 02 01 00 22  0.0000000  0  5G16G21G25G29G31
  24571641.220   129124852.10406  24571643.660   100616771.36445
  21237764.900   111605241.13408  21237765.620    86965160.92948
  22047943.680   115862803.36708  22047947.920    90282754.19747
  21351818.960   112204770.31608  21351820.540    87432388.55648
  21043786.500   110585853.56009  21043787.420    86170808.35649
 15 02 01 00 22 30.0000000  0  5G16G21G25G29G31
  24554323.040   129033844.48106  24554325.240   100545856.39445
  21230102.600   111564975.87008  21230103.340    86933785.40548
  22060373.480   115928122.13908  22060377.700    90333651.92747
  21362880.680   112262900.29208  21362882.340    87477684.63048
  21048102.480   110608534.02509  21048103.400    86188481.43949
 15 02 01 00 23  0.0000000  0  5G16G21G25G29G31
  24536999.200   128942806.64306  24537001.300   100474917.85845
  21222521.700   111525138.18508  21222522.500    86902743.06348
  22072856.120   115993718.31708  22072860.280    90384765.82148
  21373968.140   112321165.22908  21373969.800    87523085.87948
  21052521.780   110631757.42209  21052522.660    86206577.58249
 15 02 01 00 23 30.0000000  0  5G16G21G25G29G31
  24519672.540   128851754.44106  24519674.480   100403968.12544
  21215025.140   111485743.35908  21215025.920    86872045.81548
  22085394.300   116059606.57908  22085398.480    90436107.30847
  21385083.900   112379578.90308  21385085.560    87568603.02148
  21057047.080   110655537.79509  21057047.900    86225107.73349
 15 02 01 00 24  0.0000000  0  5G16G21G25G29G31
  24502342.980   128760687.22505  24502344.880   100333006.69345
  21207612.760   111446790.92708  21207613.520    86841693.28648
  22097987.600   116125784.93808  22097991.920    90487674.85247
  21396227.460   112438138.48008  21396229.120    87614233.85248
  21061677.920   110679872.78209  21061678.660    86244070.05249
 15 02 01 00 24 30.0000000  0  5G16G21G25G29G31
  24485010.500   128669604.73205  24485012.360   100262033.35744
  21200284.340   111408279.74908  21200285.060    86811684.58848
  22110635.720   116192251.66508  22110640.180    90539467.09047
  21407398.340   112496841.35908  21407399.920    87659976.34948
  21066413.840   110704760.06509  21066414.540    86263462.73249
 15 02 01 00 25  0.0000000  0  5G16G21G25G29G31
  24467675.140   128578507.10005  24467676.960   100191048.23444
  21193039.840   111370209.52808  21193040.520    86782019.49248
  22123338.480   116259005.51308  22123342.980    90591483.07047
  21418596.060   112555685.22908  21418597.540    87705828.70448
  21071254.520   110730197.91309  21071255.200    86283284.41749
 15 02 01 00 25 30.0000000  0  5G16G21G25G29G31
  24450336.800   128487394.05205  24450338.620   100120051.09144
  21185879.040   111332579.30708  21185879.740    86752697.24448
  22136095.580   116326044.70008  22136100.000    90643721.38947
  21429820.100   112614667.55208  21429821.520    87751788.94848
  21076199.480   110756183.83709  21076200.140    86303533.18349
 15 02 01 00 26  0.0000000  0  5G16G21G25G29G31
  24432996.060   128396267.90105  24432997.840   100049043.72145
  21178802.460   111295391.79408  21178803.220    86723719.97148
  22148907.340   116393370.83208  22148911.580    90696183.29847
  21441070.560   112673789.01908  21441071.960    87797857.60748
  21081248.960   110782718.84409  21081249.580    86324209.80249
 15 02 01 00 26 30.0000000  0  5G16G21G25G29G31
  24415652.840   128305128.79905  24415654.560    99978026.26545
  21171809.980   111258646.25808  21171810.800    86695087.09848
  22161773.460   116460982.23108  22161777.480    90748867.49147
  21452347.080   112733047.61808  21452348.480    87844033.13148
  21086402.400   110809800.35209  21086403.060    86345312.27149
 15 02 01 00 27  0.0000000  0  5G16G21G25G29G31
  24398307.800   128213980.10605  24398309.560    99907001.35944
  21164902.140   111222345.43708  21164903.020    86666800.75648
  22174694.220   116528880.73908  22174698.120    90801775.40947
  21463649.820   112792444.11508  21463651.240    87890316.10348
  21091660.160   110837430.23009  21091660.900    86366842.03649
 15 02 01 00 27 30.0000000  0  5G16G21G25G29G31
  24380961.040   128122822.50105  24380962.760    99835969.45945
  21158078.980   111186489.55508  21158079.880    86638861.12248
  22187669.420   116597065.61008  22187673.340    90854906.47347
  21474978.460   112851976.97408  21474980.000    87936705.33048
  21097021.900   110865606.67709  21097022.760    86388797.70749
 15 02 01 00 28  0.0000000  0  5G16G21G25G29G31
  24363613.040   128031658.34806  24363614.760    99764932.48345
  21151340.920   111151080.81608  21151341.800    86611269.90148
  22200699.160   116665537.76908  22200703.240    90908261.39247
  21486333.160   112911646.58608  21486334.800    87983201.11748
  21102487.740   110894330.11709  21102488.660    86411179.59649
 15 02 01 00 28 30.0000000  0  5G16G21G25G29G31
  24346263.680   127940486.67006  24346265.440    99693889.64444
  21144687.540   111116117.13908  21144688.400    86584025.49048
  22213783.040   116734294.55308  22213787.320    90961838.10047
  21497713.320   112971449.55108  21497714.940    88029800.82048
  21108057.000   110923596.94709  21108057.960    86433984.91049
 15 02 01 00 29  0.0000000  0  5G16G21G25G29G31
  24328912.880   127849307.19806  24328914.540    99622840.69145
  21138118.740   111081598.05108  21138119.600    86557127.50948
  22226920.860   116803334.57608  22226925.240    91015635.52147
  21509118.460   113031383.62208  21509120.000    88076502.68148
  21113729.300   110953405.14209  21113730.260    86457212.06949
 15 02 01 00 29 30.0000000  0  5G16G21G25G29G31
  24311561.220   127758123.22306  24311562.880    99551788.27546
  21131635.060   111047526.34308  21131635.940    86530578.12848
  22240112.980   116872659.72908  22240117.360    91069655.11647
  21520548.720   113091449.87108  21520550.260    88123307.53248
  21119504.940   110983756.12509  21119505.860    86480862.17549
 15 02 01 00 30  0.0000000  0  5G16G21G25G29G31
  24294208.740   127666935.27305  24294210.460    99480732.74645
  21125236.500   111013901.67808  21125237.360    86504377.10548
  22253359.200   116942268.78008  22253363.460    91123895.93147
  21532003.780   113151646.47808  21532005.340    88170213.96748
  21125383.480   111014647.86409  21125384.380    86504933.65249
 15 02 01 00 30 30.0000000  0  5G16G21G25G29G31
  24276855.680   127575744.90805  24276857.580    99409675.34745
  21118923.100   110980724.62108  21118923.980    86478524.86348
  22266659.380   117012161.41108  22266663.540    91178357.70247
  21543483.380   113211972.47008  21543485.000    88217221.21448
  21131364.740   111046079.34009  21131365.600    86529425.69949
 15 02 01 00 31  0.0000000  0  5G16G21G25G29G31
  24259502.580   127484554.28306  24259504.500    99338617.75844
  21112695.320   110947997.38008  21112696.200    86453023.13148
  22280013.720   117082338.97308  22280017.820    91233041.49647
  21554987.820   113272428.68108  21554989.420    88264329.94248
  21137448.780   111078051.12309  21137449.660    86554338.77349
 15 02 01 00 31 30.0000000  0  5G16G21G25G29G31
  24242149.300   127393362.78806  24242151.380    99267559.47744
  21106552.820   110915718.47908  21106553.700    86427870.75149
  22293421.740   117152798.73808  22293425.840    91287945.19247
  21566516.340   113333011.42308  21566517.920    88311537.26448
  21143635.020   111110559.86609  21143635.900    86579670.24649
 15 02 01 00 32  0.0000000  0  5G16G21G25G29G31
  24224795.980   127302170.65705  24224798.040    99196500.68645
  21100495.480   110883886.85108  21100496.320    86403066.89148
  22306883.200   117223539.46408  22306887.420    91343067.82147
  21578068.660   113393719.20308  21578070.240    88358842.01148
  21149923.020   111143603.50809  21149923.960    86605418.53049
 15 02 01 00 32 30.0000000  0  5G16G21G25G29G31
  24207443.140   127210981.03005  24207445.160    99125443.85644
  21094523.640   110852504.69308  21094524.480    86378613.27449
  22320398.460   117294562.63208  22320402.760    91398410.53747
  21589644.960   113454552.86308  21589646.540    88406244.84648
  21156312.860   111177182.60909  21156313.860    86631584.05349
 15 02 01 00 33  0.0000000  0  5G16G21G25G29G31
  24190090.640   127119793.24305  24190092.620    99054388.45645
  21088637.200   110821571.35308  21088638.020    86354509.38348
  22333967.100   117365865.97008  22333971.420    91453971.57447
  21601244.680   113515509.67708  21601246.260    88453743.65448
  21162804.040   111211294.15009  21162805.060    86658164.46749
 15 02 01 00 33 30.0000000  0  5G16G21G25G29G31
  24172738.760   127028608.43506  24172740.720    98983335.39244
  21082836.100   110791086.50608  21082836.920    86330754.96349
  22347589.000   117437448.95608  22347593.260    91509750.52447
  21612867.520   113576588.26808  21612869.140    88501337.35048
  21169396.320   111245936.80009  21169397.360    86685158.73349
 15 02 01 00 34  0.0000000  0  5G16G21G25G29G31
  24155388.220   126937430.51106  24155390.040    98912287.69644
  21077120.980   110761053.42908  21077121.840    86307352.56949
  22361264.520   117509313.80008  22361268.680    91565749.09347
  21624513.780   113637790.14808  21624515.500    88549027.12048
  21176090.000   111281112.09709  21176091.000    86712568.03949
 15 02 01 00 34 30.0000000  0  5G16G21G25G29G31
  24138038.880   126846258.57806  24138040.500    98841244.62544
  21071491.420   110731469.79208  21071492.300    86284300.39649
  22374993.080   117581457.59408  22374997.060    91621965.02947
  21636182.920   113699112.22408  21636184.740    88596810.55848
  21182884.320   111316816.20309  21182885.280    86740389.41149
 15 02 01 00 35  0.0000000  0  5G16G21G25G29G31
  24120691.100   126755094.76606  24120692.580    98770207.92244
  21065947.860   110702338.11608  21065948.740    86261600.39849
  22388774.860   117653881.28108  22388778.640    91678399.06547
  21647875.000   113760554.69208  21647876.880    88644687.80048
  21189779.280   111353049.17109  21189780.180    86768622.88249
 15 02 01 00 35 30.0000000  0  5G16G21G25G29G31
  24103345.320   126663941.63306  24103346.720    98699179.53345
  21060490.380   110673658.78908  21060491.260    86239252.88249
  22402610.000   117726585.74308  22402613.740    91735051.87547
  21659590.100   113822118.05608  21659592.000    88692659.24148
  21196774.840   111389810.97609  21196775.700    86797268.43849
 15 02 01 00 36  0.0000000  0  5G16G21G25G29G31
  24086001.700   126572800.43206  24086003.200    98628160.43544
  21055119.160   110645432.93508  21055120.040    86217258.71449
  22416498.380   117799570.24808  22416502.200    91791922.90247
  21671328.020   113883801.12908  21671329.860    88740723.96748
  21203870.700   111427100.07209  21203871.600    86826324.86649
 15 02 01 00 36 30.0000000  0  5G16G21G25G29G31
  24068659.800   126481668.40506  24068661.400    98557148.50745
  21049833.440   110617656.34408  21049834.320    86195614.63249
  22430439.220   117872830.09308  22430443.200    91849008.47947
  21683087.760   113945598.78008  21683089.540    88788877.96748
  21211065.820   111464910.95609  21211066.760    86855787.88749
 15 02 01 00 37  0.0000000  0  5G16G21G25G29G31
  24051320.140   126390548.04506  24051321.800    98486145.66244
  21044633.580   110590331.01608  21044634.440    86174322.17549
  22444432.760   117946366.19508  22444436.900    91906309.32847
  21694869.320   114007511.36408  21694871.120    88837121.52648
  21218360.260   111503243.69209  21218361.260    86885657.54749
 15 02 01 00 37 30.0000000  0  5G16G21G25G29G31
  24033983.120   126299441.42906  24033984.840    98415153.51745
  21039519.560   110563456.81208  21039520.400    86153381.24549
  22458478.900   118020178.59708  22458483.180    91963825.47147
  21706672.640   114069538.32408  21706674.460    88885454.21048
  21225753.840   111542097.27709  21225754.860    86915933.06049
 15 02 01 00 38  0.0000000  0  5G16G21G25G29G31
  24016649.180   126208350.86506  24016650.820    98344173.89945
  21034491.980   110537036.70608  21034492.740    86132794.16149
  22472577.800   118094268.31708  22472582.220    92021557.71247
  21718497.880   114131680.52908  21718499.740    88933876.69848
  21233246.540   111581471.81809  21233247.580    86946614.51648
 15 02 01 00 38 30.0000000  0  6G16G18G21G25G29G31
  23999319.080   126117280.58306  23999320.700    98273210.07845
  24497968.600   128737688.80605  24497969.980   100315089.77644
  21029551.180   110511072.44308  21029551.860    86112562.28049
  22486729.820   118168637.25308  22486734.320    92079507.51847
  21730345.260   114193939.07808  21730347.180    88982389.84348
  21240838.620   111621368.34909  21240839.640    86977702.71249
 15 02 01 00 39  0.0000000  0  6G16G18G21G25G29G31
  23981993.800   126026235.62706  23981995.260    98202265.97145
  24482906.680   128658538.02205  24482908.700   100253413.94344
  21024697.940   110485568.41508  21024698.560    86092689.01849
  22500935.580   118243289.00008  22500940.040    92137677.70047
  21742215.580   114256317.70008  21742217.480    89030996.55748
  21248530.600   111661789.65709  21248531.560    87009199.82248
 15 02 01 00 39 30.0000000  0  6G16G18G21G25G29G31
  23964669.960   125935198.53906  23964671.380    98131328.01445
  24467830.940   128579314.12405  24467833.280   100191681.19943
  21019928.720   110460505.96108  21019929.340    86073159.84149
  22515191.420   118318204.16508  22515195.800    92196053.14747
  21754104.980   114318796.53208  21754106.820    89079681.34948
  21256318.520   111702715.21909  21256319.440    87041089.86049
 15 02 01 00 40  0.0000000  0  6G16G18G21G25G29G31
  23947350.180   125844182.74806  23947351.660    98060406.64845
  24452744.020   128500031.06705  24452746.000   100129902.29043
  21015245.860   110435897.32108  21015246.480    86053984.28449
  22529499.420   118393393.81408  22529503.800    92254642.47047
  21766015.440   114381386.00208  21766017.200    89128452.35648
  21264204.280   111744154.99609  21264205.200    87073380.59249
 15 02 01 00 40 30.0000000  0  6G16G18G21G25G29G31
  23930034.860   125753190.65606  23930036.440    97989503.74145
  24437646.260   128420692.88305  24437648.240   100068080.40445
  21010649.660   110411743.96708  21010650.280    86035163.49049
  22543859.900   118468858.81208  22543864.180    92313446.35247
  21777947.100   114444086.64608  21777948.740    89177309.99148
  21272187.880   111786108.87409  21272188.760    87106071.91548
 15 02 01 00 41  0.0000000  0  6G16G18G21G25G29G31
  23912723.660   125662219.68106  23912725.200    97918617.30245
  24422537.820   128341298.00706  24422539.820   100006214.43144
  21006139.260   110388041.78908  21006139.920    86016694.26549
  22558271.980   118544594.66108  22558276.180    92372461.28147
  21789899.040   114506894.06608  21789900.620    89226250.82148
  21280268.260   111828571.56809  21280269.160    87139159.71948
 15 02 01 00 41 30.0000000  0  6G16G18G21G25G29G31
  23895417.360   125571274.08706  23895418.720    97847750.61644
  24407419.560   128261852.02605  24407421.720    99944308.58243
  21001715.320   110364794.02208  21001716.020    85998579.13249
  22572736.080   118620603.82307  22572740.240    92431689.18547
  21801871.680   114569810.23308  21801873.220    89275276.39148
  21288445.760   111871544.60009  21288446.680    87172645.19448
 15 02 01 00 42  0.0000000  0  6G16G18G21G25G29G31
  23878115.720   125480353.05606  23878116.840    97776903.09044
  24392291.860   128182355.37605  24392294.100    99882363.17844
  20997377.540   110341998.89208  20997378.220    85980816.70749
  22587251.620   118696883.37207  22587255.820    92491127.78447
  21813864.280   114632831.74708  21813865.860    89324384.05148
  21296719.620   111915023.92009  21296720.540    87206525.17348
 15 02 01 00 42 30.0000000  0  6G16G18G21G25G29G31
  23860819.240   125389459.57906  23860820.300    97706077.02844
  24377155.300   128102811.52305  24377157.580    99820381.07344
  20993126.040   110319657.29208  20993126.720    85963407.67149
  22601818.680   118773434.11407  22601823.060    92550777.70347
  21825877.040   114695959.39008  21825878.700    89373574.41348
  21305089.760   111959009.35009  21305090.700    87240799.52648
 15 02 01 00 43  0.0000000  0  6G16G18G21G25G29G31
  23843528.540   125298596.53206  23843529.620    97635274.68345
  24362010.480   128023224.75205  24362012.280    99758365.47744
  20988961.180   110297770.90008  20988961.840    85946353.34749
  22616437.460   118850257.03907  22616442.000    92610639.71646
  21837910.060   114759193.77308  21837911.820    89422847.94248
  21313556.220   112003500.88709  21313557.120    87275468.24448
 15 02 01 00 43 30.0000000  0  6G16G18G21G25G29G31
  23826243.020   125207760.60006  23826244.140    97564493.43545
  24346857.240   127943593.14705  24346858.820    99696315.00943
  20984882.020   110276334.96108  20984882.660    85929650.02949
  22631107.020   118927346.87007  22631111.640    92670709.73347
  21849962.280   114822529.21908  21849964.120    89472200.22348
  21322117.660   112048491.72609  21322118.580    87310526.03248
 15 02 01 00 44  0.0000000  0  6G16G18G21G25G29G31
  23808963.480   125116956.06806  23808964.520    97493736.67145
  24331696.460   127863921.44405  24331697.760    99634233.24644
  20980889.260   110255352.88708  20980889.860    85913300.35649
  22645827.780   119004705.72707  22645832.460    92730989.35347
  21862034.140   114885967.49408  21862035.980    89521632.63748
  21330774.420   112093983.41709  21330775.360    87345974.09948
 15 02 01 00 44 30.0000000  0  6G16G18G21G25G29G31
  23791690.260   125026184.54006  23791691.240    97423005.60844
  24316528.660   127784213.08705  24316529.580    99572122.93144
  20976982.980   110234825.23108  20976983.560    85897304.79149
  22660599.740   119082333.46307  22660604.420    92791478.47446
  21874125.640   114949508.47708  21874127.400    89571145.09048
  21339526.240   112139974.71509  21339527.220    87381811.46848
 15 02 01 00 45  0.0000000  0  6G16G18G21G25G29G31
  23774423.900   124935448.83206  23774424.860    97352302.47245
  24301354.320   127704471.84905  24301355.120    99509987.00344
  20973163.180   110214752.06008  20973163.760    85881663.36749
  22675423.160   119160230.61107  22675427.620    92852177.52847
  21886236.860   115013152.79808  21886238.480    89620738.05448
  21348373.060   112186465.06509  21348374.040    87418037.70748
 15 02 01 00 45 30.0000000  0  6G16G18G21G25G29G31
  23757164.300   124844748.87507  23757165.280    97281627.20345
  24286173.800   127624698.15406  24286174.500    99447825.75444
  20969429.780   110195132.94708  20969430.360    85866375.75449
  22690297.560   119238394.86007  22690301.640    92913084.72046
  21898367.220   115076897.71808  21898368.740    89670409.40648
  21357314.180   112233450.97609  21357315.180    87454650.09048
 15 02 01 00 46  0.0000000  0  6G16G18G21G25G29G31
  23739912.040   124754087.77907  23739913.100    97210982.21545
  24270987.780   127544896.53606  24270988.620    99385642.78444
  20965783.000   110175969.14108  20965783.600    85851442.92949
  22705223.000   119316827.34707  22705226.800    92974200.92847
  21910516.860   115140744.31508  21910518.380    89720159.98748
  21366349.620   112280932.41809  21366350.620    87491648.61448
 15 02 01 00 46 30.0000000  0  6G16G18G21G25G29G31
  23722666.820   124663463.57307  23722668.040    97140365.97745
  24255796.380   127465066.59106  24255797.300    99323437.64444
  20962222.180   110157256.96608  20962222.800    85836862.01849
  22720198.660   119395524.29407  22720202.400    93035523.21146
  21922685.080   115204688.75408  21922686.620    89769986.80248
  21375478.500   112328904.87509  21375479.500    87529029.74348
 15 02 01 00 47  0.0000000  0  6G16G18G21G25G29G31
  23705429.360   124572880.08306  23705430.700    97069781.46245
  24240600.400   127385212.72206  24240601.600    99261213.97244
  20958747.880   110138999.15208  20958748.440    85822635.15849
  22735224.800   119474487.17907  22735228.720    93097052.73047
  21934872.120   115268732.07308  21934873.640    89819890.66948
  21384700.860   112377368.57209  21384701.840    87566793.65548
 15 02 01 00 47 30.0000000  0  6G16G18G21G25G29G31
  23688199.620   124482337.46906  23688201.060    96999228.79145
  24225400.220   127305336.44806  24225401.700    99198972.76344
  20955359.720   110121194.12508  20955360.260    85808761.11949
  22750301.100   119553713.91507  22750305.260    93158787.84347
  21947077.540   115332872.08508  21947079.100    89869869.88148
  21394015.960   112426319.98208  21394016.960    87604937.60348
 15 02 01 00 48  0.0000000  0  6G16G18G21G25G29G31
  23670978.020   124391837.83606  23670979.460    96928709.62945
  24210196.360   127225440.78005  24210197.980    99136716.44644
  20952057.820   110103842.48908  20952058.360    85795240.36849
  22765427.580   119633204.36907  22765431.980    93220728.45946
  21959301.360   115397108.74308  21959302.980    89919924.40348
  21403423.640   112475757.91308  21403424.660    87643460.65648
 15 02 01 00 48 30.0000000  0  6G16G18G21G25G29G31
  23653764.920   124301382.73506  23653766.300    96858225.14345
  24194989.340   127145528.48306  24194991.180    99074447.15942
  20948842.180   110086944.25508  20948842.740    85782072.91949
  22780604.240   119712958.10007  22780608.780    93282874.21546
  21971543.480   115461441.51008  21971545.100    89970053.83148
  21412923.640   112525680.85709  21412924.680    87682361.64348
 15 02 01 00 49  0.0000000  0  6G16G18G21G25G29G31
  23636560.580   124210973.84106  23636561.820    96787776.67444
  24179779.580   127065601.97705  24179781.860    99012166.83744
  20945712.700   110070498.85608  20945713.280    85769258.32849
  22795830.980   119792974.43107  22795835.460    93345224.57946
  21983803.700   115525869.38208  21983805.340    90020257.36248
  21422515.620   112576086.87908  21422516.640    87721639.05148
 15 02 01 00 49 30.0000000  0  6G16G18G21G25G29G31
  23619365.320   124120612.53106  23619366.440    96717365.27044
  24164567.620   126985663.65205  24164569.940    98949877.29144
  20942669.460   110054506.43008  20942670.040    85756796.70149
  22811107.480   119873252.23707  22811111.820    93407778.70146
  21996081.820   115590391.65608  21996083.520    90070534.44747
  21432199.160   112626973.83909  21432200.120    87761291.21948
 15 02 01 00 50  0.0000000  0  6G16G18G21G25G29G31
  23602180.100   124030303.97706  23602181.260    96646994.97244
  24149354.760   126905720.30505  24149357.300    98887583.84044
  20939713.040   110038970.32508  20939713.600    85744690.65349
  22826434.340   119953795.05207  22826438.480    93470539.31546
  22008378.560   115655011.66108  22008380.320    90120887.68348
  21441974.640   112678344.07309  21441975.560    87801319.95848
 15 02 01 00 50 30.0000000  0  6G16G18G21G25G29G31
  23585003.260   123940039.43606  23585004.540    96576658.98144
  24134139.560   126825763.84805  24134142.100    98825280.15544
  20936841.460   110023879.99908  20936841.980    85732931.96249
  22841809.320   120034591.47707  22841813.380    93533497.54246
  22020691.780   115719717.97408  22020693.520    90171308.17447
  21451839.660   112730184.92708  21451840.580    87841715.42148
 15 02 01 00 51  0.0000000  0  6G16G18G21G25G29G31
  23567836.640   123849828.35206  23567838.040    96506364.64845
  24118923.720   126745804.88606  24118926.320    98762974.52245
  20934056.260   110009243.81308  20934056.780    85721527.15049
  22857233.820   120115648.88607  22857237.980    93596659.15546
  22033022.820   115784517.82708  22033024.480    90221801.55247
  21461795.440   112782502.71209  21461796.360    87882482.51448
 15 02 01 00 51 30.0000000  0  6G16G18G21G25G29G31
  23550679.920   123759669.22406  23550681.380    96436110.78445
  24103707.380   126665842.85005  24103710.080    98700666.50245
  20931356.720   109995057.95008  20931357.300    85710473.23749
  22872707.160   120196963.15507  22872711.500    93660020.91346
  22045370.920   115849406.94208  22045372.480    90272364.48647
  21471840.920   112835292.14708  21471841.860    87923617.13148
 15 02 01 00 52  0.0000000  0  6G16G18G21G25G29G31
  23533533.620   123669564.73906  23533535.040    96365899.49344
  24088491.280   126585881.37905  24088493.880    98638358.89344
  20928742.940   109981322.78208  20928743.560    85699770.51549
  22888229.540   120278534.71607  22888234.060    93723583.16246
  22057736.200   115914386.60408  22057737.720    90322997.96647
  21481975.940   112888552.30808  21481976.980    87965118.54248
 15 02 01 00 52 30.0000000  0  6G16G18G21G25G29G31
  23516397.940   123579515.95906  23516399.280    96295731.61345
  24073275.800   126505922.85906  24073278.160    98576053.60344
  20926214.940   109968038.31608  20926215.600    85689418.98549
  22903800.800   120360362.55807  22903805.460    93787345.10546
  22070118.360   115979455.26708  22070119.860    90373700.81147
  21492200.140   112942280.92808  21492201.200    88006984.99148
 15 02 01 00 53  0.0000000  0  6G16G18G21G25G29G31
  23499273.280   123489525.07706  23499274.560    96225608.85845
  24058061.500   126425970.24006  24058063.800    98513752.94344
  20923772.760   109955204.72308  20923773.460    85679418.79549
  22919420.940   120442446.28607  22919425.600    93851306.44046
  22082517.400   116044612.56008  22082518.860    90424472.71747
  21502513.140   112996476.31408  21502514.260    88049215.15148
 15 02 01 00 53 30.0000000  0  6G16G18G21G25G29G31
  23482159.900   123399593.57107  23482161.220    96155532.36845
  24042848.940   126346026.33905  24042850.840    98451459.02745
  20921416.380   109942821.59208  20921417.040    85669769.60649
  22935089.680   120524785.17107  22935094.280    93915466.60546
  22094933.140   116109857.80108  22094934.620    90475313.15248
  21512914.660   113051136.58108  21512915.740    88091807.55948
 15 02 01 00 54  0.0000000  0  6G16G18G21G25G29G31
  23465058.420   123309724.97907  23465059.900    96085504.92445
  24027638.840   126266095.38606  24027640.680    98389175.24244
  20919146.080   109930890.59908  20919146.680    85660472.73449
  22950807.100   120607380.19007  22950811.620    93979826.35446
  22107365.860   116175192.25608  22107367.400    90526223.11147
  21523404.560   113106261.37208  21523405.640    88134761.92848
 15 02 01 00 54 30.0000000  0  7G16G18G21G25G27G29G31
  23447969.420   123219921.85607  23447971.000    96015528.49245
  24012431.820   126186181.22406  24012433.360    98326904.50944
  20916961.960   109919412.43508  20916962.480    85651528.71949
  22966573.320   120690231.71307  22966577.720    94044385.97246
  24616976.720   129363081.61205  24616981.580   100802412.46843
  22119815.600   116240616.20808  22119817.220    90577202.80548
  21533982.780   113161850.09908  21533983.840    88178077.80948
 15 02 01 00 55  0.0000000  0  7G16G18G21G25G27G29G31
  23430890.840   123130173.34207  23430892.480    95945594.58645
  23997226.220   126106273.92706  23997227.360    98264639.12444
  20914861.400   109908373.85408  20914861.920    85642927.23449
  22982385.720   120773326.24907  22982390.060    94109134.94546
  24602195.420   129285404.61005  24602199.800   100741885.00644
  22132279.880   116306116.52508  22132281.540    90628242.01047
  21544646.440   113217887.79208  21544647.480    88221743.53648
 15 02 01 00 55 30.0000000  0  7G16G18G21G25G27G29G31
  23413825.780   123040495.67007  23413827.300    95875715.90745
  23982024.960   126026391.00806  23982026.020    98202392.72044
  20912847.300   109897789.72908  20912847.860    85634679.87249
  22998247.000   120856677.88807  22998251.280    94174084.25546
  24587431.340   129207818.48905  24587435.460   100681428.35344
  22144761.480   116371707.66608  22144763.120    90679351.98347
  21555398.000   113274387.34808  21555399.020    88265769.14948
 15 02 01 00 56  0.0000000  0  7G16G18G21G25G27G29G31
  23396773.960   122950887.80107  23396775.420    95805891.59045
  23966828.080   125946531.87706  23966829.100    98140164.88745
  20910919.000   109887656.83608  20910919.620    85626784.11549
  23014156.500   120940282.78507  23014160.560    94239230.92046
  24572683.820   129130320.21105  24572688.000   100621040.15043
  22157259.540   116437385.49308  22157261.200    90730529.49347
  21566236.440   113331343.53808  21566237.420    88310150.58348
 15 02 01 00 56 30.0000000  0  7G16G18G21G25G27G29G31
  23379735.220   122861348.60507  23379736.620    95736120.80045
  23951635.520   125866696.01406  23951636.680    98077955.13244
  20909075.900   109877971.58208  20909076.520    85619237.17049
  23030113.520   121024137.15207  23030117.280    94304571.96146
  24557952.460   129052907.01905  24557956.900   100560718.22844
  22169773.520   116503146.69408  22169775.120    90781771.96747
  21577160.780   113388751.31408  21577161.760    88354883.89948
 15 02 01 00 57  0.0000000  0  7G16G18G21G25G27G29G31
  23362709.980   122771880.29907  23362711.280    95666405.26645
  23936448.100   125786887.55106  23936449.400    98015766.77544
  20907318.100   109868734.67008  20907318.740    85612039.57849
  23046118.100   121108241.29407  23046121.680    94370107.64846
  24543237.440   128975580.01105  24543242.080   100500463.48344
  22182303.420   116568991.60308  22182304.940    90833079.67147
  21588170.860   113446609.75908  21588171.860    88399968.39348
 15 02 01 00 57 30.0000000  0  7G16G18G21G25G27G29G31
  23345698.400   122682483.89007  23345699.660    95596745.72845
  23921266.360   125707108.23606  23921267.840    97953601.11344
  20905645.360   109859944.51908  20905645.980    85605190.11849
  23062169.840   121192593.46307  23062173.420    94435836.59046
  24528538.660   128898338.24105  24528543.440   100440275.12444
  22194848.980   116634918.73408  22194850.420    90884451.44147
  21599266.140   113504915.71508  21599267.160    88445401.59548
 15 02 01 00 58  0.0000000  0  7G16G18G21G25G27G29G31
  23328700.800   122593160.93407  23328702.100    95527143.43945
  23906090.740   125627359.93206  23906092.200    97891459.60544
  20904057.620   109851600.90208  20904058.220    85598688.60549
  23078268.480   121277192.27907  23078272.140    94501757.73946
  24513856.080   128821181.32205  24513861.020   100380152.89744
  22207410.000   116700927.01208  22207411.320    90935886.44447
  21610446.080   113563666.60408  21610447.100    88491181.49948
 15 02 01 00 58 30.0000000  0  7G16G18G21G25G27G29G31
  23311717.640   122503914.07007  23311718.940    95457600.44445
  23890921.780   125547647.01706  23890923.360    97829345.73944
  20902555.000   109843704.46308  20902555.560    85592535.54149
  23094414.160   121362038.38207  23094418.000    94567871.58346
  24499190.060   128744110.78505  24499194.980   100320097.98445
  22219986.560   116767017.29408  22219987.840    90987385.34747
  21621710.540   113622861.81208  21621711.580    88537307.62448
 15 02 01 00 59  0.0000000  0  7G16G18G21G25G27G29G31
  23294748.960   122414743.33607  23294750.280    95388116.78045
  23875759.880   125467970.12205  23875761.400    97767259.86144
  20901137.040   109836253.03808  20901137.600    85586729.24449
  23110606.340   121447128.99107  23110610.400    94634175.95446
  24484540.100   128667124.73905  24484544.940   100260108.90845
  22232578.220   116833186.94808  22232579.520    91038946.11047
  21633058.780   113682497.12608  21633059.800    88583776.69248
 15 02 01 00 59 30.0000000  0  7G16G18G21G25G27G29G31
  23277795.540   122325652.72207  23277796.900    95318695.56245
  23860605.860   125388334.57306  23860607.240    97705206.24645
  20899804.100   109829248.57008  20899804.720    85581271.22349
  23126845.320   121532465.60407  23126849.560    94700672.01246
  24469906.660   128590225.54805  24469911.500   100200187.50245
  22245185.260   116899437.55008  22245186.620    91090569.94847
  21644490.780   113742572.66508  21644491.780    88630588.79148
 15 02 01 01 00  0.0000000  0  7G16G18G21G25G27G29G31
  23260857.480   122236642.70307  23260858.900    95249337.12445
  23845459.760   125308741.54806  23845461.240    97643185.74844
  20898555.840   109822689.15608  20898556.500    85576159.99549
  23143130.740   121618046.06607  23143135.000    94767358.07446
  24455289.500   128513412.05905  24455294.360   100140332.88245
  22257807.460   116965767.75408  22257808.900    91142255.81547
  21656005.920   113803085.08208  21656006.920    88677741.30048
 15 02 01 01 00 30.0000000  0  7G16G18G21G25G27G29G31
  23243934.840   122147713.66407  23243936.320    95180041.79745
  23830322.160   125229192.48506  23830323.440    97581199.45744
  20897391.960   109816573.28008  20897392.680    85571394.38449
  23159462.120   121703868.25007  23159466.360    94834232.47646
  24440688.480   128436683.05705  24440693.240   100080544.10745
  22270444.480   117032175.69708  22270445.940    91194002.25247
  21667603.500   113864030.78108  21667604.460    88725231.44448
 15 02 01 01 01  0.0000000  0  7G16G18G21G25G27G29G31
  23227028.540   122058870.54207  23227030.020    95110813.41345
  23815193.900   125149692.84206  23815195.320    97519251.71045
  20896312.940   109810903.06208  20896313.660    85566976.03949
  23175839.860   121789934.22507  23175844.060    94901296.85646
  24426104.040   128360041.50705  24426108.680   100020823.43944
  22283096.620   117098663.19908  22283098.160    91245810.69147
  21679283.660   113925410.47108  21679284.620    88773059.75748
 15 02 01 01 01 30.0000000  0  7G16G18G21G25G27G29G31
  23210138.380   121970112.34607  23210139.860    95041651.21545
  23800075.060   125070242.86506  23800076.460    97457342.63444
  20895318.180   109805675.43208  20895318.840    85562902.56449
  23192263.320   121876240.47807  23192267.400    94968548.45446
  24411535.740   128283484.85305  24411540.200    99961168.96545
  22295763.460   117165227.87708  22295765.040    91297679.24747
  21691045.500   113987219.43608  21691046.520    88821222.57248
 15 02 01 01 02  0.0000000  0  7G16G18G21G25G27G29G31
  23193264.900   121881441.67107  23193266.320    94972557.19545
  23784966.340   124990846.31006  23784968.000    97395475.23644
  20894407.620   109800890.38808  20894408.280    85559173.96349
  23208732.520   121962786.95607  23208736.500    95035987.25145
  24396983.780   128207013.95505  24396988.140    99901581.30945
  22308444.900   117231869.45408  22308446.540    91349607.72847
  21702888.740   114049456.10608  21702889.800    88869718.66848
 15 02 01 01 02 30.0000000  0  7G16G18G21G25G27G29G31
  23176408.280   121792859.42207  23176409.620    94903532.09445
  23769868.100   124911504.36606  23769869.800    97333650.34045
  20893581.160   109796547.30908  20893581.840    85555789.75649
  23225247.160   122049571.92207  23225251.060    95103611.89246
  24382448.040   128130628.10505  24382452.260    99842059.92544
  22321140.780   117298586.68808  22321142.400    91401595.15647
  21714812.780   114112117.40908  21714813.880    88918545.65248
 15 02 01 01 03  0.0000000  0  7G16G18G21G25G27G29G31
  23159568.980   121704368.19507  23159570.340    94834577.90445
  23754781.060   124832221.17306  23754782.760    97271871.24945
  20892838.780   109792645.97108  20892839.440    85552749.75849
  23241807.160   122136595.18807  23241811.000    95171422.22145
  24367928.580   128054327.99605  24367932.680    99782605.34645
  22333851.160   117365379.81308  22333852.680    91453641.72247
  21726817.360   114175201.92308  21726818.480    88967702.40648
 15 02 01 01 03 30.0000000  0  7G16G18G21G25G27G29G31
  23142747.360   121615969.77507  23142748.680    94765696.04745
  23739705.680   124752999.14006  23739707.300    97210139.86945
  20892180.400   109789186.04508  20892181.040    85550053.72249
  23258412.380   122223855.89607  23258416.140    95239417.57945
  24353425.500   127978113.84005  24353429.480    99723217.73744
  22346575.880   117432248.25308  22346577.260    91505746.98447
  21738902.040   114238707.29608  21738903.160    89017187.09748
 15 02 01 01 04  0.0000000  0  7G16G18G21G25G27G29G31
  23125943.620   121527665.67807  23125944.840    94696887.67245
  23724642.400   124673840.97006  23724643.940    97148458.18045
  20891605.840   109786166.58308  20891606.460    85547700.89549
  23275062.640   122311352.84107  23275066.400    95307597.01146
  24338938.640   127901985.34205  24338942.720    99663896.91045
  22359314.760   117499191.30108  22359316.080    91557910.38247
  21751066.360   114302631.07908  21751067.420    89066997.82348
 15 02 01 01 04 30.0000000  0  7G16G18G21G25G27G29G31
  23109158.380   121439458.87507  23109159.520    94628155.10645
  23709591.860   124594749.83806  23709593.440    97086828.78444
  20891115.120   109783587.82908  20891115.740    85545691.48349
  23291757.880   122399086.05207  23291761.640    95375960.54646
  24324468.260   127825943.48405  24324472.480    99604643.54645
  22372067.840   117566209.41508  22372069.240    91610132.27447
  21763310.020   114366971.53408  21763310.980    89117133.23548
 15 02 01 01 05  0.0000000  0  7G16G18G21G25G27G29G31
  23092391.640   121351349.09107  23092392.740    94559498.14646
  23694554.260   124515727.02906  23694555.860    97025252.59045
  20890707.820   109781447.59508  20890708.460    85544023.77249
  23308497.460   122487052.72907  23308501.380    95444505.98446
  24310014.140   127749986.52905  24310018.440    99545456.34544
  22384834.760   117633300.34508  22384836.320    91662410.91147
  21775632.240   114431724.93508  21775633.120    89167590.40648
 15 02 01 01 05 30.0000000  0  7G16G18G21G25G27G29G31
  23075644.040   121263339.90607  23075645.080    94490919.58345
  23679530.280   124436776.75306  23679532.100    96963732.91744
  20890384.060   109779746.40908  20890384.760    85542698.17449
  23325281.420   122575253.34707  23325285.560    95513233.74246
  24295576.440   127674115.91405  24295580.820    99486336.44946
  22397615.700   117700464.82208  22397617.380    91714746.85647
  21788032.740   114496889.92608  21788033.620    89218368.31548
 15 02 01 01 06  0.0000000  0  7G16G18G21G25G27G29G31
  23058915.900   121175432.92107  23058916.920    94422420.64246
  23664520.480   124357901.77906  23664522.540    96902271.91844
  20890143.760   109778483.89408  20890144.500    85541714.40149
  23342109.660   122663686.92007  23342113.940    95582143.01246
  24281155.180   127598331.69405  24281159.720    99427283.85145
  22410410.540   117767702.51708  22410412.360    91767139.85247
  21800511.120   114562464.17908  21800512.060    89269465.11748
 15 02 01 01 06 30.0000000  0  7G16G18G21G25G27G29G31
  23042207.320   121087628.77707  23042208.420    94354001.84346
  23649525.280   124279103.18706  23649527.460    96840870.41845
  20889986.580   109777657.87608  20889987.280    85541070.75449
  23358981.740   122752351.28906  23358986.180    95651232.09646
  24266750.080   127522632.65805  24266754.720    99368297.61646
  22423219.040   117835011.74708  22423220.960    91819588.59047
  21813066.760   114628444.37408  21813067.760    89320878.24348
 15 02 01 01 07  0.0000000  0  7G16G18G21G25G27G29G31
  23025518.780   120999930.15507  23025520.040    94285665.27646
  23634545.380   124200384.38206  23634547.400    96779531.09844
  20889912.480   109777268.25208  20889913.100    85540767.15549
  23375897.740   122841246.07906  23375902.200    95720500.75945
  24252361.260   127447019.44005  24252365.960    99309378.26446
  22436041.180   117902392.40308  22436043.120    91872092.97847
  21825699.240   114694828.53308  21825700.300    89372606.15548
 15 02 01 01 07 30.0000000  0  7G16G18G21G25G27G29G31
  23008850.440   120912337.82607  23008851.840    94217411.52646
  23619581.100   124121747.05106  23619583.020    96718255.28844
  20889921.180   109777313.56408  20889921.680    85540802.46949
  23392857.220   122930369.06806  23392861.700    95789947.21245
  24237988.540   127371490.98105  24237993.220    99250524.96445
  22448876.640   117969843.00008  22448878.500    91924651.88047
  21838407.980   114761613.26308  21838409.040    89424646.19448
 15 02 01 01 08  0.0000000  0  7G16G18G21G25G27G29G31
  22992202.660   120824853.39007  22992204.140    94149241.84846
  23604633.040   124043194.12406  23604634.700    96657045.23245
  20890012.580   109777793.41408  20890012.980    85541176.38149
  23409860.180   123019719.61706  23409864.420    95859571.03045
  24223632.020   127296047.54705  24223636.740    99191737.88846
  22461725.460   118037363.60608  22461727.200    91977265.32847
  21851192.500   114828796.41608  21851193.560    89476996.68948
 15 02 01 01 08 30.0000000  0  7G16G18G21G25G27G29G31
  22975575.900   120737478.97707  22975577.380    94081157.90646
  23589701.580   123964728.38306  23589703.280    96595903.11245
  20890186.420   109778706.88408  20890186.800    85541888.18549
  23426906.300   123109296.85707  23426910.240    95929371.45445
  24209291.620   127220689.24305  24209296.420    99133017.17645
  22474587.440   118104953.75608  22474589.160    92029932.95847
  21864052.380   114896375.59708  21864053.440    89529655.77648
 15 02 01 01 09  0.0000000  0  7G16G18G21G25G27G29G31
  22958970.640   120650217.52907  22958972.100    94013161.99146
  23574787.440   123886353.19206  23574789.000    96534831.56344
  20890442.800   109780054.09608  20890443.180    85542937.96149
  23443995.560   123199100.62307  23443999.220    95999348.42545
  24194967.660   127145417.06905  24194972.540    99074363.58345
  22487462.740   118172613.75708  22487464.460    92082655.01147
  21876987.280   114964349.29408  21876988.400    89582622.27748
 15 02 01 01 09 30.0000000  0  7G16G18G21G25G27G29G31
