     2.11           OBSERVATION DATA    G                   RINEX VERSION / TYPE
SPIDER V4,0,0,3554                      2015 04 17 00:49    PGM / RUN BY / DATE 
CABS                                                        MARKER NAME         
CABS                                                        MARKER NUMBER       
                                                            OBSERVER / AGENCY   
462287              LEICA GRX1200PRO    8.10/2.127          REC # / TYPE / VERS 
103298              LEIAT504                                ANT # / TYPE        
  5116912.3402   671231.6412  3737143.4301                  APPROX POSITION XYZ 
        0.0600        0.0000        0.0000                  ANTENNA: DELTA H/E/N
     1     1                                                WAVELENGTH FACT L1/2
     4    C1    L1    P2    L2                              # / TYPES OF OBSERV 
    30.000                                                  INTERVAL            
  2015    02    21    00    00    0.0000000     GPS         TIME OF FIRST OBS   
  2015    02    21    23    59   30.0000000     GPS         TIME OF LAST OBS    
    16                                                      LEAP SECONDS        
    30                                                      # OF SATELLITES     
   G 1   803   803   803   803                              PRN / # OF OBS      
   G 2   942   942   942   942                              PRN / # OF OBS      
   G 3   846   846   846   846                              PRN / # OF OBS      
   G 4   831   831   831   831                              PRN / # OF OBS      
   G 5   658   658   658   658                              PRN / # OF OBS      
   G 6   827   827   827   827                              PRN / # OF OBS      
   G 7   673   673   673   673                              PRN / # OF OBS      
   G 9   807   807   807   807                              PRN / # OF OBS      
   G10   744   744   743   743                              PRN / # OF OBS      
   G11   767   767   767   767                              PRN / # OF OBS      
   G12   830   830   830   830                              PRN / # OF OBS      
   G13   792   792   792   792                              PRN / # OF OBS      
   G14   942   942   942   942                              PRN / # OF OBS      
   G15   701   701   701   701                              PRN / # OF OBS      
   G16   664   664   664   664                              PRN / # OF OBS      
   G17   942   942   942   942                              PRN / # OF OBS      
   G18   900   900   900   900                              PRN / # OF OBS      
   G19   749   749   749   749                              PRN / # OF OBS      
   G20   777   777   777   777                              PRN / # OF OBS      
   G21   742   742   742   742                              PRN / # OF OBS      
   G22   657   657   657   657                              PRN / # OF OBS      
   G23   755   755   755   755                              PRN / # OF OBS      
   G24   816   816   816   816                              PRN / # OF OBS      
   G25   855   855   855   855                              PRN / # OF OBS      
   G27   800   800   800   800                              PRN / # OF OBS      
   G28   856   856   856   856                              PRN / # OF OBS      
   G29   782   782   782   782                              PRN / # OF OBS      
   G30   719   719   719   719                              PRN / # OF OBS      
   G31   870   870   870   870                              PRN / # OF OBS      
   G32   767   767   767   767                              PRN / # OF OBS      
BIT 2 OF LLI FLAGS DATA COLLECTED UNDER A/S CONDITION       COMMENT             
SNR is mapped to RINEX snr flag value [2-9]                 COMMENT             
Lx:     = 25dBHz -> 1; 26-27dBHz -> 2; 28-31dBHz -> 3       COMMENT             
       32-35dBHz -> 4; 36-38dBHz -> 5; 39-41dBHz -> 6       COMMENT             
       42-44dBHz -> 7; 45-48dBHz -> 8; >=49dBHz -> 9        COMMENT             
                                                            END OF HEADER       
 15 02 21 00 00  0.0000000  0  7G16G18G21G25G27G29G31
  22596464.360   118745227.85307  22596465.900    92528750.68647
  23215946.040   122000635.87607  23215948.140    95065455.89745
  20937492.840   110027406.52208  20937493.540    85735713.36149
  23851650.600   125341367.54406  23851655.700    97668668.20246
  23840721.460   125283853.41405  23840726.540    97623807.37646
  22906339.120   120373690.79107  22906341.500    93797726.07747
  22214049.500   116735631.21808  22214051.020    90962840.46248
 15 02 21 00 00 30.0000000  0  7G16G18G21G25G27G29G31
  22580427.720   118660954.80208  22580429.260    92463083.37747
  23201568.940   121925083.12207  23201571.000    95006583.63445
  20940100.920   110041111.97508  20940101.560    85746392.93749
  23869753.980   125436500.22906  23869758.940    97742797.53846
  23826817.880   125210789.45805  23826822.920    97566874.46246
  22919676.100   120443777.18107  22919678.580    93852338.81946
  22228666.440   116812443.99308  22228668.040    91022694.56248
 15 02 21 00 01  0.0000000  0  7G16G18G21G25G27G29G31
  22564421.800   118576842.81408  22564423.260    92397541.57547
  23187222.000   121849689.48307  23187224.200    94947835.37745
  20942785.960   110055222.01608  20942786.580    85757387.77649
  23887894.620   125531829.39406  23887899.420    97817079.98445
  23812930.480   125137810.25606  23812935.420    97510007.57746
  22933023.460   120513917.92907  22933026.000    93906993.92547
  22243345.280   116889582.10408  22243346.920    91082802.16748
 15 02 21 00 01 30.0000000  0  7G16G18G21G25G27G29G31
  22548447.040   118492894.81008  22548448.460    92332127.55447
  23172906.040   121774459.07007  23172908.340    94889214.29846
  20945547.960   110069736.44508  20945548.580    85768697.72349
  23906072.440   125627354.73806  23906077.200    97891515.27445
  23799059.500   125064916.78606  23799064.220    97453207.51646
  22946381.280   120584113.53707  22946383.860    93961691.77947
  22258085.720   116967043.75508  22258087.360    91143161.87448
 15 02 21 00 02  0.0000000  0  7G16G18G21G25G27G29G31
  22532503.860   118409113.00208  22532505.300    92266843.03747
  23158621.480   121699394.09707  23158623.880    94830722.13245
  20948386.640   110084654.08508  20948387.300    85780321.85649
  23924287.200   125723074.85906  23924291.920    97966102.38244
  23785204.760   124992108.81906  23785209.220    97396474.05646
  22959749.380   120654363.52307  22959752.040    94016432.00147
  22272887.240   117044826.06808  22272888.760    91203771.44848
 15 02 21 00 02 30.0000000  0  7G16G18G21G25G27G29G31
  22516592.580   118325498.52208  22516594.000    92201688.90547
  23144368.860   121624496.52807  23144371.280    94772360.41245
  20951301.620   110099972.56608  20951302.320    85792258.34049
  23942538.500   125818987.65405  23942543.360    98040839.59845
  23771366.060   124919385.66306  23771370.380    97339806.68846
  22973127.740   120724666.97007  22973130.340    94071213.87947
  22287749.060   117122925.21208  22287750.520    91264627.89448
 15 02 21 00 03  0.0000000  0  7G16G18G21G25G27G29G31
  22500713.640   118242054.04508  22500715.060    92136667.24047
  23130148.800   121549769.70007  23130151.060    94714131.75445
  20954292.940   110115692.07108  20954293.680    85804507.31049
  23960826.460   125915092.70706  23960831.460    98115726.64044
  23757543.520   124846748.07205  23757547.780    97283206.00946
  22986516.380   120795024.25907  22986518.840    94126037.72446
  22302670.860   117201339.54508  22302672.280    91325729.95148
 15 02 21 00 03 30.0000000  0  7G16G18G21G25G27G29G31
  22484866.940   118158779.06408  22484868.340    92071777.65347
  23115961.340   121475213.91807  23115963.300    94656036.35845
  20957359.800   110131808.49308  20957360.540    85817065.55849
  23979150.440   126011385.96706  23979155.400    98190760.33244
  23743736.700   124774193.26806  23743740.880    97226669.82945
  22999914.640   120865432.32507  22999917.060    94180901.12246
  22317651.580   117280063.56108  22317653.020    91387073.32347
 15 02 21 00 04  0.0000000  0  7G16G18G21G25G27G29G31
  22469053.360   118075678.05408  22469054.720    92007023.61946
  23101807.360   121400834.08607  23101809.000    94598078.07845
  20960502.440   110148323.00908  20960503.160    85829934.01749
  23997510.640   126107868.48906  23997515.340    98265941.49644
  23729946.120   124701723.73105  23729950.260    97170200.09845
  23013322.940   120935893.49307  23013325.340    94235805.90046
  22332691.160   117359096.86108  22332692.620    91448657.69748
 15 02 21 00 04 30.0000000  0  7G16G18G21G25G27G29G31
  22453272.840   117992751.19808  22453274.200    91942405.30046
  23087686.920   121326630.49407  23087688.360    94540257.12045
  20963720.200   110165232.42608  20963720.920    85843110.19049
  24015906.280   126204536.90306  24015910.720    98341267.51245
  23716171.320   124629337.27005  23716175.460    97113795.07645
  23026740.940   121006405.53807  23026743.320    94290750.32246
  22347788.600   117438434.41208  22347790.100    91510479.14547
 15 02 21 00 05  0.0000000  0  7G16G18G21G25G27G29G31
  22437526.640   117910004.72108  22437527.960    91877927.52547
  23073601.400   121252610.23507  23073602.660    94482579.01445
  20967013.640   110182539.50208  20967014.360    85856596.22549
  24034337.920   126301394.06706  24034342.160    98416740.61045
  23702413.060   124557038.15805  23702417.280    97057458.13746
  23040169.320   121076971.98107  23040171.620    94345737.13746
  22362944.200   117518077.54108  22362945.700    91572538.70147
 15 02 21 00 05 30.0000000  0  7G16G18G21G25G27G29G31
  22421814.440   117827436.77308  22421815.720    91813588.87547
  23059550.560   121178772.42007  23059551.880    94425043.08346
  20970381.840   110200239.44608  20970382.540    85870388.39249
  24052804.440   126398435.13306  24052808.720    98492356.98945
  23688670.780   124484822.74905  23688675.060    97001186.42845
  23053607.420   121147589.26007  23053609.660    94400763.55646
  22378156.780   117598019.90708  22378158.180    91634831.43447
 15 02 21 00 06  0.0000000  0  7G16G18G21G25G27G29G31
  22406137.080   117745051.37808  22406138.280    91749392.45747
  23045535.240   121105121.45607  23045536.700    94367652.74045
  20973824.920   110218332.97008  20973825.620    85884487.24349
  24071305.900   126495660.41306  24071310.260    98568116.92945
  23674944.800   124412692.74406  23674949.120    96944981.25045
  23067055.480   121218258.78807  23067057.660    94455830.69847
  22393426.060   117678260.42908  22393427.380    91697356.48647
 15 02 21 00 06 30.0000000  0  7G16G18G21G25G27G29G31
  22390494.460   117662848.63408  22390495.640    91685338.38147
  23031555.460   121031657.31307  23031557.120    94310407.96045
  20977342.140   110236816.17208  20977342.860    85898889.74149
  24089841.600   126593066.35506  24089846.280    98644017.63645
  23661234.780   124340645.94506  23661239.080    96888840.92845
  23080512.960   121288978.14707  23080515.200    94510936.65146
  22408751.060   117758793.80808  22408752.320    91760109.73847
 15 02 21 00 07  0.0000000  0  7G16G18G21G25G27G29G31
  22374887.600   117580833.96808  22374888.820    91621430.86647
  23017612.520   120958386.57707  23017614.260    94253313.89245
  20980933.880   110255691.09008  20980934.640    85913597.47149
  24108411.880   126690655.16706  24108417.020    98720060.85245
  23647541.280   124268685.84606  23647545.560    96832768.16746
  23093980.520   121359750.49507  23093982.720    94566083.90246
  22424131.960   117839621.09308  22424133.280    91823092.01647
 15 02 21 00 07 30.0000000  0  7G16G18G21G25G27G29G31
  22359316.540   117499007.77408  22359317.840    91557670.20347
  23003706.520   120885310.00107  23003708.420    94196371.11045
  20984599.720   110274955.27508  20984600.500    85928608.52649
  24127016.260   126788423.56805  24127021.820    98796244.00545
  23633863.940   124196810.61106  23633868.260    96776761.51746
  23107457.700   121430573.49607  23107459.860    94621270.62446
  22439567.920   117920737.54008  22439569.280    91886299.61447
 15 02 21 00 08  0.0000000  0  7G16G18G21G25G27G29G31
  22343781.600   117417371.28208  22343782.960    91494057.36847
  22989837.840   120812429.51207  22989839.820    94139581.14045
  20988339.120   110294605.99208  20988339.900    85943920.77349
  24145654.500   126886369.48305  24145660.400    98872565.47545
  23620202.580   124125019.41706  23620206.960    96720820.33746
  23120944.440   121501446.70607  23120946.580    94676496.47946
  22455058.160   118002139.27708  22455059.600    91949729.52247
 15 02 21 00 08 30.0000000  0  7G16G18G21G25G27G29G31
  22328283.340   117335927.29908  22328284.680    91430594.53547
  22976007.040   120739748.18307  22976009.040    94082946.35546
  20992151.960   110314642.64308  20992152.760    85959533.74649
  24164326.420   126984492.05206  24164332.500    98949024.57945
  23606557.280   124053312.82606  23606561.700    96664945.10446
  23134440.700   121572370.06307  23134442.860    94731761.39146
  22470602.320   118083824.09408  22470603.780    92013380.01147
 15 02 21 00 09  0.0000000  0  7G16G18G21G25G27G29G31
  22312822.000   117254677.41508  22312823.300    91367282.94147
  22962214.580   120667268.28007  22962216.500    94026468.52745
  20996037.980   110335064.00008  20996038.840    85975446.49049
  24183031.760   127082789.69205  24183037.780    99025620.11645
  23592927.980   123981690.59706  23592932.480    96609135.59946
  23147946.460   121643343.01907  23147948.600    94787064.96546
  22486199.760   118165789.20508  22486201.300    92077248.90947
 15 02 21 00 09 30.0000000  0  7G16G18G21G25G27G29G31
  22297397.940   117173623.58208  22297399.260    91304124.12047
  22948460.740   120594992.01707  22948462.660    93970149.37345
  20999996.840   110355867.97108  20999997.720    85991657.37449
  24201770.180   127181260.44905  24201775.900    99102350.54145
  23579314.660   123910152.20506  23579319.200    96553391.43446
  23161461.520   121714364.94407  23161463.640    94842406.67646
  22501849.800   118248030.81308  22501851.380    92141333.25147
 15 02 21 00 10  0.0000000  0  7G16G18G21G25G27G29G31
  22282011.680   117092768.46608  22282013.080    91241120.15647
  22934746.200   120522922.32407  22934748.080    93913991.19445
  21004028.380   110377053.80908  21004029.260    86008165.81749
  24220541.600   127279903.60005  24220546.860    99179215.32844
  23565717.480   123838698.27106  23565721.900    96497713.05046
  23174986.020   121785436.62607  23174988.100    94897787.18346
  22517552.080   118330546.84308  22517553.600    92205631.43847
 15 02 21 00 10 30.0000000  0  7G16G18G21G25G27G29G31
  22266663.760   117012114.53908  22266665.140    91178272.95347
  22921071.580   120451062.47107  22921073.400    93857996.51745
  21008132.420   110398620.70608  21008133.300    86024971.19149
  24239345.700   127378718.04206  24239350.380    99256213.55143
  23552136.340   123767329.10306  23552140.720    96442100.72446
  23188519.860   121856557.73507  23188521.980    94953206.19246
  22533306.140   118413334.94808  22533307.560    92270141.62947
 15 02 21 00 11  0.0000000  0  7G16G18G21G25G27G29G31
  22251354.640   116931664.28908  22251355.960    91115584.45747
  22907437.500   120379415.60107  22907439.320    93802167.81845
  21012308.800   110420567.67108  21012309.660    86042072.72449
  24258182.240   127477702.90406  24258186.500    99333344.62345
  23538571.380   123696045.29106  23538575.760    96386554.93746
  23202063.160   121927728.55907  23202065.340    95008663.95046
  22549111.420   118496392.35208  22549112.740    92334861.66047
 15 02 21 00 11 30.0000000  0  8G16G18G21G22G25G27G29G31
  22236085.160   116851422.55408  22236086.400    91053058.44047
  22893845.000   120307987.03807  22893846.820    93746509.21845
  21016557.720   110442895.96708  21016558.560    86059471.39949
  24556428.480   129044896.47205  24556428.260   100554464.02444
  24277051.300   127576859.37706  24277055.220    99410609.38743
  23525023.220   123624849.35006  23525027.520    96331077.61246
  23215616.400   121998951.64507  23215618.560    95064162.42646
  22564967.880   118579718.70108  22564969.180    92399791.25847
 15 02 21 00 12  0.0000000  0  8G16G18G21G22G25G27G29G31
  22220852.560   116771374.79308  22220853.740    90990683.56947
  22880291.320   120236761.94807  22880293.060    93691009.17946
  21020875.700   110465587.00808  21020876.500    86077152.72949
  24538327.380   128949774.71506  24538327.000   100480343.39744
  24295949.340   127676169.05606  24295953.320    99487993.53446
  23511488.580   123553724.31906  23511492.760    96275655.55446
  23229176.360   122070210.04907  23229178.560    95119688.41046
  22580871.840   118663294.47808  22580873.140    92464915.21747
 15 02 21 00 12 30.0000000  0  8G16G18G21G22G25G27G29G31
  22205662.400   116691550.21808  22205663.500    90928482.61246
  22866782.260   120165770.73107  22866783.900    93635691.37445
  21025267.700   110488667.11008  21025268.460    86095137.22749
  24520214.740   128854592.89505  24520214.780   100406175.92045
  24314881.260   127775658.05005  24314885.740    99565517.37144
  23497972.620   123482697.74006  23497976.760    96220310.21346
  23242748.220   122141530.71307  23242750.500    95175262.93146
  22596827.880   118747144.03908  22596829.240    92530252.51747
 15 02 21 00 13  0.0000000  0  8G16G18G21G22G25G27G29G31
  22190512.180   116611935.43708  22190513.260    90866445.13346
  22853315.160   120094999.85707  22853316.780    93580545.24646
  21029730.480   110512119.12008  21029731.220    86113411.51649
  24502088.160   128759337.81806  24502088.680   100331951.39344
  24333844.060   127875308.97505  24333848.700    99643167.40645
  23484472.400   123411753.74206  23484476.520    96165029.19646
  23256328.940   122212897.75707  23256331.420    95230873.57646
  22612832.520   118831248.87408  22612833.900    92595788.73447
 15 02 21 00 13 30.0000000  0  8G16G18G21G22G25G27G29G31
  22175402.980   116532536.01608  22175404.020    90804575.46247
  22839891.240   120024455.95907  22839892.900    93525575.99145
  21034264.420   110535944.99808  21034265.120    86131977.14249
  24483948.760   128664015.58406  24483949.320   100257674.46545
  24352838.040   127975124.10905  24352843.040    99720945.40645
  23470988.600   123340895.87606  23470992.760    96109815.30846
  23269919.060   122284314.12307  23269921.640    95286522.66546
  22628885.900   118915609.70308  22628887.320    92661524.42347
 15 02 21 00 14  0.0000000  0  8G16G18G21G22G25G27G29G31
  22160334.780   116453352.26908  22160335.880    90742873.84947
  22826510.520   119954139.10907  22826512.240    93470783.64146
  21038868.780   110560141.20808  21038869.520    86150831.32749
  24465796.700   128568626.46406  24465797.320   100183345.45644
  24371862.620   128075099.54505  24371867.780    99798848.29445
  23457520.780   123270121.82306  23457524.940    96054666.73645
  23283518.200   122355778.04107  23283520.900    95342208.80946
  22644986.920   119000220.86908  22644988.380    92727455.18347
 15 02 21 00 14 30.0000000  0  8G16G18G21G22G25G27G29G31
  22145308.360   116374388.05908  22145309.540    90681343.30947
  22813173.860   119884054.15208  22813175.700    93416171.99646
  21043543.700   110584708.25708  21043544.480    86169974.48449
  24447632.500   128473174.37806  24447633.320   100108967.39244
  24390917.960   128175236.00705  24390923.380    99876876.67545
  23444069.300   123199433.76606  23444073.440    95999585.17245
  23297126.640   122427291.20207  23297129.520    95397933.30846
  22661135.520   119085081.75408  22661136.920    92793580.52747
 15 02 21 00 15  0.0000000  0  8G16G18G21G22G25G27G29G31
  22130323.500   116295642.42508  22130324.720    90619983.08047
  22799881.080   119814200.33707  22799883.080    93361740.46246
  21048288.300   110609641.41908  21048289.120    86189402.92049
  24429456.260   128377658.90906  24429457.580   100034539.94045
  24410003.100   128275528.87905  24410008.680    99955026.93844
  23430633.560   123128828.46506  23430637.640    95944568.07545
  23310743.880   122498850.11307  23310746.800    95453693.45446
  22677330.440   119170186.05508  22677331.760    92859895.54747
 15 02 21 00 15 30.0000000  0  8G16G18G21G22G25G27G29G31
  22115381.540   116217122.10308  22115382.780    90558798.42247
  22786633.500   119744584.61207  22786635.660    93307494.44146
  21053103.180   110634943.90008  21053104.040    86209119.13749
  24411269.320   128282087.02105  24411270.620    99960068.45044
  24429118.580   128375981.28305  24429124.340   100033301.54344
  23417214.400   123058310.58706  23417218.480    95889619.10246
  23324370.520   122570459.11207  23324373.520    95509492.63146
  22693572.000   119255535.76108  22693573.260    92926401.78447
 15 02 21 00 16  0.0000000  0  8G16G18G21G22G25G27G29G31
  22100482.160   116138825.56908  22100483.440    90497788.15247
  22773430.960   119675205.75507  22773433.140    93253433.00245
  21057987.340   110660610.54908  21057988.240    86229119.12349
  24393071.340   128186457.23605  24393072.800    99885551.88645
  24448263.360   128476587.82305  24448269.260   100111696.22345
  23403811.100   122987876.20606  23403815.200    95834735.19746
  23338005.900   122642114.10306  23338008.880    95565327.66546
  22709858.900   119341123.98008  22709860.160    92993093.88447
 15 02 21 00 16 30.0000000  0  8G16G18G21G22G25G27G29G31
  22085626.060   116060756.02408  22085627.300    90436954.74647
  22760274.180   119606067.14807  22760276.340    93199558.78546
  21062940.760   110686641.02808  21062941.660    86249402.61249
  24374863.140   128090773.02806  24374864.440    99810992.92844
  24467437.420   128577347.86606  24467443.400   100190210.51744
  23390423.900   122917526.25806  23390428.020    95779917.08046
  23351650.140   122713815.95106  23351653.260    95621199.18546
  22726190.660   119426948.48908  22726192.020    93059970.10747
 15 02 21 00 17  0.0000000  0  8G16G18G21G22G25G27G29G31
  22070813.780   115982916.67008  22070814.980    90376300.71747
  22747163.960   119537172.57607  22747165.900    93145874.72646
  21067963.280   110713034.53908  21067964.160    86269968.98549
  24356645.260   127995037.96906  24356646.540    99736394.33844
  24486640.700   128678261.23606  24486646.560   100268844.31144
  23377053.060   122847261.97806  23377057.140    95725165.71446
  23365303.540   122785565.89406  23365306.820    95677108.18646
  22742567.040   119513007.76108  22742568.580    93127029.25347
 15 02 21 00 17 30.0000000  0  8G16G18G21G22G25G27G29G31
  22056045.620   115905309.26808  22056046.860    90315827.43147
  22734100.700   119468524.30908  22734102.340    93092382.60245
  21073054.600   110739789.53708  21073055.460    86290817.03449
  24338418.100   127899254.37705  24338419.360    99661757.87744
  24505872.840   128779326.13606  24505878.580   100347596.14444
  23363698.420   122777083.05006  23363702.520    95670480.83846
  23378966.120   122857363.31006  23378969.340    95733054.18246
  22758987.480   119599298.48108  22758989.240    93194268.75747
 15 02 21 00 18  0.0000000  0  8G16G18G21G22G25G27G29G31
  22041321.560   115827933.90808  22041322.860    90255534.95947
  22721084.420   119400122.64407  22721085.780    93039082.62646
  21078213.980   110766902.23108  21078214.820    86311943.80849
  24320181.780   127803422.23306  24320182.720    99587083.58444
  24525133.120   128880538.67106  24525138.560   100426463.03844
  23350359.580   122706987.13006  23350363.700    95615860.65046
  23392637.440   122929205.53507  23392640.440    95789035.11246
  22775451.080   119685815.31408  22775452.880    93261684.44047
 15 02 21 00 18 30.0000000  0  8G16G18G21G22G25G27G29G31
  22026642.400   115750794.72208  22026643.760    90195426.51647
  22708115.840   119331972.07807  22708117.060    92985978.30146
  21083441.480   110794372.89208  21083442.320    86333349.52049
  24301937.000   127707546.22906  24301937.880    99512375.14745
  24544421.640   128981899.50606  24544426.780   100505445.51544
  23337036.960   122636976.38906  23337041.020    95561306.86246
  23406317.880   123001095.03307  23406320.680    95845052.86446
  22791957.700   119772557.50208  22791959.380    93329275.73547
 15 02 21 00 19  0.0000000  0  8G16G18G21G22G25G27G29G31
  22012008.740   115673894.56708  22012010.160    90135504.33847
  22695195.440   119264075.19907  22695196.640    92933071.65346
  21088736.980   110822201.05308  21088737.820    86355033.80249
  24283684.340   127611629.18306  24283685.440    99437634.73745
  24563738.100   129083407.35805  24563742.980   100584542.49543
  23323730.620   122567051.10106  23323734.640    95506819.64746
  23420007.280   123073031.52107  23420009.980    95901107.22746
  22808506.720   119859522.20108  22808508.200    93397040.41147
 15 02 21 00 19 30.0000000  0  8G16G18G21G22G25G27G29G31
  21997421.100   115597235.89908  21997422.480    90075770.31947
  22682324.000   119196435.63007  22682325.280    92880365.49546
  21094100.260   110850385.32208  21094101.100    86376995.56949
  24265424.320   127515673.91205  24265425.520    99362864.48845
  24583082.300   129185061.27105  24583087.080   100663753.32044
  23310440.620   122497211.86607  23310444.640    95452399.49746
  23433705.760   123145015.45907  23433708.260    95957198.58546
  22825097.620   119946707.00208  22825098.960    93464976.59347
 15 02 21 00 20  0.0000000  0  8G16G18G21G22G25G27G29G31
  21982879.500   115520819.27008  21982880.800    90016224.90847
  22669501.600   119129054.06007  22669503.200    92827860.38146
  21099530.740   110878922.62608  21099531.560    86399232.43049
  24247157.300   127419681.48205  24247159.080    99288065.34345
  24602453.780   129286858.18705  24602458.340   100743075.54745
  23297166.740   122427457.09007  23297170.720    95398045.15946
  23447412.820   123217045.19007  23447415.220    96013325.63946
  22841729.460   120034107.39408  22841730.740    93533080.76147
 15 02 21 00 20 30.0000000  0  8G16G18G21G22G25G27G29G31
  21968385.020   115444650.33408  21968386.260    89956872.49947
  22656729.400   119061936.24208  22656731.340    92775560.80846
  21105028.740   110907814.50708  21105029.520    86421745.58449
  24228884.220   127323657.65906  24228886.300    99213241.69345
  24621852.500   129388799.58805  24621857.020   100822510.38944
  23283909.520   122357789.94407  23283913.520    95343759.11646
  23461129.040   123289123.44307  23461131.340    96069490.49846
  22858402.280   120121723.62508  22858403.520    93601353.12747
 15 02 21 00 21  0.0000000  0  8G16G18G21G22G25G27G29G31
  21953937.580   115368728.44008  21953938.760    89897712.59247
  22644007.400   118995081.71808  22644009.460    92723466.38846
  21110593.380   110937056.61908  21110594.120    86444531.64749
  24210605.180   127227601.95806  24210607.400    99138393.22945
  24641277.900   129490881.24805  24641282.500   100902054.49644
  23270668.440   122288207.64707  23270672.480    95289539.17746
  23474853.800   123361247.19907  23474856.100    96125690.78446
  22875114.960   120209549.97408  22875116.320    93669789.21947
 15 02 21 00 21 30.0000000  0  8G16G18G21G22G25G27G29G31
  21939537.820   115293057.44308  21939539.000    89838748.19147
  22631336.380   118928494.52508  22631338.340    92671580.27846
  21116224.740   110966649.31408  21116225.460    86467590.89649
  24192321.080   127131518.60405  24192323.260    99063523.16645
  24660730.020   129593103.41405  24660734.860   100981708.11844
  23257443.780   122218712.01007  23257447.980    95235386.77546
  23488587.520   123433418.65506  23488589.800    96181928.25446
  22891867.360   120297585.15808  22891868.840    93738388.04147
 15 02 21 00 22  0.0000000  0  8G16G18G21G22G25G27G29G31
  21925185.880   115217637.60508  21925187.060    89779979.49847
  22618716.400   118862175.41808  22618718.100    92619903.07446
  21121922.140   110996589.21608  21121922.840    86490920.69049
  24174031.940   127035408.17506  24174034.000    98988632.03144
  24680208.200   129695462.46905  24680213.220   101061468.40444
  23244235.280   122149301.02907  23244239.580    95181300.32746
  23502329.840   123505635.63406  23502332.000    96238201.18745
  22908658.640   120385824.26908  22908660.240    93807145.75947
 15 02 21 00 22 30.0000000  0  8G16G18G21G22G25G27G29G31
  21910882.280   115142471.94008  21910883.500    89721408.85647
  22606148.000   118796127.50708  22606149.460    92568437.19046
  21127685.300   111026874.80008  21127686.000    86514519.84249
  24155738.400   126939273.96706  24155740.280    98913722.33945
  24699712.200   129797957.46905  24699717.500   101141334.62644
  23231043.040   122079975.49207  23231047.400    95127280.45746
  23516080.900   123577898.57207  23516082.980    96294509.93845
  22925488.360   120474264.97108  22925489.920    93876060.56947
 15 02 21 00 23  0.0000000  0  8G16G18G21G22G25G27G29G31
  21896627.820   115067564.25208  21896629.060    89663039.23847
  22593631.900   118730354.90508  22593633.220    92517185.84646
  21133514.380   111057506.89008  21133515.100    86538389.01248
  24137441.140   126843120.07606  24137442.660    98838797.33645
  24719241.840   129900588.73205  24719247.760   101221306.98544
  23217867.300   122010737.10507  23217871.780    95073328.49846
  23529841.100   123650208.91407  23529843.000    96350855.60145
  22942356.240   120562905.87108  22942357.700    93945131.37446
 15 02 21 00 23 30.0000000  0  8G16G18G21G22G25G27G29G31
  21882421.800   114992911.17108  21882423.080    89604868.02247
  22581167.520   118664854.50108  22581168.820    92466146.59746
  21139407.820   111088477.25508  21139408.560    86562521.76449
  24119139.480   126746943.23206  24119140.800    98763854.41845
  24738796.340   130003348.84905  24738802.420   101301379.75843
  23204707.060   121941580.10507  23204711.640    95019439.94146
  23543609.320   123722560.95707  23543611.020    96407233.78445
  22959260.600   120651738.25208  22959261.880    94014351.38046
 15 02 21 00 24  0.0000000  0  8G16G18G21G22G25G27G29G31
  21868265.680   114918520.10608  21868266.960    89546900.96647
  22568756.340   118599633.90608  22568757.720    92415325.38146
  21145366.580   111119790.85808  21145367.300    86586921.97448
  24100834.860   126650751.43606  24100836.200    98688899.87345
  24758376.280   130106241.63605  24758382.380   101381555.95145
  23191563.380   121872509.97607  23191567.980    94965619.08046
  23557386.420   123794959.75907  23557387.960    96463648.38646
  22976201.780   120740764.56208  22976202.960    94083722.49446
 15 02 21 00 24 30.0000000  0  8G16G18G21G22G25G27G29G31
  21854159.600   114844391.99008  21854160.860    89489138.81447
  22556398.580   118534694.14008  22556400.080    92364722.96646
  21151390.040   111151444.44908  21151390.760    86611587.10549
  24082527.480   126554545.84106  24082528.760    98613934.53945
  24777981.020   130209264.08705  24777986.640   101461833.13444
  23178436.000   121803525.30207  23178440.520    94911864.79946
  23571172.200   123867404.02007  23571173.720    96520098.41446
  22993179.020   120829980.41607  22993180.120    94153241.30846
 15 02 21 00 25  0.0000000  0  8G16G18G21G22G25G27G29G31
  21840104.240   114770530.53208  21840105.480    89431584.43647
  22544095.080   118470039.11108  22544096.700    92314342.43046
  21157478.120   111183437.49608  21157478.840    86636516.75549
  24064218.100   126458330.18606  24064219.440    98538961.39544
  24797610.440   130312415.94305  24797615.720   101542211.15045
  23165325.160   121734627.43807  23165329.640    94858178.16846
  23584966.680   123939894.87006  23584968.600    96576584.74546
  23010191.920   120919383.88207  23010193.040    94222906.32946
 15 02 21 00 25 30.0000000  0  8G16G18G21G22G25G27G29G31
  21826100.080   114696938.29308  21826101.340    89374239.84647
  22531846.360   118405671.39508  22531848.020    92264185.77546
  21163630.540   111215768.57408  21163631.260    86661709.80049
  24045907.340   126362107.64606  24045908.800    98463982.87345
  24817264.160   130415696.21305  24817269.220   101622689.23844
  23152231.000   121665816.98507  23152235.320    94804559.65147
  23598769.980   124012432.33707  23598772.280    96633107.39846
  23027240.120   121008972.80407  23027241.360    94292715.84346
 15 02 21 00 26  0.0000000  0  7G16G18G21G22G27G29G31
  21812147.000   114623614.61208  21812148.300    89317104.51547
  22519652.320   118341590.89908  22519654.020    92214252.93346
  21169846.520   111248433.54608  21169847.200    86687163.02549
  24027595.340   126265877.64406  24027596.600    98388998.50145
  23139152.900   121597090.99507  23139157.100    94751006.95846
  23612581.620   124085013.68606  23612584.240    96689664.27746
  23044322.480   121098741.29907  23044323.840    94362665.29346
 15 02 21 00 26 30.0000000  0  7G16G18G21G22G27G29G31
  21798246.200   114550565.39408  21798247.520    89260183.06047
  22507514.120   118277803.54408  22507515.740    92164548.51746
  21176126.400   111281434.65608  21176127.120    86712878.17648
  24009283.200   126169646.56506  24009284.380    98314013.30445
  23126091.620   121528453.16407  23126095.660    94697522.95546
  23626402.320   124157642.68006  23626405.260    96746258.28246
  23061439.180   121188689.70707  23061440.620    94432754.93946
 15 02 21 00 27  0.0000000  0  7G16G18G21G22G27G29G31
  21784397.340   114477788.96008  21784398.580    89203474.16348
  22495431.340   118214307.69708  22495432.840    92115071.24646
  21182469.140   111314766.19508  21182469.900    86738850.80648
  23990970.640   126073412.91906  23990971.500    98239026.10445
  23113046.340   121459899.47907  23113050.240    94644104.52546
  23640231.360   124230314.96506  23640234.520    96802885.99946
  23078588.820   121278811.17207  23078590.300    94502979.43547
 15 02 21 00 27 30.0000000  0  7G16G18G21G22G27G29G31
  21770601.000   114405288.68508  21770602.220    89146980.44947
  22483404.660   118151107.15108  22483406.100    92065824.08346
  21188874.720   111348427.80308  21188875.480    86765080.63248
  23972658.360   125977180.59706  23972658.960    98164039.95345
  23100017.320   121391431.49307  23100021.140    94590752.87746
  23654068.940   124303032.06406  23654072.260    96859548.64646
  23095771.140   121369104.21908  23095772.620    94573337.61846
 15 02 21 00 28  0.0000000  0  7G16G18G21G22G27G29G31
  21756857.740   114333067.26708  21756858.900    89090704.02547
  22471434.520   118088204.22408  22471435.920    92016808.83246
  21195342.840   111382417.97708  21195343.560    86791566.47848
  23954346.860   125880952.44406  23954347.100    98089057.04345
  23087004.680   121323049.41107  23087008.460    94537468.18546
  23667915.200   124375793.84006  23667918.420    96916246.09646
  23112985.460   121459565.75207  23112986.880    94643827.09646
 15 02 21 00 28 30.0000000  0  7G16G18G21G22G27G29G31
  21743168.100   114261127.88108  21743169.300    89034647.37447
  22459521.680   118025602.70008  22459523.120    91968028.43446
  21201873.440   111416736.44308  21201874.120    86818308.14448
  23936036.680   125784731.74906  23936036.680    98014079.94745
  23074008.580   121254754.26807  23074012.340    94484251.22146
  23681770.180   124448601.17907  23681773.240    96972979.05946
  23130231.420   121550193.82607  23130232.780    94714446.34846
 15 02 21 00 29  0.0000000  0  7G16G18G21G22G27G29G31
  21729532.540   114189472.43208  21729533.720    88978811.96847
  22447666.560   117963304.31708  22447668.020    91919484.25846
  21208466.160   111451381.36308  21208466.800    86845304.18548
  23917728.340   125688521.16507  23917728.220    97939110.72645
  23061029.020   121186545.88107  23061032.740    94431101.85146
  23695633.860   124521453.91107  23695636.680    97029747.37946
  23147508.440   121640985.08707  23147509.700    94785192.74646
 15 02 21 00 29 30.0000000  0  7G16G18G21G22G27G29G31
  21715951.640   114118104.31608  21715952.820    88923200.45748
  22435869.900   117901312.76108  22435871.400    91871179.16346
  21215120.680   111486351.05708  21215121.320    86872553.29748
  23899422.480   125592324.17206  23899422.320    97864152.05945
  23048066.100   121118425.42107  23048069.860    94378020.99046
  23709506.300   124594352.94307  23709508.920    97086551.74446
  23164816.180   121731937.99807  23164817.400    94856065.10146
 15 02 21 00 30  0.0000000  0  7G16G18G21G22G27G29G31
  21702426.020   114047026.75008  21702427.180    88867815.34748
  22424132.340   117839631.52708  22424133.960    91823115.87446
  21221837.020   111521645.55108  21221837.640    86900055.50348
  23881119.600   125496143.98806  23881119.600    97789206.51445
  23035120.000   121050393.76607  23035123.840    94325009.33147
  23723387.640   124667299.08106  23723390.060    97143392.87046
  23182154.200   121823050.18707  23182155.420    94927061.58746
 15 02 21 00 30 30.0000000  0  7G16G18G21G22G27G29G31
  21688955.740   113976239.94608  21688956.880    88812656.80448
  22412453.880   117778260.48808  22412455.600    91775294.30446
  21228614.660   111557261.93508  21228615.220    86927808.53148
  23862819.980   125399981.61306  23862820.360    97714274.82245
  23022190.500   120982449.18507  23022194.360    94272065.51747
  23737277.500   124740290.27306  23737279.820    97200269.09546
  23199521.560   121914316.72307  23199522.940    94998178.32046
 15 02 21 00 31  0.0000000  0  7G16G18G21G22G27G29G31
  21675541.380   113905746.96908  21675542.480    88757727.21448
  22400835.140   117717202.84808  22400836.900    91727716.94346
  21235453.040   111593197.58908  21235453.560    86955810.34148
  23844524.360   125303840.23706  23844525.040    97639359.52445
  23009277.680   120914592.34107  23009281.580    94219190.06346
  23751175.880   124813327.11306  23751178.380    97257180.84445
  23216917.900   122005735.40407  23216919.440    95069413.61746
 15 02 21 00 31 30.0000000  0  7G16G18G21G22G27G29G31
  21662183.440   113835550.54908  21662184.520    88703028.71348
  22389276.500   117656461.42208  22389278.260    91680385.98446
  21242352.280   111629453.26908  21242352.800    86984061.52548
  23826233.500   125207723.05606  23826234.460    97564463.05845
  22996381.660   120846823.98407  22996385.640    94166383.57446
  23765082.820   124886410.14506  23765085.700    97314128.63246
  23234342.700   122097303.70907  23234344.440    95140765.51846
 15 02 21 00 32  0.0000000  0  7G16G18G21G22G27G29G31
  21648881.460   113765648.26708  21648882.540    88648559.40948
  22377777.680   117596034.40008  22377779.380    91633300.00346
  21249311.000   111666021.59708  21249311.520    87012556.32448
  23807947.140   125111628.29506  23807948.220    97489584.07945
  22983501.680   120779139.60607  22983505.740    94113642.53047
  23778997.800   124959534.90406  23779000.860    97371108.92945
  23251794.620   122189014.24907  23251796.500    95212228.24446
 15 02 21 00 32 30.0000000  0  7G16G18G21G22G27G29G31
  21635636.140   113696043.79008  21635637.240    88594322.16248
  22366339.160   117535924.71908  22366340.800    91586461.29646
  21256329.200   111702902.65508  21256329.780    87041294.80948
  23789665.900   125015559.26006  23789667.040    97414725.11545
  22970638.000   120711540.30907  22970642.060    94060967.79047
  23792921.060   125032702.29206  23792924.040    97428122.44645
  23269273.280   122280864.79107  23269275.260    95283800.06446
 15 02 21 00 33  0.0000000  0  7G16G18G21G22G27G29G31
  21622448.000   113626739.88608  21622449.160    88540319.13048
  22354961.580   117476135.51608  22354963.100    91539872.31546
  21263406.660   111740095.25008  21263407.300    87070276.05048
  23771390.460   124919519.69506  23771391.300    97339889.14445
  22957790.680   120644027.05007  22957794.740    94008360.07347
  23806852.860   125105913.32306  23806855.640    97485169.97245
  23286778.260   122372853.35407  23286780.240    95355479.43146
 15 02 21 00 33 30.0000000  0  7G16G18G21G22G27G29G31
  21609318.020   113557741.38308  21609319.200    88486554.06748
  22343645.900   117416671.32708  22343647.240    91493536.59646
  21270543.580   111777600.22308  21270544.280    87099500.70448
  23753121.580   124823514.16506  23753122.080    97265079.67645
  22944960.180   120576602.24607  22944964.220    93955821.28547
  23820793.380   125179169.91806  23820796.040    97542252.97746
  23304309.360   122464979.32307  23304311.280    95427265.86146
 15 02 21 00 34  0.0000000  0  7G16G18G21G22G27G29G31
  21596246.780   113489051.58508  21596248.000    88433029.55548
  22332392.880   117357535.91108  22332393.980    91447457.06346
  21277739.680   111815416.19608  21277740.420    87128967.69448
  23734859.820   124727546.54906  23734860.100    97190299.75745
  22932146.720   120509267.01207  22932150.800    93903352.28847
  23834742.860   125252473.13507  23834745.260    97599372.31046
  23321866.180   122557240.58307  23321868.040    95499157.70946
 15 02 21 00 34 30.0000000  0  7G16G18G21G22G27G29G31
  21583234.240   113420670.23108  21583235.460    88379745.39048
  22321202.380   117298728.92908  22321203.320    91401633.46046
  21284994.360   111853539.86808  21284995.120    87158674.45548
  23716605.260   124631617.09906  23716605.420    97115549.57545
  22919349.840   120442019.07507  22919353.940    93850951.32247
  23848700.740   125325820.36107  23848702.860    97656525.94846
  23339447.680   122649631.89907  23339449.460    95571150.90246
 15 02 21 00 35  0.0000000  0  7G16G18G21G22G27G29G31
  21570281.600   113352603.96608  21570282.880    88326706.75648
  22310075.660   117240257.15808  22310076.540    91356071.05346
  21292308.180   111891974.24608  21292308.940    87188623.32548
  23698359.140   124535732.72606  23698359.480    97040834.52446
  22906570.480   120374863.06907  22906574.580    93798621.97347
  23862667.560   125399216.24606  23862669.720    97713717.48146
  23357054.100   122742154.53907  23357055.800    95643246.41946
 15 02 21 00 35 30.0000000  0  7G16G18G21G22G27G29G31
  21557388.740   113284851.55108  21557390.000    88273912.66648
  22299012.280   117182118.79108  22299013.280    91310768.44346
  21299680.140   111930714.08408  21299680.880    87218810.21448
  23680121.340   124439892.47406  23680121.820    96966153.85546
  22893807.960   120307795.36107  22893812.000    93746361.43647
  23876642.760   125472657.19307  23876645.160    97770944.08445
  23374684.240   122834801.72407  23374685.820    95715438.98746
 15 02 21 00 36  0.0000000  0  7G16G18G21G22G27G29G31
  21544555.940   113217414.81008  21544557.180    88221364.56348
  22288012.660   117124316.03908  22288013.880    91265727.35847
  21307109.760   111969756.89808  21307110.480    87249233.18648
  23661892.420   124344098.92407  23661892.960    96891509.56746
  22881062.160   120240815.84807  22881066.160    93694169.62647
  23890626.300   125546142.83106  23890629.100    97828205.61246
  23392337.620   122927570.71507  23392339.080    95787726.47546
 15 02 21 00 36 30.0000000  0  7G16G18G21G22G27G29G31
  21531783.760   113150296.47308  21531784.960    88169064.56648
  22277077.360   117066851.64508  22277078.860    91220949.91547
  21314596.760   112009101.35708  21314597.500    87279891.20648
  23643672.860   124248354.59706  23643673.520    96816903.63846
  22868333.240   120173924.99607  22868337.200    93642046.89447
  23904618.340   125619673.41006  23904621.560    97885502.10645
  23410013.620   123020458.52707  23410015.020    95860106.54646
 15 02 21 00 37  0.0000000  0  7G16G18G21G22G27G29G31
  21519072.360   113083497.58608  21519073.500    88117013.48748
  22266206.540   117009726.39108  22266208.320    91176436.74246
  21322140.680   112048744.93408  21322141.420    87310782.30548
  23625463.040   124152661.21106  23625463.720    96742337.39346
  22855620.940   120107121.57607  22855624.920    93589992.29447
  23918618.840   125693247.58606  23918622.180    97942832.59946
  23427711.360   123113460.74507  23427712.800    95932575.76146
 15 02 21 00 37 30.0000000  0  7G16G18G21G22G27G29G31
  21506421.940   113017019.06708  21506423.060    88065212.05648
  22255400.520   116952941.12408  22255402.380    91132188.49646
  21329740.800   112088683.76408  21329741.540    87341903.46748
  23607263.160   124057020.07507  23607263.840    96667811.87446
  22842925.080   120040404.47107  22842929.080    93538004.95347
  23932627.680   125766863.98006  23932630.960    98000195.96646
  23445430.100   123206573.41507  23445431.720    96005131.03746
 15 02 21 00 38  0.0000000  0  7G16G18G21G22G27G29G31
  21493833.420   112950865.74008  21493834.520    88013664.02048
  22244660.260   116896500.86808  22244662.020    91088209.09346
  21337397.440   112128919.69908  21337398.220    87373256.14848
  23589074.180   123961436.00607  23589074.720    96593330.83046
  22830246.160   119973776.51507  22830250.140    93486087.08047
  23946645.300   125840525.17807  23946648.400    98057594.24346
  23463169.820   123299796.16007  23463171.560    96077772.09446
 15 02 21 00 38 30.0000000  0  7G16G18G21G22G27G29G31
  21481307.520   112885041.58108  21481308.640    87962372.47148
  22233986.540   116840409.62608  22233988.040    91044501.63946
  21345110.480   112169451.98808  21345111.280    87404839.74548
  23570896.960   123865914.12306  23570897.380    96518898.22746
  22817584.520   119907239.54207  22817588.480    93434240.11047
  23960671.800   125914232.77306  23960674.600    98115028.72546
  23480930.300   123393127.51807  23480932.080    96150497.79346
 15 02 21 00 39  0.0000000  0  7G16G18G21G22G27G29G31
  21468844.440   112819547.74808  21468845.640    87911338.32448
  22223379.400   116784668.17208  22223380.700    91001066.75546
  21352879.520   112210278.58108  21352880.340    87436652.68048
  23552731.700   123770455.44507  23552732.120    96444514.88046
  22804939.960   119840792.36907  22804943.960    93382463.11347
  23974706.900   125987986.19506  23974709.320    98172498.88046
  23498710.680   123486563.25707  23498712.440    96223304.82046
 15 02 21 00 39 30.0000000  0  7G16G18G21G22G27G29G31
  21456444.900   112754387.68708  21456446.100    87860564.25648
  22212839.480   116729279.87208  22212840.600    90957907.05746
  21360704.440   112251398.58008  21360705.240    87468694.23348
  23534579.080   123675063.56306  23534579.560    96370183.57546
  22792312.760   119774436.47407  22792316.800    93330757.23147
  23988750.680   126061785.99007  23988752.940    98230005.14245
  23516510.620   123580102.05807  23516512.380    96296192.15645
 15 02 21 00 40  0.0000000  0  7G16G18G21G22G27G29G31
  21444109.140   112689562.71208  21444110.280    87810051.29748
  22202366.920   116674246.03008  22202368.000    90915023.55847
  21368584.740   112292809.70708  21368585.540    87500962.63948
  23516439.500   123579740.70606  23516440.040    96295906.05746
  22779702.860   119708171.14707  22779706.920    93279121.93247
  24002802.920   126135631.34606  24002805.360    98287546.94345
  23534329.320   123673739.90407  23534331.140    96369156.66646
 15 02 21 00 40 30.0000000  0  7G16G18G21G22G27G29G31
  21431837.460   112625074.73008  21431838.580    87759800.93148
  22191961.960   116619567.79808  22191963.080    90872417.15247
  21376519.900   112334509.31708  21376520.720    87533455.84248
  23498313.440   123484489.05306  23498314.080    96221684.00945
  22767110.160   119641996.00607  22767114.260    93227556.90247
  24016863.620   126209522.13706  24016866.480    98345124.10945
  23552166.100   123767473.05207  23552167.980    96442195.42646
 15 02 21 00 41  0.0000000  0  7G16G18G21G22G27G29G31
  21419629.840   112560923.34608  21419630.940    87709812.84448
  22181624.760   116565245.92708  22181626.060    90830088.42946
  21384509.260   112376493.74508  21384510.080    87566170.97948
  23480201.120   123389308.83906  23480201.720    96147517.66246
  22754534.280   119575908.91407  22754538.320    93176060.48947
  24030932.580   126283455.80606  24030935.580    98402734.77145
  23570020.000   123861296.32407  23570021.940    96515304.42346
 15 02 21 00 41 30.0000000  0  7G16G18G21G22G27G29G31
  21407487.220   112497113.58309  21407488.320    87660090.95948
  22171356.140   116511284.19508  22171357.540    90788040.34146
  21392552.740   112418762.81008  21392553.600    87599107.90848
  23462103.400   123294204.74406  23462103.800    96073410.60446
  22741975.600   119509912.26608  22741979.600    93124634.55647
  24045010.180   126357434.39305  24045013.200    98460380.42545
  23587890.880   123955208.92906  23587892.820    96588483.03845
 15 02 21 00 42  0.0000000  0  7G16G18G21G22G27G29G31
  21395410.240   112433648.56709  21395411.300    87610637.70448
  22161156.780   116457686.00208  22161158.140    90746275.52947
  21400650.400   112461316.59208  21400651.300    87632266.69748
  23444021.100   123199180.69107  23444021.160    95999365.94345
  22729434.360   119444007.29307  22729438.320    93073280.05647
  24059096.400   126431459.23205  24059099.660    98518062.02845
  23605778.560   124049209.36307  23605780.420    96661730.08546
 15 02 21 00 42 30.0000000  0  7G16G18G21G22G27G29G31
  21383399.200   112370529.86109  21383400.200    87561454.30148
  22151027.060   116404453.45508  22151028.360    90704795.63247
  21408801.880   112504153.55508  21408802.880    87665646.14948
  23425954.560   123104239.20007  23425954.200    95925385.58945
  22716910.600   119378194.11907  22716914.480    93021997.07447
  24073191.420   126505530.16006  24073194.940    98575779.56545
  23623682.420   124143294.22307  23623684.160    96735042.91345
 15 02 21 00 43  0.0000000  0  7G16G18G21G22G27G29G31
  21371453.840   112307756.59909  21371454.840    87512540.07548
  22140966.500   116351584.43008  22140967.680    90663598.99747
  21417006.180   112547267.74208  21417007.200    87699241.61948
  23407903.480   123009379.22607  23407902.960    95851468.77046
  22704403.580   119312469.14607  22704407.440    92970782.82547
  24087294.700   126579642.98706  24087298.180    98633529.81344
  23641601.140   124237456.78607  23641602.740    96808416.27846
 15 02 21 00 43 30.0000000  0  7G16G18G21G22G27G29G31
  21359575.220   112245334.07409  21359576.200    87463899.15348
  22130976.120   116299084.41308  22130977.240    90622689.91247
  21425263.520   112590660.35908  21425264.560    87733054.04648
  23389868.860   122914606.41607  23389868.340    95777619.87946
  22691913.940   119246835.64007  22691917.820    92919639.83947
  24101406.660   126653801.56406  24101409.760    98691315.74245
  23659534.720   124331697.25507  23659536.180    96881850.36546
 15 02 21 00 44  0.0000000  0  7G16G18G21G22G27G29G31
  21347763.700   112183264.17809  21347764.680    87415533.00448
  22121056.220   116246955.18908  22121057.420    90582069.74647
  21433573.620   112634329.86908  21433574.560    87767082.23648
  23371851.200   122819923.40207  23371850.740    95703840.93646
  22679441.680   119181293.47407  22679445.560    92868568.03647
  24115527.220   126728005.01907  24115530.060    98749136.51645
  23677482.460   124426012.41207  23677483.920    96955342.63546
 15 02 21 00 44 30.0000000  0  7G16G18G21G22G27G29G31
  21336019.780   112121549.58009  21336020.780    87367443.70948
  22111207.320   116195199.56108  22111208.680    90541740.69147
  21441936.180   112678275.17208  21441937.060    87801325.33148
  23353851.120   122725333.37907  23353850.860    95630134.46146
  22666986.940   119115843.55707  22666990.820    92817568.11747
  24129656.700   126802254.39007  24129659.280    98806993.11545
  23695443.880   124520399.96206  23695445.400    97028891.31546
 15 02 21 00 45  0.0000000  0  7G16G18G21G22G27G29G31
  21324343.740   112060191.70509  21324344.780    87319632.37748
  22101429.700   116143818.38608  22101431.220    90501703.42247
  21450350.700   112722493.48108  21450351.520    87835781.15648
  23335869.020   122630837.84807  23335869.000    95556501.61946
  22654549.540   119050484.95507  22654553.420    92766639.37147
  24143794.660   126876548.26307  24143796.960    98864884.45345
  23713418.240   124614855.75606  23713419.880    97102493.18846
 15 02 21 00 45 30.0000000  0  7G16G18G21G22G27G29G31
  21312736.580   111999195.83809  21312737.660    87272103.13548
  22091724.380   116092816.63208  22091725.920    90461961.81047
  21458817.340   112766985.74608  21458818.120    87870450.45648
  23317906.060   122536442.49007  23317906.260    95482946.82746
  22642130.140   118985221.05407  22642134.060    92715784.40647
  24157941.620   126950889.91507  24157943.880    98922812.99945
  23731405.640   124709380.10707  23731407.360    97176148.45945
 15 02 21 00 46  0.0000000  0  7G16G18G21G22G27G29G31
  21301198.460   111938562.71309  21301199.560    87224856.55048
  22082091.420   116042194.86308  22082092.920    90422516.28447
  21467335.600   112811749.31308  21467336.360    87905331.15748
  23299962.560   122442148.92607  23299962.780    95409471.35246
  22629728.520   118920050.53107  22629732.420    92665002.20347
  24172097.160   127025277.88506  24172099.600    98980777.66345
  23749405.240   124803968.72507  23749407.020    97249853.83545
 15 02 21 00 46 30.0000000  0  7G16G18G21G22G27G29G31
  21289729.660   111878293.96009  21289730.780    87177893.89148
  22072531.080   115991954.83408  22072532.480    90383368.22647
  21475904.920   112856781.51708  21475905.740    87940421.18048
  23282038.820   122347958.95007  23282039.020    95336076.58846
  22617344.620   118854973.10207  22617348.500    92614292.54547
  24186261.200   127099711.80506  24186264.260    99038778.01246
  23767416.440   124898618.10207  23767418.260    97323606.52446
 15 02 21 00 47  0.0000000  0  7G16G18G21G22G27G29G31
  21278330.180   111818389.63209  21278331.360    87131215.19448
  22063043.220   115942095.80408  22063044.540    90344517.04847
  21484524.740   112902078.88208  21484525.540    87975717.82848
  23264134.900   122253873.09707  23264135.080    95262762.95446
  22604978.060   118789986.59608  22604981.940    92563653.72947
  24200433.620   127174189.04706  24200436.920    99096812.22246
  23785438.120   124993322.74006  23785439.980    97397402.29146
 15 02 21 00 47 30.0000000  0  7G16G18G21G22G27G29G31
  21267000.880   111758853.85909  21267002.080    87084823.68248
  22053628.660   115892621.94908  22053629.920    90305966.01147
  21493194.980   112947641.31608  21493195.780    88011221.02048
  23246251.580   122159895.94007  23246251.920    95189534.03146
  22592629.260   118725093.22708  22592633.140    92513087.47647
  24214614.800   127248711.93506  24214618.520    99154881.91545
  23803470.120   125088081.75806  23803472.060    97471240.42746
 15 02 21 00 48  0.0000000  0  7G16G18G21G22G27G29G31
  21255742.340   111699690.06509  21255743.600    87038722.03148
  22044287.960   115843536.53408  22044289.240    90267717.65147
  21501915.540   112993468.19508  21501916.340    88046930.27448
  23228389.600   122066031.53907  23228390.200    95116392.97346
  22580298.540   118660294.62507  22580302.420    92462595.07347
  24228804.840   127323281.64006  24228808.420    99212988.21746
  23821512.100   125182893.70906  23821514.200    97545119.81946
 15 02 21 00 48 30.0000000  0  7G16G18G21G22G27G29G31
  21244554.240   111640896.22209  21244555.520    86992908.65348
  22035020.760   115794837.32208  22035022.080    90229770.22547
  21510685.240   113039553.38708  21510686.060    88082840.81348
  23210548.740   121972278.17507  23210549.640    95043338.42246
  22567985.100   118595586.69007  22567988.960    92412173.31847
  24243003.260   127397893.85805  24243006.800    99271127.49945
  23839562.740   125277751.25906  23839565.020    97619034.73346
 15 02 21 00 49  0.0000000  0  7G16G18G21G22G27G29G31
  21233437.680   111582478.14709  21233438.940    86947388.07348
  22025828.120   115746529.64908  22025829.460    90192127.89147
  21519504.640   113085899.69908  21519505.480    88118954.81748
  23192730.340   121878642.37607  23192731.380    94970375.48646
  22555689.620   118530973.31808  22555693.460    92361825.25847
  24257210.600   127472552.14405  24257213.460    99329302.88446
  23857622.280   125372655.07706  23857624.680    97692985.70546
 15 02 21 00 49 30.0000000  0  7G16G18G21G22G27G29G31
  21222393.140   111524438.53709  21222394.380    86902162.41148
  22016710.540   115698616.15308  22016711.900    90154792.70847
  21528373.380   113132505.38508  21528374.220    88155270.93148
  23174935.080   121785127.27807  23174935.960    94897506.62246
  22543412.280   118466455.20608  22543416.060    92311551.42147
  24271426.700   127547257.25806  24271429.180    99387514.54045
  23875690.380   125467602.85806  23875692.700    97766970.92146
 15 02 21 00 50  0.0000000  0  7G16G18G21G22G27G29G31
  21211420.960   111466779.26309  21211422.200    86857233.10948
  22007668.240   115651098.21208  22007669.600    90117765.74747
  21537291.080   113179368.46908  21537291.960    88191787.61448
  23157163.340   121691735.08707  23157163.920    94824733.51046
  22531153.000   118402032.19908  22531156.740    92261351.69247
  24285651.500   127622008.67906  24285654.000    99445762.32945
  23893766.240   125562591.05806  23893768.400    97840987.62546
 15 02 21 00 50 30.0000000  0  7G16G18G21G22G27G29G31
  21200521.520   111409502.19609  21200522.780    86812601.62848
  21998701.500   115603977.41008  21998702.860    90081048.24947
  21546257.380   113226486.74408  21546258.260    88228503.14248
  23139415.380   121598467.97707  23139415.700    94752057.86046
  22518911.740   118337704.11208  22518915.460    92211225.93447
  24299885.260   127696805.99505  24299887.040    99504046.07144
  23911849.240   125657616.63506  23911851.160    97915033.46345
 15 02 21 00 51  0.0000000  0  7G16G18G21G22G27G29G31
  21189695.840   111352612.63009  21189697.060    86768272.10248
  21989811.260   115557258.84708  21989812.560    90044644.18247
  21555272.480   113273861.48208  21555273.380    88265418.51948
  23121692.340   121505331.88807  23121692.460    94679484.32146
  22506689.160   118273474.35408  22506692.920    92161176.79347
  24314128.040   127771652.23106  24314129.800    99562367.73045
  23929939.360   125752679.75906  23929941.060    97989108.56946
 15 02 21 00 51 30.0000000  0  7G16G18G21G22G27G29G31
  21178943.680   111296109.62408  21178944.860    86724243.78848
  21980997.300   115510941.30908  21980998.580    90008552.59647
  21564335.560   113321488.43908  21564336.500    88302530.42548
  23103994.120   121412326.62507  23103994.140    94607012.71146
  22494484.780   118209340.32508  22494488.600    92111202.23947
  24328379.280   127846544.82106  24328381.540    99620725.43744
  23948035.500   125847774.76706  23948037.060    98063208.48846
 15 02 21 00 52  0.0000000  0  7G16G18G21G22G27G29G31
  21168264.860   111239992.12708  21168266.020    86680515.87348
  21972259.280   115465023.10008  21972260.620    89972772.19047
  21573445.720   113369362.53508  21573446.640    88339834.90548
  23086320.600   121319451.66107  23086320.580    94534642.64446
  22482298.040   118145298.95008  22482301.920    92061299.89148
  24342638.780   127921480.38106  24342641.340    99679116.87744
  23966136.340   125942894.97706  23966137.920    98137328.05245
 15 02 21 00 52 30.0000000  0  7G16G18G21G22G27G29G31
  21157660.840   111184267.66808  21157661.980    86637094.21848
  21963598.640   115419511.66308  21963600.080    89937308.74547
  21582603.540   113417487.02208  21582604.440    88377334.50448
  23068673.300   121226714.91807  23068673.320    94462380.28546
