     2.11           OBSERVATION DATA    G                   RINEX VERSION / TYPE
SPIDER V4,0,0,3554                      2015 03 24 00:04    PGM / RUN BY / DATE 
CBEJ                                                        MARKER NAME         
CBEJ                                                        MARKER NUMBER       
                                                            OBSERVER / AGENCY   
496519              LEICA GRX1200+GNSS  8.10/4.007          REC # / TYPE / VERS 
                    LEIAR25         NONE                    ANT # / TYPE        
  5095766.4657   453329.2088  3797108.6657                  APPROX POSITION XYZ 
        0.0730        0.0000        0.0000                  ANTENNA: DELTA H/E/N
     1     1                                                WAVELENGTH FACT L1/2
     4    C1    L1    P2    L2                              # / TYPES OF OBSERV 
    30.000                                                  INTERVAL            
  2015    02    21    00    00    0.0000000     GPS         TIME OF FIRST OBS   
  2015    02    21    23    59   30.0000000     GPS         TIME OF LAST OBS    
    16                                                      LEAP SECONDS        
    30                                                      # OF SATELLITES     
   G 1   811   811   811   811                              PRN / # OF OBS      
   G 2   860   860   858   858                              PRN / # OF OBS      
   G 3   834   833   833   833                              PRN / # OF OBS      
   G 4   832   832   832   832                              PRN / # OF OBS      
   G 5   637   637   636   636                              PRN / # OF OBS      
   G 6   684   682   679   678                              PRN / # OF OBS      
   G 7   647   645   641   640                              PRN / # OF OBS      
   G 9   789   789   788   788                              PRN / # OF OBS      
   G10   753   752   752   752                              PRN / # OF OBS      
   G11   777   777   777   777                              PRN / # OF OBS      
   G12   818   818   817   817                              PRN / # OF OBS      
   G13   792   792   792   792                              PRN / # OF OBS      
   G14   858   857   857   857                              PRN / # OF OBS      
   G15   709   709   709   709                              PRN / # OF OBS      
   G16   666   665   665   665                              PRN / # OF OBS      
   G17   857   857   857   857                              PRN / # OF OBS      
   G18   847   847   846   846                              PRN / # OF OBS      
   G19   758   758   758   758                              PRN / # OF OBS      
   G20   790   790   789   789                              PRN / # OF OBS      
   G21   668   668   656   656                              PRN / # OF OBS      
   G22   695   695   692   692                              PRN / # OF OBS      
   G23   715   715   708   708                              PRN / # OF OBS      
   G24   822   822   822   822                              PRN / # OF OBS      
   G25   850   850   850   850                              PRN / # OF OBS      
   G27   808   808   808   808                              PRN / # OF OBS      
   G28   793   793   792   792                              PRN / # OF OBS      
   G29   753   753   752   752                              PRN / # OF OBS      
   G30   657   656   648   648                              PRN / # OF OBS      
   G31   758   758   754   754                              PRN / # OF OBS      
   G32   741   740   740   740                              PRN / # OF OBS      
BIT 2 OF LLI FLAGS DATA COLLECTED UNDER A/S CONDITION       COMMENT             
SNR is mapped to RINEX snr flag value [2-9]                 COMMENT             
Lx:     = 25dBHz -> 1; 26-27dBHz -> 2; 28-31dBHz -> 3       COMMENT             
       32-35dBHz -> 4; 36-38dBHz -> 5; 39-41dBHz -> 6       COMMENT             
       42-44dBHz -> 7; 45-48dBHz -> 8; >=49dBHz -> 9        COMMENT             
                                                            END OF HEADER       
 15 02 21 00 00  0.0000000  0  7G16G18G21G25G27G29G31
  22439304.280   117919352.40209  22439300.660    91885197.20947
  23373409.320   122828112.24808  23373407.140    95710215.60845
  20977170.180   110235780.47308  20977165.620    85897994.00448
  24042504.680   126344202.57108  24042504.980    98450029.96945
  23634188.580   124198499.60008  23634187.380    96778049.54046
  23060538.200   121183930.73907  23060536.500    94429053.52643
  22154566.440   116423026.89209  22154563.920    90719226.77748
 15 02 21 00 00 30.0000000  0  7G16G18G21G25G27G29G31
  22423741.240   117837568.32908  22423737.940    91821469.34847
  23359150.020   122753178.81008  23359147.600    95651825.95745
  20979857.960   110249905.36508  20979853.640    85909000.41748
  24060597.760   126439281.95108  24060598.240    98524117.77646
  23620370.180   124125883.88108  23620369.100    96721465.88746
  23074448.440   121257027.31007  23074446.020    94486011.87241
  22169463.000   116501309.21609  22169460.620    90780225.97148
 15 02 21 00 01  0.0000000  0  7G16G18G21G25G27G29G31
  22408210.140   117755953.19309  22408207.420    91757873.13847
  23344918.960   122678393.68108  23344915.920    95593551.87145
  20982625.080   110264447.64809  20982621.040    85920332.06048
  24078726.280   126534547.20008  24078726.680    98598350.38645
  23606572.060   124053373.65308  23606570.160    96664964.47945
  23088367.680   121330171.41907  23088363.620    94543007.22443
  22184422.560   116579922.03709  22184420.000    90841482.69448
 15 02 21 00 01 30.0000000  0  7G16G18G21G25G27G29G31
  22392711.400   117674507.00909  22392709.160    91694408.60247
  23330716.240   122603758.15408  23330713.340    95535394.35145
  20985471.180   110279404.29909  20985467.360    85931986.60448
  24096889.300   126629995.25208  24096890.000    98672725.48645
  23592793.800   123980967.12608  23592789.960    96608543.88845
  23102295.240   121403360.68906  23102289.940    94600037.72043
  22199444.260   116658860.69209  22199441.240    90902993.33248
 15 02 21 00 02  0.0000000  0  7G16G18G21G25G27G29G31
  22377245.960   117593235.95209  22377243.880    91631080.52247
  23316543.100   122529278.49408  23316540.960    95477358.25446
  20988396.860   110294778.22309  20988393.080    85943966.29348
  24115087.380   126725628.77907  24115088.600    98747245.12945
  23579035.860   123908668.17708  23579031.360    96552207.11046
  23116231.420   121476598.46805  23116227.280    94657106.10544
  22214528.240   116738126.41409  22214524.700    90964758.81448
 15 02 21 00 02 30.0000000  0  7G16G18G21G25G27G29G31
  22361813.840   117512139.40109  22361811.460    91567888.42747
  23302399.760   122454954.88508  23302397.920    95419443.76445
  20991401.220   110310565.38509  20991397.340    85956267.98048
  24133320.180   126821444.13008  24133321.160    98821906.41245
  23565297.640   123836474.29208  23565294.320    96495952.15146
  23130176.240   121549882.17605  23130173.960    94714210.27344
  22229673.320   116817713.67409  22229669.620    91026774.83648
 15 02 21 00 03  0.0000000  0  7G16G18G21G25G27G29G31
  22346413.780   117431211.06609  22346411.120    91504827.41348
  23288285.240   122380781.84608  23288283.240    95361646.62646
  20994482.500   110326757.09708  20994478.540    85968884.90548
  24151586.120   126917432.11108  24151586.880    98896702.20745
  23551578.040   123764377.42108  23551575.580    96439772.84146
  23144128.740   121623203.14305  23144127.440    94771343.45644
  22244877.520   116897611.93809  22244873.920    91089033.20748
 15 02 21 00 03 30.0000000  0  7G16G18G21G25G27G29G31
  22331048.940   117350467.49409  22331046.160    91441910.37447
  23274202.720   122306776.79008  23274200.980    95303980.35846
  20997643.120   110343366.35408  20997639.120    85981827.18148
  24169887.500   127013605.71008  24169888.120    98971642.63145
  23537878.820   123692392.05007  23537877.240    96383680.31346
  23158090.940   121696575.49505  23158090.540    94828516.62643
  22260143.280   116977832.87109  22260139.720    91151543.01048
 15 02 21 00 04  0.0000000  0  7G16G18G21G25G27G29G31
  22315718.020   117269903.36009  22315715.180    91379133.13947
  23260151.120   122232934.87908  23260149.540    95246441.18845
  21000881.560   110360384.68408  21000877.480    85995088.22148
  24188222.240   127109956.41007  24188222.680    99046721.06444
  23524199.640   123620510.71908  23524198.540    96327668.91145
  23172061.300   121769991.66205  23172061.640    94885723.96944
  22275468.800   117058366.38409  22275465.140    91214296.35448
 15 02 21 00 04 30.0000000  0  7G16G18G21G25G27G29G31
  22300420.040   117189513.29009  22300416.840    91316491.54347
  23246129.600   122159250.89408  23246126.980    95189025.13345
  21004196.140   110377803.38708  21004192.020    86008661.22948
  24206588.680   127206475.36007  24206589.280    99121930.61745
  23510539.180   123548725.83708  23510537.940    96271732.69645
  23186038.720   121843443.71506  23186038.900    94942959.23744
  22290851.660   117139201.93309  22290847.860    91277285.07148
 15 02 21 00 05  0.0000000  0  7G16G18G21G25G27G29G31
  22285156.820   117109304.37609  22285153.040    91253991.11547
  23232139.880   122085732.87709  23232135.980    95131738.44745
  21007587.620   110395626.21308  21007583.540    86022549.13748
  24224988.260   127303166.55408  24224989.500    99197274.40345
  23496898.300   123477042.63608  23496896.520    96215875.69845
  23200023.940   121916936.17205  23200024.160    95000226.08045
  22306291.880   117220341.81409  22306288.460    91340510.95948
 15 02 21 00 05 30.0000000  0  7G16G18G21G25G27G29G31
  22269928.560   117029277.75509  22269924.700    91191632.73647
  23218182.280   122012383.04509  23218178.160    95074582.77446
  21011055.780   110413851.43308  21011051.580    86036750.61948
  24243420.700   127400028.23008  24243422.540    99272751.02546
  23483276.720   123405460.55808  23483274.240    96160097.53545
  23214016.560   121990468.43005  23214017.180    95057523.97145
  22321789.200   117301782.80609  22321786.400    91403971.45148
 15 02 21 00 06  0.0000000  0  7G16G18G21G25G27G29G31
  22254736.080   116949441.09909  22254732.700    91129422.35147
  23204258.100   121939209.51109  23204254.080    95017564.46346
  21014601.400   110432483.51308  21014597.080    86051269.11748
  24261886.640   127497064.54908  24261888.420    99348363.71846
  23469674.960   123333985.15508  23469672.680    96104402.37346
  23228017.860   122064045.57706  23228018.200    95114856.82345
  22337344.520   117383527.53409  22337342.140    91467668.63848
 15 02 21 00 06 30.0000000  0  7G16G18G21G25G27G29G31
  22239578.960   116869790.90009  22239575.600    91067357.28947
  23190366.280   121866208.77308  23190362.560    94960680.79546
  21018222.960   110451515.04508  21018218.740    86066098.89248
  24280384.560   127594268.46408  24280385.720    99424107.01646
  23456092.640   123262610.50908  23456091.140    96048785.80346
  23242026.480   122137661.57405  23242026.160    95172219.91945
  22352956.160   117465567.23009  22352954.060    91531595.65548
 15 02 21 00 07  0.0000000  0  7G16G18G21G25G27G29G31
  22224457.820   116790328.76809  22224453.920    91005438.78147
  23176507.540   121793383.65108  23176504.640    94903933.94145
  21021920.240   110470944.32408  21021916.180    86081238.59648
  24298913.880   127691638.46408  24298914.460    99499979.71345
  23442529.740   123191336.46808  23442528.880    95993247.60946
  23256042.820   122211315.75206  23256041.720    95229612.76044
  22368623.280   117547899.19709  22368621.480    91595750.41048
 15 02 21 00 07 30.0000000  0  7G16G18G21G25G27G29G31
  22209373.960   116711062.17509  22209370.120    90943672.60347
  23162683.940   121720741.94008  23162681.960    94847330.01246
  21025694.040   110490776.06108  21025690.260    86096691.89248
  24317475.140   127789178.48907  24317475.540    99575984.91546
  23428987.020   123120168.32408  23428986.340    95937791.95046
  23270067.920   122285012.90007  23270065.580    95287039.09744
  22384346.280   117630525.78609  22384344.820    91660134.75748
 15 02 21 00 08  0.0000000  0  7G16G18G21G25G27G29G31
  22194327.720   116631993.31408  22194324.340    90882060.52847
  23148896.100   121648286.71208  23148894.500    94790871.39546
  21029544.060   110511008.59108  21029540.500    86112457.50048
  24336068.420   127886887.62807  24336068.840    99652121.89045
  23415464.180   123049106.35607  23415464.040    95882418.99146
  23284101.440   122358753.40307  23284098.220    95344499.17544
  22400124.980   117713444.32309  22400123.400    91724746.57548
 15 02 21 00 08 30.0000000  0  7G16G18G21G25G27G29G31
  22179318.320   116553121.10908  22179315.480    90820601.64947
  23135143.780   121576017.11808  23135142.080    94734557.44846
  21033469.420   110531637.47708  21033466.100    86128531.94448
  24354692.860   127984761.21608  24354693.580    99728387.01745
  23401960.760   122978147.23608  23401961.500    95827126.17146
  23298142.040   122432533.34906  23298138.600    95401989.99244
  22415958.120   117796648.62909  22415956.140    91789581.07547
 15 02 21 00 09  0.0000000  0  7G16G18G21G25G27G29G31
  22164347.100   116474449.05608  22164344.680    90759298.79747
  23121427.620   121503937.58209  23121425.780    94678391.59546
  21037470.420   110552663.58408  21037467.260    86144915.92548
  24373348.740   128082799.79908  24373349.320    99804780.66145
  23388477.700   122907292.74908  23388478.520    95771914.91746
  23312189.880   122506354.13806  23312187.060    95459512.64744
  22431845.580   117880138.10509  22431843.600    91854637.77148
 15 02 21 00 09 30.0000000  0  7G16G18G21G25G27G29G31
  22149413.880   116395975.57408  22149411.880    90698150.62847
  23107747.520   121432046.69209  23107745.080    94622372.73846
  21041546.060   110574081.26109  21041542.860    86161605.02848
  24392035.120   128180997.96908  24392035.620    99881298.67745
  23375013.900   122836538.83608  23375014.220    95716782.05146
  23326244.400   122580211.48306  23326242.420    95517063.78444
  22447785.900   117963905.33309  22447784.240    91919910.90948
 15 02 21 00 10  0.0000000  0  7G16G18G21G25G27G29G31
  22134520.160   116317708.29509  22134518.180    90637163.16047
  23094104.680   121360352.58508  23094101.620    94566507.23246
  21045697.240   110595894.90009  21045693.900    86178602.68448
  24410752.800   128279360.20208  24410753.620    99957944.56245
  23361570.220   122765891.31407  23361569.820    95661732.09746
  23340306.240   122654111.18105  23340305.340    95574647.96544
  22463779.680   118047953.42709  22463778.140    91985402.91247
 15 02 21 00 10 30.0000000  0  7G16G18G21G25G27G29G31
  22119667.300   116239655.15109  22119665.040    90576342.52047
  23080500.840   121288863.91308  23080497.660    94510801.80446
  21049924.700   110618109.18109  21049921.200    86195912.52348
  24429502.560   128377890.95308  24429503.580   100034721.75845
  23348147.340   122695356.01807  23348147.040    95606769.50447
  23354376.880   122728058.37706  23354377.240    95632269.13844
  22479827.680   118132285.57209  22479825.700    92051116.24248
 15 02 21 00 11  0.0000000  0  7G16G18G21G25G27G29G31
  22104852.000   116161798.07209  22104849.240    90515674.68347
  23066932.820   121217563.50209  23066929.720    94455243.06146
  21054224.280   110640702.73309  21054220.480    86213517.89048
  24448280.600   128476569.00508  24448281.340   100111613.72745
  23334742.180   122624912.91708  23334742.400    95551878.81746
  23368453.300   122802032.93606  23368454.220    95689911.68644
  22495925.300   118216878.50509  22495922.760    92117032.81448
 15 02 21 00 11 30.0000000  0  7G16G18G21G25G27G29G31
  22090076.540   116084150.09409  22090073.240    90455169.76847
  23053403.080   121146464.84308  23053399.580    94399841.52746
  21058597.740   110663685.00508  21058593.740    86231426.15848
  24467088.520   128575403.79908  24467088.840   100188627.79945
  23321356.900   122554572.84508  23321357.320    95497068.40546
  23382537.200   122876045.48606  23382537.800    95747583.75844
  22512074.060   118301740.13909  22512071.060    92183158.74647
 15 02 21 00 12  0.0000000  0  7G16G18G21G25G27G29G31
  22075341.280   116006713.27009  22075337.360    90394829.38547
  23039912.000   121075569.81908  23039908.400    94344598.70046
  21063044.720   110687054.10809  21063040.740    86249635.85148
  24485925.900   128674393.75408  24485925.960   100265762.79445
  23307991.300   122484335.64908  23307991.580    95442338.11246
  23396628.740   122950095.70707  23396628.340    95805285.19844
  22528273.520   118386867.68609  22528270.220    92249491.87948
 15 02 21 00 12 30.0000000  0  7G16G18G21G25G27G29G31
  22060645.980   115929487.66509  22060641.860    90334653.61547
  23026459.780   121004879.74408  23026456.860    94289515.53346
  21067564.700   110710807.32808  21067560.760    86268144.85248
  24504792.000   128773535.88908  24504792.640   100343016.39545
  23294645.100   122414199.63108  23294645.240    95387686.70846
  23410727.260   123024181.32107  23410725.920    95863014.16444
  22544522.660   118472256.44409  22544519.380    92316028.55548
 15 02 21 00 13  0.0000000  0  7G16G18G21G25G27G29G31
  22045991.520   115852478.43909  22045987.880    90274646.41648
  23013047.640   120934399.68109  23013045.140    94234596.01646
  21072158.020   110734946.07108  21072154.220    86286954.26248
  24523687.360   128872831.62808  24523687.900   100420389.64345
  23281318.840   122344167.59708  23281318.380    95333116.33546
  23424833.000   123098304.95706  23424831.160    95920772.82344
  22560821.520   118557906.48309  22560818.300    92382768.82948
 15 02 21 00 13 30.0000000  0  8G16G18G21G22G25G27G29G31
  22031378.900   115775688.24809  22031375.600    90214809.90947
  22999676.380   120864133.53309  22999673.840    94179843.19746
  21076824.700   110759469.55309  21076821.040    86306063.47348
  24565991.340   129095156.39608                                
  24542611.760   128972280.36107  24542612.100   100497882.11746
  23268012.600   122274240.26408  23268011.140    95278627.58446
  23438945.720   123172466.71607  23438943.320    95978561.19945
  22577169.660   118643815.77709  22577166.200    92449711.11347
 15 02 21 00 14  0.0000000  0  8G16G18G21G22G25G27G29G31
  22016806.940   115699111.91309  22016803.400    90155140.02047
  22986344.980   120794075.86709  22986342.240    94125252.82746
  21081562.960   110784368.75709  21081559.380    86325465.45648
  24548123.560   129001259.15608  24548119.680   100520448.98845
  24561563.560   129071872.90208  24561564.500   100575486.67845
  23254724.220   122204409.90008  23254723.320    95224214.32346
  23453064.540   123246659.31707  23453060.680    96036373.54744
  22593564.780   118729973.19209  22593561.240    92516846.73147
 15 02 21 00 14 30.0000000  0  8G16G18G21G22G25G27G29G31
  22002280.220   115622774.42509  22002276.580    90095656.26948
  22973058.160   120724252.77609  22973055.280    94070845.24647
  21086376.900   110809665.42909  21086373.180    86345177.15848
  24530244.600   128907303.99608  24530240.000   100447237.39045
  24580547.080   129171631.28508  24580548.120   100653220.44045
  23241457.780   122134699.90207  23241458.780    95169894.81847
  23467193.600   123320905.62907  23467188.220    96094227.72744
  22610010.860   118816399.36809  22610007.660    92584191.79148
 15 02 21 00 15  0.0000000  0  8G16G18G21G22G25G27G29G31
  21987795.180   115546656.31109  21987791.740    90036343.44647
  22959812.220   120654645.13508  22959809.500    94016605.52846
  21091262.060   110835336.43208  21091258.000    86365180.54448
  24512350.640   128813271.85508  24512345.700   100373965.79145
  24599557.660   129271532.49908  24599558.660   100731065.51745
  23228210.260   122065088.63107  23228212.300    95115652.26647
  23481328.100   123395183.58006  23481322.620    96152106.62244
  22626503.520   118903069.60709  22626500.760    92651727.02147
 15 02 21 00 15 30.0000000  0  8G16G18G21G22G25G27G29G31
  21973352.720   115470761.69609  21973349.480    89977204.79247
  22946608.040   120585257.31108  22946605.560    93962537.10846
  21096218.560   110861382.42208  21096214.220    86385476.12648
  24494442.900   128719167.37808  24494438.060   100300637.82145
  24618595.740   129371577.26507  24618596.640   100809022.44545
  23214982.840   121995578.09608  23214984.980    95061488.22346
  23495468.280   123469494.90206  23495464.020    96210011.54745
  22643042.700   118989983.37209  22643040.160    92719451.99648
 15 02 21 00 16  0.0000000  0  8G16G18G21G22G25G27G29G31
  21958953.560   115395094.27509  21958950.300    89918243.17747
  22933446.420   120516093.41108  22933443.900    93908643.17446
  21101246.380   110887803.55508  21101241.940    86406064.01648
  24476521.900   128624994.17407  24476518.020   100227256.26146
  24637660.660   129471765.44107  24637661.280   100887091.11145
  23201775.480   121926169.65608  23201777.400    95007403.75947
  23509615.320   123543840.74207  23509612.120    96267943.31345
  22659627.980   119077139.03909  22659625.640    92787365.48448
 15 02 21 00 16 30.0000000  0  8G16G18G21G22G25G27G29G31
  21944599.000   115319661.24909  21944595.720    89859464.21447
  22920329.040   120447160.85109  22920326.420    93854929.52046
  21106346.160   110914603.56308  21106341.840    86426947.13748
  24458589.160   128530759.84808  24458586.700   100153827.04946
  24656753.440   129572100.66607  24656754.500   100965274.34245
  23188588.660   121856868.41808  23188590.180    94953402.82447
  23523769.980   123618225.99806  23523767.820    96325905.81344
  22676259.760   119164538.53409  22676257.500    92855468.96147
 15 02 21 00 17  0.0000000  0  8G16G18G21G22G25G27G29G31
  21930289.260   115244461.77109  21930285.580    89800867.22447
  22907255.800   120378459.54709  22907253.060    93801396.03446
  21111517.000   110941777.68308  21111513.000    86448121.76548
  24440645.100   128436463.95608  24440643.540   100080349.86245
  24675873.160   129672578.74707  24675875.020   101043568.98145
  23175421.500   121787671.62208  23175422.620    94899483.25346
  23537931.580   123692647.73706  23537930.580    96383896.78544
  22692936.860   119252176.34809  22692934.440    92923758.13147
 15 02 21 00 17 30.0000000  0  8G16G18G21G22G25G27G29G31
  21916023.200   115169491.30909  21916019.080    89742448.71347
  22894225.720   120309985.52309  22894222.460    93748039.67045
  21116757.520   110969318.16508  21116753.900    86469581.86348
  24422688.780   128342102.50108  24422686.900   100006821.60545
  24695019.080   129773191.88208  24695020.340   101121968.74745
  23162272.660   121718572.74808  23162272.560    94845640.02146
  23552099.620   123767099.19507  23552098.920    96441910.88044
  22709657.300   119340042.97209  22709654.540    92992225.60247
 15 02 21 00 18  0.0000000  0  8G16G18G21G22G25G27G29G31
  21901802.100   115094759.27909  21901798.000    89684215.94847
  22881240.660   120241748.45909  22881237.120    93694867.94446
  21122068.960   110997230.57208  21122065.420    86491331.79748
  24404721.920   128247684.91308  24404718.180    99933249.62245
  24714192.140   129873945.50808  24714193.480   101200478.01845
  23149143.220   121649578.75208  23149141.900    94791878.51746
  23566275.000   123841586.98506  23566273.400    96499953.27244
  22726422.020   119428142.43508  22726419.020    93060874.49547
 15 02 21 00 18 30.0000000  0  8G16G18G21G22G25G27G29G31
  21887626.800   115020268.21809  21887622.960    89626170.97647
  22868301.460   120173751.33509  22868297.440    93641883.20145
  21127451.000   111025513.67509  21127447.400    86513370.57448
  24386745.180   128153214.37308  24386739.920    99859636.37244
  24733392.160   129974838.95708  24733393.360   101279096.25145
  23136033.220   121580690.40007  23136032.720    94738199.30847
  23580457.300   123916111.95106  23580453.680    96558024.55544
  22743230.620   119516472.50309  22743227.620    93129703.09147
 15 02 21 00 19  0.0000000  0  8G16G18G21G22G25G27G29G31
  21873498.060   114946019.88509  21873493.840    89568315.15747
  22855408.220   120105995.75309  22855403.600    93589086.69746
  21132903.400   111054166.02809  21132899.720    86535697.08348
  24368758.540   128058692.66508  24368752.880    99785983.22845
  24752618.260   130075869.97008  24752619.420   101357821.67745
  23122943.340   121511906.90908  23122943.860    94684601.77946
  23594646.160   123990672.75306  23594642.500    96616123.81045
  22760082.500   119605029.34409  22760079.480    93198708.41147
 15 02 21 00 19 30.0000000  0  8G16G18G21G22G25G27G29G31
  21859415.480   114872015.70109  21859411.060    89510649.56547
  22842561.240   120038484.45509  22842557.000    93536480.50046
  21138425.660   111083185.21709  21138421.900    86558309.43448
  24350762.040   127964121.57008  24350757.180    99712291.56645
  24771869.880   130177036.71808  24771871.540   101436652.89346
  23109874.040   121443227.80808  23109874.500    94631085.64747
  23608841.440   124065268.78105  23608838.480    96674250.59744
  22776976.900   119693809.57609  22776973.720    93267887.77847
 15 02 21 00 20  0.0000000  0  8G16G18G21G22G25G27G29G31
  21845379.760   114798259.37909  21845375.940    89453177.09348
  22829761.240   119971221.25908  22829757.900    93484067.61346
  21144017.760   111112571.39908  21144013.920    86581207.76248
  24332756.780   127869505.33708  24332753.300    99638564.74446
  24791147.380   130278339.36108  24791149.100   101515589.98845
  23096825.380   121374654.74208  23096825.900    94577652.14547
  23623042.420   124139901.43005  23623040.960    96732405.94744
  22793913.500   119782811.95209  22793910.500    93337240.25047
 15 02 21 00 20 30.0000000  0  8G16G18G21G22G25G27G29G31
  21831390.580   114724747.42609  21831387.400    89395895.05047
  22817007.620   119904203.00108  22817005.080    93431845.57746
  21149678.160   111142317.14308  21149674.420    86604386.26048
  24314742.320   127774840.83108  24314739.820    99564800.26045
  24810449.080   130379770.60207  24810450.340   101594627.26645
  23083795.700   121306181.98208  23083796.060    94524296.76647
  23637249.800   124214564.59607  23637248.000    96790584.97844
  22810890.800   119872027.69609  22810888.140    93406758.98947
 15 02 21 00 21  0.0000000  0  7G16G18G21G22G27G29G31
  21817448.900   114651485.72009  21817446.280    89338808.01747
  22804301.940   119837435.76808  22804299.720    93379819.18246
  21155407.320   111172424.63408  21155403.700    86627846.63248
  24296720.000   127680133.99308  24296717.640    99491002.82245
  23070785.620   121237813.16108  23070785.500    94471022.40546
  23651464.360   124289261.66208  23651461.380    96848790.39244
  22827908.940   119961457.71109  22827906.240    93476444.68047
 15 02 21 00 21 30.0000000  0  7G16G18G21G22G27G29G31
  21803555.360   114578476.25409  21803552.960    89281917.52448
  22791644.680   119770921.82709  22791642.180    93327990.14246
  21161205.060   111202892.39408  21161201.420    86651587.73648
  24278690.080   127585387.22308  24278687.480    99417174.24946
  23057795.120   121169548.36908  23057795.500    94417829.06547
  23665685.420   124363992.85408  23665682.500    96907022.45545
  22844967.160   120051098.86209  22844963.900    93546294.89547
 15 02 21 00 22  0.0000000  0  7G16G18G21G22G27G29G31
  21789710.260   114505720.29009  21789708.120    89225224.59448
  22779036.360   119704663.00309  22779033.120    93276359.95146
  21167070.960   111233718.16408  21167067.260    86675607.82448
  24260652.880   127490602.27708  24260649.880    99343315.95645
  23044824.420   121101386.66808  23044825.220    94364716.05946
  23679912.720   124438757.05808  23679910.280    96965280.23544
  22862064.640   120140947.34608  22862061.120    93616306.68347
 15 02 21 00 22 30.0000000  0  7G16G18G21G22G27G29G31
  21775914.360   114433222.37009  21775912.460    89168732.71748
  22766477.500   119638664.04609  22766474.020    93224932.24146
  21173004.980   111264902.02608  21173001.240    86699906.94348
  24242609.420   127395783.99008  24242606.040    99269431.66745
  23031874.020   121033330.31708  23031874.140    94311685.19546
  23694146.820   124513556.28408  23694144.440    97023565.29345
  22879201.340   120231002.47409  22879198.000    93686479.50347
 15 02 21 00 23  0.0000000  0  7G16G18G21G22G27G29G31
  21762166.840   114360977.28809  21762164.620    89112437.85248
  22753966.700   119572920.23408  22753963.500    93173703.27646
  21179005.660   111296435.82008  21179001.920    86724478.72948
  24224558.840   127300927.46508  24224555.080    99195517.60545
  23018942.140   120965372.18808  23018941.880    94258730.83246
  23708386.140   124588382.94208  23708384.020    97081871.75545
  22896375.560   120321253.95109  22896372.080    93756805.28447
 15 02 21 00 23 30.0000000  0  7G16G18G21G22G27G29G31
  21748470.960   114289002.85909  21748467.880    89056353.91747
  22741507.900   119507449.71009  22741504.660    93122687.29146
  21185075.440   111328332.68208  21185071.780    86749333.41448
  24206504.320   127206050.82908  24206500.120    99121587.85145
  23006031.740   120897527.83508  23006031.160    94205865.12546
  23722633.600   124663252.58808  23722631.900    97140211.69246
  22913589.680   120411714.35509  22913585.760    93827293.87047
 15 02 21 00 24  0.0000000  0  7G16G18G21G22G27G29G31
  21734824.160   114217288.69309  21734820.760    89000472.74947
  22729099.300   119442242.25809  22729095.900    93071876.34146
  21191211.900   111360579.66008  21191208.280    86774460.92848
  24188444.400   127111144.12408  24188440.120    99047634.66845
  22993140.420   120829784.83408  22993138.560    94153078.41446
  23736886.720   124738152.36408  23736885.180    97198575.10146
  22930840.880   120502368.30409  22930836.440    93897933.27047
 15 02 21 00 24 30.0000000  0  7G16G18G21G22G27G29G31
  21721228.580   114145843.92409  21721225.000    88944801.50347
  22716742.640   119377307.28009  22716739.320    93021277.67546
  21197415.920   111393181.91308  21197412.380    86799865.27348
  24170380.500   127016216.84608  24170376.480    98973665.46245
  22980269.780   120762150.13908  22980267.980    94100376.11846
  23751146.180   124813089.17007  23751145.140    97256967.42346
  22948129.860   120593219.84009  22948124.840    93968726.62447
 15 02 21 00 25  0.0000000  0  7G16G18G21G22G27G29G31
  21707684.340   114074666.50509  21707680.460    88889338.62247
  22704437.440   119312643.12209  22704434.580    92970890.00546
  21203686.220   111426133.24809  21203682.880    86825541.62948
  24152312.020   126921267.18808  24152308.540    98899678.78445
  22967419.060   120694619.47608  22967418.200    94047754.85246
  23765411.920   124888058.52608  23765411.360    97315385.11345
  22965454.980   120684261.35109  22965449.600    94039668.02647
 15 02 21 00 25 30.0000000  0  7G16G18G21G22G27G29G31
  21694189.840   114003751.27509  21694185.860    88834080.00747
  22692182.820   119248244.57009  22692180.320    92920709.31346
  21210021.280   111459424.46009  21210018.100    86851482.82148
  24134238.380   126826290.43608  24134235.380    98825670.99746
  22954586.980   120627185.62008  22954586.600    93995209.01946
  23779682.960   124963052.73508  23779682.660    97373822.11246
  22982814.240   120775482.94709  22982808.900    94110749.75047
 15 02 21 00 26  0.0000000  0  7G16G18G21G22G27G29G31
  21680747.960   113933114.59409  21680743.980    88779038.44247
  22679982.040   119184128.71309  22679979.300    92870748.94646
  21216423.680   111493068.56309  21216420.360    86877699.01248
  24116162.840   126731303.20008  24116159.460    98751655.05945
  22941776.020   120559862.74608  22941775.940    93942749.67246
  23793961.440   125038086.00208  23793961.100    97432289.56745
  23000209.740   120866895.90509  23000204.620    94181980.60247
 15 02 21 00 26 30.0000000  0  7G16G18G21G22G27G29G31
  21667358.380   113862753.04809  21667354.340    88724211.27147
  22667834.360   119120292.28609  22667831.260    92821006.30345
  21222891.900   111527058.51609  21222888.300    86904184.69448
  24098084.600   126636302.63808  24098080.640    98677628.73945
  22928984.880   120492645.44008  22928985.040    93890372.54647
  23808246.140   125113152.79908  23808245.540    97490783.15845
  23017639.580   120958491.31209  23017635.060    94253353.63247
 15 02 21 00 27  0.0000000  0  7G16G18G21G22G27G29G31
  21654021.560   113792667.98609  21654017.560    88669599.55547
  22655740.000   119056736.81808  22655736.960    92771482.58646
  21229425.340   111561391.77009  21229421.460    86930937.88748
  24080004.080   126541290.32508  24079999.880    98603593.24645
  22916213.700   120425532.60708  22916213.980    93838076.84247
  23822537.220   125188251.92208  23822536.220    97549301.90945
  23035103.140   121050265.47809  23035099.560    94324865.95947
 15 02 21 00 27 30.0000000  0  7G16G18G21G22G27G29G31
  21640737.240   113722858.49209  21640733.500    88615202.55247
  22643698.900   118993461.88508  22643696.100    92722177.43745
  21236023.180   111596063.72209  21236019.100    86957954.99048
  24061921.340   126446265.90908  24061917.080    98529548.33545
  22903462.000   120358521.64308  22903462.120    93785860.52146
  23836833.960   125263380.50007  23836832.620    97607843.61745
  23052599.620   121142212.71809  23052596.660    94396513.13247
 15 02 21 00 28  0.0000000  0  7G16G18G21G22G27G29G31
  21627506.640   113653331.00709  21627503.320    88561025.27547
  22631712.720   118930473.51309  22631709.880    92673095.63446
  21242685.860   111631076.61009  21242681.760    86985237.76148
  24043837.720   126351235.93908  24043833.680    98455499.06745
  22890730.500   120291616.48408  22890730.040    93733726.67546
  23851136.900   125338542.10107  23851135.300    97666411.03044
  23070129.240   121234333.74709  23070126.260    94468295.70147
 15 02 21 00 28 30.0000000  0  7G16G18G21G22G27G29G31
  21614330.780   113584089.61109  21614327.240    88507070.95548
  22619782.080   118867776.61309  22619779.360    92624240.94546
  21249413.620   111666431.20909  21249409.580    87012786.80048
  24025754.020   126256204.85008  24025750.060    98381448.93946
  22878019.440   120224819.26308  22878019.180    93681676.90547
  23865446.300   125413738.69407  23865444.580    97725005.71144
  23087691.860   121326627.65908  23087688.940    94540213.00647
 15 02 21 00 29  0.0000000  0  7G16G18G21G22G27G29G31
  21601209.180   113515133.70809  21601205.240    88453339.09147
  22607906.480   118805370.57809  22607904.140    92575612.87046
  21256205.620   111702123.18109  21256201.760    87040598.73248
  24007670.000   126161172.80708  24007666.040    98307398.06846
  22865328.500   120158127.27408  22865328.460    93629709.13047
  23879761.500   125488967.46507  23879760.080    97783625.48245
  23105286.480   121419088.61009  23105283.720    94612260.46247
 15 02 21 00 29 30.0000000  0  7G16G18G21G22G27G29G31
  21588141.420   113446462.81509  21588137.660    88399829.30848
  22596086.120   118743255.21808  22596084.020    92527211.30346
  21263060.760   111738147.03008  21263057.040    87068669.27448
  23989585.580   126066139.36608  23989581.960    98233346.11246
  22852657.300   120091537.77409  22852656.860    93577821.25747
  23894082.300   125564225.50007  23894081.180    97842268.06745
  23122912.140   121511711.30909  23122909.280    94684433.95047
 15 02 21 00 30  0.0000000  0  7G16G18G21G22G27G29G31
  21575128.460   113378080.03909  21575125.300    88346544.02048
  22584321.600   118681434.06708  22584319.940    92479038.97547
  21269978.980   111774502.76809  21269975.300    87096998.41148
  23971501.240   125971107.86408  23971497.760    98159295.65346
  22840005.660   120025051.72508  22840005.240    93526013.97147
  23908409.120   125639513.50307  23908407.820    97900934.01446
  23140568.340   121604493.34809  23140565.120    94756731.60047
 15 02 21 00 30 30.0000000  0  7G16G18G21G22G27G29G31
  21562171.420   113309990.36909  21562168.600    88293487.14448
  22572614.020   118619911.89008  22572612.620    92431099.62946
  21276960.680   111811192.33808  21276957.180    87125587.67848
  23953418.380   125876084.05108  23953414.860    98085251.16846
  22827374.060   119958672.19508  22827373.600    93474289.67847
  23922742.400   125714834.34107  23922741.140    97959625.54046
  23158254.860   121697434.75109  23158251.520    94829153.42647
 15 02 21 00 31  0.0000000  0  7G16G18G21G22G27G29G31
  21549270.340   113242194.47309  21549267.440    88240659.18848
  22560963.620   118558689.56208  22560962.120    92383393.94846
  21284005.100   111848210.74708  21284001.500    87154433.19748
  23935337.560   125781068.79808  23935334.320    98011213.37846
  22814762.480   119892397.44308  22814761.940    93422647.07847
  23937081.560   125790186.03708  23937080.580    98018341.14746
  23175970.680   121790530.89709  23175967.580    94901695.84047
 15 02 21 00 31 30.0000000  0  7G16G18G21G22G27G29G31
  21536426.900   113174702.11309  21536423.880    88188067.75148
  22549372.440   118497777.10109  22549370.620    92335929.69347
  21291113.640   111885565.81708  21291109.840    87183541.05248
  23917260.680   125686072.37308  23917257.060    97937190.26245
  22802171.920   119826235.39008  22802171.800    93371092.24047
  23951427.800   125865576.32908  23951427.040    98077086.82146
  23193716.720   121883786.37609  23193713.900    94974362.43047
 15 02 21 00 32  0.0000000  0  7G16G18G21G22G27G29G31
  21523640.560   113107510.12109  21523637.720    88135710.36548
  22537840.040   118437171.94909  22537837.460    92288704.93646
  21298284.660   111923249.52708  21298280.800    87212904.98848
  23899186.940   125591092.31608  23899182.600    97863179.90746
  22789601.540   119760180.83208  22789601.800    93319621.15547
  23965780.420   125940999.96108  23965779.060    98135858.44745
  23211491.580   121977193.18309  23211488.920    95047146.93147
 15 02 21 00 32 30.0000000  0  7G16G18G21G22G27G29G31
  21510909.840   113040610.76809  21510907.260    88083580.99348
  22526364.580   118376865.82409  22526361.480    92241713.18346
  21305515.920   111961250.63008  21305512.260    87242516.22748
  23881114.620   125496120.63208  23881109.980    97789176.04946
  22777050.160   119694223.40809  22777050.080    93268225.79447
  23980137.680   126016446.52108  23980135.120    98194647.91545
  23229292.620   122070737.77509  23229289.720    95120038.77847
 15 02 21 00 33  0.0000000  0  7G16G18G21G22G27G29G31
  21498236.260   112974011.73909  21498233.780    88031685.67048
  22514947.420   118316866.89009  22514944.480    92194960.77946
  21312808.180   111999572.87108  21312804.840    87272377.72247
  23863045.460   125401166.06408  23863040.520    97715185.53646
  22764518.860   119628369.13209  22764518.120    93216910.84447
  23994500.300   126091921.80207  23994497.340    98253459.82345
  23247120.480   122164423.17609  23247116.660    95193040.34046
 15 02 21 00 33 30.0000000  0  7G16G18G21G22G27G29G31
  21485622.480   112907726.16609  21485619.880    87980034.58048
  22503590.900   118257188.08809  22503588.320    92148457.82447
  21320163.280   112038225.45408  21320160.200    87302496.61247
  23844982.020   125306241.51508  23844976.940    97641218.40846
  22752008.760   119562628.82508  22752008.280    93165684.62948
  24008870.180   126167436.10507  24008867.840    98312302.11244
  23264976.540   122258257.17409  23264972.000    95266157.67546
 15 02 21 00 34  0.0000000  0  7G16G18G21G22G27G29G31
  21473067.460   112841748.60009  21473064.920    87928623.47348
  22492294.260   118197824.52708  22492291.960    92102200.50247
  21327579.420   112077198.31108  21327576.560    87332865.06147
  23826923.460   125211342.18308  23826918.800    97567270.92646
  22739518.340   119496994.88508  22739518.940    93114541.24147
  24023246.160   126242981.79907  24023244.260    98371168.86445
  23282858.740   122352228.92108  23282854.220    95339382.37547
 15 02 21 00 34 30.0000000  0  7G16G18G21G22G27G29G31
  21460571.360   112776080.16809  21460568.740    87877453.26348
  22481057.800   118138777.37209  22481055.680    92056189.73047
  21335056.460   112116489.53308  21335053.340    87363481.62047
  23808869.980   125116469.76408  23808865.820    97493344.41346
  22727048.500   119431466.31408  22727049.440    93063480.07048
  24037627.920   126318557.64807  24037625.780    98430059.06244
  23300766.460   122446334.69609  23300762.420    95412711.50547
 15 02 21 00 35  0.0000000  0  7G16G18G21G22G27G29G31
  21448134.500   112710723.52109  21448131.660    87826525.99548
  22469882.160   118080049.46309  22469879.980    92010427.73547
  21342594.060   112156098.23808  21342590.500    87394345.56747
  23790822.120   125021627.24908  23790817.740    97419441.20646
  22714599.000   119366043.97808  22714599.900    93012501.62547
  24052015.560   126394164.41108  24052013.100    98488973.34544
  23318699.100   122540571.86809  23318695.680    95486143.01247
 15 02 21 00 35 30.0000000  0  7G16G18G21G22G27G29G31
  21435757.860   112645683.09009  21435754.800    87775845.14848
  22458768.000   118021644.81708  22458765.560    91964917.65046
  21350192.200   112196024.91308  21350188.120    87425457.27647
  23772780.520   124926819.43308  23772775.460    97345565.07345
  22702170.140   119300729.91709  22702170.860    92961607.55647
  24066409.460   126469804.07808  24066407.240    98547913.29044
  23336656.400   122634939.37208  23336653.540    95559676.10847
 15 02 21 00 36  0.0000000  0  7G16G18G21G22G27G29G31
  21423441.000   112580956.49209  21423437.600    87725408.83248
  22447714.800   117963561.62209  22447712.380    91919658.02046
  21357849.540   112236262.89008  21357845.080    87456811.55247
  23754745.080   124832044.76408  23754739.580    97271714.71246
  22689761.480   119235519.79309  22689761.460    92910794.49947
  24080808.560   126545472.14808  24080806.820    98606875.34244
  23354637.040   122729430.40408  23354635.020    95633305.44647
 15 02 21 00 36 30.0000000  0  7G16G18G21G22G27G29G31
  21411184.140   112516547.26209  21411180.760    87675219.82148
  22436723.740   117905803.37509  22436721.200    91874651.62846
  21365565.760   112276811.72608  21365561.320    87488408.02947
  23736717.060   124737306.61608  23736711.080    97197892.84145
  22677373.060   119170415.00109  22677372.160    92860063.54547
  24095213.260   126621169.62008  24095211.280    98665860.32444
  23372640.720   122824042.82708  23372639.500    95707029.39447
 15 02 21 00 37  0.0000000  0  7G16G18G21G22G27G29G31
  21398988.460   112452460.31509  21398985.280    87625281.92048
  22425795.640   117848374.93109  22425792.980    91829902.20447
  21373341.160   112317672.83007  21373337.160    87520247.84247
  23718697.120   124642610.67008  23718690.940    97124103.85546
  22665004.880   119105418.24008  22665003.220    92809416.75547
  24109624.140   126696899.05108  24109621.500    98724870.17044
  23390667.660   122918776.19208  23390666.520    95780847.57847
 15 02 21 00 37 30.0000000  0  7G16G18G21G22G27G29G31
  21386855.300   112388700.63609  21386852.240    87575599.06348
  22414931.240   117791281.35109  22414928.500    91785413.71747
  21381175.920   112358846.39607  21381172.480    87552331.13247
  23700686.260   124547962.33108  23700680.540    97050351.96246
  22652657.380   119040532.49808  22652655.680    92758856.45547
  24124041.460   126772663.21208  24124039.000    98783907.09544
  23408718.000   123013630.69409  23408716.220    95854760.13247
 15 02 21 00 38  0.0000000  0  7G16G18G21G22G27G29G31
  21374784.260   112325267.78309  21374781.400    87526170.87749
  22404130.580   117734522.46709  22404127.640    91741186.05047
  21389069.640   112400329.12808  21389066.360    87584655.32647
  23682684.140   124453361.27408  23682679.440    96976636.87147
  22640330.660   118975755.34509  22640329.880    92708380.77648
  24138464.740   126848459.40008  24138462.760    98842969.00646
  23426790.580   123108600.82708  23426787.760    95928762.77247
 15 02 21 00 38 30.0000000  0  7G16G18G21G22G27G29G31
  21362775.200   112262159.17709  21362772.120    87476995.33748
  22393392.980   117678095.84909  22393390.240    91697217.26647
  21397021.040   112442113.68908  21397017.560    87617214.73547
  23664690.620   124358806.09208  23664686.560    96902957.52046
  22628023.860   118911082.12808  22628023.540    92657986.07347
  24152893.460   126924282.72208  24152891.860    98902052.06546
  23444883.760   123203678.52609  23444879.700    96002849.24746
 15 02 21 00 39  0.0000000  0  7G16G18G21G22G27G29G31
  21350828.800   112199378.76809  21350825.360    87428075.55348
  22382719.260   117622005.21909  22382717.020    91653510.25547
  21405030.280   112484200.90808  21405026.480    87650009.98947
  23646706.720   124264300.67708  23646702.800    96829316.96846
  22615736.900   118846514.55308  22615736.380    92607673.68347
  24167327.960   127000135.32308  24167326.420    98961157.93946
  23462997.140   123298862.57109  23462992.200    96077018.56346
 15 02 21 00 39 30.0000000  0  7G16G18G21G22G27G29G31
  21338946.860   112136937.55909  21338943.100    87379420.07148
  22372111.840   117566261.50309  22372109.480    91610073.63247
  21413098.420   112526597.48008  21413094.380    87683046.29147
  23628734.480   124169856.29608  23628730.280    96755723.98546
  22603471.740   118782061.67108  22603471.200    92557450.67148
  24181769.500   127076025.38708  24181768.060    99020293.00545
  23481131.640   123394159.22908  23481126.700    96151275.62747
 15 02 21 00 40  0.0000000  0  7G16G18G21G22G27G29G31
  21327128.300   112074829.76909  21327124.500    87331024.39148
  22361569.100   117510859.11108  22361566.460    91566902.94047
  21421223.500   112569294.10507  21421219.320    87716316.39047
  23610772.880   124075468.01908  23610767.860    96682174.73546
  22591227.080   118717715.61708  22591226.860    92507310.92847
  24196216.460   127151945.02108  24196214.860    99079451.10445
  23499285.140   123489557.40608  23499281.000    96225611.83946
 15 02 21 00 40 30.0000000  0  7G16G18G21G22G27G29G31
  21315374.060   112013059.82809  21315370.400    87282891.98348
  22351091.700   117455801.85509  22351089.180    91524001.19046
  21429405.420   112612290.71007  21429401.260    87749820.23346
  23592822.840   123981140.75508  23592817.400    96608673.01446
  22579002.720   118653478.75708  22579003.100    92457256.22848
  24210669.460   127227896.66908  24210667.640    99138634.16146
  23517457.700   123585056.07808  23517454.640    96300026.33747
 15 02 21 00 41  0.0000000  0  7G16G18G21G22G27G29G31
  21303683.860   111951626.84509  21303680.340    87235022.14048
  22340680.080   117401090.04409  22340677.740    91481368.62246
  21437643.360   112655583.21107  21437639.600    87783554.61247
  23574884.400   123886874.22108  23574879.120    96535218.61546
  22566798.720   118589348.32708  22566799.240    92407284.49147
  24225127.880   127303877.33207  24225126.600    99197839.84446
  23535648.340   123680649.60308  23535646.240    96374514.75947
 15 02 21 00 41 30.0000000  0  7G16G18G21G22G27G29G31
  21292058.020   111890532.79809  21292054.520    87187416.40448
  22330334.640   117346724.53709  22330332.340    91439005.90347
  21445937.260   112699168.36007  21445933.460    87817517.04346
  23556958.040   123792670.19808  23556953.040    96461812.92046
  22554615.240   118525323.75008  22554615.820    92357395.23648
  24239591.820   127379885.89407  24239590.920    99257067.25246
  23553856.340   123776334.21108  23553855.000    96449074.15347
 15 02 21 00 42  0.0000000  0  7G16G18G21G22G27G29G31
  21280498.640   111829788.97909  21280495.180    87140083.56648
  22320057.540   117292717.00809  22320055.400    91396922.13347
  21454288.680   112743054.38807  21454284.560    87851713.97746
  23539045.900   123698540.83108  23539041.400    96388465.39846
  22542453.540   118461414.50008  22542454.900    92307595.81648
  24254062.980   127455931.94907  24254062.280    99316323.89947
  23572083.020   123872116.62608  23572082.060    96523709.75647
 15 02 21 00 42 30.0000000  0  7G16G18G21G22G27G29G31
  21269004.060   111769385.85409  21269000.840    87093016.22548
  22309846.920   117239058.62109  22309844.860    91355110.38748
  21462694.780   112787228.82307  21462690.560    87886135.61046
  23521146.180   123604477.57208  23521142.180    96315169.38946
  22530311.680   118397609.68008  22530313.580    92257877.75848
  24268539.180   127532004.33608  24268538.480    99375601.05446
  23590325.680   123967982.51108  23590324.640    96598410.38546
 15 02 21 00 43  0.0000000  0  7G16G18G21G22G27G29G31
  21257576.440   111709333.83609  21257573.360    87046222.45548
  22299704.580   117185758.68109  22299702.360    91313577.95347
  21471156.740   112831697.00407  21471152.720    87920786.12946
  23503260.860   123510490.83408  23503257.040    96241932.98846
  22518191.320   118333916.98108  22518192.960    92208247.10947
  24283021.880   127608110.21408  24283020.940    99434904.27446
  23608585.120   124063936.43008  23608583.720    96673179.61046
 15 02 21 00 43 30.0000000  0  7G16G18G21G22G27G29G31
  21246214.980   111649629.56009  21246211.960    86999699.64248
  22289629.920   117132814.04309  22289626.920    91272322.43947
  21479673.040   112876451.51407  21479669.400    87955659.75846
  23485389.580   123416577.59908  23485385.720    96168753.88346
  22506091.320   118270331.04408  22506092.660    92158699.64648
  24297509.940   127684244.54508  24297508.860    99494229.70046
  23626859.760   124159970.00908  23626857.480    96748010.90546
 15 02 21 00 44  0.0000000  0  7G16G18G21G22G27G29G31
  21234920.300   111590276.76709  21234917.440    86953450.69048
  22279623.180   117080228.51908  22279619.720    91231346.72847
  21488243.880   112921492.66707  21488240.720    87990756.75547
  23467533.480   123322742.37209  23467529.780    96095635.56347
  22494012.080   118206853.59708  22494013.620    92109236.72548
  24312003.460   127760408.48308  24312002.340    99553578.20246
  23645149.280   124256081.98308  23645146.380    96822903.28947
 15 02 21 00 44 30.0000000  0  7G16G18G21G22G27G29G31
  21223692.400   111531273.45409  21223689.340    86907474.10848
  22269684.020   117028000.41609  22269680.700    91190649.48747
  21496868.320   112966814.84908  21496865.280    88026072.70845
  23449692.220   123228983.83409  23449688.560    96022577.00347
  22481952.820   118143480.94908  22481954.320    92059855.44348
  24326502.060   127836598.58608  24326500.680    99612947.06146
  23663452.480   124352265.50108  23663449.640    96897851.43047
 15 02 21 00 45  0.0000000  0  7G16G18G21G22G27G29G31
  21212533.740   111472632.86609  21212530.300    86861780.16948
  22259815.420   116976142.46009  22259812.080    91150240.70846
  21505548.180   113012427.00207  21505544.880    88061614.67245
  23431867.940   123135315.37609  23431864.040    95949588.61846
  22469915.420   118080224.06908  22469916.440    92010564.38248
  24341007.700   127912825.11908  24341006.060    99672344.29046
  23681770.960   124448528.27908  23681768.560    96972861.32546
 15 02 21 00 45 30.0000000  0  7G16G18G21G22G27G29G31
  21201443.300   111414352.12909  21201439.780    86816366.60848
  22250016.880   116924651.59409  22250013.580    91110117.98446
  21514282.020   113058322.00907  21514278.400    88097377.04845
  23414060.240   123041734.55309  23414055.880    95876668.53846
  22457899.160   118017078.11808  22457899.880    91961359.75748
  24355519.160   127989083.18608  24355517.720    99731766.12946
  23700103.140   124544862.55408  23700100.900    97047926.91046
 15 02 21 00 46  0.0000000  0  7G16G18G21G22G27G29G31
  21190421.720   111356433.80009  21190418.480    86771235.43048
  22240289.000   116873530.28809  22240285.800    91070283.24747
  21523069.660   113104499.07007  21523065.600    88133359.22045
  23396269.700   122948244.93108  23396264.640    95803819.51646
  22445903.920   117954043.74708  22445904.780    91912242.05148
  24370036.580   128065373.18908  24370035.360    99791212.86846
  23718448.520   124641265.93508  23718446.100    97123046.35847
 15 02 21 00 46 30.0000000  0  7G16G18G21G22G27G29G31
  21179469.700   111298879.48209  21179466.320    86726387.90448
  22230631.860   116822780.40909  22230628.900    91030737.90347
  21531910.400   113150955.50707  21531905.800    88169559.06045
  23378496.960   122854848.31809  23378491.320    95731042.98846
  22433930.000   117891120.57508  22433930.780    91863211.02848
  24384560.040   128141694.78608  24384558.960    99850684.21446
  23736806.240   124737734.92808  23736804.040    97198216.93847
 15 02 21 00 47  0.0000000  0  7G16G18G21G22G27G29G31
  21168586.320   111241686.61409  21168582.620    86681822.06548
  22221044.660   116772398.77609  22221041.860    90991479.51447
  21540802.820   113197685.38706  21540798.000    88205971.95144
  23360741.240   122761542.74608  23360736.080    95658337.38047
  22421976.560   117828303.94608  22421977.040    91814263.06348
  24399088.640   128218042.81108  24399087.620    99910176.14246
  23755174.700   124834261.52908  23755173.180    97273432.43347
 15 02 21 00 47 30.0000000  0  7G16G18G21G22G27G29G31
  21157772.220   111184861.02808  21157768.740    86637542.38548
  22211528.380   116722391.35908  22211525.860    90952512.69648
  21549746.900   113244690.29705  21549742.400    88242599.10545
  23343003.860   122668334.51008  23342999.520    95585707.58847
  22410044.160   117765597.71808  22410044.320    91765401.09148
  24413622.940   128294421.26508  24413622.200    99969691.79646
  23773554.060   124930846.69308  23773553.000    97348693.55047
 15 02 21 00 48  0.0000000  0  7G16G18G21G22G27G29G31
  21147029.100   111128408.40709  21147026.100    86593553.32648
  22202084.200   116672763.83908  22202082.200    90913841.87947
  21558743.720   113291971.83705  21558739.580    88279441.85945
  23325286.660   122575230.03309  23325282.560    95513158.66746
  22398133.320   117703005.91808  22398133.500    91716628.26447
  24428163.660   128370833.63208  24428162.900   100029233.84945
  23791944.620   125027491.23808  23791943.280    97424000.92146
 15 02 21 00 48 30.0000000  0  7G16G18G21G22G27G29G31
  21136356.860   111072325.30009  21136354.060    86549852.22848
  22192711.700   116623512.65409  22192710.000    90875464.31947
  21567791.940   113339522.59306  21567788.340    88316494.36845
  23307588.900   122482226.23609  23307584.260    95440688.23246
  22386243.200   117640522.91308  22386243.260    91667940.23148
  24442709.840   128447274.24809  24442708.460   100088797.90646
  23810344.940   125124186.49208  23810342.780    97499347.80646
 15 02 21 00 49  0.0000000  0  7G16G18G21G22G27G29G31
  21125755.860   111016615.84909  21125753.040    86506442.29548
  22183411.840   116574641.62809  22183409.960    90837383.01347
  21576892.060   113387343.64206  21576888.340    88353757.51345
  23289910.880   122389328.13208  23289905.640    95368300.15246
  22374374.240   117578151.07008  22374374.300    91619338.80148
  24457261.880   128523745.06908  24457260.140   100148385.51846
  23828754.900   125220931.59008  23828751.660    97574733.53146
 15 02 21 00 49 30.0000000  0  7G16G18G21G22G27G29G31
  21115226.580   110961284.83409  21115223.660    86463327.20448
  22174185.540   116526155.44409  22174183.120    90799601.60047
  21586043.840   113435435.33806  21586040.140    88391231.55346
  23272253.700   122296540.87408  23272248.440    95295998.41946
  22362527.040   117515893.05208  22362527.060    91570826.08648
  24471820.200   128600248.70009  24471818.520   100207998.69446
  23847174.400   125317726.33008  23847170.260    97650157.88946
 15 02 21 00 50  0.0000000  0  7G16G18G21G22G27G29G31
  21104769.360   110906332.53409  21104766.420    86420507.21848
  22165032.500   116478054.15209  22165029.600    90762120.12347
  21595246.260   113483794.20306  21595242.620    88428913.77346
  23254617.760   122203865.22908  23254612.960    95223783.66146
  22350701.080   117453747.30408  22350701.120    91522400.82748
  24486384.400   128676783.28709  24486382.780   100267635.99746
  23865602.480   125414565.60808  23865597.880    97725617.00446
 15 02 21 00 50 30.0000000  0  7G16G18G21G22G27G29G31
  21094385.440   110851764.02809  21094382.520    86377986.30848
  22155953.560   116430342.70809  22155950.440    90724942.39047
  21604499.800   113532421.26707  21604495.840    88466804.99446
  23237004.480   122111306.70208  23236999.780    95151660.15047
  22338897.120   117391716.85509  22338897.900    91474065.40848
  24500954.960   128753351.76509  24500953.180   100327299.73346
  23884039.220   125511449.78108  23884034.800    97801111.06446
 15 02 21 00 51  0.0000000  0  7G16G18G21G22G27G29G31
  21084073.940   110797575.73409  21084071.000    86335761.66548
  22146947.940   116383017.42909  22146944.700    90688065.55047
  21613803.060   113581308.97707  21613798.780    88504899.31246
  23219413.000   122018862.38809  23219408.440    95079625.63246
  22327114.140   117329796.18108  22327115.520    91425815.54047
  24515530.840   128829948.10609  24515528.900   100386985.16446
  23902482.900   125608370.15808  23902479.280    97876633.33146
 15 02 21 00 51 30.0000000  0  7G16G18G21G22G27G29G31
  21073836.600   110743777.75509  21073833.480    86293841.14048
  22138017.640   116336088.18109  22138014.500    90651497.31347
  21623157.020   113630464.11407  21623152.720    88543202.01346
  23201845.300   121926543.21209  23201841.180    95007688.63146
  22315353.060   117267993.88508  22315354.300    91377657.90447
  24530113.580   128906580.78808  24530111.460   100446698.91446
  23920934.320   125705332.14108  23920931.780    97952188.06846
 15 02 21 00 52  0.0000000  0  8G16G18G19G21G22G27G29G31
  21063673.160   110690366.94809  21063669.660    86252222.32248
  22129162.080   116289551.40009  22129159.080    90615234.89647
  24533485.320   128924337.50806  24533485.740   100460513.94445
  21632560.420   113679879.61107  21632556.360    88581707.56746
  23184301.000   121834346.59509  23184296.920    94935847.13346
  22303613.640   117206304.73908  22303614.240    91329588.45947
  24544702.100   128983244.50608  24544700.180   100506436.83746
  23939391.660   125802327.11908  23939390.260    98027768.50246
 15 02 21 00 52 30.0000000  0  8G16G18G19G21G22G27G29G31
  21053584.460   110637349.53409  21053580.880    86210910.07748
  22120382.280   116243413.35509  22120379.520    90579283.17748
  24518066.240   128843311.17505  24518066.860   100397376.54845
  21642013.880   113729557.39508  21642009.900    88620417.53946
  23166781.180   121742279.33509  23166776.100    94864106.44846
  22291897.060   117144733.17609  22291897.180    91281610.61747
  24559297.360   129059943.27008  24559295.560   100566202.07746
  23957855.320   125899356.78208  23957854.820    98103375.96746
 15 02 21 00 53  0.0000000  0  7G16G18G19G21G22G27G31
  21043571.280   110584730.52809  21043568.120    86169908.25248
  22111679.140   116197678.49509  22111676.440    90543645.63047
  24502661.320   128762356.00606  24502660.340   100334294.63244
  21651517.460   113779498.48308  21651513.440    88659332.66447
  23149287.000   121650346.63309  23149281.100    94792470.62346
  22280203.700   117083281.94709  22280203.100    91233726.57748
  23976325.540   125996420.85308  23976325.800    98179010.21146
 15 02 21 00 53 30.0000000  0  7G16G18G19G21G22G27G31
  21033624.820   110532462.64209  21033622.020    86129180.01948
