     2.11           OBSERVATION DATA    G                   RINEX VERSION / TYPE
SPIDER V4,0,0,3554                      2015 03 24 00:21    PGM / RUN BY / DATE 
CFKZ                                                        MARKER NAME         
CFKZ                                                        MARKER NUMBER       
                                                            OBSERVER / AGENCY   
496632              LEICA GRX1200+GNSS  8.10/4.007          REC # / TYPE / VERS 
10301036            LEIAR25         NONE                    ANT # / TYPE        
  5212138.8290   540257.5452  3624418.8863                  APPROX POSITION XYZ 
        0.0720        0.0000        0.0000                  ANTENNA: DELTA H/E/N
     1     1                                                WAVELENGTH FACT L1/2
     4    C1    L1    P2    L2                              # / TYPES OF OBSERV 
    30.000                                                  INTERVAL            
  2015    02    21    00    00    0.0000000     GPS         TIME OF FIRST OBS   
  2015    02    21    23    59   30.0000000     GPS         TIME OF LAST OBS    
    16                                                      LEAP SECONDS        
    30                                                      # OF SATELLITES     
   G 1   806   806   806   806                              PRN / # OF OBS      
   G 2   925   925   925   925                              PRN / # OF OBS      
   G 3   854   854   854   854                              PRN / # OF OBS      
   G 4   844   844   844   844                              PRN / # OF OBS      
   G 5   631   631   631   631                              PRN / # OF OBS      
   G 6   787   787   787   787                              PRN / # OF OBS      
   G 7   668   668   668   668                              PRN / # OF OBS      
   G 9   808   808   808   808                              PRN / # OF OBS      
   G10   742   742   742   742                              PRN / # OF OBS      
   G11   783   783   783   783                              PRN / # OF OBS      
   G12   820   820   820   820                              PRN / # OF OBS      
   G13   798   798   798   798                              PRN / # OF OBS      
   G14   929   929   929   929                              PRN / # OF OBS      
   G15   705   705   705   705                              PRN / # OF OBS      
   G16   674   673   673   673                              PRN / # OF OBS      
   G17   939   939   938   938                              PRN / # OF OBS      
   G18   914   914   914   914                              PRN / # OF OBS      
   G19   762   762   762   762                              PRN / # OF OBS      
   G20   779   779   779   779                              PRN / # OF OBS      
   G21   739   739   738   738                              PRN / # OF OBS      
   G22   653   653   653   653                              PRN / # OF OBS      
   G23   752   752   752   752                              PRN / # OF OBS      
   G24   831   831   831   831                              PRN / # OF OBS      
   G25   866   866   866   866                              PRN / # OF OBS      
   G27   815   815   815   815                              PRN / # OF OBS      
   G28   861   860   860   860                              PRN / # OF OBS      
   G29   764   764   763   763                              PRN / # OF OBS      
   G30   715   715   715   715                              PRN / # OF OBS      
   G31   851   850   850   850                              PRN / # OF OBS      
   G32   768   768   768   768                              PRN / # OF OBS      
BIT 2 OF LLI FLAGS DATA COLLECTED UNDER A/S CONDITION       COMMENT             
SNR is mapped to RINEX snr flag value [2-9]                 COMMENT             
Lx:     = 25dBHz -> 1; 26-27dBHz -> 2; 28-31dBHz -> 3       COMMENT             
       32-35dBHz -> 4; 36-38dBHz -> 5; 39-41dBHz -> 6       COMMENT             
       42-44dBHz -> 7; 45-48dBHz -> 8; >=49dBHz -> 9        COMMENT             
                                                            END OF HEADER       
 15 02 21 00 00  0.0000000  0  7G16G18G21G25G27G29G31
  22612375.580   118828846.00909  22612372.020    92593895.20447
  23178128.260   121801914.88609  23178125.060    94910589.15845
  20970433.540   110200375.92208  20970429.960    85870409.98648
  23862363.100   125397552.08908  23862363.340    97712373.73746
  23725601.100   124678891.67108  23725601.160    97152390.27046
  23081783.060   121295580.47908  23081781.340    94516025.49647
  22052046.400   115884278.19909  22052043.080    90299420.33248
 15 02 21 00 00 30.0000000  0  7G16G18G21G25G27G29G31
  22596498.280   118745410.43709  22596494.740    92528880.47647
  23164315.060   121729326.39009  23164311.940    94854026.71846
  20973835.820   110218254.36508  20973832.140    85884341.24048
  23879983.120   125490145.55208  23879983.420    97784524.45446
  23712317.180   124609083.78808  23712316.660    97097994.49247
  23095114.620   121365637.46908  23095112.860    94570615.31847
  22066230.580   115958816.05809  22066227.200    90357501.75948
 15 02 21 00 01  0.0000000  0  7G16G18G21G25G27G29G31
  22580648.240   118662117.82809  22580644.660    92463977.11847
  23150532.820   121656900.87609  23150529.620    94797591.28446
  20977314.740   110236535.20608  20977310.880    85898586.05448
  23897641.400   125582940.45208  23897641.720    97856832.12846
  23699050.720   124539367.75508  23699050.660    97043670.38246
  23108452.720   121435729.13709  23108450.720    94625232.14347
  22080479.600   116033695.04009  22080476.200    90415848.98748
 15 02 21 00 01 30.0000000  0  7G16G18G21G25G27G29G31
  22564825.700   118578969.94509  22564822.220    92399186.59947
  23136782.200   121584641.38808  23136778.960    94741285.19945
  20980869.880   110255216.99908  20980865.900    85913143.29348
  23915337.780   125675935.49908  23915338.140    97929295.77646
  23685801.480   124469743.35908  23685801.440    96989417.61847
  23121797.160   121505854.85609  23121795.140    94679875.54647
  22094792.920   116108912.23109  22094789.540    90474459.76848
 15 02 21 00 02  0.0000000  0  7G16G18G21G25G27G29G31
  22549032.000   118495973.51209  22549028.580    92334514.05247
  23123064.460   121512554.70308  23123061.300    94685113.78346
  20984501.960   110274303.04909  20984497.860    85928015.54748
  23933072.740   125769133.95008  23933073.220    98001917.93146
  23672570.280   124400214.85208  23672570.780    96935239.67346
  23135148.820   121576018.83608  23135146.940    94734548.74647
  22109170.840   116184469.44309  22109167.540    90533335.50248
 15 02 21 00 02 30.0000000  0  7G16G18G21G25G27G29G31
  22533265.580   118413120.23209  22533262.080    92269953.05047
  23109378.180   121440633.33408  23109375.020    94629071.20245
  20988208.640   110293781.54508  20988204.520    85943193.59848
  23950844.260   125862524.51408  23950844.800    98074689.77146
  23659355.860   124330772.21208  23659356.100    96881128.46047
  23148505.900   121646210.83908  23148503.920    94789243.79947
  22123610.960   116260353.52709  22123607.700    90592465.93448
 15 02 21 00 03  0.0000000  0  7G16G18G21G25G27G29G31
  22517529.080   118330424.09609  22517525.460    92205514.52947
  23095726.220   121368892.05708  23095723.020    94573168.93446
  20991992.020   110313663.88008  20991988.040    85958686.32448
  23968654.400   125956118.20408  23968655.140    98147619.85346
  23646159.780   124261427.20208  23646160.040    96827093.48446
  23161870.540   121716442.51209  23161868.600    94843969.72547
  22138115.200   116336574.19309  22138111.940    90651858.64748
 15 02 21 00 03 30.0000000  0  7G16G18G21G25G27G29G31
  22501821.320   118247879.00509  22501817.680    92141193.67747
  23082107.600   121297325.67609  23082104.340    94517402.94146
  20995850.360   110333940.36008  20995846.600    85974486.17148
  23986501.440   126049905.49008  23986502.140    98220700.83745
  23632980.540   124192171.61508  23632980.980    96773128.11247
  23175241.120   121786705.46508  23175239.260    94898720.06247
  22152681.500   116413120.53209  22152678.200    90711505.13348
 15 02 21 00 04  0.0000000  0  7G16G18G21G25G27G29G31
  22486141.960   118165483.31809  22486138.320    92076989.25747
  23068522.040   121225932.97409  23068518.840    94461772.29046
  20999782.840   110354606.00509  20999779.180    85990589.27448
  24004384.460   126143881.56208  24004385.060    98293928.91045
  23619818.300   124123001.90108  23619818.380    96719229.64846
  23188616.960   121856995.89208  23188615.020    94953491.77847
  22167308.560   116489986.15709  22167305.260    90771400.39848
 15 02 21 00 04 30.0000000  0  7G16G18G21G25G27G29G31
  22470494.080   118083253.16609  22470490.420    92012913.80947
  23054972.620   121154730.28609  23054969.380    94406289.70946
  21003791.860   110375673.54308  21003788.120    86007005.53848
  24022305.880   126238059.11008  24022306.380    98367313.99245
  23606674.580   124053931.55708  23606674.500    96665408.65946
  23202000.680   121927327.65308  23201999.020    95008295.71447
  22181998.460   116567182.06309  22181995.220    90831553.03148
 15 02 21 00 05  0.0000000  0  7G16G18G21G25G27G29G31
  22454876.020   118001179.86709  22454872.340    91948960.60747
  23041457.860   121083709.84808  23041454.780    94350949.12046
  21007875.080   110397130.79609  21007871.200    86023725.47848
  24040263.560   126332426.32008  24040263.880    98440846.85645
  23593547.740   123984949.99608  23593547.720    96611656.86245
  23215389.980   121997689.55808  23215388.620    95063123.14947
  22196748.640   116644694.82709  22196745.420    90891952.56748
 15 02 21 00 05 30.0000000  0  7G16G18G21G25G27G29G31
  22439288.240   117919265.68609  22439284.480    91885131.36247
  23027978.320   121012874.92008  23027975.400    94295753.10046
  21012032.360   110418976.99809  21012028.300    86040748.49648
  24058257.140   126426982.50408  24058257.500    98514526.95546
  23580438.280   123916057.73508  23580437.980    96557974.54547
  23228785.080   122068082.07808  23228783.680    95117974.41547
  22211558.680   116722522.25709  22211555.520    90952597.29148
 15 02 21 00 06  0.0000000  0  7G16G18G21G25G27G29G31
  22423732.380   117837519.33109  22423728.700    91821432.93147
  23014535.800   120942234.65809  23014533.100    94240708.77446
  21016264.680   110441217.57109  21016260.500    86058078.81248
  24076287.620   126521732.93508  24076288.120    98588358.41045
  23567346.640   123847261.02809  23567346.260    96504366.76346
  23242187.320   122138511.57608  23242185.880    95172854.53846
  22226429.380   116800668.13909  22226426.200    91013490.17248
 15 02 21 00 06 30.0000000  0  7G16G18G21G25G27G29G31
  22408207.620   117755936.43709  22408204.020    91757861.82647
  23001129.520   120871784.65408  23001127.000    94185812.68146
  21020570.380   110463844.06709  21020566.120    86075709.84948
  24094353.540   126616669.69608  24094354.220    98662335.08345
  23554271.880   123778553.16508  23554272.020    96450828.23047
  23255595.460   122208971.25008  23255593.520    95227758.09646
  22241358.840   116879122.76809  22241355.700    91074623.63148
 15 02 21 00 07  0.0000000  0  7G16G18G21G25G27G29G31
  22392714.480   117674519.80009  22392710.920    91694420.32547
  22987760.280   120801528.91309  22987757.820    94131067.97346
  21024949.320   110486855.87609  21024945.100    86093641.12048
  24112454.860   126711792.52808  24112455.480    98736456.75346
  23541214.420   123709935.13508  23541214.260    96397359.61647
  23269009.520   122279461.62008  23269007.460    95282685.62846
  22256346.820   116957884.71709  22256343.740    91135996.54948
 15 02 21 00 07 30.0000000  0  7G16G18G21G25G27G29G31
  22377254.640   117593278.24709  22377251.060    91631115.20947
  22974429.760   120731476.58608  22974427.160    94076481.76946
  21029402.680   110510258.89509  21029398.480    86111877.24348
  24130592.580   126807106.75308  24130593.420    98810727.53946
  23528174.960   123641413.29008  23528175.160    96343966.03947
  23282430.480   122349988.93908  23282428.320    95337641.96247
  22271394.020   117036957.71409  22271390.900    91197611.85148
 15 02 21 00 08  0.0000000  0  8G16G18G21G22G25G27G29G31
  22361826.960   117512205.68509  22361823.480    91567941.80347
  22961136.940   120661622.41209  22961134.300    94022049.96546
  21033928.660   110534043.07809  21033924.500    86130410.36748
  24543441.320   128976675.32008  24543441.780   100501283.58646
  24148764.860   126902603.13408  24148765.560    98885140.26646
  23515152.320   123572979.59108  23515152.560    96290641.09347
  23295856.960   122420545.52308  23295854.880    95392621.08047
  22286498.320   117116330.71309  22286495.120    91259460.91948
 15 02 21 00 08 30.0000000  0  8G16G18G21G22G25G27G29G31
  22346431.820   117431304.10209  22346428.460    91504901.64047
  22947882.280   120591968.66108  22947879.440    93967774.33846
  21038526.880   110558206.93408  21038522.840    86149239.34648
  24525789.220   128883912.01008  24525788.520   100429000.80545
  24166971.660   126998280.09308  24166972.540    98959693.69246
  23502146.600   123504633.70608  23502147.020    96237384.58347
  23309288.880   122491130.63609  23309286.680    95447622.40146
  22301659.080   117196000.75309  22301655.860    91321541.44348
 15 02 21 00 09  0.0000000  0  8G16G18G21G22G25G27G29G31
  22331070.600   117350580.89209  22331067.360    91442000.43047
  22934667.280   120522523.45908  22934664.480    93913661.22846
  21043198.240   110582754.98109  21043194.260    86168367.69848
  24508121.480   128791066.80508  24508120.220   100356654.23046
  24185213.640   127094141.98208  24185214.380    99034391.24846
  23489158.480   123436381.05308  23489158.340    96184200.72946
  23322727.220   122561749.57108  23322725.000    95502650.14146
  22316876.920   117275970.92909  22316873.680    91383855.84548
 15 02 21 00 09 30.0000000  0  8G16G18G21G22G25G27G29G31
  22315743.780   117270038.33509  22315740.600    91379240.01447
  22921492.480   120453289.41808  22921489.640    93859712.63346
  21047942.360   110607685.46309  21047938.420    86187794.04448
  24490438.580   128698142.21808  24490436.600   100284245.76745
  24203490.460   127190187.40408  24203491.360    99109231.79145
  23476187.960   123368221.44008  23476188.780    96131089.44947
  23336171.820   122632402.08108  23336169.940    95557704.02246
  22332151.200   117356237.89809  22332148.000    91446401.51548
 15 02 21 00 10  0.0000000  0  8G16G18G21G22G25G27G29G31
  22300450.220   117189670.33209  22300447.140    91316615.61747
  22908356.740   120384260.73809  22908353.800    93805924.06746
  21052757.440   110632988.76909  21052753.480    86207510.90748
  24472739.300   128605132.56208  24472736.980   100211771.01645
  24221800.500   127286407.00308  24221801.300    99184208.09045
  23463233.880   123300146.84708  23463233.600    96078044.24347
  23349621.420   122703080.44708  23349619.620    95612778.03746
  22347479.920   117436790.94709  22347476.740    91509170.10248
 15 02 21 00 10 30.0000000  0  8G16G18G21G22G25G27G29G31
  22285192.040   117109487.88109  22285188.980    91254135.80047
  22895262.400   120315449.25209  22895259.420    93752304.75646
  21057644.940   110658672.66008  21057640.980    86227524.32548
  24455025.640   128512048.92407  24455022.840   100139238.62245
  24240145.060   127382808.40108  24240145.960    99259326.02546
  23450297.860   123232166.02608  23450297.800    96025072.21046
  23363077.640   122773792.86908  23363075.660    95667878.58746
  22362864.240   117517636.35709  22362861.160    91572166.50548
 15 02 21 00 11  0.0000000  0  8G16G18G21G22G25G27G29G31
  22269969.320   117029491.66209  22269966.160    91191801.08547
  22882209.720   120246856.32509  22882206.600    93698855.72846
  21062604.280   110684734.17609  21062600.320    86247831.99948
  24437298.140   128418892.62108  24437295.660   100066649.67045
  24258523.660   127479388.99508  24258524.480    99334583.58645
  23437379.140   123164277.47909  23437379.020    95972172.06447
  23376540.140   122844537.91508  23376537.880    95723004.57146
  22378303.360   117598769.55109  22378300.300    91635387.13948
 15 02 21 00 11 30.0000000  0  8G16G18G21G22G25G27G29G31
  22254781.560   116949679.12609  22254778.320    91129609.50747
  22869198.280   120178479.95009  22869195.040    93645575.46146
  21067634.260   110711167.22508  21067630.380    86268429.18748
  24419556.680   128325661.34208  24419554.440    99994002.17445
  24276935.260   127576142.71408  24276936.160    99409976.04945
  23424476.900   123096476.43808  23424476.240    95919340.13346
  23390008.080   122915310.83308  23390005.480    95778152.25946
  22393795.860   117680182.94709  22393792.720    91698826.12448
 15 02 21 00 12  0.0000000  0  8G16G18G21G22G25G27G29G31
  22239629.360   116870053.36809  22239626.000    91067563.47647
  22856228.460   120110322.98309  22856225.140    93592466.16546
  21072734.740   110737970.78809  21072730.920    86289315.08248
  24401801.580   128232358.13408  24401799.200    99921298.67745
  24295379.860   127673069.03708  24295380.260    99485503.04645
  23411591.640   123028763.68008  23411591.580    95866576.98847
  23403481.500   122986112.44808  23403478.600    95833322.32846
  22409341.360   117761874.74109  22409338.120    91762482.04748
 15 02 21 00 12 30.0000000  0  8G16G18G21G22G25G27G29G31
  22224513.720   116790619.82309  22224510.220    91005667.23047
  22843301.560   120042392.06509  22843298.340    93539533.01446
  21077906.240   110765147.37508  21077902.500    86310491.63748
  24384034.240   128138989.28908  24384031.740    99848543.94345
  24313857.820   127770170.29208  24313858.140    99561166.32145
  23398723.900   122961142.72208  23398723.300    95813885.31447
  23416960.900   123056946.01008  23416957.860    95888517.27647
  22424939.980   117843845.59309  22424936.680    91826355.41748
 15 02 21 00 13  0.0000000  0  8G16G18G21G22G25G27G29G31
  22209434.980   116711380.32509  22209431.360    90943922.16547
  22830418.000   119974688.94409  22830414.880    93486777.35046
  21083148.340   110792694.96208  21083144.660    86331957.29348
  24366254.680   128045556.72908  24366251.780    99775739.59145
  24332368.640   127867444.61408  24332368.760    99636964.46145
  23385873.280   122893612.91708  23385872.800    95761264.75246
  23430446.180   123127810.89908  23430442.880    95943736.63146
  22440591.040   117926092.28109  22440587.760    91890443.72048
 15 02 21 00 13 30.0000000  0  8G16G18G21G22G25G27G29G31
  22194393.120   116632334.79409  22194389.440    90882328.26047
  22817577.960   119907214.63309  22817574.920    93434199.99746
  21088460.340   110820609.84408  21088456.680    86353709.14848
  24348463.060   127952061.05608  24348459.980    99702886.02845
  24350911.660   127964888.63508  24350911.800    99712894.83445
  23373039.680   122826172.12808  23373039.240    95708713.49647
  23443936.920   123198704.57709  23443933.520    95998978.43846
  22456293.660   118008609.95409  22456290.440    91954743.17848
 15 02 21 00 14  0.0000000  0  8G16G18G21G22G25G27G29G31
  22179388.860   116553486.79409  22179385.140    90820888.27147
  22804782.160   119839972.52609  22804779.180    93381803.57346
  21093842.180   110848891.68008  21093838.540    86375746.95348
  24330659.960   127858505.80408  24330656.700    99629986.07145
  24369486.760   128062501.93508  24369486.920    99788957.09745
  23360223.340   122758821.26508  23360222.880    95656232.32347
  23457433.460   123269628.57008  23457430.080    96054243.86947
  22472047.400   118091396.31409  22472044.240    92019252.01448
 15 02 21 00 14 30.0000000  0  8G16G18G21G22G25G27G29G31
  22164422.720   116474839.30809  22164419.020    90759604.54047
  22792031.320   119772966.62009  22792028.300    93329591.19346
  21099293.800   110877540.11108  21099290.120    86398070.40148
  24312846.060   127764894.29508  24312842.660    99557042.22445
  24388094.060   128160284.45907  24388094.460    99865151.25445
  23347424.400   122691561.60709  23347423.780    95603822.23047
  23470935.740   123340583.88209  23470932.500    96109533.67946
  22487852.000   118174450.02709  22487848.880    92083969.15248
 15 02 21 00 15  0.0000000  0  8G16G18G21G22G25G27G29G31
  22149495.340   116396395.57009  22149491.640    90698479.56247
  22779326.120   119706200.36909  22779323.040    93277565.56446
  21104815.060   110906554.47308  21104811.360    86420678.98448
  24295022.080   127671230.07908  24295018.820    99484057.35345
  24406733.480   128258235.95207  24406734.020    99941477.04245
  23334642.860   122624394.02109  23334641.800    95551483.86647
  23484443.980   123411571.21108  23484441.080    96164848.42846
  22503707.060   118257768.90009  22503703.960    92148892.93348
 15 02 21 00 15 30.0000000  0  8G16G18G21G22G25G27G29G31
  22134606.740   116318155.57509  22134603.060    90637513.33247
  22766666.620   119639674.07209  22766663.440    93225726.89446
  21110405.260   110935931.24008  21110401.560    86443569.97448
  24277188.260   127577513.77108  24277184.920    99411031.84445
  24425404.320   128356352.94508  24425404.920   100017931.80345
  23321878.260   122557316.37609  23321877.760    95499215.65947
  23497957.900   123482588.24108  23497955.220    96220186.36346
  22519611.660   118341348.37109  22519608.560    92214019.77747
 15 02 21 00 16  0.0000000  0  8G16G18G21G22G25G27G29G31
  22119757.100   116240120.23209  22119753.440    90576706.58947
  22754052.960   119573388.91509  22754049.840    93174076.14146
  21116063.900   110965667.59908  21116060.220    86466741.15748
  24259344.620   127483746.17408  24259341.180    99337966.39545
  24444106.300   128454632.52708  24444106.820   100094513.26544
  23309130.480   122490327.12008  23309129.800    95447016.27647
  23511477.100   123553633.42208  23511474.880    96275546.22447
  22535565.000   118425184.04609  22535561.900    92279346.24048
 15 02 21 00 16 30.0000000  0  8G16G18G21G22G25G27G29G31
  22104946.860   116162291.93009  22104943.220    90516061.17548
  22741485.700   119507347.53309  22741482.660    93122615.33546
  21121790.700   110995762.43108  21121787.000    86490191.67748
  24241491.840   127389930.20408  24241488.260    99264863.24545
  24462839.100   128553073.55108  24462839.740   100171220.50145
  23296399.640   122423426.38008  23296399.260    95394885.84447
  23525001.700   123624707.04608  23524999.980    96330928.20247
  22551566.580   118509272.98209  22551563.500    92344870.04248
 15 02 21 00 17  0.0000000  0  8G16G18G21G22G25G27G29G31
  22090176.600   116084673.65809  22090173.040    90455579.42848
  22728965.460   119441553.49609  22728962.400    93071347.28846
  21127585.520   111026214.57808  21127581.740    86513920.62748
  24223630.400   127296069.10108  24223626.880    99191724.92345
  24481602.620   128651675.53108  24481603.200   100248053.21345
  23283685.900   122356615.01308  23283685.420    95342825.04047
  23538532.020   123695809.97308  23538530.780    96386333.05346
  22567616.040   118593613.43009  22567612.960    92410589.85647
 15 02 21 00 17 30.0000000  0  8G16G18G21G22G25G27G29G31
  22075447.000   116007268.84109  22075443.400    90395263.99647
  22716493.080   119376010.86009  22716490.120    93020275.11846
  21133448.400   111057024.18109  21133444.560    86537928.10048
  24205761.220   127202167.00308  24205757.840    99118554.65445
  24500396.740   128750438.62108  24500397.420   100325011.39945
  23270989.300   122289894.38909  23270988.800    95290834.98947
  23552068.240   123766943.55408  23552066.940    96441761.78946
  22583713.120   118678203.90109  22583710.020    92476504.47747
 15 02 21 00 18  0.0000000  0  8G16G18G21G22G25G27G29G31
  22060758.360   115930079.15409  22060754.700    90335116.21347
  22704068.940   119310721.43709  22704066.120    92969400.26046
  21139378.920   111088188.93809  21139375.040    86562212.32748
  24187884.660   127108225.58508  24187881.080    99045353.72345
  24519220.800   128849360.60607  24519221.860   100402093.41845
  23258309.660   122223263.64508  23258309.740    95238915.00447
  23565610.280   123838106.74008  23565608.780    96497213.57546
  22599857.120   118763040.64209  22599853.960    92542611.02048
 15 02 21 00 18 30.0000000  0  8G16G18G21G22G25G27G29G31
  22046110.740   115853105.02309  22046106.960    90275136.37147
  22691693.160   119245686.05609  22691690.380    92918723.35446
  21145376.400   111119705.33808  21145372.380    86586770.55148
  24170000.860   127014245.84208  24169997.040    98972122.91246
  24538074.680   128948438.53308  24538075.720   100479296.98345
  23245646.860   122156721.23908  23245646.920    95187063.80147
  23579157.880   123909298.29509  23579156.160    96552687.48346
  22616047.120   118848119.27509  22616043.940    92608906.01947
 15 02 21 00 19  0.0000000  0  8G16G18G21G22G25G27G29G31
  22031504.440   115776348.04409  22031500.500    90215325.75647
  22679366.040   119180906.06509  22679363.120    92868245.46646
  21151440.380   111151571.65208  21151436.340    86611601.45648
  24152110.160   126920229.46308  24152106.280    98898863.55645
  24556957.940   129047669.98007  24556959.080   100556620.14845
  23233000.860   122090266.10708  23233001.040    95135280.58847
  23592710.560   123980516.85108  23592708.600    96608182.43546
  22632282.360   118933435.76409  22632279.240    92675386.37848
 15 02 21 00 19 30.0000000  0  8G16G18G21G22G25G27G29G31
  22016940.460   115699813.66009  22016936.420    90155688.57048
  22667088.760   119116388.19209  22667085.740    92817971.80946
  21157571.220   111183789.41308  21157567.200    86636706.19048
  24134213.560   126826182.26108  24134209.520    98825580.15746
  24575870.700   129147057.23808  24575871.880   100634064.69345
  23220372.200   122023901.78608  23220372.220    95083568.13347
  23606269.100   124051765.93808  23606266.860    96663701.16146
  22648563.000   119018990.74209  22648559.920    92742052.55547
 15 02 21 00 20  0.0000000  0  8G16G18G21G22G25G27G29G31
  22002418.640   115623500.89409  22002414.540    90096224.09348
  22654861.140   119052131.49709  22654857.920    92767901.67546
  21163768.040   111216353.95108  21163764.000    86662081.15648
  24116310.980   126732103.79208  24116306.720    98752272.40246
  24594812.280   129246595.61607  24594813.140   100711627.05145
  23207760.140   121957624.98908  23207760.060    95031923.92647
  23619832.760   124123042.43608  23619830.460    96719241.27747
  22664887.880   119104778.25509  22664884.820    92808899.95247
 15 02 21 00 20 30.0000000  0  8G16G18G21G22G25G27G29G31
  21987940.240   115547416.43909  21987936.140    90036937.51748
  22642684.460   118988142.92209  22642681.100    92718040.46446
  21170031.440   111249267.81209  21170027.280    86687728.31948
  24098403.680   126638001.06008  24098399.320    98678945.73346
  24613783.120   129346288.07207  24613783.660   100789309.42744
  23195165.600   121891440.04109  23195165.540    94980351.28347
  23633402.200   124194350.26608  23633399.980    96774805.75346
  22681257.220   119190799.66009  22681254.180    92875929.57347
 15 02 21 00 21  0.0000000  0  8G16G18G21G22G25G27G29G31
  21973505.160   115471559.64409  21973501.040    89977828.33047
  22630558.680   118924421.97209  22630555.260    92668387.79946
  21176360.440   111282526.58209  21176356.160    86713644.24748
  24080491.640   126543873.61908  24080487.400    98605599.79246
  24632782.480   129446130.20107  24632782.940   100867108.44845
  23182588.000   121825343.96808  23182587.620    94928847.88047
  23646976.960   124265686.37208  23646974.620    96830392.30846
  22697669.960   119277049.26109  22697666.940    92943137.02847
 15 02 21 00 21 30.0000000  0  8G16G18G21G22G25G27G29G31
  21959113.700   115395932.06709  21959109.580    89918897.75047
  22618484.220   118860970.42509  22618480.760    92618945.05746
  21182754.640   111316128.28508  21182750.340    86739827.39148
  24062575.100   126449723.36508  24062571.160    98532236.07345
  24651809.920   129546120.23108  24651810.280   100945022.68744
  23170027.200   121759336.30008  23170026.820    94877413.36947
  23660557.140   124337050.91208  23660554.640    96886001.00646
  22714125.400   119363523.58909  22714122.520    93010519.59747
 15 02 21 00 22  0.0000000  0  8G16G18G21G22G25G27G29G31
  21944766.240   115320535.77109  21944762.200    89860147.41347
  22606461.560   118797790.82009  22606457.940    92569714.20246
  21189213.760   111350071.21608  21189209.380    86766276.42048
  24044654.620   126355552.78308  24044651.140    98458856.53745
  24670865.340   129646256.34508  24670865.680   101023050.80345
  23157483.180   121693416.76508  23157482.440    94826047.50547
  23674142.700   124408443.44608  23674140.220    96941631.51546
  22730623.020   119450219.47509  22730620.220    93078074.80847
 15 02 21 00 22 30.0000000  0  8G16G18G21G22G25G27G29G31
  21930463.420   115245374.19709  21930459.460    89801579.94648
  22594491.340   118734886.75009  22594487.620    92520698.04446
  21195737.600   111384354.31609  21195733.220    86792990.51348
  24026731.100   126261365.73608  24026727.960    98385464.13646
  24689948.540   129746538.38708  24689948.780   101101192.60344
  23144956.120   121627586.43308  23144955.520    94774751.17047
  23687733.880   124479865.02208  23687731.500    96997284.63646
  22747162.540   119537135.18409  22747159.720    93145801.31047
 15 02 21 00 23  0.0000000  0  8G16G18G21G22G25G27G29G31
  21916205.680   115170449.46209  21916201.760    89743197.05247
  22582573.960   118672260.64009  22582570.220    92471898.49646
  21202325.960   111418976.61509  21202321.680    86819968.93048
  24008804.820   126167164.61908  24008802.220    98312060.79345
  24709059.220   129846964.83708  24709059.720   101179446.94045
  23132445.880   121561845.29109  23132445.260    94723524.34947
  23701330.520   124551315.46908  23701328.420    97052960.27846
  22763743.320   119624267.64209  22763740.480    93213696.69747
 15 02 21 00 23 30.0000000  0  8G16G18G21G22G25G27G29G31
  21901993.520   115095764.27809  21901989.660    89685000.80948
  22570710.000   118609915.49109  22570706.320    92423317.87846
  21208978.500   111453935.90409  21208974.300    86847209.94148
  23990876.680   126072952.36508  23990873.980    98238648.71246
  24728197.220   129947534.56807  24728197.720   101257812.91144
  23119952.620   121496193.57509  23119951.920    94672367.20147
  23714932.720   124622795.20508  23714930.360    97108658.72946
  22780364.860   119711614.24909  22780362.000    93281758.95147
 15 02 21 00 24  0.0000000  0  8G16G18G21G22G25G27G29G31
  21887826.840   115021318.38209  21887823.060    89626991.02048
  22558899.500   118547851.26209  22558895.860    92374956.15247
  21215694.560   111489229.45008  21215690.500    86874711.39548
  23972946.660   125978729.31108  23972944.000    98165228.27346
  24747361.760   130048243.86707  24747362.300   101336287.67844
  23107475.960   121430629.03108  23107475.580    94621278.00047
  23728539.980   124694301.74208  23728537.480    97164378.05346
  22797026.100   119799169.86609  22797023.260    93349984.06647
 15 02 21 00 24 30.0000000  0  8G16G18G21G22G25G27G29G31
  21873706.660   114947116.76609  21873703.000    89569171.59748
  22547143.420   118486073.00709  22547139.960    92326817.26947
  21222474.340   111524857.96208  21222470.400    86902473.86848
  23955015.660   125884500.76808  23955012.740    98091803.49046
  24766552.900   130149093.87607  24766553.680   101414872.02445
  23095016.480   121365154.27608  23095015.920    94570258.70947
  23742152.740   124765837.88608  23742150.380    97220120.49646
  22813727.040   119886934.17709  22813724.200    93418371.81047
 15 02 21 00 25  0.0000000  0  8G16G18G21G22G25G27G29G31
  21859633.640   114873162.88109  21859630.080    89511545.20148
  22535442.480   118424584.46009  22535439.180    92278904.12947
  21229317.780   111560820.60309  21229313.860    86930496.70748
  23937084.300   125790270.24108  23937081.240    98018377.19645
  24785770.620   130250084.22807  24785771.440   101493565.73844
  23082574.300   121299770.31108  23082573.980    94519310.19547
  23755771.400   124837404.67608  23755769.220    97275886.80846
  22830467.300   119974905.09209  22830464.460    93486920.53847
 15 02 21 00 25 30.0000000  0  8G16G18G21G22G25G27G29G31
  21845607.540   114799455.39009  21845604.020    89454110.80148
  22523796.420   118363384.23309  22523793.280    92231215.67347
  21236223.780   111597111.99609  21236219.880    86958775.71948
  23919152.340   125696037.08208  23919149.100    97944948.84846
  24805014.000   130351210.03907  24805015.140   101572365.01245
  23070148.720   121234473.72508  23070148.740    94468429.76647
  23769395.260   124908998.31308  23769393.100    97331674.01846
  22847245.760   120063076.52509  22847242.920    93555625.52547
 15 02 21 00 26  0.0000000  0  7G16G18G21G22G27G29G31
  21831629.460   114726000.04209  21831625.980    89396872.87048
  22512206.400   118302478.71609  22512203.400    92183756.84746
  21243192.760   111633734.38109  21243189.000    86987312.64048
  23901221.080   125601807.23808  23901217.540    97871523.04746
  23057740.380   121169267.93409  23057740.140    94417620.07747
  23783024.900   124980622.50408  23783022.920    97387485.04646
  22864062.500   120151449.10109  22864059.660    93624487.24147
 15 02 21 00 26 30.0000000  0  7G16G18G21G22G27G29G31
  21817699.340   114652796.72809  21817695.860    89339831.34348
  22500672.480   118241867.80209  22500669.520    92136527.58046
  21250223.960   111670683.87509  21250220.300    87016104.45048
  23883290.500   125507581.04508  23883286.720    97798100.10846
  23045348.820   121104150.56408  23045348.720    94366879.32047
  23796659.780   125052275.15208  23796658.320    97443318.24146
  22880916.460   120240017.13309  22880913.620    93693501.25947
 15 02 21 00 27  0.0000000  0  7G16G18G21G22G27G29G31
  21803817.520   114579847.31409  21803814.060    89282987.64348
  22489195.080   118181553.43709  22489192.080    92089529.37847
  21257317.020   111707958.30708  21257313.400    87045149.46548
  23865361.100   125413360.69208  23865357.180    97724681.72346
  23032974.080   121039121.03708  23032974.140    94316206.99647
  23810299.880   125123955.48908  23810298.940    97499173.01046
  22897807.080   120328777.43809  22897804.200    93762665.09947
 15 02 21 00 27 30.0000000  0  7G16G18G21G22G27G29G31
  21789984.260   114507153.21509  21789980.820    89226342.89548
  22477774.540   118121537.42909  22477771.380    92042763.69447
  21264471.440   111745555.27708  21264467.840    87074445.81048
  23847433.200   125319148.12908  23847428.920    97651269.40746
  23020616.120   120974178.89908  23020615.720    94265602.74547
  23823945.240   125195663.15108  23823944.360    97555049.08646
  22914733.600   120417726.55109  22914730.720    93831976.06847
 15 02 21 00 28  0.0000000  0  7G16G18G21G22G27G29G31
  21776199.760   114434715.11609  21776196.280    89169897.63148
  22466410.820   118061820.14709  22466407.560    91996230.75547
  21271686.560   111783471.20608  21271682.980    87103990.67848
  23829506.920   125224944.20408  23829502.500    97577863.82646
  23008274.500   120909322.28908  23008274.180    94215065.13747
  23837595.640   125267396.03008  23837594.700    97610944.80746
  22931695.060   120506859.44909  22931692.200    93901430.23347
 15 02 21 00 28 30.0000000  0  7G16G18G21G22G27G29G31
  21762465.820   114362542.49509  21762462.260    89113659.23448
  22455105.800   118002411.57409  22455102.500    91949938.37347
  21278963.540   111821712.02109  21278959.900    87133788.71948
  23811583.980   125130758.60808  23811579.500    97504472.53946
  22995950.460   120844558.39408  22995950.060    94164599.77947
  23851252.100   125339161.53008  23851251.040    97666865.92146
  22948692.280   120596180.45109  22948689.540    93971030.98747
 15 02 21 00 29  0.0000000  0  7G16G18G21G22G27G29G31
  21748782.080   114290633.67009  21748778.460    89057626.39348
  22443859.200   117943309.97409  22443855.900    91903885.19747
  21286301.440   111860272.31209  21286297.640    87163835.69748
  23793664.320   125036590.52108  23793659.820    97431094.88946
  22983643.220   120779883.41708  22983642.600    94114203.70547
  23864914.220   125410955.87408  23864912.840    97722809.55346
  22965723.960   120685682.72309  22965721.340    94040772.97247
 15 02 21 00 29 30.0000000  0  7G16G18G21G22G27G29G31
  21735148.920   114218990.88609  21735145.300    89001800.84548
  22432671.480   117884517.80709  22432668.160    91858073.11847
  21293699.520   111899149.09908  21293695.640    87194129.28748
  23775748.460   124942442.18408  23775743.980    97357732.59946
  22971352.760   120715297.20208  22971352.400    94063876.84447
  23878581.760   125482778.88808  23878580.320    97778775.47946
  22982789.600   120775363.52609  22982787.040    94110654.06847
 15 02 21 00 30  0.0000000  0  7G16G18G21G22G27G29G31
  21721566.500   114147615.01809  21721562.920    88946183.30048
  22421542.860   117826036.22209  22421539.520    91812503.07947
  21301157.360   111938340.03708  21301153.420    87224667.68648
  23757836.440   124848314.59808  23757832.000    97284386.52446
  22959078.900   120650798.30808  22959078.740    94013618.00247
  23892254.520   125554629.13508  23892252.560    97834762.66646
  22999888.380   120865218.21709  22999885.760    94180670.68147
 15 02 21 00 30 30.0000000  0  7G16G18G21G22G27G29G31
  21708035.580   114076509.77709  21708032.040    88890776.63148
  22410473.940   117767868.70209  22410470.600    91767177.74147
  21308675.040   111977845.69608  21308671.100    87255451.31348
  23739929.220   124754212.33308  23739924.800    97211060.13446
  22946822.020   120586388.41509  22946821.780    93963428.50047
  23905932.800   125626508.19608  23905930.680    97890772.28746
  23017020.060   120955245.43709  23017017.340    94250821.73247
 15 02 21 00 31  0.0000000  0  7G16G18G21G22G27G29G31
  21694556.580   114005677.22209  21694553.040    88835582.43248
  22399465.140   117710017.34609  22399461.780    91722098.78747
  21316251.920   112017662.35308  21316247.920    87286477.27148
  23722027.200   124660137.61108  23722022.940    97137755.22946
  22934582.040   120522067.07508  22934581.900    93913307.99147
  23919616.380   125698415.73208  23919614.180    97946804.04746
  23034184.000   121045441.97509  23034181.100    94321104.70747
 15 02 21 00 31 30.0000000  0  7G16G18G21G22G27G29G31
  21681129.820   113935119.05909  21681126.220    88780602.06048
  22388516.880   117652483.99109  22388513.460    91677267.60547
  21323887.960   112057789.62809  21323883.900    87317745.28648
  23704130.860   124566092.61608  23704126.660    97064473.50346
  22922358.840   120457833.86508  22922358.820    93863256.15247
  23933305.340   125770351.30308  23933303.340    98002857.68746
  23051379.520   121135804.27609  23051376.460    94391516.85747
 15 02 21 00 32  0.0000000  0  7G16G18G21G22G27G29G31
  21667756.000   113864839.19509  21667752.340    88725838.52748
  22377629.960   117595273.07409  22377626.560    91632687.69847
  21331582.900   112098226.45909  21331578.840    87349254.49848
  23686241.060   124472081.94708  23686236.880    96991218.50946
  22910152.840   120393690.59508  22910152.560    93813274.39747
  23947000.000   125842316.85308  23946998.200    98058934.69545
  23068606.400   121226331.28709  23068603.220    94462057.36247
 15 02 21 00 32 30.0000000  0  7G16G18G21G22G27G29G31
  21654434.780   113794835.91409  21654431.100    88671290.52848
  22366803.900   117538382.21309  22366800.500    91588357.17147
  21339335.700   112138967.46109  21339331.600    87381000.73448
  23668357.480   124378103.62008  23668353.300    96917988.69346
  22897963.160   120329632.84708  22897962.740    93763359.29247
  23960699.680   125914308.09108  23960698.040    98115031.70846
  23085863.100   121317015.48209  23085859.980    94532720.33047
 15 02 21 00 33  0.0000000  0  7G16G18G21G22G27G29G31
  21641167.460   113725115.65009  21641163.720    88616963.05048
  22356040.000   117481818.17209  22356036.680    91544281.30647
  21347146.860   112180015.03709  21347142.700    87412985.85448
  23650481.560   124284165.03408  23650477.300    96844789.86546
  22885790.640   120265665.20809  22885790.060    93713514.39047
  23974405.040   125986329.61908  23974403.640    98171152.34046
  23103149.980   121407858.49409  23103146.980    94603507.05947
 15 02 21 00 33 30.0000000  0  7G16G18G21G22G27G29G31
  21627954.660   113655682.01209  21627950.900    88562858.92548
  22345338.920   117425584.27709  22345335.740    91500462.70047
  21355016.260   112221368.73509  21355011.980    87445209.51248
  23632613.820   124190269.58708  23632609.440    96771624.65546
  22873635.440   120201788.75209  22873634.740    93663740.54947
  23988116.180   126058382.24808  23988114.980    98227297.19546
  23120466.760   121498858.56709  23120463.860    94674416.16747
 15 02 21 00 34  0.0000000  0  7G16G18G21G22G27G29G31
  21614796.340   113586534.72409  21614792.600    88508977.92948
  22334700.720   117369680.69209  22334697.680    91456901.48447
  21362942.980   112263023.55109  21362938.620    87477667.80748
  23614754.360   124096417.70708  23614750.040    96698493.39046
  22861497.100   120138000.92708  22861496.240    93614035.76247
  24001832.760   126130463.53808  24001831.360    98283464.40346
  23137812.400   121590009.98409  23137809.500    94745443.19447
 15 02 21 00 34 30.0000000  0  7G16G18G21G22G27G29G31
  21601692.920   113517675.79709  21601689.180    88455321.63748
  22324125.780   117314109.36209  22324122.820    91413599.17347
  21370926.760   112304978.37009  21370922.300    87510359.87548
  23596903.660   124002611.83908  23596899.300    96625397.97046
  22849375.560   120074301.61508  22849374.680    93564399.95147
  24015554.680   126202573.32708  24015553.320    98339653.77746
  23155186.240   121681309.81209  23155183.380    94816585.88247
 15 02 21 00 35  0.0000000  0  7G16G18G21G22G27G29G31
  21588645.180   113449109.30809  21588641.440    88401893.20448
  22313614.880   117258874.44609  22313611.900    91370558.98547
  21378967.640   112347233.55809  21378963.220    87543285.98848
  23579062.560   123908856.47608  23579058.260    96552341.89846
  22837271.180   120010692.79508  22837270.180    93514834.65547
  24029282.380   126274713.72608  24029280.840    98395867.02046
  23172588.060   121772756.74309  23172585.260    94887843.17847
 15 02 21 00 35 30.0000000  0  7G16G18G21G22G27G29G31
  21575652.400   113380831.49709  21575648.620    88348689.71148
  22303167.160   117203971.62509  22303164.160    91327777.58447
  21387064.160   112389781.27909  21387059.760    87576440.05448
  23561230.420   123815148.05308  23561226.080    96479322.41346
  22825182.800   119947168.25809  22825181.820    93465335.03847
  24043014.980   126346878.56908  24043013.680    98452099.32246
  23190016.140   121864341.49109  23190013.360    94959207.85347
 15 02 21 00 36  0.0000000  0  7G16G18G21G22G27G29G31
  21562716.440   113312852.43409  21562712.580    88295719.02148
  22292784.660   117149411.31609  22292781.680    91285263.07747
  21395217.460   112432627.20909  21395213.060    87609826.49548
  23543409.280   123721497.51108  23543404.780    96406347.99846
  22813111.960   119883735.96709  22813111.120    93415907.29047
  24056753.700   126419076.01108  24056751.860    98508357.01046
  23207471.500   121956069.59609  23207468.660    95030684.25447
 15 02 21 00 36 30.0000000  0  7G16G18G21G22G27G29G31
  21549836.820   113245169.55609  21549832.920    88242979.11548
  22282466.920   117095190.97709  22282463.920    91243013.47447
  21403426.200   112475764.68109  21403421.920    87643440.10648
  23525598.560   123627902.11308  23525594.160    96333416.60946
  22801057.700   119820391.06009  22801056.840    93366547.64547
  24070497.820   126491300.91208  24070496.160    98564636.12646
  23224952.540   122047932.77109  23224949.620    95102265.89847
 15 02 21 00 37  0.0000000  0  7G16G18G21G22G27G29G31
  21537014.620   113177788.47209  21537010.720    88190474.38548
  22272214.900   117041315.93809  22272211.780    91201032.93147
  21411690.840   112519195.67109  21411686.660    87677282.42948
  23507799.480   123534368.20209  23507795.200    96260533.10346
  22789020.720   119757136.76309  22789019.800    93317258.58047
  24084247.780   126563556.65308  24084246.440    98620939.22646
  23242459.300   122139931.17709  23242456.280    95173952.91447
 15 02 21 00 37 30.0000000  0  7G16G18G21G22G27G29G31
  21524249.740   113110708.64609  21524245.860    88138204.39248
  22262028.460   116987785.52409  22262025.200    91159320.94747
  21420010.260   112562914.73609  21420006.140    87711349.22348
  23490012.080   123440895.57008  23490007.880    96187697.31946
  22777000.480   119693970.35909  22776999.680    93268038.02847
  24098002.980   126635840.43908  24098001.240    98677264.22146
  23259990.700   122232059.34509  23259987.620    95245741.05647
 15 02 21 00 38  0.0000000  0  7G16G18G21G22G27G29G31
  21511543.040   113043934.48109  21511539.180    88086172.57648
  22251908.440   116934604.37409  22251905.120    91117881.10147
  21428384.780   112606923.26709  21428380.680    87745641.58748
  23472237.240   123347488.70208  23472233.060    96114912.80747
  22764997.460   119630894.21609  22764996.720    93218887.80147
  24111763.920   126708154.44308  24111762.400    98733612.77746
  23277546.640   122324316.59809  23277543.540    95317629.76947
 15 02 21 00 38 30.0000000  0  7G16G18G21G22G27G29G31
  21498895.000   112977468.62409  21498891.100    88034380.99548
  22241855.380   116881775.14009  22241851.980    91076715.47647
  21436814.060   112651219.09609  21436809.900    87780157.81348
  23454475.740   123254151.52109  23454471.580    96042182.60046
  22753011.720   119567908.73809  22753010.920    93169808.20147
  24125530.680   126780499.20008  24125529.460    98789985.23146
  23295126.580   122416700.05609  23295123.520    95389616.82047
 15 02 21 00 39  0.0000000  0  7G16G18G21G22G27G29G31
  21486305.300   112911309.36009  21486301.380    87982828.33348
  22231868.860   116829295.67009  22231865.420    91035822.39847
  21445297.020   112695797.24709  21445292.880    87814894.02648
  23436727.140   123160882.06408  23436723.020    95969505.12046
  22741042.480   119505009.73608  22741041.520    93120796.02547
  24139302.720   126852871.03108  24139300.940    98846378.84946
  23312729.240   122509202.63208  23312726.260    95461696.70047
 15 02 21 00 39 30.0000000  0  7G16G18G21G22G27G29G31
  21473775.020   112845462.22809  21473771.080    87931518.88848
  22221949.940   116777171.44409  22221946.500    90995206.13247
  21453833.880   112740658.83809  21453829.780    87849851.11548
  23418992.520   123067686.09608  23418988.520    95896884.94646
  22729090.300   119442200.72709  22729089.400    93071853.96747
  24153080.440   126925272.93908  24153078.400    98902795.86146
  23330354.760   122601825.14709  23330351.840    95533870.02747
 15 02 21 00 40  0.0000000  0  7G16G18G21G22G27G29G31
  21461304.360   112779928.46009  21461300.460    87880453.62748
  22212098.800   116725403.60609  22212095.480    90954867.55747
  21462424.220   112785801.40009  21462420.180    87885027.14148
  23401272.280   122974565.75308  23401268.300    95824323.69647
  22717155.040   119379480.74609  22717154.380    93022981.26747
  24166863.800   126997703.87308  24166861.540    98959235.54846
  23348002.320   122694563.42009  23347999.420    95606133.55447
 15 02 21 00 40 30.0000000  0  7G16G18G21G22G27G29G31
  21448894.220   112714712.61009  21448890.320    87829636.09048
  22202316.200   116673995.91409  22202312.960    90914809.63547
  21471067.960   112831224.88109  21471063.980    87920422.05748
  23383567.380   122881525.94208  23383563.320    95751825.16447
  22705237.140   119316851.96409  22705236.560    92974179.63447
  24180652.960   127070166.61408  24180650.680    99015699.96646
  23365671.680   122787416.38609  23365668.820    95678486.46647
 15 02 21 00 41  0.0000000  0  7G16G18G21G22G27G29G31
  21436544.300   112649813.16409  21436540.400    87779065.09548
  22192602.080   116622948.00309  22192598.940    90875032.05247
  21479764.240   112876924.40909  21479760.340    87956032.08148
  23365877.620   122788565.74908  23365873.560    95679388.69947
  22693336.000   119254311.00909  22693335.420    92925446.43348
  24194447.560   127142657.52108  24194445.220    99072186.35246
  23383361.580   122880377.77208  23383358.860    95750923.83647
 15 02 21 00 41 30.0000000  0  7G16G18G21G22G27G29G31
  21424255.980   112585237.34409  21424252.060    87728746.27848
  22182957.480   116572265.82609  22182954.460    90835539.46247
  21488513.400   112922901.93409  21488509.580    87991858.71948
  23348204.320   122695692.20608  23348200.220    95607019.75047
  22681452.460   119191862.38809  22681451.800    92876785.17847
  24208248.200   127215180.79908  24208245.920    99128697.95545
  23401072.340   122973448.92409  23401069.680    95823446.74847
 15 02 21 00 42  0.0000000  0  7G16G18G21G22G27G29G31
  21412029.020   112520984.34809  21412025.160    87678679.01748
  22173382.460   116521948.80409  22173379.400    90796331.39447
  21497314.640   112969153.49208  21497310.960    88027898.89748
  23330547.500   122602905.18808  23330543.360    95534718.21047
  22669585.940   119129503.27109  22669585.200    92828193.67448
  24222054.400   127287733.94708  24222052.080    99185232.84646
  23418803.000   123066624.40008  23418800.400    95896050.95447
 15 02 21 00 42 30.0000000  0  7G16G18G21G22G27G29G31
  21399864.340   112457058.67809  21399860.520    87628866.82548
  22163877.980   116472001.93809  22163874.760    90757411.78647
  21506168.320   113015680.43609  21506164.800    88064153.65948
  23312908.240   122510210.24108  23312904.000    95462488.43447
  22657736.960   119067236.62309  22657736.320    92779674.21747
  24235866.880   127360319.91308  24235864.820    99241793.29846
  23436553.500   123159903.77108  23436550.900    95968736.13047
 15 02 21 00 43  0.0000000  0  7G16G18G21G22G27G29G31
  21387761.160   112393456.20609  21387757.340    87579306.45548
  22154442.840   116422419.85909  22154439.540    90718776.41547
  21515072.640   113062473.48209  21515069.260    88100615.75848
  23295285.740   122417603.10809  23295281.420    95390327.07046
  22645904.280   119005055.49409  22645903.600    92731221.40148
  24249684.340   127432931.23708  24249682.260    99298373.53645
  23454321.940   123253276.99908  23454319.260    96041494.41447
 15 02 21 00 43 30.0000000  0  7G16G18G21G22G27G29G31
  21375720.700   112330183.18609  21375716.880    87530002.81148
  22145078.280   116373208.94809  22145074.940    90680430.26347
  21524028.080   113109534.70009  21524024.640    88137286.83648
  23277681.220   122325090.38908  23277676.800    95318239.27547
  22634088.620   118942963.96309  22634087.900    92682838.39048
  24263507.640   127505572.67208  24263505.620    99354977.24046
  23472108.540   123346745.22209  23472105.680    96114326.73746
 15 02 21 00 44  0.0000000  0  7G16G18G21G22G27G29G31
  21363743.760   112267243.87809  21363739.940    87480959.20748
  22135785.120   116324373.30109  22135781.780    90642376.50947
  21533034.740   113156864.84709  21533031.260    88174167.47348
  23260095.560   122232677.06909  23260091.020    95246228.93946
  22622290.380   118880964.15609  22622289.740    92634526.86647
  24277336.980   127578245.92908  24277335.180    99411605.69046
  23489913.080   123440307.59409  23489910.060    96187232.42446
 15 02 21 00 44 30.0000000  0  7G16G18G21G22G27G29G31
  21351830.340   112204638.42809  21351826.540    87432175.73548
  22126563.380   116275913.15909  22126560.120    90604615.37547
  21542091.860   113204460.23409  21542088.280    88211254.78948
  23242528.880   122140363.86908  23242524.280    95174296.60946
  22610509.260   118819054.28608  22610508.720    92586285.42648
  24291172.140   127650949.60708  24291170.320    99468257.92046
  23507734.600   123533959.28409  23507731.480    96260207.70946
 15 02 21 00 45  0.0000000  0  7G16G18G21G22G27G29G31
  21339981.720   112142373.56009  21339977.940    87383657.66448
  22117414.300   116227834.66109  22117411.100    90567151.62947
  21551199.900   113252323.26508  21551196.300    88248550.64348
  23224982.540   122048157.62108  23224977.900    95102447.61847
  22598746.080   118757238.70508  22598745.600    92538117.44848
  24305013.600   127723687.62808  24305012.100    99524936.84146
  23525573.240   123627701.40208  23525570.060    96333253.45247
 15 02 21 00 45 30.0000000  0  7G16G18G21G22G27G29G31
  21328197.080   112080445.10509  21328193.340    87335401.73448
  22108336.980   116180133.28509  22108333.940    90529981.73247
  21560357.220   113300445.33008  21560353.580    88286048.36748
  23207455.680   121956054.54308  23207451.140    95030679.03746
  22586999.720   118695511.19009  22586999.280    92490018.09048
  24318860.640   127796453.80708  24318859.260    99581637.71146
  23543427.280   123721524.77908  23543424.180    96406362.52047
 15 02 21 00 46  0.0000000  0  7G16G18G21G22G27G29G31
  21316476.820   112018855.20409  21316473.200    87287409.61448
  22099331.760   116132810.91809  22099328.820    90493107.17647
  21569563.560   113348825.12808  21569559.980    88323746.91148
  23189949.040   121864057.70108  23189944.600    94958993.22147
  22575270.140   118633871.71809  22575269.700    92441987.36047
  24332713.120   127869248.21308  24332711.620    99638360.59245
  23561296.180   123815426.51709  23561293.220    96479532.64047
 15 02 21 00 46 30.0000000  0  7G16G18G21G22G27G29G31
  21304822.840   111957613.58609  21304819.280    87239688.87848
  22090400.580   116085877.37409  22090397.640    90456535.59847
  21578820.020   113397467.99608  21578816.380    88361650.45248
  23172464.560   121772176.97608  23172460.240    94887397.87846
  22563558.740   118572327.93509  22563558.280    92394031.19247
  24346572.440   127942078.52508  24346570.680    99695111.48945
  23579180.860   123909411.16609  23579178.060    96552767.35947
 15 02 21 00 47  0.0000000  0  7G16G18G21G22G27G29G31
  21293233.720   111896712.89109  21293230.200    87192233.79548
  22081541.940   116039324.46809  22081538.880    90420260.62047
  21588124.480   113446362.96409  21588120.760    88399750.41548
  23155000.920   121680405.48608  23154996.740    94815887.66847
  22551863.680   118510870.17709  22551863.240    92346142.03448
  24360436.940   128014934.86808  24360434.900    99751882.63045
  23597078.900   124003465.76208  23597076.160    96626056.59947
 15 02 21 00 47 30.0000000  0  7G16G18G21G22G27G29G31
  21281711.300   111836162.75609  21281707.860    87145051.87848
  22072757.600   115993161.82909  22072754.360    90384289.74847
  21597477.900   113495515.35009  21597474.100    88438050.98148
  23137560.120   121588753.38208  23137555.940    94744470.46147
  22540186.460   118449506.03209  22540185.960    92298325.83148
  24374307.820   128087825.15808  24374305.360    99808680.24646
  23614991.140   124097595.02108  23614988.480    96699404.00547
 15 02 21 00 48  0.0000000  0  7G16G18G21G22G27G29G31
  21270255.980   111775964.93209  21270252.580    87098144.48748
  22064047.780   115947391.00109  22064044.420    90348624.18047
  21606879.840   113544922.80708  21606875.980    88476550.29248
  23120142.480   121497222.99009  23120138.260    94673148.12647
  22528527.020   118388235.34509  22528526.420    92250582.47048
  24388184.760   128160748.87008  24388182.240    99865503.91845
  23632916.920   124191795.67008  23632914.340    96772807.03446
 15 02 21 00 48 30.0000000  0  7G16G18G21G22G27G29G31
  21258868.020   111716120.70109  21258864.560    87051512.62548
  22055412.640   115902013.00009  22055409.260    90313264.70247
  21616329.820   113594582.37709  21616325.920    88515246.05548
  23102748.400   121405815.94409  23102744.100    94601921.89847
  22516885.260   118327057.14709  22516884.540    92202911.15548
  24402067.640   128233705.12408  24402065.460    99922352.90845
  23650855.480   124286063.69408  23650853.020    96846262.55547
 15 02 21 00 49  0.0000000  0  7G16G18G21G22G27G29G31
  21247547.840   111656632.55909  21247544.340    87005158.23548
  22046852.580   115857029.78909  22046849.160    90278212.85547
  21625827.740   113644493.48209  21625823.660    88554137.83048
  23085378.360   121314535.47609  23085374.100    94530794.28747
  22505261.200   118265971.86409  22505260.360    92155312.23548
  24415956.660   128306694.24208  24415954.800    99979227.45246
  23668806.380   124380396.39208  23668804.000    96919768.46746
 15 02 21 00 49 30.0000000  0  7G16G18G21G22G27G29G31
  21236294.920   111597497.73709  21236291.420    86959079.15648
  22038367.120   115812438.45809  22038363.720    90243466.38947
  21635372.140   113694648.79609  21635367.960    88593219.89948
  23068032.040   121223379.22909  23068027.660    94459763.47247
  22493653.880   118204974.66509  22493652.960    92107781.95848
  24429851.280   128379711.35708  24429849.580   100036123.94246
  23686768.200   124474786.01208  23686765.760    96993318.74346
 15 02 21 00 50  0.0000000  0  7G16G18G21G22G27G29G31
  21225110.380   111538722.28809  21225106.860    86913280.10648
  22029957.320   115768244.56709  22029953.860    90209029.60247
  21644963.400   113745050.47009  21644959.140    88632493.92248
  23050710.500   121132353.56209  23050706.080    94388834.40947
  22482064.060   118144069.42409  22482063.120    92060323.36348
  24443752.120   128452760.43908  24443750.540   100093045.26146
  23704740.980   124569233.06709  23704738.480    97066913.77546
 15 02 21 00 50 30.0000000  0  7G16G18G21G22G27G29G31
  21213994.540   111480308.02909  21213991.020    86867762.51548
  22021623.420   115724449.53709  22021619.880    90174903.63247
  21654601.000   113795696.12109  21654596.740    88671958.06448
  23033414.180   121041460.67909  23033409.720    94318008.82547
  22470491.580   118083255.77509  22470490.620    92012936.14447
  24457659.100   128525841.05108  24457657.680   100149991.17445
  23722724.160   124663734.46708  23722721.600    97140551.15646
 15 02 21 00 51  0.0000000  0  7G16G18G21G22G27G29G31
  21202948.360   111422259.87409  21202944.800    86822530.17948
  22013366.220   115681058.03909  22013362.780    90141092.07547
  21664285.100   113846586.54109  21664280.920    88711612.93748
  23016144.200   120950706.04609  23016139.580    94247290.94847
  22458937.060   118022536.59709  22458936.100    91965622.48447
  24471572.540   128598955.76708  24471570.920   100206963.68245
  23740717.620   124758289.92809  23740715.020    97214230.65046
 15 02 21 00 51 30.0000000  0  7G16G18G21G22G27G29G31
  21191971.640   111364576.82209  21191968.060    86777582.35148
  22005185.500   115638068.72809  22005182.260    90107593.93147
  21674014.920   113897717.36909  21674010.860    88751455.14248
  22998900.560   120860089.54909  22998895.740    94176680.71547
  22447399.960   117961909.11909  22447399.020    91918380.30148
  24485491.760   128672102.02008  24485490.140   100263960.76446
  23758720.340   124852893.71708  23758717.640    97287947.82546
 15 02 21 00 52  0.0000000  0  7G16G18G21G22G27G29G31
  21181065.360   111307263.99109  21181061.820    86732923.00748
  21997082.180   115595486.04809  21997079.080    90074412.64247
  21683790.640   113949089.56809  21683786.640    88791485.42948
  22981684.260   120769616.68309  22981679.320    94106182.41047
  22435880.900   117901376.22809  22435879.980    91871211.85848
