     2.11           OBSERVATION DATA    G                   RINEX VERSION / TYPE
SPIDER V4,0,0,3554                      2015 03 18 01:43    PGM / RUN BY / DATE 
CKTS                                                        MARKER NAME         
CKTS                                                        MARKER NUMBER       
                                                            OBSERVER / AGENCY   
496659              LEICA GRX1200+GNSS  8.10/4.007          REC # / TYPE / VERS 
10321004            LEIAR25         NONE                    ANT # / TYPE        
  5190783.6897   517202.7561  3658836.0979                  APPROX POSITION XYZ 
        0.0720        0.0000        0.0000                  ANTENNA: DELTA H/E/N
     1     1                                                WAVELENGTH FACT L1/2
     4    C1    L1    P2    L2                              # / TYPES OF OBSERV 
    30.000                                                  INTERVAL            
  2015    02    21    00    00    0.0000000     GPS         TIME OF FIRST OBS   
  2015    02    21    23    59   30.0000000     GPS         TIME OF LAST OBS    
    16                                                      LEAP SECONDS        
    30                                                      # OF SATELLITES     
   G 1   816   816   815   815                              PRN / # OF OBS      
   G 2   767   766   766   766                              PRN / # OF OBS      
   G 3   851   851   851   851                              PRN / # OF OBS      
   G 4   841   841   841   841                              PRN / # OF OBS      
   G 5   516   516   516   516                              PRN / # OF OBS      
   G 6   637   637   637   637                              PRN / # OF OBS      
   G 7   667   667   667   667                              PRN / # OF OBS      
   G 9   806   806   806   806                              PRN / # OF OBS      
   G10   657   657   656   656                              PRN / # OF OBS      
   G11   780   779   778   778                              PRN / # OF OBS      
   G12   814   814   814   814                              PRN / # OF OBS      
   G13   797   797   797   797                              PRN / # OF OBS      
   G14   764   764   764   764                              PRN / # OF OBS      
   G15   592   592   592   592                              PRN / # OF OBS      
   G16   553   553   553   553                              PRN / # OF OBS      
   G17   775   775   775   775                              PRN / # OF OBS      
   G18   724   723   722   722                              PRN / # OF OBS      
   G19   667   667   667   667                              PRN / # OF OBS      
   G20   781   780   780   780                              PRN / # OF OBS      
   G21   734   734   734   734                              PRN / # OF OBS      
   G22   651   651   651   651                              PRN / # OF OBS      
   G23   750   750   749   749                              PRN / # OF OBS      
   G24   830   830   830   830                              PRN / # OF OBS      
   G25   859   859   859   859                              PRN / # OF OBS      
   G27   815   814   814   814                              PRN / # OF OBS      
   G28   609   608   608   608                              PRN / # OF OBS      
   G29   760   760   760   760                              PRN / # OF OBS      
   G30   713   713   713   713                              PRN / # OF OBS      
   G31   691   691   691   691                              PRN / # OF OBS      
   G32   766   765   765   765                              PRN / # OF OBS      
BIT 2 OF LLI FLAGS DATA COLLECTED UNDER A/S CONDITION       COMMENT             
SNR is mapped to RINEX snr flag value [2-9]                 COMMENT             
Lx:     = 25dBHz -> 1; 26-27dBHz -> 2; 28-31dBHz -> 3       COMMENT             
       32-35dBHz -> 4; 36-38dBHz -> 5; 39-41dBHz -> 6       COMMENT             
       42-44dBHz -> 7; 45-48dBHz -> 8; >=49dBHz -> 9        COMMENT             
                                                            END OF HEADER       
 15 02 21 00 00  0.0000000  0  6G18G21G25G27G29G31
  23219348.840   122018529.58108  23219345.840    95079374.36345
  20971779.860   110207449.95709  20971775.920    85875921.44048
  23901858.720   125605105.40908  23901858.800    97874104.07545
  23701455.140   124551997.27908  23701454.720    97053512.04046
  23082020.760   121296829.59309  23082018.500    94516994.51446
  22068659.520   115971582.59909  22068656.300    90367449.98348
 15 02 21 00 00 30.0000000  0  7G16G18G21G25G27G29G31
  22558501.160   118545724.03905  22558495.300    92373276.31043
  23205452.680   121945504.94908  23205449.700    95022472.08345
  20975051.280   110224641.43508  20975047.280    85889317.42448
  23919571.580   125698187.28508  23919571.800    97946635.37646
  23688071.920   124481668.64208  23688071.940    96998710.54946
  23095481.460   121367568.44508  23095479.200    94572115.60546
  22082990.580   116046891.85009  22082987.220    90426132.49448
 15 02 21 00 01  0.0000000  0  7G16G18G21G25G27G29G31
  22542722.400   118462805.37305  22542719.140    92308644.42743
  23191585.920   121872635.39008  23191583.160    94965690.65146
  20978399.000   110242233.84308  20978394.980    85903025.79448
  23937321.040   125791462.51908  23937321.620    98019317.33046
  23674705.940   124411430.26908  23674705.900    96943979.37146
  23108948.740   121438339.28509  23108945.920    94627261.73147
  22097385.200   116122535.64209  22097381.720    90485075.69448
 15 02 21 00 01 30.0000000  0  7G16G18G21G25G27G29G31
  22526972.320   118380038.43606  22526968.720    92244150.68743
  23177750.560   121799930.59208  23177747.940    94909037.58345
  20981824.040   110260232.39708  20981820.040    85917050.64248
  23955108.420   125884936.53908  23955109.220    98092154.19045
  23661358.400   124341288.62808  23661358.240    96889323.58847
  23122423.480   121509148.26808  23122421.020    94682437.53147
  22111844.160   116198517.75109  22111840.640    90544282.49148
 15 02 21 00 02  0.0000000  0  7G16G18G21G25G27G29G31
  22511251.320   118297423.86607  22511247.640    92179775.71444
  23163946.840   121727391.33308  23163944.040    94852513.51145
  20985325.860   110278634.45708  20985321.840    85931389.92548
  23972933.280   125978606.50008  23972933.740    98165143.74445
  23648028.960   124271242.06608  23648029.080    96834741.90347
  23135905.000   121579993.47908  23135902.800    94737641.52046
  22126366.700   116274833.84809  22126363.140    90603749.57248
 15 02 21 00 02 30.0000000  0  7G16G18G21G25G27G29G31
  22495559.360   118214961.84407  22495555.700    92115519.57945
  23150174.760   121655018.58308  23150171.800    94796119.17546
  20988903.780   110297436.62408  20988899.720    85946040.95248
  23990794.960   126072469.49008  23990795.020    98238283.72945
  23634717.360   124201288.72608  23634717.500    96780232.80747
  23149393.000   121650873.10108  23149389.700    94792872.43946
  22140951.920   116351479.33409  22140948.280    90663473.31148
 15 02 21 00 03  0.0000000  0  7G16G18G21G25G27G29G31
  22479896.960   118132655.01108  22479893.280    92051384.39445
  23136434.940   121582815.73608  23136431.860    94739857.23445
  20992557.920   110316639.02109  20992553.780    85961003.85548
  24008693.360   126166525.29508  24008693.200    98311573.91545
  23621423.740   124131429.50108  23621423.860    96725797.09047
  23162887.320   121721787.52108  23162884.560    94848130.39047
  22155599.460   116428452.54209  22155595.660    90723452.42848
 15 02 21 00 03 30.0000000  0  7G16G18G21G25G27G29G31
  22464264.820   118050507.05709  22464261.100    91987373.00746
  23122728.340   121510787.39008  23122725.300    94683731.28746
  20996288.180   110336241.73008  20996284.100    85976278.68948
  24026628.320   126260774.17208  24026628.460    98385014.54646
  23608148.340   124061665.72308  23608148.240    96671435.72947
  23176388.460   121792738.01708  23176386.640    94903416.40746
  22170309.140   116505752.36109  22170305.300    90783686.03148
 15 02 21 00 04  0.0000000  0  7G16G18G21G25G27G29G31
  22448663.380   117968520.91509  22448659.700    91923487.70647
  23109055.680   121438936.90608  23109052.660    94627743.92646
  21000094.580   110356244.38109  21000090.560    85991865.16048
  24044599.920   126355215.78008  24044600.500    98458605.37246
  23594891.020   123991998.30708  23594890.860    96617149.48046
  23189896.780   121863725.36409  23189895.460    94958731.17646
  22185080.540   116583376.91309  22185076.780    90844172.67648
 15 02 21 00 04 30.0000000  0  7G16G18G21G25G27G29G31
  22433092.540   117886695.59309  22433088.860    91859727.72447
  23095416.740   121367263.54809  23095413.720    94571894.58945
  21003976.240   110376642.61608  21003972.260    86007759.91148
  24062607.320   126449845.78108  24062608.020    98532342.99745
  23581651.380   123922423.95508  23581651.240    96562935.77746
  23203411.440   121934746.23308  23203409.940    95014072.16247
  22199912.520   116661320.14609  22199909.020    90904907.64048
 15 02 21 00 05  0.0000000  0  7G16G18G21G25G27G29G31
  22417553.580   117805037.88909  22417549.880    91796098.34348
  23081812.940   121295774.98309  23081809.820    94516189.24146
  21007933.760   110397439.72908  21007929.780    86023965.45348
  24080651.180   126544667.80408  24080651.980    98606230.27745
  23568430.160   123852947.38108  23568430.100    96508798.21347
  23216933.380   122005804.98308  23216932.320    95069442.55546
  22214805.600   116739584.02509  22214802.300    90965892.46048
 15 02 21 00 05 30.0000000  0  7G16G18G21G25G27G29G31
  22402045.760   117723543.73909  22402042.020    91732596.42548
  23068243.680   121224468.21909  23068240.560    94460625.55146
  21011965.860   110418628.78809  21011961.840    86040476.39348
  24098730.180   126639674.90708  24098731.220    98680261.74545
  23555226.680   123783562.83308  23555226.560    96454732.34447
  23230461.600   122076895.75708  23230460.200    95124837.91847
  22229758.240   116818160.17109  22229755.000    91027120.59348
 15 02 21 00 06  0.0000000  0  7G16G18G21G25G27G29G31
  22386569.340   117642214.76408  22386565.620    91669223.22447
  23054709.420   121153345.37108  23054706.340    94405205.17246
  21016072.240   110440208.06608  21016068.200    86057291.41648
  24116844.320   126734865.24708  24116845.580    98754435.99545
  23542040.660   123714269.70408  23542040.580    96400737.70647
  23243995.860   122148017.75708  23243994.180    95180257.58947
  22244769.820   116897045.21909  22244766.380    91088589.43748
 15 02 21 00 06 30.0000000  0  7G16G18G21G25G27G29G31
  22371125.440   117561056.60809  22371121.700    91605983.12546
  23041211.200   121082411.98308  23041208.120    94349932.42346
  21020253.240   110462179.17808  21020249.160    86074411.75948
  24134993.980   126830240.94108  24134995.120    98828754.69345
  23528872.700   123645071.16808  23528872.680    96346816.83547
  23257536.900   122219174.07208  23257534.240    95235704.08646
  22259840.200   116976239.45509  22259836.540    91150299.23148
 15 02 21 00 07  0.0000000  0  7G16G18G21G25G27G29G31
  22355714.300   117480070.84109  22355710.540    91542877.30247
  23027749.600   121011670.76808  23027746.600    94294809.41346
  21024508.480   110484540.21508  21024504.380    86091835.95448
  24153178.680   126925800.39208  24153179.760    98903216.57445
  23515722.480   123575966.85808  23515722.640    96292969.38047
  23271084.040   122290364.13708  23271081.360    95291176.82546
  22274968.680   117055740.21209  22274965.000    91212247.85048
 15 02 21 00 07 30.0000000  0  7G16G18G21G25G27G29G31
  22340336.120   117399258.48509  22340332.380    91479906.61947
  23014324.880   120941123.18609  23014321.840    94239837.28946
  21028837.420   110507289.38708  21028833.440    86109562.57448
  24171397.780   127021541.19808  24171398.600    98977819.74845
  23502590.060   123506955.53808  23502590.040    96239194.36246
  23284637.520   122361586.24009  23284635.240    95346674.50847
  22290154.480   117135543.43009  22290151.020    91274432.15048
 15 02 21 00 08  0.0000000  0  7G16G18G21G25G27G29G31
  22324991.340   117318620.98309  22324987.560    91417072.22047
  23000937.420   120870771.47009  23000934.440    94185017.78645
  21033239.660   110530424.20008  21033235.820    86127589.67448
  24189650.980   127117461.65208  24189651.520    99052562.92445
  23489475.340   123438036.72308  23489475.040    96185491.39546
  23298196.880   122432840.30908  23298194.340    95402197.12546
  22305397.120   117215645.64409  22305393.960    91336849.41248
 15 02 21 00 08 30.0000000  0  7G16G18G21G25G27G29G31
  22309681.320   117238166.42909  22309677.700    91354380.35847
  22987588.840   120800624.00609  22987585.700    94130357.45846
  21037716.200   110553949.26208  21037712.540    86145920.90648
  24207939.080   127213566.32107  24207939.560    99127449.65346
  23476379.120   123369216.07108  23476378.600    96131864.94746
  23311763.140   122504131.68309  23311760.040    95457748.82946
  22320697.360   117296049.92309  22320694.260    91399502.07948
 15 02 21 00 09  0.0000000  0  8G16G18G21G22G25G27G29G31
  22294405.500   117157892.50508  22294402.160    91291829.25847
  22974278.860   120730679.22409  22974275.440    94075855.05546
  21042266.100   110577859.47108  21042262.480    86164552.23148
  24551428.860   129018621.46308  24551426.140   100533972.70645
  24226261.120   127309849.78008  24226261.680    99202475.67445
  23463300.640   123300489.46408  23463300.120    96078311.74646
  23325335.820   122575455.91508  23325332.640    95513326.08746
  22336054.080   117376749.67309  22336050.800    91462384.98748
 15 02 21 00 09 30.0000000  0  8G16G18G21G22G25G27G29G31
  22279162.980   117077793.03609  22279159.680    91229414.13547
  22961006.340   120660931.32409  22961002.760    94021506.06246
  21046887.460   110602144.55408  21046883.800    86183475.69248
  24533743.880   128925687.47408  24533740.680   100461556.93144
  24244615.340   127406302.25608  24244615.940    99277633.42345
  23450238.520   123231848.27208  23450238.380    96024825.15647
  23338912.920   122646804.35108  23338909.540    95568922.21146
  22351464.880   117457733.11509  22351461.440    91525488.95948
 15 02 21 00 10  0.0000000  0  8G16G18G21G22G25G27G29G31
  22263957.360   116997886.47309  22263953.920    91167149.26247
  22947774.740   120591398.96508  22947771.340    93967325.00946
  21051583.040   110626819.51808  21051579.280    86202702.92748
  24516044.460   128832678.62808  24516041.260   100389082.81045
  24263004.660   127502938.83008  24263005.120    99352934.62945
  23437196.060   123163308.89208  23437195.920    95971417.85147
  23352497.800   122718193.57708  23352494.320    95624550.16946
  22366932.240   117539014.01209  22366928.720    91588824.70548
 15 02 21 00 10 30.0000000  0  8G16G18G21G22G25G27G29G31
  22248787.020   116918165.10709  22248783.460    91105028.73947
  22934582.740   120522075.34108  22934579.500    93913306.64846
  21056350.700   110651873.42708  21056346.740    86222225.45648
  24498329.540   128739587.67108  24498326.280   100316544.71444
  24281426.960   127599748.53008  24281427.440    99428370.72246
  23424171.060   123094861.44008  23424170.520    95918082.19546
  23366088.280   122789613.32708  23366085.580    95680201.82447
  22382453.680   117620580.03709  22382450.380    91652382.62048
 15 02 21 00 11  0.0000000  0  8G16G18G21G22G25G27G29G31
  22233652.820   116838633.15609  22233648.900    91043055.78147
  22921431.400   120452965.38708  22921428.320    93859454.75746
  21061190.520   110677306.94208  21061186.560    86242043.78348
  24480599.920   128646419.15308  24480596.720   100243946.12045
  24299882.280   127696732.22508  24299882.980    99503942.38345
  23411163.640   123026508.09508  23411162.960    95864819.88946
  23379685.400   122861065.43509  23379682.820    95735878.80146
  22398028.940   117702430.13108  22398026.080    91716161.87948
 15 02 21 00 11 30.0000000  0  8G16G18G21G22G25G27G29G31
  22218554.500   116759291.71609  22218550.640    90981231.30447
  22908321.180   120384070.81909  22908318.040    93805770.68946
  21066102.160   110703117.68008  21066098.240    86262156.01548
  24462855.780   128553174.51808  24462852.640   100171288.21745
  24318370.300   127793887.64907  24318371.220    99579647.86846
  23398173.900   122958247.82508  23398173.500    95811630.08746
  23393288.640   122932549.08308  23393285.600    95791580.38146
  22413657.560   117784560.43709  22413654.940    91780159.47148
 15 02 21 00 12  0.0000000  0  8G16G18G21G22G25G27G29G31
  22203493.540   116680145.87109  22203489.880    90919559.23047
  22895253.020   120315396.34909  22895249.720    93752258.13646
  21071085.720   110729306.44308  21071081.840    86282562.85048
  24445098.100   128459858.74408  24445095.040   100098574.90745
  24336891.320   127891216.02508  24336892.360    99655488.13345
  23385202.600   122890083.14908  23385202.400    95758514.79846
  23406897.540   123004066.86608  23406895.300    95847308.41247
  22429339.780   117866970.91509  22429337.080    91844375.41348
 15 02 21 00 12 30.0000000  0  8G16G18G21G22G25G27G29G31
  22188468.860   116601190.26909  22188465.100    90858035.39847
  22882225.940   120246937.91209  22882222.480    93698913.91046
  21076139.700   110755865.14308  21076135.820    86303257.95548
  24427326.180   128366467.31508  24427323.160   100025802.58845
  24355443.800   127988709.07207  24355444.600    99731456.70745
  23372248.460   122822007.02909  23372247.780    95705468.46647
  23420512.140   123075611.15509  23420510.180    95903057.16847
  22445073.680   117949651.65109  22445070.640    91908801.93648
 15 02 21 00 13  0.0000000  0  8G16G18G21G22G25G27G29G31
  22173481.740   116522431.97309  22173477.960    90796665.28747
  22869241.100   120178702.41708  22869237.680    93645743.42246
  21081264.680   110782796.90808  21081260.720    86324243.73248
  24409541.160   128273007.42108  24409538.120    99952976.97945
  24374028.360   128086370.02308  24374028.580    99807556.13544
  23359311.920   122754023.98308  23359310.940    95652494.67846
  23434132.680   123147186.69508  23434130.500    95958830.26346
  22460859.380   118032604.50109  22460856.020    91973440.48848
 15 02 21 00 13 30.0000000  0  8G16G18G21G22G25G27G29G31
  22158533.320   116443877.98409  22158529.400    90735454.41147
  22856300.240   120110698.13509  22856296.940    93592753.11046
  21086461.280   110810105.28308  21086457.320    86345522.98148
  24391744.600   128179486.84208  24391741.560    99880104.01645
  24392645.360   128184202.82908  24392645.400    99883789.45945
  23346393.740   122686139.02808  23346392.660    95599597.36246
  23447760.000   123218798.00908  23447757.260    96014631.29146
  22476697.280   118115831.84809  22476693.680    92038292.96448
 15 02 21 00 14  0.0000000  0  8G16G18G21G22G25G27G29G31
  22143623.160   116365525.17209  22143619.460    90674400.29448
  22843402.800   120042921.63809  22843399.580    93539940.26446
  21091728.220   110837783.16309  21091724.220    86367090.15948
  24373935.860   128085902.33008  24373932.820    99807181.22045
  24411293.540   128282200.16508  24411293.540    99960150.96245
  23333493.080   122618346.39808  23333491.760    95546771.94646
  23461393.160   123290439.86609  23461390.880    96070456.07647
  22492585.480   118199324.66909  22492581.960    92103352.28648
 15 02 21 00 14 30.0000000  0  8G16G18G21G22G25G27G29G31
  22128751.320   116287373.26909  22128747.800    90613502.72247
  22830548.820   119975373.65408  22830545.700    93487305.49146
  21097064.780   110865826.87008  21097060.760    86388942.41848
  24356114.960   127992253.84808  24356111.980    99734208.60246
  24429972.380   128380358.82207  24429972.700   100036638.20845
  23320609.600   122550644.04208  23320608.580    95494016.87447
  23475031.700   123362109.85309  23475029.800    96126302.78246
  22508523.140   118283078.23409  22508519.820    92168614.76047
 15 02 21 00 15  0.0000000  0  8G16G18G21G22G25G27G29G31
  22113919.140   116209430.36309  22113915.640    90552768.05147
  22817739.740   119908062.66408  22817736.860    93434855.39046
  21102471.740   110894240.82909  21102467.740    86411083.15148
  24338283.620   127898550.04208  24338280.580    99661192.85245
  24448682.760   128478683.39708  24448683.260   100113254.71945
  23307744.560   122483037.91108  23307743.680    95441336.79047
  23488676.700   123433813.78708  23488674.400    96182175.94246
  22524510.960   118367095.43909  22524507.780    92234082.67348
 15 02 21 00 15 30.0000000  0  8G16G18G21G22G25G27G29G31
  22099126.680   116131695.02709  22099122.940    90492194.99147
  22804975.540   119840987.36809  22804972.780    93382588.93746
  21107948.200   110923019.97308  21107944.180    86433508.43748
  24320441.560   127804789.82808  24320438.360    99588133.15845
  24467423.900   128577168.89007  24467424.620   100189996.63445
  23294897.060   122415524.26808  23294896.760    95388728.81247
  23502327.080   123505547.74308  23502324.140    96238072.50346
  22540547.760   118451370.06909  22540544.740    92299751.21448
 15 02 21 00 16  0.0000000  0  8G16G18G21G22G25G27G29G31
  22084374.000   116054169.62809  22084370.360    90431785.64047
  22792256.940   119774150.59209  22792254.100    93330508.35346
  21113494.000   110952163.01209  21113489.960    86456217.31648
  24302589.240   127710975.69208  24302585.920    99515031.40345
  24486195.460   128675814.06108  24486196.380   100266862.94845
  23282067.080   122348103.14608  23282066.940    95336192.94047
  23515983.060   123577311.68708  23515980.700    96293992.40446
  22556633.100   118535899.38809  22556630.160    92365618.17048
 15 02 21 00 16 30.0000000  0  8G16G18G21G22G25G27G29G31
  22069661.700   115976856.29009  22069658.020    90371541.49347
  22779584.220   119707554.60009  22779581.340    93278615.38746
  21119108.780   110981668.52008  21119104.660    86479208.63548
  24284727.020   127617110.02508  24284723.400    99441889.53245
  24504997.140   128774617.37207  24504998.020   100343852.52145
  23269254.860   122280774.37808  23269254.740    95283728.99447
  23529644.840   123649105.41408  23529642.640    96349935.56446
  22572766.300   118620680.03909  22572763.400    92431680.99547
 15 02 21 00 17  0.0000000  0  8G16G18G21G22G25G27G29G31
  22054989.680   115899754.89009  22054986.180    90311462.49948
  22766957.420   119641199.97409  22766954.540    93226910.50846
  21124791.720   111011532.39809  21124787.560    86502479.15848
  24266855.100   127523193.23208  24266851.160    99368707.79645
  24523828.320   128873575.34508  24523829.160   100420962.58045
  23256460.060   122213535.83108  23256459.580    95231335.36447
  23543311.800   123720926.97508  23543309.880    96405900.35946
  22588946.400   118705707.29309  22588943.580    92497935.98047
 15 02 21 00 17 30.0000000  0  8G16G18G21G22G25G27G29G31
  22040359.560   115822874.03709  22040356.360    90251555.37147
  22754378.300   119575095.85309  22754375.280    93175400.81946
  21130543.840   111041759.89509  21130539.660    86526033.05948
  24248975.240   127429234.47708  24248970.980    99295493.35445
  24542689.960   128972693.19408  24542691.000   100498197.22745
  23243683.320   122146394.04308  23243683.140    95179017.10647
  23556985.300   123792782.66909  23556983.700    96461891.77446
  22605174.180   118790984.77709  22605171.380    92564385.95148
 15 02 21 00 18  0.0000000  0  8G16G18G21G22G25G27G29G31
  22025770.340   115746207.42009  22025767.160    90191815.18347
  22741845.560   119509236.12709  22741842.380    93124081.57146
  21136363.160   111072340.75708  21136359.000    86549862.31248
  24231086.160   127335227.47608  24231081.900    99222241.31745
  24561580.160   129071960.69008  24561581.120   100575548.50044
  23230923.300   122079340.14508  23230923.420    95126767.37947
  23570663.960   123864663.47509  23570662.000    96517902.75546
  22621447.380   118876500.77309  22621444.600    92631021.77147
 15 02 21 00 18 30.0000000  0  8G16G18G21G22G25G27G29G31
  22011224.020   115669765.88209  22011220.700    90132250.33247
  22729361.440   119443632.07309  22729358.120    93072961.54346
  21142251.120   111103281.92309  21142246.840    86573972.30748
  24213190.140   127241183.66108  24213186.100    99148960.58245
  24580500.120   129171385.47808  24580501.040   100653022.32645
  23218181.880   122012383.09508  23218181.960    95074593.06247
  23584349.040   123936578.63508  23584346.640    96573940.54446
  22637767.140   118962261.32509  22637764.360    92697848.14948
 15 02 21 00 19  0.0000000  0  8G16G18G21G22G25G27G29G31
  21996719.740   115593545.15909  21996716.440    90072857.56448
  22716925.160   119378279.14309  22716921.820    93022037.19946
  21148206.160   111134575.81908  21148201.920    86598357.16548
  24195286.160   127147098.75608  24195282.280    99075647.83345
  24599448.400   129270959.21908  24599449.740   100730612.20345
  23205457.700   121945515.90109  23205457.280    95022488.74147
  23598039.320   124008520.83808  23598036.960    96629999.34446
  22654131.580   119048256.52609  22654128.720    92764857.35547
 15 02 21 00 19 30.0000000  0  8G16G18G21G22G25G27G29G31
  21982258.580   115517551.46509  21982255.200    90013641.71847
  22704538.260   119313184.92909  22704534.960    92971314.46846
  21154228.780   111166224.83008  21154224.600    86623018.72848
  24177375.680   127052979.51308  24177371.760    99002308.29045
  24618425.720   129370684.93607  24618426.580   100808320.53245
  23192751.300   121878743.01808  23192750.440    94970457.94447
  23611735.500   124080494.34508  23611733.140    96686082.57846
  22670540.900   119134487.86109  22670538.000    92832050.57148
 15 02 21 00 20  0.0000000  0  8G16G18G21G22G25G27G29G31
  21967841.380   115441787.92909  21967837.920    89954605.19447
  22692201.220   119248352.54309  22692197.880    92920795.74146
  21160318.860   111198228.30609  21160314.680    86647956.52248
  24159459.260   126958829.47008  24159455.400    98928944.78645
  24637431.780   129470562.09108  24637432.180   100886146.79544
  23180062.700   121812065.22108  23180062.040    94918501.28447
  23625437.580   124152500.21209  23625435.020    96742191.03046
  22686994.660   119220953.37409  22686991.860    92899426.26847
 15 02 21 00 20 30.0000000  0  8G16G18G21G22G25G27G29G31
  21953466.780   115366248.20609  21953463.080    89895743.06647
  22679912.820   119183775.92609  22679909.260    92870476.31046
  21166474.360   111230575.88209  21166470.200    86673162.40748
  24141535.900   126864642.65708  24141532.280    98855552.56945
  24656464.780   129570580.58407  24656464.300   100964083.29245
  23167390.780   121745473.84009  23167390.140    94866611.89847
  23639144.320   124224529.25208  23639141.760    96798317.53146
  22703490.780   119307641.45309  22703488.020    92966975.38447
 15 02 21 00 21  0.0000000  0  8G16G18G21G22G25G27G29G31
  21939137.100   115290945.01909  21939133.400    89837065.28447
  22667675.500   119119468.02409  22667671.760    92820366.26246
  21172697.000   111263276.55408  21172692.860    86698643.46648
  24123608.120   126770432.01808  24123604.520    98782141.82545
  24675526.460   129670749.43508  24675525.920   101042136.88544
  23154737.400   121678979.34308  23154736.720    94814798.01547
  23652857.200   124296591.90808  23652855.380    96854470.13246
  22720030.860   119394559.81309  22720028.060    93034703.95247
 15 02 21 00 21 30.0000000  0  8G16G18G21G22G25G27G29G31
  21924851.760   115215875.09509  21924848.120    89778569.25647
  22655488.640   119055425.68109  22655484.960    92770463.16946
  21178985.540   111296323.43009  21178981.480    86724394.26748
  24105675.300   126676194.50008  24105671.520    98708710.08846
  24694615.320   129771061.96607  24694614.620   101120302.45744
  23142101.040   121612576.33408  23142100.300    94763055.46346
  23666576.000   124368683.17309  23666574.080    96910645.12746
  22736613.280   119481700.09909  22736610.180    93102605.44947
 15 02 21 00 22  0.0000000  0  8G16G18G21G22G25G27G29G31
  21910610.700   115141037.59409  21910606.820    89720254.30447
  22643352.080   118991648.65609  22643348.720    92720766.81046
  21185339.160   111329712.01508  21185335.000    86750411.34848
  24087737.320   126581929.87908  24087733.380    98635257.23745
  24713730.680   129871513.59007  24713730.540   101198576.40444
  23129481.700   121546261.74308  23129481.160    94711381.77147
  23680299.820   124440799.87708  23680297.100    96966839.99446
  22753236.820   119569056.28809  22753233.440    93170675.18247
 15 02 21 00 22 30.0000000  0  8G16G18G21G22G25G27G29G31
  21896415.960   115066443.82309  21896412.240    89662129.30647
  22631268.120   118928148.37009  22631265.060    92671286.09546
  21191759.200   111363449.09109  21191754.940    86776700.00148
  24069796.300   126487649.68908  24069792.340    98561792.28345
  24732873.700   129972111.92708  24732873.620   101276964.66245
  23116881.100   121480044.54109  23116880.660    94659784.00747
  23694029.840   124512951.02008  23694027.480    97023061.57246
  22769902.620   119656634.51209  22769898.960    93238917.92147
 15 02 21 00 23  0.0000000  0  8G16G18G21G22G25G27G29G31
  21882266.880   114992089.95909  21882263.280    89604191.25047
  22619236.240   118864921.39409  22619233.260    92622018.30946
  21198244.300   111397527.83008  21198239.880    86803254.84948
  24051851.700   126393350.51608  24051847.640    98488312.46746
  24752042.980   130072849.55907  24752043.720   101355461.43845
  23104297.880   121413918.75108  23104297.440    94608257.46047
  23707765.220   124585130.30908  23707762.500    97079305.11246
  22786608.860   119744425.75709  22786605.120    93307326.64747
 15 02 21 00 23 30.0000000  0  8G16G18G21G22G25G27G29G31
  21868164.160   114917979.67809  21868160.780    89546443.01747
  22607257.140   118801971.63209  22607254.180    92572966.56646
  21204794.120   111431947.00209  21204789.640    86830074.94948
  24033904.220   126299036.20608  24033900.180    98414820.89345
  24771239.020   130173726.36307  24771239.900   101434066.70345
  23091732.180   121347885.69608  23091731.320    94556803.15247
  23721506.120   124657339.16508  23721503.100    97135571.76846
  22803355.240   119832428.42809  22803351.660    93375900.12247
 15 02 21 00 24  0.0000000  0  8G16G18G21G22G25G27G29G31
  21854108.400   114844115.34409  21854104.780    89488886.36247
  22595331.460   118739301.67109  22595328.500    92524132.84346
  21211408.620   111466706.40508  21211404.300    86857160.22948
  24015954.420   126204709.66408  24015950.440    98341319.79745
  24790461.380   130274741.23308  24790462.680   101512779.51444
  23079184.100   121281945.62208  23079182.920    94505421.27647
  23735252.540   124729577.65508  23735250.120    97191861.44246
  22820141.280   119920639.90309  22820137.900    93444636.30947
 15 02 21 00 24 30.0000000  0  8G16G18G21G22G25G27G29G31
  21840099.240   114770496.21409  21840095.680    89431520.82748
  22583459.040   118676910.95509  22583456.040    92475516.72146
  21218086.900   111501801.20809  21218082.680    86884506.80448
  23998002.260   126110370.54508  23997998.360    98267808.87946
  24809709.300   130375889.60907  24809710.460   101591596.42544
  23066653.340   121216095.58208  23066652.440    94454109.58547
  23749004.020   124801842.97408  23749002.100    97248172.02846
  22836965.900   120009054.30109  22836962.740    93513530.61547
 15 02 21 00 25  0.0000000  0  7G16G18G21G22G27G29G31
  21826138.020   114697129.14309  21826134.220    89374351.67248
  22571640.980   118614806.53309  22571637.980    92427123.67146
  21224829.520   111537233.90208  21224825.340    86912116.70848
  23980049.160   126016025.77908  23980045.120    98194293.51646
  23054140.380   121150339.90308  23054139.620    94402871.43947
  23762761.380   124874139.47608  23762759.760    97304506.90746
  22853829.400   120097672.84109  22853826.320    93582583.98647
 15 02 21 00 25 30.0000000  0  7G16G18G21G22G27G29G31
  21812224.460   114624012.24009  21812220.540    89317377.45448
  22559876.820   118552986.54609  22559873.900    92378952.28346
  21231635.320   111572998.55408  21231631.140    86939985.27948
  23962094.660   125921674.12208  23962090.500    98120772.82946
  23041644.560   121084674.69609  23041643.580    94351703.77447
  23776524.140   124946462.74508  23776522.060    97360862.73046
  22870730.580   120186488.92409  22870727.340    93651791.29447
 15 02 21 00 26  0.0000000  0  7G16G18G21G22G27G29G31
  21798359.140   114551149.15509  21798354.940    89260601.02648
  22548167.640   118491455.35409  22548164.780    92331005.91646
  21238504.320   111609095.46909  21238500.080    86968112.72848
  23944139.480   125827319.41308  23944135.280    98047249.77645
  23029166.320   121019101.34708  23029165.100    94300607.67147
  23790292.300   125018814.43908  23790290.400    97417240.66346
  22887669.140   120275501.13409  22887665.740    93721151.41747
 15 02 21 00 26 30.0000000  0  7G16G18G21G22G27G29G31
  21784544.100   114478550.63809  21784539.820    89204030.78248
  22536515.580   118430223.63109  22536512.780    92283292.88546
  21245437.900   111645531.58609  21245433.580    86996504.50448
  23926185.760   125732972.92108  23926181.740    97973733.10545
  23016707.320   120953628.35809  23016706.180    94249589.74847
  23804066.900   125091203.27308  23804065.700    97473647.48946
  22904645.980   120364714.61309  22904642.460    93790668.36447
 15 02 21 00 27  0.0000000  0  7G16G18G21G22G27G29G31
  21770776.560   114406202.04709  21770772.480    89147655.24848
  22524917.820   118369276.82009  22524914.940    92235801.88046
  21252432.440   111682288.10209  21252428.060    87025145.94548
  23908230.940   125638620.21008  23908226.800    97900211.57745
  23004264.300   120888238.59809  23004263.380    94198636.72547
  23817845.680   125163611.93108  23817845.000    97530069.76746
  22921657.320   120454109.59209  22921653.660    93860326.74947
 15 02 21 00 27 30.0000000  0  7G16G18G21G22G27G29G31
  21757058.360   114334113.26109  21757054.520    89091482.20748
  22513376.240   118308625.33109  22513373.360    92188541.00746
  21259488.980   111719371.33508  21259484.720    87054041.94648
  23890277.020   125544271.83408  23890272.780    97826693.41146
  22991838.620   120822940.16909  22991837.660    94147754.85147
  23831630.280   125236048.58208  23831629.120    97586513.85546
  22938704.200   120543691.19909  22938700.360    93930130.57447
 15 02 21 00 28  0.0000000  0  7G16G18G21G22G27G29G31
  21743391.240   114262293.05909  21743387.660    89035518.44048
  22501892.540   118248277.54409  22501889.600    92141516.78046
  21266608.520   111756785.66608  21266604.480    87083195.99448
  23872325.620   125449936.69008  23872321.340    97753185.56845
  22979431.200   120757739.25908  22979429.920    94096948.93347
  23845420.920   125308519.17108  23845419.220    97642984.44646
  22955787.160   120633462.49709  22955783.240    94000082.20047
 15 02 21 00 28 30.0000000  0  7G16G18G21G22G27G29G31
  21729775.140   114190740.15909  21729771.780    88979762.93648
  22490466.560   118188232.72609  22490463.420    92094728.62646
  21273790.200   111794526.31608  21273786.320    87112604.30048
  23854376.400   125355613.63008  23854372.160    97679687.16646
  22967041.360   120692632.33408  22967040.120    94046216.28847
  23859217.520   125381020.23908  23859215.780    97699478.76445
  22972904.980   120723417.01709  22972901.120    94070176.60747
 15 02 21 00 29  0.0000000  0  7G16G18G21G22G27G29G31
  21716210.020   114119454.83309  21716206.420    88924215.91248
  22479098.260   118128491.11609  22479094.840    92048176.73246
  21281033.420   111832589.89708  21281029.580    87142264.21048
  23836429.600   125261303.78908  23836425.640    97606199.08045
  22954669.340   120627617.60809  22954668.280    93995555.49547
  23873019.260   125453550.01307  23873018.020    97755995.39347
  22990056.700   120813549.86709  22990052.940    94140409.95747
 15 02 21 00 29 30.0000000  0  7G16G18G21G22G27G29G31
  21702695.060   114048433.68109  21702691.460    88868874.75048
  22467786.980   118069049.58809  22467783.440    92001858.65547
  21288336.520   111870967.74408  21288332.720    87172169.04848
  23818484.820   125167003.89608  23818480.780    97532718.71846
  22942314.040   120562689.37408  22942313.140    93944962.10647
  23886825.600   125526102.70308  23886824.400    97812529.91246
  23007240.800   120903852.78509  23007237.060    94210775.84147
 15 02 21 00 30  0.0000000  0  7G16G18G21G22G27G29G31
  21689232.260   113977686.80409  21689228.720    88813747.32648
  22456534.720   118009918.57909  22456531.340    91955782.56846
  21295700.900   111909666.89709  21295696.920    87202324.19448
  23800543.980   125072724.19508  23800539.820    97459254.10046
  22929976.440   120497855.36608  22929976.020    93894442.12847
  23900637.940   125598686.05208  23900636.120    97869088.33746
  23024458.160   120994330.30809  23024454.440    94281277.76747
 15 02 21 00 30 30.0000000  0  7G16G18G21G22G27G29G31
  21675822.260   113907216.74209  21675818.580    88758835.56248
  22445341.860   117951100.22309  22445338.640    91909950.10547
  21303126.260   111948686.52609  21303122.060    87232729.10248
  23782607.640   124978467.86408  23782603.220    97385807.65346
  22917656.640   120433116.04908  22917656.320    93843995.94847
  23914456.300   125671300.37108  23914454.060    97925670.92846
  23041708.200   121084979.84809  23041704.640    94351913.73047
 15 02 21 00 31  0.0000000  0  7G16G18G21G22G27G29G31
  21662465.280   113837025.91609  21662461.940    88704141.44748
  22434209.100   117892597.24509  22434205.820    91864363.37747
  21310611.960   111988023.54308  21310607.740    87263381.33548
  23764676.340   124884237.76008  23764671.820    97312381.66446
  22905354.900   120368471.45108  22905354.840    93793623.55047
  23928280.140   125743945.90808  23928278.360    97982277.69846
  23058990.440   121175798.71109  23058987.080    94422681.62047
 15 02 21 00 31 30.0000000  0  7G16G18G21G22G27G29G31
  21649160.080   113767107.24609  21649156.980    88649659.44547
  22423135.060   117834402.61709  22423131.740    91819016.92847
  21318156.160   112027668.77608  21318152.080    87294273.70048
  23746748.660   124790027.15508  23746744.020    97238970.89346
  22893069.640   120303912.49708  22893069.840    93743317.90847
  23942108.440   125816613.19308  23942106.720    98038901.55846
  23076302.540   121266774.45009  23076299.320    94493571.78447
 15 02 21 00 32  0.0000000  0  7G16G18G21G22G27G29G31
  21635908.800   113697471.05509  21635905.540    88595397.42148
  22412121.700   117776527.16909  22412118.480    91773919.19547
  21325760.020   112067627.42008  21325756.000    87325410.34248
  23728826.680   124695846.99808  23728822.160    97165583.82546
  22880802.400   120239447.19208  22880802.500    93693085.25147
  23955942.680   125889310.63108  23955940.640    98095548.85346
  23093645.540   121357912.45909  23093642.320    94564588.38947
 15 02 21 00 32 30.0000000  0  7G16G18G21G22G27G29G31
  21622712.320   113628121.90509  21622708.580    88541359.08748
  22401169.820   117718974.85909  22401166.720    91729073.25447
  21333423.800   112107900.53209  21333419.780    87356791.95148
  23710911.320   124601701.66108  23710906.780    97092223.89646
  22868553.440   120175077.56708  22868552.960    93642927.12747
  23969782.820   125962040.10608  23969780.940    98152221.14546
  23111019.240   121449211.50109  23111015.900    94635730.46547
 15 02 21 00 33  0.0000000  0  7G16G18G21G22G27G29G31
  21609570.120   113559058.99109  21609566.500    88487543.89748
  22390279.380   117661745.31809  22390276.340    91684478.82947
  21341146.500   112148483.33708  21341142.400    87388414.93048
  23693002.680   124507591.39608  23692998.200    97018891.29646
  22856322.120   120110801.07609  22856321.520    93592841.56547
  23983628.220   126034799.25208  23983626.380    98208916.50345
  23128422.540   121540666.08109  23128419.180    94706993.74447
 15 02 21 00 33 30.0000000  0  7G16G18G21G22G27G29G31
  21596482.680   113490283.49109  21596479.060    88433952.58848
  22379450.360   117604839.32209  22379447.520    91640136.51747
  21348927.420   112189372.87309  21348923.360    87420276.87848
  23675100.880   124413517.07008  23675096.420    96945586.68546
  22844108.220   120046616.20408  22844107.660    93542827.40547
  23997478.900   126107586.16508  23997477.140    98265633.50346
  23145854.580   121632271.89909  23145851.340    94778374.85347
 15 02 21 00 34  0.0000000  0  7G16G18G21G22G27G29G31
  21583449.600   113421793.98909  21583446.000    88380584.13648
  22368682.660   117548256.03509  22368680.060    91596045.65647
  21356765.580   112230563.06308  21356761.560    87452373.15448
  23657205.760   124319477.97908  23657201.460    96872309.54746
  22831911.000   119982519.43608  22831910.540    93492881.88047
  24011334.600   126180397.38508  24011332.720    98322369.54546
  23163314.120   121724022.18009  23163311.100    94849868.53647
 15 02 21 00 34 30.0000000  0  7G16G18G21G22G27G29G31
  21570472.580   113353599.32309  21570469.000    88327445.45648
  22357978.260   117492004.18309  22357975.640    91552213.06547
  21364662.040   112272059.60809  21364658.080    87484708.09648
  23639319.160   124225483.42208  23639314.940    96799067.09146
  22819731.840   119918517.42309  22819730.860    93443010.19047
  24025196.120   126253239.44108  24025194.360    98379129.54845
  23180801.860   121815920.78209  23180798.980    94921477.78747
 15 02 21 00 35  0.0000000  0  7G16G18G21G22G27G29G31
  21557553.120   113285707.65609  21557549.620    88274542.86348
  22347338.740   117436092.11409  22347335.800    91508645.22747
  21372617.760   112313867.07808  21372613.820    87517285.38248
  23621442.720   124131541.98808  23621438.500    96725866.04146
  22807571.800   119854616.29709  22807570.820    93393217.11947
  24039064.400   126326118.63008  24039063.020    98435918.49646
  23198318.280   121907970.56409  23198315.500    94993204.83647
 15 02 21 00 35 30.0000000  0  7G16G18G21G22G27G29G31
  21544689.660   113218109.97509  21544686.080    88221869.34548
  22336761.980   117380510.22409  22336758.840    91465334.68147
  21380630.180   112355972.34808  21380626.200    87550094.65548
  23603574.760   124037644.91208  23603570.360    96652699.54346
  22795428.800   119790804.60409  22795428.200    93343493.75248
  24052937.460   126399023.60807  24052936.400    98492727.46146
  23215860.740   122000156.98408  23215857.980    95065038.36447
 15 02 21 00 36  0.0000000  0  7G16G18G21G22G27G29G31
  21531882.720   113150809.58509  21531879.240    88169427.47048
  22326248.660   117325262.21309  22326245.480    91422284.31047
  21388699.000   112398374.32308  21388695.020    87583135.17548
  23585715.980   123943796.30808  23585711.360    96579570.81446
  22783303.180   119727083.62308  22783302.620    93293841.03448
  24066815.640   126471955.53908  24066814.840    98549557.45146
  23233429.000   122092478.80809  23233426.200    95136977.40447
 15 02 21 00 36 30.0000000  0  7G16G18G21G22G27G29G31
  21519133.460   113083811.90809  21519130.040    88117221.50748
  22315800.000   117270353.53709  22315796.720    91379498.33347
  21396824.500   112441074.39809  21396820.620    87616407.92148
  23567867.340   123850001.47408  23567862.620    96506483.98246
  22771195.360   119663456.44408  22771194.700    93244261.44547
  24080699.740   126544917.39708  24080698.840    98606410.82945
  23251023.060   122184935.75309  23251020.180    95209021.73247
 15 02 21 00 37  0.0000000  0  7G16G18G21G22G27G29G31
  21506442.200   113017118.22209  21506438.740    88065252.40048
  22305416.140   117215785.22309  22305412.600    91336977.55846
  21405006.380   112484070.19408  21405002.440    87649911.17648
  23550029.160   123756262.37708  23550024.480    96433440.59146
  22759105.220   119599922.00409  22759104.600    93194754.11148
  24094589.300   126617908.15008  24094588.000    98663286.74845
  23268642.060   122277523.68909  23268638.980    95281168.11247
 15 02 21 00 37 30.0000000  0  7G16G18G21G22G27G29G31
  21493808.900   112950729.70109  21493805.240    88013521.09848
  22295097.040   117161558.34109  22295093.420    91294722.87447
  21413243.820   112527358.03908  21413239.800    87683641.94648
  23532201.920   123662580.60708  23532197.340    96360441.86546
  22747032.560   119536479.36408  22747032.160    93145318.32248
  24108484.580   126690926.77908  24108483.300    98720184.32446
  23286285.260   122370238.89509  23286282.100    95353413.66547
 15 02 21 00 38  0.0000000  0  7G16G18G21G22G27G29G31
  21481234.660   112884651.56309  21481231.120    87962031.63448
  22284843.880   117107678.35209  22284840.320    91252738.48747
  21421537.300   112570940.11109  21421533.140    87717601.99848
  23514386.700   123568961.42308  23514382.080    96287491.90446
  22734977.760   119473131.62208  22734977.440    93095956.48247
  24122385.640   126763976.21208  24122384.380    98777105.88246
  23303952.680   122463081.41709  23303949.540    95425758.44747
 15 02 21 00 38 30.0000000  0  7G16G18G21G22G27G29G31
  21468719.640   112818884.83409  21468716.020    87910784.84048
  22274657.040   117054146.38809  22274653.580    91211025.26947
  21429886.120   112614812.73809  21429881.700    87751788.46348
  23496583.920   123475407.09008  23496579.220    96214592.46346
  22722940.700   119409877.69808  22722940.040    93046667.71447
  24136292.260   126837055.34708  24136290.800    98834050.62045
  23321643.400   122556046.86209  23321640.500    95498199.01947
 15 02 21 00 39  0.0000000  0  7G16G18G21G22G27G29G31
  21456263.820   112753429.58809  21456260.460    87859780.78948
  22264536.400   117000962.03509  22264533.040    91169582.93347
  21438289.420   112658972.67008  21438285.080    87786198.81048
  23478793.520   123381917.54208  23478788.760    96141743.50446
  22710921.160   119346715.23208  22710920.440    92997450.22547
  24150204.240   126910162.40508  24150202.560    98891017.11345
  23339356.480   122649129.92309  23339353.760    95570731.23547
 15 02 21 00 39 30.0000000  0  7G16G18G21G22G27G29G31
  21443867.800   112688288.45809  21443864.380    87809021.45448
  22254482.320   116948127.89009  22254479.020    91128413.48847
  21446747.060   112703418.13308  21446742.880    87820831.62648
  23461015.860   123288495.58208  23461011.180    96068947.22046
  22698919.260   119283644.76408  22698918.740    92948304.43548
  24164121.440   126983297.19607  24164119.680    98948005.26045
  23357091.500   122742328.48608  23357088.820    95643353.44347
 15 02 21 00 40  0.0000000  0  7G16G18G21G22G27G29G31
  21431533.860   112623473.07909  21431530.340    87758515.96048
  22244497.040   116895655.59109  22244493.780    91087526.00147
  21455260.600   112748157.15108  21455256.420    87855693.20648
  23443253.360   123195153.77108  23443248.780    95996213.37846
  22686936.580   119220675.80308  22686936.160    92899237.73647
  24178045.420   127056469.37408  24178044.160    99005022.48646
  23374849.700   122835648.90908  23374847.020    95716070.59047
 15 02 21 00 40 30.0000000  0  7G16G18G21G22G27G29G31
  21419259.440   112558970.34109  21419255.800    87708254.08848
  22234578.080   116843531.26209  22234574.920    91046909.65547
  21463826.620   112793171.99209  21463822.480    87890769.68648
  23425503.720   123101879.33508  23425499.240    95923532.05146
  22674970.320   119157792.93409  22674969.420    92850238.07047
  24191973.860   127129663.88908  24191972.700    99062057.12245
  23392627.500   122929072.42808  23392624.980    95788868.05746
 15 02 21 00 41  0.0000000  0  7G16G18G21G22G27G29G31
  21407046.100   112494788.31409  21407042.340    87658242.12048
  22224727.240   116791764.11209  22224723.980    91006571.62147
  21472446.060   112838467.38209  21472441.900    87926064.79048
  23407768.660   123008681.03408  23407764.160    95850910.03146
  22663021.900   119095002.37308  22663020.680    92801310.34148
  24205907.900   127202886.59908  24205906.420    99119113.75146
  23410425.680   123022602.27708  23410423.220    95861748.41047
 15 02 21 00 41 30.0000000  0  7G16G18G21G22G27G29G31
  21394895.160   112430934.82009  21394891.360    87608486.15048
  22214945.660   116740360.76909  22214942.100    90966517.07847
  21481119.380   112884045.94709  21481115.080    87961580.56348
  23390049.600   122915566.43008  23390044.980    95778353.23346
  22651091.740   119032309.16109  22651091.240    92752458.55148
  24219848.180   127276142.49008  24219846.540    99176196.19745
  23428244.440   123116240.53508  23428242.220    95934713.22147
 15 02 21 00 42  0.0000000  0  7G16G18G21G22G27G29G31
  21382806.300   112367406.90409  21382802.260    87558983.87848
  22205232.620   116689318.47809  22205228.860    90926743.88047
  21489845.360   112929901.57009  21489841.120    87997312.23448
  23372346.120   122822533.32908  23372341.280    95705859.93646
  22639179.480   118969708.49409  22639178.640    92703678.83347
  24233793.900   127349426.78108  24233791.860    99233300.76445
  23446082.320   123209979.57608  23446080.340    96007756.57547
 15 02 21 00 42 30.0000000  0  7G16G18G21G22G27G29G31
  21370780.580   112304211.36309  21370776.540    87509740.61848
  22195589.640   116638644.63109  22195585.900    90887257.77647
  21498624.820   112976037.89608  21498620.660    88033262.63948
  23354659.540   122729589.51108  23354654.640    95633436.22546
  22627285.460   118907205.59809  22627284.240    92654975.25647
  24247745.800   127422744.71308  24247743.060    99290431.64745
  23463939.740   123303821.29609  23463937.860    96080879.93346
 15 02 21 00 43  0.0000000  0  7G16G18G21G22G27G29G31
  21358817.300   112241344.08409  21358813.520    87460753.15248
  22186015.800   116588333.86209  22186012.240    90848054.58947
  21507455.900   113022445.71908  21507451.780    88069424.55448
  23336989.080   122636730.82108  23336984.200    95561078.85246
  22615408.700   118844793.54409  22615407.920    92606342.50048
  24261702.820   127496088.87308  24261700.220    99347582.91146
  23481814.800   123397755.73309  23481812.920    96154075.51446
 15 02 21 00 43 30.0000000  0  7G16G18G21G22G27G29G31
  21346917.540   112178810.89309  21346913.800    87412026.01148
  22176512.140   116538392.13809  22176508.740    90809138.96947
  21516338.840   113069126.61408  21516334.860    88105799.28248
  23319335.860   122543963.34108  23319331.140    95488792.54546
  22603550.080   118782476.02609  22603549.760    92557783.42648
  24275665.700   127569463.58808  24275663.560    99404757.96546
  23499707.740   123491783.52008  23499705.720    96227343.90047
 15 02 21 00 44  0.0000000  0  7G16G18G21G22G27G29G31
  21335081.640   112116613.25509  21335077.860    87363560.28648
  22167078.840   116488820.81809  22167075.540    90770511.98147
  21525273.360   113116078.67708  21525269.640    88142385.27648
  23301700.520   122451289.33009  23301695.860    95416579.07446
  22591709.240   118720252.36509  22591708.760    92509297.45047
  24289634.100   127642867.67808  24289632.160    99461955.92746
  23517617.800   123585901.10308  23517615.620    96300682.20646
 15 02 21 00 44 30.0000000  0  7G16G18G21G22G27G29G31
  21323310.480   112054755.54409  21323306.660    87315359.48348
  22157716.860   116439624.44009  22157713.740    90732177.14947
  21534259.600   113163302.36208  21534255.980    88179182.97548
  23284084.060   122358713.80109  23284079.280    95344442.32946
  22579886.880   118658125.12309  22579886.120    92460886.61448
  24303608.480   127716304.02708  24303606.660    99519179.08045
  23535544.860   123680107.90108  23535542.780    96374090.02347
 15 02 21 00 45  0.0000000  0  7G16G18G21G22G27G29G31
  21311603.940   111993238.08909  21311600.420    87267423.82048
  22148426.260   116390802.72009  22148423.360    90694134.28147
  21543296.860   113210793.79108  21543293.280    88216189.26548
  23266486.520   122266237.13709  23266481.520    95272382.61346
  22568082.700   118596092.23509  22568081.840    92412549.29748
  24317588.280   127789770.17908  24317587.060    99576425.30645
  23553487.960   123774398.63708  23553486.060    96447563.26647
 15 02 21 00 45 30.0000000  0  7G16G18G21G22G27G29G31
  21299962.960   111932064.09509  21299959.520    87219755.75848
  22139207.640   116342358.57409  22139204.840    90656385.61447
  21552384.880   113258551.70108  21552381.340    88253403.21148
  23248908.360   122173862.90909  23248903.200    95200402.73946
  22556296.700   118534154.84009  22556295.300    92364286.41447
  24331574.240   127863267.22408  24331573.060    99633695.71045
  23571446.700   123868771.50108  23571444.720    96521100.49846
 15 02 21 00 46  0.0000000  0  7G16G18G21G22G27G29G31
  21288387.080   111871232.14309  21288383.460    87172354.22948
  22130060.760   116294290.42009  22130057.760    90618929.92047
  21561522.740   113306571.31908  21561519.220    88290821.08548
  23231349.520   122081590.72708  23231344.300    95128502.38046
  22544527.980   118472309.46509  22544526.420    92316095.21948
  24345565.820   127936791.68108  24345563.940    99690987.48245
  23589419.800   123963220.17508  23589417.560    96594696.77746
 15 02 21 00 46 30.0000000  0  7G16G18G21G22G27G29G31
  21276877.580   111810748.99709  21276873.980    87125224.53448
  22120986.720   116246605.05609  22120983.580    90581772.50447
  21570710.880   113354854.97609  21570707.280    88328444.68948
  23213811.300   121989427.50009  23213806.160    95056686.91946
  22532777.480   118410560.77809  22532776.240    92267979.35948
  24359563.640   128010348.40108  24359560.980    99748304.40745
  23607407.500   124057746.10508  23607405.300    96668353.30947
 15 02 21 00 47  0.0000000  0  7G16G18G21G22G27G29G31
  21265436.000   111750622.68409  21265432.180    87078372.86748
  22111986.760   116199309.76309  22111983.640    90544919.04347
  21579950.140   113403407.11109  21579946.520    88366277.54648
  23196295.460   121897381.70409  23196290.380    94984962.95646
  22521046.400   118348914.49009  22521045.400    92219943.31748
  24373567.820   128083942.85608  24373565.560    99805650.63745
  23625410.380   124152351.82308  23625408.300    96742071.97447
 15 02 21 00 47 30.0000000  0  7G16G18G21G22G27G29G31
  21254059.440   111690838.78609  21254055.800    87031788.02248
  22103058.280   116152390.13409  22103055.120    90508358.29547
  21589236.900   113452209.07308  21589233.300    88404305.05248
  23178799.420   121805439.45109  23178794.320    94913319.67246
  22509331.920   118287354.24009  22509330.540    92171974.25947
  24387576.560   128157558.77108  24387574.740    99863013.66245
  23643424.840   124247018.01908  23643422.880    96815837.75347
 15 02 21 00 48  0.0000000  0  7G16G18G21G22G27G29G31
  21242750.260   111631409.56109  21242746.840    86985479.53548
  22094203.640   116105858.25609  22094200.320    90472099.71147
  21598572.700   113501268.94108  21598569.020    88442533.55848
  23161325.560   121713613.63708  23161320.440    94841767.11847
  22497635.580   118225890.35509  22497634.360    92124080.36348
  24401591.600   128231206.18608  24401589.740    99920401.28646
  23661452.340   124341751.89908  23661450.300    96889656.30647
 15 02 21 00 48 30.0000000  0  7G16G18G21G22G27G29G31
  21231509.820   111572341.40709  21231506.660    86939452.43648
  22085423.900   116059720.26409  22085420.520    90436148.04647
  21607957.980   113550588.99608  21607954.280    88480964.75448
  23143875.100   121621910.99508  23143869.980    94770310.55746
  22485958.460   118164527.05609  22485957.780    92076264.84448
  24415613.000   128304889.40807  24415611.320    99977816.74945
  23679492.880   124436554.63308  23679490.700    96963528.49246
 15 02 21 00 49  0.0000000  0  7G16G18G21G22G27G29G31
  21220338.080   111513633.34609  21220334.800    86893705.90648
  22076718.760   116013974.79709  22076715.520    90400502.24747
  21617392.120   113600165.12708  21617388.340    88519595.51748
  23126447.940   121530331.30308  23126442.900    94698949.78746
  22474299.980   118103261.30909  22474299.620    92028525.32848
  24429640.360   128378605.12008  24429639.200   100035257.51445
  23697545.260   124531420.04408  23697542.920    97037449.52446
 15 02 21 00 49 30.0000000  0  7G16G18G21G22G27G29G31
  21209234.280   111455281.76809  21209230.800    86848237.12648
  22068087.600   115968618.07309  22068084.480    90365159.35647
  21626873.500   113649989.29809  21626869.480    88558419.50448
  23109043.540   121438871.36209  23109038.560    94627682.33547
  22462658.900   118042087.50209  22462658.300    91980857.41248
  24443673.280   128452347.75008  24443671.440   100092719.30845
  23715607.900   124626339.55308  23715605.440    97111412.69646
 15 02 21 00 50  0.0000000  0  7G16G18G21G22G27G29G31
  21198199.180   111397291.19909  21198195.680    86803049.68548
  22059531.100   115923654.14009  22059527.980    90330122.53747
  21636402.100   113700062.03709  21636397.880    88597437.21248
  23091662.880   121347536.03208  23091657.940    94556511.98347
  22451035.760   117981007.89109  22451034.960    91933262.95348
  24457711.840   128526119.57008  24457709.460   100150203.88845
  23733680.680   124721312.18808  23733678.060    97185417.27146
 15 02 21 00 50 30.0000000  0  7G16G18G21G22G27G29G31
  21187234.800   111339672.60109  21187231.080    86758152.05048
  22051051.320   115879093.59609  22051048.160    90295400.05247
  21645979.280   113750390.17409  21645975.040    88636653.95348
  23074308.140   121256336.67308  23074303.260    94485447.57646
  22439432.400   117920031.43909  22439431.360    91885748.83448
  24471757.160   128599929.56507  24471755.180   100207718.07546
  23751764.760   124816343.97608  23751762.120    97259467.94546
 15 02 21 00 51  0.0000000  0  7G16G18G21G22G27G29G31
  21176340.280   111282421.25809  21176336.600    86713540.65048
  22042647.500   115834931.58909  22042644.300    90260988.10347
  21655603.320   113800964.96408  21655599.000    88676062.89648
  23056978.520   121165269.21709  23056973.680    94414485.94547
  22427847.380   117859151.33809  22427846.340    91838309.80548
  24485808.380   128673770.40108  24485807.040   100265256.38446
  23769858.280   124911425.15108  23769855.620    97333557.07046
 15 02 21 00 51 30.0000000  0  7G16G18G21G22G27G29G31
  21165515.080   111225534.41909  21165511.300    86669213.23748
  22034319.060   115791165.05309  22034315.780    90226884.31647
  21665273.100   113851780.24808  21665268.800    88715659.22548
  23039673.760   121074331.70609  23039668.880    94343625.57346
  22416279.740   117798363.10309  22416278.640    91790942.35548
  24499864.920   128747637.87108  24499863.880   100322815.39145
  23787959.760   125006548.10908  23787957.000    97407678.79446
 15 02 21 00 52  0.0000000  0  7G16G18G21G22G27G29G31
  21154761.360   111169023.08409  21154757.640    86625178.43748
  22026067.840   115747804.28609  22026064.560    90193096.72647
  21674989.900   113902842.84409  21674985.700    88755448.23548
  23022395.920   120983535.57409  23022391.040    94272875.36747
  22404731.280   117737675.57009  22404730.500    91743653.38548
  24513928.340   128821540.75308  24513927.120   100380402.02445
  23806070.180   125101718.27808  23806067.300    97481837.26546
 15 02 21 00 52 30.0000000  0  7G16G18G21G22G27G29G31
  21144078.900   111112886.76109  21144075.100    86581435.86448
  22017893.780   115704848.74409  22017890.400    90159624.88747
