     2.11           OBSERVATION DATA    G                   RINEX VERSION / TYPE
SPIDER V4,0,0,3554                      2015 03 24 07:26    PGM / RUN BY / DATE 
CNAJ                                                        MARKER NAME         
CNAJ                                                        MARKER NUMBER       
                                                            OBSERVER / AGENCY   
496642              LEICA GRX1200+GNSS  8.10/4.007          REC # / TYPE / VERS 
10321018            LEIAR25         NONE                    ANT # / TYPE        
  5206098.7325   612081.0247  3621806.3029                  APPROX POSITION XYZ 
        0.0720        0.0000        0.0000                  ANTENNA: DELTA H/E/N
     1     1                                                WAVELENGTH FACT L1/2
     4    C1    L1    P2    L2                              # / TYPES OF OBSERV 
    30.000                                                  INTERVAL            
  2015    02    21    00    00    0.0000000     GPS         TIME OF FIRST OBS   
  2015    02    21    23    59   30.0000000     GPS         TIME OF LAST OBS    
    16                                                      LEAP SECONDS        
    30                                                      # OF SATELLITES     
   G 1   812   812   812   812                              PRN / # OF OBS      
   G 2   930   929   929   928                              PRN / # OF OBS      
   G 3   852   852   852   852                              PRN / # OF OBS      
   G 4   843   843   842   842                              PRN / # OF OBS      
   G 5   622   622   620   620                              PRN / # OF OBS      
   G 6   797   797   792   792                              PRN / # OF OBS      
   G 7   671   671   670   670                              PRN / # OF OBS      
   G 9   808   808   808   808                              PRN / # OF OBS      
   G10   743   742   742   741                              PRN / # OF OBS      
   G11   780   780   779   779                              PRN / # OF OBS      
   G12   832   832   832   832                              PRN / # OF OBS      
   G13   788   788   788   788                              PRN / # OF OBS      
   G14   938   938   936   936                              PRN / # OF OBS      
   G15   686   685   684   684                              PRN / # OF OBS      
   G16   670   670   668   668                              PRN / # OF OBS      
   G17   937   937   935   935                              PRN / # OF OBS      
   G18   903   903   899   899                              PRN / # OF OBS      
   G19   758   758   758   758                              PRN / # OF OBS      
   G20   771   770   770   770                              PRN / # OF OBS      
   G21   740   740   739   739                              PRN / # OF OBS      
   G22   657   657   657   657                              PRN / # OF OBS      
   G23   739   739   737   737                              PRN / # OF OBS      
   G24   829   829   829   829                              PRN / # OF OBS      
   G25   862   862   861   861                              PRN / # OF OBS      
   G27   812   811   812   811                              PRN / # OF OBS      
   G28   870   869   864   864                              PRN / # OF OBS      
   G29   765   765   762   762                              PRN / # OF OBS      
   G30   716   715   710   710                              PRN / # OF OBS      
   G31   858   858   854   854                              PRN / # OF OBS      
   G32   764   764   761   761                              PRN / # OF OBS      
BIT 2 OF LLI FLAGS DATA COLLECTED UNDER A/S CONDITION       COMMENT             
SNR is mapped to RINEX snr flag value [2-9]                 COMMENT             
Lx:     = 25dBHz -> 1; 26-27dBHz -> 2; 28-31dBHz -> 3       COMMENT             
       32-35dBHz -> 4; 36-38dBHz -> 5; 39-41dBHz -> 6       COMMENT             
       42-44dBHz -> 7; 45-48dBHz -> 8; >=49dBHz -> 9        COMMENT             
                                                            END OF HEADER       
 15 02 21 00 00  0.0000000  0  7G16G18G21G25G27G29G31
  22656094.300   119058600.29308  22656090.020    92772938.67644
  23136086.280   121580977.46108  23136082.280    94738353.83344
  20957040.480   110130006.03408  20957037.000    85815571.66148
  23806970.140   125106454.90908  23806969.320    97485548.42044
  23793710.320   125036790.29908  23793710.720    97431266.46946
  23024512.860   120994609.33708  23024511.660    94281504.67245
  22082116.940   116042309.59308  22082110.940    90422560.52045
 15 02 21 00 00 30.0000000  0  7G16G18G21G25G27G29G31
  22640071.640   118974399.68208  22640067.340    92707327.81245
  23122197.260   121507989.71108  23122192.920    94681480.25345
  20960358.400   110147440.83608  20960354.660    85829157.21548
  23824628.600   125199249.33208  23824627.660    97557855.76044
  23780352.640   124966598.09408  23780353.360    97376571.27246
  23037679.800   121063800.93108  23037678.300    94335420.17545
  22096253.580   116116598.80308  22096247.480    90480448.18545
 15 02 21 00 01  0.0000000  0  7G16G18G21G25G27G29G31
  22624076.620   118890344.36008  22624072.140    92641830.17144
  23108340.100   121435170.86908  23108336.040    94624738.33145
  20963752.820   110165277.59808  20963748.900    85843055.98748
  23842326.140   125292251.02607  23842325.600    97630324.59344
  23767011.940   124896494.35808  23767013.120    97321945.03346
  23050854.540   121133033.71308  23050852.700    94389367.73945
  22110455.680   116191229.41309  22110449.560    90538601.92045
 15 02 21 00 01 30.0000000  0  7G16G18G21G25G27G29G31
  22608109.000   118806433.21508  22608104.360    92576444.86545
  23094515.000   121362521.08608  23094511.540    94568128.12745
  20967222.800   110183512.05108  20967218.880    85857264.63548
  23860062.200   125385455.77007  23860062.140    97702951.61945
  23753687.680   124826476.03108  23753689.000    97267385.33946
  23064036.500   121202304.21108  23064034.000    94443344.70544
  22124722.000   116266195.69209  22124716.120    90597017.19246
 15 02 21 00 02  0.0000000  0  7G16G18G21G25G27G29G31
  22592169.280   118722668.64608  22592164.620    92511173.78044
  23080722.780   121290042.88508  23080719.800    94511651.62346
  20970768.060   110202143.13808  20970764.400    85871782.36948
  23877836.760   125478862.45707  23877837.000    97775736.01345
  23740379.840   124756543.07608  23740380.720    97212892.18546
  23077225.520   121271612.28008  23077222.040    94497350.97844
  22139051.820   116341495.09009  22139046.280    90655692.05346
 15 02 21 00 02 30.0000000  0  7G16G18G21G25G27G29G31
  22576257.120   118639049.34908  22576252.460    92446015.90544
  23066963.240   121217735.71508  23066960.640    94455308.40646
  20974387.760   110221166.00708  20974384.520    85886605.36948
  23895648.900   125572466.67507  23895649.220    97848674.30245
  23727087.760   124686692.23008  23727088.380    97158462.98746
  23090420.920   121340954.73608  23090416.380    94551384.05643
  22153443.700   116417121.40909  22153438.580    90714621.63846
 15 02 21 00 03  0.0000000  0  7G16G18G21G25G27G29G31
  22560374.140   118555583.26608  22560369.280    92380977.41145
  23053238.020   121145608.22508  23053235.660    94399105.20246
  20978083.060   110240585.99008  20978080.140    85901737.81648
  23913499.340   125666273.36506  23913500.140    97921770.38045
  23713812.520   124616929.44308  23713812.740    97104102.40246
  23103623.760   121410337.16308  23103618.120    94605448.27843
  22167898.160   116493078.29609  22167893.500    90773808.80047
 15 02 21 00 03 30.0000000  0  7G16G18G21G25G27G29G31
  22544520.680   118472272.01809  22544515.700    92316059.56144
  23039547.480   121073662.94008  23039545.020    94343043.95846
  20981853.640   110260401.06808  20981850.920    85917178.13848
  23931387.800   125760280.70506  23931389.160    97995022.81044
  23700553.860   124547254.16208  23700553.840    97049810.03346
  23116833.900   121479758.82308  23116828.160    94659543.04844
  22182414.500   116569362.54809  22182410.460    90833251.03247
 15 02 21 00 04  0.0000000  0  7G16G18G21G25G27G29G31
  22528697.080   118389117.08309  22528691.900    92251263.52245
  23025891.840   121001901.73408  23025889.120    94287126.16345
  20985699.040   110280609.38908  20985696.520    85932924.88848
  23949314.000   125854486.88506  23949316.040    98068430.17245
  23687311.720   124477665.67408  23687312.020    96995585.30346
  23130051.360   121549219.11708  23130046.080    94713667.90044
  22196992.260   116645970.83109  22196988.880    90892945.75247
 15 02 21 00 04 30.0000000  0  7G16G18G21G25G27G29G31
  22512903.280   118306118.96309  22512897.820    92186589.65945
  23012271.160   120930325.24508  23012268.340    94231352.30645
  20989618.760   110301207.97408  20989616.320    85948975.72748
  23967277.500   125948888.98606  23967279.900    98141990.18944
  23674085.620   124408162.12608  23674085.660    96941426.72446
  23143275.920   121618716.15208  23143271.000    94767821.41744
  22211630.780   116722898.42509  22211627.840    90952889.29447
 15 02 21 00 05  0.0000000  0  7G16G18G21G25G27G29G31
  22497140.080   118223282.21509  22497134.520    92122041.55045
  22998686.600   120858938.96208  22998683.700    94175726.67245
  20993613.060   110322197.93408  20993610.520    85965331.54448
  23985278.940   126043488.34507  23985281.260    98215703.91644
  23660875.980   124338746.01808  23660876.280    96887336.30645
  23156507.960   121688252.00808  23156503.240    94822005.17044
  22226330.220   116800145.16609  22226327.440    91013081.52447
 15 02 21 00 05 30.0000000  0  7G16G18G21G25G27G29G31
  22481407.220   118140605.83309  22481401.640    92057618.40945
  22985138.400   120787742.90308  22985135.280    94120249.22845
  20997681.260   110343575.18908  20997678.380    85981989.13048
  24003317.660   126138280.86408  24003319.940    98289568.22244
  23647682.300   124269414.52807  23647682.680    96833311.80146
  23169746.960   121757823.97408  23169742.040    94876217.08244
  22241089.520   116877705.56909  22241086.680    91073518.16547
 15 02 21 00 06  0.0000000  0  7G16G18G21G25G27G29G31
  22465704.820   118058090.04408  22465699.340    91993320.41245
  22971626.520   120716737.68608  22971623.240    94064920.51245
  21001822.680   110365336.63008  21001819.360    85998946.10148
  24021392.860   126233263.37808  24021394.980    98363580.57944
  23634504.380   124200165.60408  23634504.880    96779351.65244
  23182992.360   121827429.86408  23182987.440    94930455.41343
  22255907.620   116955574.88709  22255904.680    91134195.52547
 15 02 21 00 06 30.0000000  0  7G16G18G21G25G27G29G31
  22450034.280   117975742.06209  22450029.080    91929153.17845
  22958152.400   120645930.42409  22958148.840    94009746.04045
  21006037.860   110387485.37808  21006034.020    86016204.87148
  24039504.880   126328439.47508  24039506.840    98437743.74744
  23621343.180   124131004.00608  23621343.540    96725459.50245
  23196245.180   121897074.35608  23196239.700    94984723.79543
  22270784.840   117033754.96709  22270781.820    91195115.03947
 15 02 21 00 07  0.0000000  0  7G16G18G21G25G27G29G31
  22434395.500   117893561.05308  22434390.600    91865116.02845
  22944716.100   120575321.47308  22944712.420    93954726.07145
  21010325.880   110410017.16208  21010321.540    86033762.11247
  24057652.860   126423805.21008  24057654.600    98512054.67145
  23608198.140   124061926.95408  23608198.160    96671633.25244
  23209504.920   121966754.48608  23209498.260    95039020.02343
  22285720.140   117112240.69509  22285717.160    91256272.71347
 15 02 21 00 07 30.0000000  0  8G16G18G21G22G25G27G29G31
  22418788.760   117811548.61508  22418784.160    91801210.25145
  22931317.760   120504912.76608  22931314.240    93899862.18845
  21014686.360   110432930.65908  21014681.760    86051616.79347
  24549533.040   129008668.29708  24549521.760   100526215.74841
  24075836.380   126519358.66508  24075837.800    98586511.85745
  23595069.160   123992933.68508  23595068.940    96617872.31644
  23222771.340   122036469.19808  23222764.740    95093343.16341
  22300712.960   117191028.55609  22300710.040    91317665.82147
 15 02 21 00 08  0.0000000  0  8G16G18G21G22G25G27G29G31
  22403208.140   117729673.61508  22403203.940    91737411.57044
  22917951.780   120434673.94608  22917948.380    93845130.65045
  21019112.540   110456190.72608  21019107.980    86069741.52647
  24531776.660   128915358.59208  24531763.640   100453507.08341
  24094049.020   126615065.45208  24094049.660    98661088.53444
  23581949.960   123923991.09108  23581948.880    96564150.78644
  23236038.060   122106185.84608  23236032.680    95147667.84842
  22315756.400   117270082.44309  22315753.640    91379266.22147
 15 02 21 00 08 30.0000000  0  8G16G18G21G22G25G27G29G31
  22387667.360   117648007.63408  22387663.200    91673775.75744
  22904631.740   120364676.86908  22904628.540    93790587.50045
  21023617.500   110479865.45708  21023613.060    86088189.37547
  24514010.580   128821999.33907  24514018.640   100380803.76441
  24112303.800   126710993.58608  24112303.480    98735837.69644
  23568853.680   123855168.32208  23568851.680    96510522.66844
  23249318.360   122175973.16108  23249316.880    95202047.57043
  22330863.040   117349468.94009  22330860.480    91441125.79446
 15 02 21 00 09  0.0000000  0  8G16G18G21G22G25G27G29G31
  22372170.620   117566572.80308  22372166.260    91610320.03044
  22891361.900   120294944.35308  22891359.200    93736250.52646
  21028205.000   110503974.15108  21028200.780    86106975.36647
  24496239.360   128728613.26307  24496245.680   100308042.75541
  24130604.320   126807162.07008  24130602.900    98810774.12844
  23555784.040   123786485.64408  23555781.000    96457003.66444
  23262615.960   122245851.25708  23262617.480    95256497.98543
  22346036.320   117429205.88209  22346033.880    91503258.45046
 15 02 21 00 09 30.0000000  0  8G16G18G21G22G25G27G29G31
  22356697.000   117485259.00108  22356692.180    91546958.63244
  22878121.660   120225366.57708  22878119.160    93682034.09545
  21032853.400   110528402.49608  21032849.260    86126010.43847
  24478442.160   128635090.55507  24478448.040   100235168.23243
  24148928.900   126903457.03008  24148926.740    98885809.18644
  23542719.600   123717830.40308  23542716.500    96403506.10245
  23275909.400   122315707.50208  23275911.940    95310931.39443
  22361254.180   117509177.44809  22361251.560    91565573.93545
 15 02 21 00 10  0.0000000  0  8G16G18G21G22G25G27G29G31
  22341257.300   117404123.28508  22341251.720    91483735.98044
  22864921.760   120156000.88708  22864919.420    93627982.93945
  21037572.840   110553204.14307  21037568.760    86145336.38947
  24460629.960   128541488.62307  24460634.540   100162232.02542
  24167287.680   126999932.25008  24167284.840    98960984.66244
  23529670.780   123649257.61108  23529668.140    96350072.76945
  23289209.200   122385597.15108  23289212.220    95365390.80044
  22376526.680   117589436.06209  22376523.520    91628113.10145
 15 02 21 00 10 30.0000000  0  8G16G18G21G22G25G27G29G31
  22325852.900   117323172.91308  22325846.940    91420657.77644
  22851763.720   120086855.30908  22851761.360    93574103.31745
  21042363.980   110578382.98307  21042359.940    86164956.26447
  24442804.200   128447814.89107  24442807.060   100089239.85543
  24185681.420   127096591.51008  24185678.540    99036303.56344
  23516638.540   123580772.31508  23516636.660    96296707.61646
  23302516.080   122455524.81208  23302519.020    95419879.83744
  22391854.400   117669984.22109  22391850.200    91690877.89845
 15 02 21 00 11  0.0000000  0  8G16G18G21G22G25G27G29G31
  22310484.320   117242410.46708  22310478.460    91357725.99044
  22838648.240   120017933.21208  22838645.720    93520397.79945
  21047226.540   110603938.08907  21047222.720    86184869.31547
  24424965.440   128354072.46807  24424966.960   100016194.11244
  24204109.900   127193434.18607  24204107.400    99111765.30944
  23503622.940   123512375.12208  23503622.020    96243411.13346
  23315830.100   122525490.96908  23315832.740    95474398.85144
  22407236.940   117750819.26009  22407231.660    91753866.26345
 15 02 21 00 11 30.0000000  0  8G16G18G21G22G25G27G29G31
  22295151.960   117161837.96708  22295146.620    91294942.25045
  22825575.740   119949236.99408  22825572.960    93466868.29145
  21052160.300   110629867.76407  21052156.660    86205074.26147
  24407114.080   128260263.42407  24407114.360    99943096.44244
  24222572.680   127290458.62507  24222570.640    99187368.71544
  23490623.920   123444065.56208  23490623.680    96190182.95846
  23329151.280   122595495.37308  23329153.660    95528947.70044
  22422673.600   117831938.05809  22422667.800    91817075.72245
 15 02 21 00 12  0.0000000  0  8G16G18G21G22G25G27G29G31
  22279855.380   117081452.77708  22279850.420    91232304.46545
  22812545.420   119880763.82708  22812542.740    93413512.61945
  21057163.980   110656165.32807  21057160.740    86225565.86547
  24389249.620   128166385.35508  24389249.240    99869944.95444
  24241068.900   127387658.46808  24241067.140    99263108.81744
  23477640.460   123375838.64808  23477640.840    96137019.17247
  23342478.900   122665533.14508  23342480.700    95583522.52244
  22438162.800   117913333.11809  22438156.860    91880500.44045
 15 02 21 00 12 30.0000000  0  8G16G18G21G22G25G27G29G31
  22264595.280   117001259.04409  22264590.560    91169815.84545
  22799558.780   119812519.01708  22799555.680    93360334.87645
  21062238.020   110682831.90507  21062235.180    86246345.02447
  24371372.920   128072442.95207  24371371.900    99796743.35044
  24259598.900   127485034.75808  24259597.060    99338986.44043
  23464673.180   123307696.69008  23464674.020    96083921.56946
  23355813.240   122735606.15608  23355814.500    95638124.81544
  22453704.420   117995003.75009  22453698.760    91944139.86746
 15 02 21 00 13  0.0000000  0  8G16G18G21G22G25G27G29G31
  22249371.580   116921256.37108  22249366.940    91107476.10845
  22786615.500   119744502.02608  22786611.900    93307334.59744
  21067381.680   110709863.30107  21067379.200    86267408.43947
  24353483.880   127978436.11607  24353482.280    99723491.50844
  24278161.820   127582583.33308  24278159.800    99414998.27244
  23451721.560   123239636.76608  23451722.920    96030887.89446
  23369153.840   122805711.64708  23369154.380    95692752.36644
  22469297.360   118076944.44109  22469292.080    92007989.73346
 15 02 21 00 13 30.0000000  0  8G16G18G21G22G25G27G29G31
  22234185.420   116841451.07409  22234180.600    91045290.18545
  22773717.180   119676720.31708  22773713.000    93254517.68444
  21072595.420   110737262.17807  21072593.100    86288758.21647
  24335583.780   127884371.69306  24335581.780    99650194.80944
  24296758.140   127680307.18408  24296756.460    99491146.73543
  23438786.480   123171663.20508  23438787.740    95977921.50446
  23382501.520   122875853.46208  23382501.300    95747408.24843
  22484941.980   118159156.78609  22484937.140    92072051.26447
 15 02 21 00 14  0.0000000  0  8G16G18G21G22G25G27G29G31
  22219036.400   116761841.51209  22219031.300    90983256.76645
  22760863.440   119609171.95408  22760858.660    93201882.57244
  21077878.260   110765022.94907  21077875.800    86310389.97747
  24317672.520   127790248.00906  24317669.740    99576851.92043
  24315386.800   127778200.61508  24315385.840    99567427.32443
  23425867.180   123103771.57108  23425868.440    95925018.97646
  23395855.560   122946027.88708  23395855.040    95802089.53643
  22500636.780   118241633.16709  22500632.400    92136318.54147
 15 02 21 00 14 30.0000000  0  8G16G18G21G22G25G27G29G31
  22203925.700   116682434.10308  22203920.500    90921380.89645
  22748055.520   119541864.38208  22748050.380    93149435.10644
  21083230.840   110793148.65007  21083227.940    86332306.10847
  24299751.520   127696071.84306  24299747.440    99503468.14843
  24334048.360   127876266.98307  24334048.280    99643842.67544
  23412964.420   123035966.58408  23412965.260    95872183.98147
  23409216.660   123016239.29108  23409215.560    95856799.69042
  22516382.140   118324375.62609  22516378.140    92200793.16047
 15 02 21 00 15  0.0000000  0  8G16G18G21G22G25G27G29G31
  22188853.060   116603227.39208  22188847.960    90859661.42444
  22735292.980   119474796.39108  22735287.880    93097174.34144
  21088652.060   110821633.98207  21088648.400    86354502.46847
  24281820.460   127601842.09707  24281814.960    99430042.52643
  24352741.520   127974501.38207  24352742.340    99720388.87744
  23400077.320   122968244.47908  23400077.840    95819413.57346
  23422584.080   123086483.76208  23422583.320    95911535.59942
  22532176.800   118407377.39009  22532173.180    92265469.83047
 15 02 21 00 15 30.0000000  0  8G16G18G21G22G25G27G29G31
  22173819.960   116524228.76708  22173815.040    90798104.07045
  22722577.400   119407975.52208  22722572.660    93045106.12744
  21094142.480   110850482.72108  21094138.000    86376981.99747
  24263880.640   127507566.63707  24263874.500    99356581.29443
  24371467.120   128072907.51007  24371468.600    99797068.90144
  23387206.840   122900610.47807  23387207.080    95766711.76746
  23435958.700   123156766.40108  23435958.020    95966301.30442
  22548021.200   118490641.16008  22548017.980    92330350.66346
 15 02 21 00 16  0.0000000  0  8G16G18G21G22G25G27G29G31
  22158825.800   116445435.10108  22158821.220    90736706.43745
  22709908.180   119341399.04108  22709904.000    92993228.37544
  21099700.660   110879688.03007  21099695.580    86399739.39147
  24245931.360   127413242.37108  24245925.080    99283082.04044
  24390224.180   128171478.43607  24390225.740    99873877.36245
  23374351.920   122833058.91208  23374352.220    95714074.23846
  23449339.400   123227081.55108  23449338.960    96021092.32142
  22563913.760   118574158.51608  22563910.880    92395429.07146
 15 02 21 00 16 30.0000000  0  8G16G18G21G22G25G27G29G31
  22143870.840   116366847.60908  22143866.380    90675469.46544
  22697285.640   119275068.31008  22697282.120    92941542.07945
  21105325.960   110909247.56807  21105320.540    86422772.79147
  24227972.900   127318870.77908  24227966.980    99209545.90043
  24409012.360   128270211.74707  24409014.020    99950812.33445
  23361512.500   122765588.76608  23361512.700    95661500.12745
  23462726.020   123297428.28508  23462724.260    96075907.97342
  22579853.880   118657925.30008  22579851.060    92460701.83346
 15 02 21 00 17  0.0000000  0  8G16G18G21G22G25G27G29G31
  22128956.300   116288472.24408  22128951.760    90614397.75544
  22684710.940   119208989.82607  22684708.460    92890052.38745
  21111018.740   110939163.16607  21111013.380    86446083.64247
  24210006.420   127224458.27308  24210001.100    99135977.86744
  24427832.040   128369109.95907  24427833.820   100027875.81844
  23348689.320   122698203.82708  23348689.520    95608992.43445
  23476119.240   123367810.59408  23476116.960    96130751.25043
  22595841.920   118741942.67108  22595838.940    92526169.88545
 15 02 21 00 17 30.0000000  0  8G16G18G21G22G25G27G29G31
  22114081.580   116210305.72808  22114076.420    90553488.78544
  22672183.460   119143160.89207  22672182.000    92838757.16845
  21116777.900   110969428.20508  21116772.660    86469666.78247
  24192031.540   127130002.09207  24192026.920    99062375.80444
  24446681.800   128468166.40807  24446683.580   100105062.58444
  23335881.420   122630898.81708  23335881.260    95556546.97345
  23489518.140   123438222.93208  23489515.000    96185618.02443
  22611876.060   118826202.42208  22611872.860    92591826.79545
 15 02 21 00 18  0.0000000  0  8G16G18G21G22G25G27G29G31
  22099248.280   116132356.40508  22099242.340    90492749.06343
  22659705.140   119077590.00207  22659704.360    92787663.01745
  21122604.420   111000047.08208  21122599.240    86493525.65147
  24174049.800   127035510.60307  24174046.180    98988746.23044
  24465562.580   128567385.48207  24465563.300   100182376.12343
  23323089.940   122563679.48008  23323089.400    95504168.30046
  23502923.700   123508670.97608  23502920.420    96240512.55044
  22627956.820   118910707.44908  22627953.400    92657674.83845
 15 02 21 00 18 30.0000000  0  8G16G18G21G22G25G27G29G31
  22084456.940   116054626.83109  22084450.260    90432180.54844
  22647276.960   119012280.09808  22647276.380    92736772.21345
  21128497.900   111031018.38208  21128492.900    86517659.12947
  24156061.880   126940986.97707  24156059.120    98915091.63344
  24484474.220   128666766.38207  24484473.480   100259815.80243
  23310314.920   122496546.36008  23310313.780    95451856.78245
  23516336.240   123579155.66107  23516333.060    96295435.63444
  22644083.720   118995455.45608  22644080.380    92723712.22145
 15 02 21 00 19  0.0000000  0  8G16G18G21G22G25G27G29G31
  22069707.180   115977115.40209  22069699.940    90371782.02544
  22634898.380   118947229.31208  22634897.620    92686083.30945
  21134457.520   111062337.13008  21134452.740    86542063.35947
  24138067.580   126846429.58206  24138065.420    98841410.69544
  24503415.800   128766303.36208  24503414.080   100337377.03243
  23297555.480   122429495.19208  23297554.320    95399609.14545
  23529754.940   123649672.34608  23529752.020    96350383.61844
  22660255.500   119080439.14108  22660252.360    92789933.26045
 15 02 21 00 19 30.0000000  0  8G16G18G21G22G25G27G29G31
  22054999.420   115899824.54309  22054991.740    90311555.37644
  22622569.940   118882441.25708  22622569.020    92635599.13345
  21140482.980   111094001.85308  21140478.420    86566737.16747
  24120067.440   126751841.24306  24120065.680    98767705.65145
  24522387.100   128865995.55808  24522385.140   100415059.25443
  23284811.800   122362526.48108  23284810.600    95347425.75545
  23543179.840   123720221.57008  23543176.960    96405356.99744
  22676471.760   119165656.13108  22676468.780    92856336.08645
 15 02 21 00 20  0.0000000  0  8G16G18G21G22G25G27G29G31
  22040333.880   115822756.03208  22040326.140    90251501.98644
  22610291.960   118817917.82408  22610290.620    92585321.15645
  21146573.900   111126010.64507  21146569.660    86591679.08647
  24102062.080   126657224.35507  24102060.580    98693978.36644
  24541387.560   128965841.13408  24541385.280   100492860.98244
  23272083.920   122295639.79608  23272082.780    95295306.27445
  23556611.080   123790802.88908  23556607.840    96460355.41344
  22692731.880   119251103.20209  22692728.800    92922918.21645
 15 02 21 00 20 30.0000000  0  8G16G18G21G22G25G27G29G31
  22025711.240   115745913.86908  22025703.720    90191624.98244
  22598065.240   118753663.12108  22598063.260    92535252.56045
  21152730.220   111158363.26307  21152726.420    86616888.90847
  24084052.360   126562583.09807  24084050.740    98620232.04044
  24560417.120   129065840.19508  24560414.700   100570782.31943
  23259372.020   122228836.60808  23259370.600    95243251.87445
  23570048.820   123861417.58108  23570044.780    96515379.81144
  22709035.540   119336778.95408  22709032.340    92989678.53245
 15 02 21 00 21  0.0000000  0  8G16G18G21G22G25G27G29G31
  22011131.760   115669299.18508  22011124.720    90131925.21944
  22585889.760   118689678.47108  22585887.280    92485394.38145
  21158951.480   111191057.12907  21158948.180    86642364.63747
  24066038.380   126467918.81507  24066036.200    98546467.79545
  24579475.180   129165990.21207  24579472.920   100648821.21443
  23246675.780   122162115.79508  23246674.100    95191261.67845
  23583492.760   123932064.41508  23583487.440    96570429.30343
  22725381.900   119422679.49508  22725378.620    93056614.00245
 15 02 21 00 21 30.0000000  0  8G16G18G21G22G25G27G29G31
  21996596.620   115592918.18808  21996590.440    90072407.58945
  22573766.800   118625970.27308  22573764.100    92435751.65645
  21165238.200   111224094.86707  21165235.240    86668108.32647
  24048021.320   126373238.06607  24048018.620    98472690.71544
  24598562.140   129266293.88807  24598560.180   100726979.83043
  23233995.960   122095481.49108  23233994.160    95139338.87045
  23596943.760   124002748.08108  23596937.620    96625507.48844
  22741771.120   119508805.98408  22741767.840    93123725.53245
 15 02 21 00 22  0.0000000  0  8G16G18G21G22G25G27G29G31
  21982105.200   115516767.72708  21982100.180    90013069.61045
  22561695.800   118562535.84409  22561692.960    92386322.26245
  21171589.140   111257469.57908  21171586.280    86694114.60048
  24030000.700   126278538.12808  24029997.340    98398898.68544
  24617676.880   129366744.23307  24617675.420   100805252.79543
  23221331.420   122028928.17208  23221329.280    95087479.18445
  23610400.740   124073463.03608  23610394.300    96680610.04544
  22758201.580   119595150.01408  22758198.520    93191006.55745
 15 02 21 00 22 30.0000000  0  8G16G18G21G22G25G27G29G31
  21967659.000   115440855.91707  21967655.340    89953917.60445
  22549678.520   118499383.40809  22549675.260    92337112.57545
  21178005.020   111291184.90408  21178001.960    86720386.27348
  24011978.200   126183827.48608  24011974.140    98325098.26644
  24636820.400   129467345.62807  24636819.780   100883643.40343
  23208683.200   121962461.64508  23208681.140    95035687.13445
  23623864.700   124144214.96608  23623858.800    96735741.38944
  22774673.980   119681714.50807  22774671.480    93258459.36645
 15 02 21 00 23  0.0000000  0  8G16G18G21G22G25G27G29G31
  21953258.500   115365183.57708  21953256.040    89894952.19245
  22537715.140   118436514.03709  22537711.200    92288123.44945
  21184485.420   111325238.44308  21184481.940    86746921.50647
  23993953.880   126089107.17408  23993949.300    98251290.32144
  24655992.280   129568095.24907  24655991.580   100962149.59542
  23196051.100   121896080.50508  23196048.780    94983961.59345
  23637335.200   124215002.32208  23637330.160    96790900.32944
  22791187.460   119768495.01008  22791185.480    93326080.46545
 15 02 21 00 23 30.0000000  0  8G16G18G21G22G25G27G29G31
  21938903.660   115289748.89408  21938901.920    89836171.97245
  22525805.160   118373926.17308  22525800.620    92239353.67245
  21191028.960   111359623.52508  21191024.940    86773715.07347
  23975927.320   125994375.53808  23975922.640    98177473.57445
  24675191.520   129668987.36607  24675191.420   101040766.77442
  23183434.460   121829780.54708  23183432.360    94932299.29445
  23650811.640   124285821.07408  23650807.380    96846083.75245
  22807740.860   119855484.36308  22807739.260    93393864.32245
 15 02 21 00 24  0.0000000  0  8G16G18G21G22G25G27G29G31
  21924594.880   115214553.91908  21924593.140    89777578.48945
  22513948.860   118311622.02008  22513944.440    92190805.00145
  21197635.340   111394339.64508  21197630.900    86800766.60547
  23957899.080   125899635.24908  23957894.400    98103650.09345
  24694417.700   129770020.46808  24694418.020   101119493.82143
  23170833.340   121763561.72208  23170831.420    94880700.23845
  23664293.780   124356670.95808  23664290.500    96901291.40445
  22824333.640   119942679.65108  22824332.300    93461808.66745
 15 02 21 00 24 30.0000000  0  8G16G18G21G22G25G27G29G31
  21910333.060   115139605.11608  21910331.100    89719176.81646
  22502147.460   118249608.11908  22502143.900    92142482.52345
  21204304.880   111429389.05308  21204300.340    86828077.81147
  23939870.480   125804893.05508  23939865.760    98029825.12845
  24713671.280   129871197.15308  24713671.780   101198332.75643
  23158248.500   121697428.13008  23158246.120    94829167.56145
  23677782.500   124427556.31808  23677780.280    96956526.70146
  22840966.000   120030082.11808  22840964.720    93529914.45045
 15 02 21 00 25  0.0000000  0  8G16G18G21G22G25G27G29G31
  21896118.220   115064903.53308  21896115.920    89660967.79945
  22490401.540   118187885.79108  22490398.820    92094387.24645
  21211037.020   111464768.50508  21211032.740    86855646.20247
  23921841.700   125710150.08408  23921837.040    97955999.57944
  24732951.580   129972514.62307  24732952.120   101277281.40543
  23145679.600   121631378.36208  23145677.100    94777700.25245
  23691277.620   124498475.70908  23691276.080    97011788.53045
  22857637.000   120117687.18508  22857635.500    93598178.13544
 15 02 21 00 25 30.0000000  0  8G16G18G21G22G25G27G29G31
  21881950.300   114990449.11108  21881947.640    89602951.33945
  22478711.240   118126454.90808  22478708.920    92046519.03345
  21217831.220   111500473.79108  21217827.300    86883468.48847
  23903812.760   125615406.89208  23903808.220    97882173.83244
  24752257.780   130073969.25506  24752258.280   101356336.86444
  23133126.280   121565410.27008  23133123.260    94726296.54844
  23704778.740   124569426.61308  23704777.680    97067074.89545
  22874345.600   120205490.03608  22874343.700    93666595.93544
 15 02 21 00 26  0.0000000  0  8G16G18G21G22G25G27G29G31
  21867831.180   114916251.62509  21867828.100    89545135.11945
  22467078.520   118065325.81508  22467076.500    91998886.01945
  21224688.840   111536511.22408  21224685.040    86911549.60747
  23885785.420   125520673.42107  23885781.140    97808355.67943
  24771590.880   130175566.96306  24771591.700   101435503.79744
  23120589.940   121499531.31408  23120586.920    94674962.30744
  23718287.420   124640416.81108  23718286.660    97122391.90945
  22891092.700   120293495.30108  22891090.080    93735171.47044
 15 02 21 00 26 30.0000000  0  8G16G18G21G22G25G27G29G31
  21853759.940   114842305.88809  21853756.400    89487515.04544
  22455502.520   118004493.36209  22455500.540    91951484.11945
  21231608.120   111572871.82908  21231604.340    86939882.54747
  23867758.800   125425944.99107  23867753.840    97734541.38141
  24790949.580   130277298.74007  24790950.760   101514775.22144
  23108069.100   121433734.04008  23108066.740    94623691.73245
  23731802.380   124711439.06708  23731801.780    97177733.89045
  22907876.220   120381692.21908  22907872.940    93803896.32744
 15 02 21 00 27  0.0000000  0  8G16G18G21G22G25G27G29G31
  21839737.500   114768616.87209  21839733.460    89430095.01644
  22443984.020   117943962.53109  22443981.900    91904317.26945
  21238589.160   111609556.52208  21238585.340    86968468.04347
  23849733.900   125331226.76008  23849725.900    97660734.94741
  24810334.080   130379165.60307  24810335.120   101594151.88143
  23095564.260   121368020.96908  23095561.900    94572486.76544
  23745324.000   124782495.76708  23745323.440    97233102.70545
  22924696.040   120470080.58808  22924692.600    93872770.38545
 15 02 21 00 27 30.0000000  0  7G16G18G21G22G27G29G31
  21825764.440   114695187.38308  21825759.700    89372877.20044
  22432523.560   117883736.49109  22432521.140    91857387.90345
  21245631.600   111646564.28408  21245627.880    86997305.27147
  23831711.720   125236522.15808  23831702.580    97586939.12843
  23083075.560   121302392.94608  23083073.740    94521348.11445
  23758852.480   124853587.86307  23758851.780    97288499.13545
  22941551.520   120558658.40507  22941548.560    93941792.00345
 15 02 21 00 28  0.0000000  0  7G16G18G21G22G27G29G31
  21811840.640   114622017.31008  21811835.180    89315861.53644
  22421120.940   117823814.78209  22421118.300    91810695.68145
  21252734.720   111683890.74108  21252731.060    87026390.82547
  23813692.320   125141831.20408  23813684.700    97513154.04344
  23070602.460   121236847.38607  23070601.020    94470273.67945
  23772387.060   124924712.55807  23772386.440    97343920.92646
  22958441.220   120647419.81107  22958439.440    94010956.67245
 15 02 21 00 28 30.0000000  0  7G16G18G21G22G27G29G31
  21797966.560   114549109.63108  21797960.840    89259050.31944
  22409776.760   117764200.87909  22409774.180    91764243.29246
  21259898.460   111721535.30808  21259894.780    87055724.25247
  23795676.180   125047157.01308  23795670.380    97439382.03444
  23058144.960   121171385.01707  23058144.160    94419264.08345
  23785927.780   124995870.63607  23785927.460    97399368.71444
  22975365.320   120736362.67107  22975364.740    94080262.69846
 15 02 21 00 29  0.0000000  0  7G16G18G21G22G27G29G31
  21784142.700   114476466.65108  21784137.560    89202445.42444
  22398491.480   117704897.00809  22398489.180    91718032.51345
  21267122.500   111759496.56008  21267118.620    87085304.46147
  23777663.880   124952502.76207  23777659.500    97365625.55945
  23045703.240   121106005.88907  23045703.560    94368319.35445
  23799474.880   125067062.36007  23799474.720    97454842.71445
  22992324.100   120825483.95308  22992324.120    94149707.78945
 15 02 21 00 29 30.0000000  0  7G16G18G21G22G27G29G31
  21770369.400   114404089.18708  21770365.300    89146047.40845
  22387265.360   117645904.13508  22387263.360    91672064.05746
  21274405.940   111797770.02908  21274401.820    87115127.94547
  23759655.320   124857869.16907  23759652.020    97291885.23246
  23033277.220   121040708.55507  23033278.220    94317438.36845
  23813028.280   125138286.09407  23813028.220    97510341.68745
  23009316.840   120914779.52008  23009316.640    94219288.70845
 15 02 21 00 30  0.0000000  0  7G16G18G21G22G27G29G31
  21756646.960   114331978.23208  21756643.900    89089857.09245
  22376098.840   117587223.56109  22376096.880    91626338.95945
  21281748.260   111836353.54308  21281744.000    87145193.02147
  23741651.060   124763257.49207  23741648.260    97218161.93345
  23020866.700   120975491.62008  23020868.060    94266620.00245
  23826587.600   125209540.50707  23826587.160    97565864.56345
  23026342.240   121004244.83108  23026341.620    94289001.90045
 15 02 21 00 30 30.0000000  0  7G16G18G21G22G27G29G31
  21742976.480   114260138.57608  21742973.860    89033878.15646
  22364992.740   117528859.70509  22364990.260    91580860.64046
  21289149.820   111875248.65608  21289145.360    87175500.89547
  23723652.100   124668673.16508  23723649.420    97144459.98545
  23008472.280   120910357.74708  23008473.820    94215866.34945
  23840153.400   125280828.24307  23840152.440    97621413.38144
  23043399.900   121093879.55808  23043398.720    94358847.10745
 15 02 21 00 31  0.0000000  0  7G16G18G21G22G27G29G31
  21729357.780   114188569.89009  21729355.040    88978110.36446
  22353946.980   117470812.32309  22353943.840    91535628.93046
  21296609.520   111914449.26308  21296604.900    87206046.83347
  23705658.500   124574116.07808  23705655.560    97070779.24645
  22996093.320   120845304.16508  22996094.740    94165175.28145
  23853725.040   125352146.46207  23853723.540    97676985.97044
  23060488.580   121183678.06708  23060486.860    94428819.94245
 15 02 21 00 31 30.0000000  0  7G16G18G21G22G27G29G31
  21715792.500   114117281.21409  21715789.320    88922560.76846
  22342963.240   117413090.55309  22342959.400    91490650.94046
  21304128.700   111953962.37108  21304124.020    87236836.26847
  23687672.060   124479595.79608  23687668.440    96997127.14444
  22983731.100   120780337.83008  22983732.200    94114552.19545
  23867303.680   125423502.31907  23867301.340    97732587.91844
  23077608.940   121273644.14508  23077606.800    94498923.34145
 15 02 21 00 32  0.0000000  0  7G16G18G21G22G27G29G31
  21702280.520   114046272.15309  21702276.760    88867229.02946
  22332041.480   117355694.50409  22332036.920    91445926.74646
  21311706.240   111993782.55808  21311701.600    87267864.98347
  23669692.720   124385112.54708  23669687.560    96923503.85643
  22971385.040   120715456.14308  22971385.720    94063995.06145
  23880888.720   125494893.22606  23880885.660    97788217.18044
  23094760.040   121363772.42308  23094757.680    94569153.12945
 15 02 21 00 32 30.0000000  0  7G16G18G21G22G27G29G31
  21688821.540   113975541.54109  21688817.220    88812114.27046
  22321181.260   117298622.27609  22321176.320    91401454.88046
  21319341.280   112033904.97708  21319336.660    87299129.21147
  23651720.100   124290664.82408  23651713.040    96849908.25543
  22959054.340   120650655.28408  22959053.980    94013500.89645
  23894479.620   125566315.41206  23894475.920    97843870.77844
  23111940.620   121454055.85808  23111938.100    94639503.81745
 15 02 21 00 33  0.0000000  0  7G16G18G21G22G27G29G31
  21675415.840   113905091.43409  21675411.140    88757218.08946
  22310382.960   117241876.26609  22310378.180    91357237.22946
  21327033.380   112074327.65608  21327028.900    87330627.40147
  23633754.800   124196255.70508  23633746.440    96776342.69343
  22946738.960   120585935.41308  22946737.740    93963069.85844
  23908076.620   125637769.21207  23908072.200    97899549.03143
  23129150.100   121544491.72108  23129147.260    94709973.27545
 15 02 21 00 33 30.0000000  0  7G16G18G21G22G27G29G31
  21662064.900   113834929.97709  21662060.080    88702546.82946
  22299648.020   117185464.26709  22299643.480    91313279.84146
  21334783.380   112115054.64008  21334779.100    87362362.70547
  23615798.300   124101893.07308  23615790.360    96702813.38344
  22934439.920   120521302.16008  22934438.000    93912706.30145
  23921680.620   125709259.91007  23921675.900    97955256.08743
  23146389.040   121635082.75208  23146385.820    94780563.63444
 15 02 21 00 34  0.0000000  0  7G16G18G21G22G27G29G31
  21648767.980   113765053.37609  21648763.120    88648097.54046
  22288975.860   117129382.97009  22288971.780    91269580.14146
  21342589.660   112156077.44908  21342585.660    87394328.53048
  23597850.000   124007573.78308  23597843.400    96629317.89045
  22922156.020   120456749.50408  22922153.520    93862405.53044
  23935290.580   125780781.59907  23935286.820    98010987.22243
  23163655.720   121725819.70508  23163652.000    94851267.72044
 15 02 21 00 34 30.0000000  0  7G16G18G21G22G27G29G31
  21635526.620   113695469.59909  21635521.860    88593876.43446
  22278368.080   117073640.16809  22278364.340    91226144.21846
  21350453.100   112197400.91008  21350449.440    87426528.62147
  23579911.400   123913306.26408  23579905.900    96555862.75845
  22909888.300   120392283.18608  22909885.780    93812172.04945
  23948907.680   125852339.92407  23948904.960    98066746.91744
  23180950.580   121816705.54808  23180946.740    94922087.84443
 15 02 21 00 35  0.0000000  0  7G16G18G21G22G27G29G31
  21622340.840   113626178.80809  21622336.280    88539883.61845
  22267824.740   117018236.12409  22267821.300    91182972.23646
  21358373.120   112239021.44508  21358369.720    87458960.18247
  23561982.760   123819091.03208  23561977.760    96482448.35945
  22897636.500   120327901.35008  22897634.400    93762004.38144
  23962531.560   125923933.23507  23962529.640    98122533.83545
  23198272.660   121907735.08808  23198269.060    94993019.91244
 15 02 21 00 35 30.0000000  0  7G16G18G21G22G27G29G31
  21609210.560   113557180.30609  21609206.160    88486118.56345
  22257345.480   116963169.53809  22257342.280    91140063.21846
  21366348.840   112280934.28908  21366345.560    87491619.53548
  23544064.020   123724927.64408  23544059.300    96409074.34646
  22885400.220   120263600.80408  22885398.680    93711900.07045
  23976161.700   125995558.35407  23976160.000    98178345.54245
  23215621.060   121998902.06108  23215617.940    95064059.09544
 15 02 21 00 36  0.0000000  0  7G16G18G21G22G27G29G31
  21596136.180   113488476.00608  21596131.940    88432582.77445
  22246930.800   116908442.65808  22246927.780    91097418.91046
  21374379.820   112323136.97408  21374376.520    87524504.74447
  23526155.620   123630818.82408  23526151.160    96335742.88646
  22873179.540   120199381.33308  22873178.700    93661858.93845
  23989797.920   126067215.26107  23989796.200    98234182.04045
  23232995.280   122090203.81908  23232992.620    95135203.29444
 15 02 21 00 36 30.0000000  0  7G16G18G21G22G27G29G31
  21583119.480   113420074.68309  21583115.340    88379283.07545
  22236582.500   116854064.22608  22236579.580    91055046.11746
  21382466.880   112365634.11508  21382463.440    87557619.39347
  23508259.420   123536773.21108  23508254.980    96262460.61146
  22860975.660   120135249.47208  22860975.660    93611886.05545
  24003441.200   126138910.20107  24003439.680    98290048.15545
  23250395.820   122181643.38608  23250393.640    95206454.86345
 15 02 21 00 37  0.0000000  0  7G16G18G21G22G27G29G31
  21570160.640   113351976.11809  21570156.440    88326219.27045
  22226300.420   116800033.67508  22226297.900    91012944.41146
  21390609.220   112408421.84608  21390605.680    87590960.48947
  23490375.120   123442791.10608  23490370.980    96189227.86146
  22848788.020   120071202.55208  22848788.500    93561979.38546
  24017091.100   126210640.60807  24017089.920    98345941.91746
  23267821.540   122273215.04608  23267819.360    95277809.34644
 15 02 21 00 37 30.0000000  0  7G16G18G21G22G27G29G31
  21557259.760   113284180.69509  21557255.360    88273391.67446
  22216084.740   116746351.26508  22216082.360    90971113.98646
  21398805.900   112451495.63508  21398802.340    87624524.47847
  23472502.900   123348873.33808  23472499.240    96116045.24046
  22836616.260   120007238.78608  22836616.660    93512137.51846
  24030747.460   126282404.62007  24030746.280    98401861.83945
  23285271.480   122364914.26908  23285269.320    95349263.24745
 15 02 21 00 38  0.0000000  0  7G16G18G21G22G27G29G31
  21544417.040   113216690.23809  21544412.320    88220801.71846
  22205935.960   116693019.04808  22205933.580    90929556.41846
  21407056.620   112494854.32008  21407053.240    87658310.47747
  23454643.380   123255021.81208  23454640.140    96042914.23046
  22824460.320   119943357.92908  22824460.620    93462360.25946
  24044410.200   126354201.93407  24044408.560    98457807.76945
  23302745.000   122456737.72408  23302742.800    95420813.94644
 15 02 21 00 38 30.0000000  0  7G16G18G21G22G27G29G31
  21531633.320   113149509.79109  21531628.140    88168453.30946
  22195854.760   116640041.96608  22195852.720    90888275.58946
  21415361.500   112538498.09408  21415358.200    87692318.60647
  23436797.580   123161242.66408  23436794.820    95969839.64747
  22812320.600   119879562.79108  22812320.880    93412649.78146
  24058079.960   126426035.25507  24058078.000    98513781.73844
  23320241.920   122548684.91708  23320239.640    95492461.04844
 15 02 21 00 39  0.0000000  0  7G16G18G21G22G27G29G31
  21518907.860   113082635.89109  21518902.200    88116343.78546
  22185840.380   116587416.16408  22185838.780    90847268.48846
  21423719.300   112582420.21108  21423715.980    87726543.65147
  23418965.060   123067532.35708  23418962.560    95896818.68646
  22800196.040   119815847.45208  22800196.140    93363001.49146
  24071755.820   126497899.34408  24071753.400    98569779.69344
  23337760.600   122640747.07208  23337758.320    95564197.74144
 15 02 21 00 39 30.0000000  0  7G16G18G21G22G27G29G31
  21506242.380   113016077.84609  21506236.340    88064480.35246
  22175894.620   116535150.77708  22175893.200    90806542.22046
  21432131.080   112626625.55408  21432127.720    87760989.38347
  23401147.300   122973900.32408  23401144.860    95823858.70546
  22788087.960   119752219.20408  22788088.180    93313421.01746
  24085438.760   126569800.80507  24085435.740    98625806.77244
  23355302.060   122732928.62808  23355299.780    95636027.46844
 15 02 21 00 40  0.0000000  0  7G16G18G21G22G27G29G31
  21493637.140   112949837.29109  21493631.060    88012864.34046
  22166017.960   116483247.42209  22166016.440    90766098.06246
  21440596.500   112671112.10608  21440592.980    87795654.23747
  23383344.960   122880349.09008  23383342.380    95750961.68446
  22775996.300   119688677.48508  22775996.680    93263908.00246
  24099128.500   126641739.17407  24099124.100    98681862.61043
  23372865.680   122825225.88808  23372863.100    95707947.37644
 15 02 21 00 40 30.0000000  0  7G16G18G21G22G27G29G31
  21481091.940   112883912.62609  21481086.020    87961494.47846
  22156209.860   116431703.64909  22156208.100    90725934.10346
  21449114.440   112715873.61808  21449110.620    87830533.36647
  23365558.000   122786877.36608  23365554.940    95678126.59845
  22763920.300   119625218.29908  22763920.680    93214459.30046
  24112824.380   126713710.95208  24112818.720    98737944.52543
  23390450.000   122917631.55908  23390447.080    95779951.78044
 15 02 21 00 41  0.0000000  0  7G16G18G21G22G27G29G31
  21468607.820   112818309.59109  21468602.320    87910375.21346
  22146471.480   116380526.26409  22146469.400    90686055.63446
  21457685.300   112760912.46508  21457681.160    87865628.57547
  23347787.400   122693491.52908  23347783.520    95605358.42145
  22751860.760   119561845.53308  22751860.980    93165077.93245
  24126527.200   126785719.73908  24126521.540    98794055.22743
  23408055.100   123010146.58408  23408052.300    95852041.35945
 15 02 21 00 41 30.0000000  0  7G16G18G21G22G27G29G31
  21456185.340   112753031.43809  21456180.560    87859509.15546
  22136803.320   116329717.24409  22136800.660    90646464.20046
  21466308.620   112806226.67208  21466304.260    87900938.34747
  23330033.660   122600194.53008  23330029.060    95532659.45745
  22739817.780   119498559.71108  22739817.640    93115764.31146
  24140236.860   126857765.79407  24140231.180    98850195.00843
  23425680.380   123102768.39508  23425678.020    95924214.12746
 15 02 21 00 42  0.0000000  0  7G16G18G21G22G27G29G31
  21443824.320   112688077.46808  21443820.440    87808895.69846
  22127205.120   116279276.10109  22127201.860    90607159.43346
  21474983.540   112851812.35008  21474979.020    87936459.65247
  23312296.740   122506986.43908  23312292.260    95460029.80045
  22727790.860   119435358.10908  22727790.320    93066516.33445
  24153953.020   126929846.67508  24153947.640    98906361.94242
  23443324.920   123195491.59908  23443323.040    95996465.91946
 15 02 21 00 42 30.0000000  0  7G16G18G21G22G27G29G31
  21431525.280   112623449.19208  21431522.060    87758536.03746
  22117677.080   116229204.84009  22117673.400    90568142.87546
  21483709.800   112897667.84208  21483705.100    87972191.19247
  23294577.080   122413869.66508  23294573.340    95387471.31646
  22715779.980   119372240.71308  22715779.000    93017333.94346
  24167675.760   127001962.33307  24167672.060    98962555.97444
  23460988.160   123288312.69608  23460986.660    96068793.95846
 15 02 21 00 43  0.0000000  0  7G16G18G21G22G27G29G31
  21419289.380   112559151.32909  21419286.400    87708433.79845
  22108219.880   116179506.81909  22108216.040    90529417.14846
  21492487.220   112943792.67008  21492482.400    88008132.59947
  23276875.700   122320848.83408  23276872.680    95314987.60746
  22703785.560   119309209.35608  22703784.160    92968218.61646
  24181405.380   127074114.12307  24181403.500    99018778.10545
  23478669.940   123381230.52509  23478668.760    96141197.38646
 15 02 21 00 43 30.0000000  0  7G16G18G21G22G27G29G31
  21407116.980   112495185.91308  21407113.960    87658590.62946
  22098833.880   116130184.20709  22098830.240    90490983.96146
  21501315.460   112990184.72508  21501310.660    88044282.24147
  23259193.200   122227926.32808  23259190.360    95242580.51646
  22691807.600   119246263.97108  22691805.980    92919170.26046
  24195141.900   127146302.66606  24195141.320    99075028.83445
  23496369.680   123474241.97009  23496368.680    96213673.77346
 15 02 21 00 44  0.0000000  0  7G16G18G21G22G27G29G31
  21395008.100   112431553.43209  21395004.920    87609006.89246
  22089519.380   116081237.31409  22089515.900    90452843.53146
  21510193.820   113036840.95108  21510189.240    88080637.74247
  23241529.720   122135103.31008  23241526.740    95170250.94746
  22679845.660   119183402.86908  22679844.000    92870187.58946
  24208885.040   127218525.78407  24208885.320    99131306.51145
  23514086.480   123567342.40409  23514085.420    96286219.49646
 15 02 21 00 44 30.0000000  0  7G16G18G21G22G27G29G31
  21382962.740   112368254.21009  21382959.280    87559682.81946
  22080276.440   116032666.53509  22080273.200    90414996.18246
  21519121.560   113083757.83108  21519117.580    88117196.34447
  23223885.420   122042380.66908  23223882.100    95097999.58146
  22667899.380   119120624.50508  22667898.020    92821269.40046
  24222634.940   127290782.28807  24222635.460    99187610.22244
  23531819.300   123660527.13408  23531818.080    96358830.90646
 15 02 21 00 45  0.0000000  0  7G16G18G21G22G27G29G31
  21370981.600   112305291.65609  21370977.780    87510621.09546
  22071105.560   115984474.61208  22071102.660    90377444.04546
  21528098.540   113130934.46008  21528095.300    88153957.34947
  23206260.880   121949761.85908  23206256.980    95025829.13346
  22655968.940   119057929.82908  22655967.920    92772416.42346
  24236391.780   127363072.69507  24236391.960    99243940.39344
  23549567.680   123753793.96608  23549566.400    96431506.27446
 15 02 21 00 45 30.0000000  0  7G16G18G21G22G27G29G31
  21359065.500   112242670.20809  21359061.260    87461825.13846
  22062007.540   115936665.63108  22062005.040    90340190.31946
  21537124.820   113178370.87408  21537122.440    88190920.78147
  23188656.860   121857251.71808  23188652.240    94953743.34045
  22644054.820   118995321.19808  22644054.200    92723630.49246
  24250155.700   127435399.55806  24250155.200    99300298.93744
  23567331.340   123847142.32408  23567330.060    96504245.16245
 15 02 21 00 46  0.0000000  0  7G16G18G21G22G27G29G31
  21347215.200   112180394.07009  21347210.560    87413298.26347
  22052983.120   115889243.51308  22052980.900    90303238.04346
  21546200.740   113226067.79408  21546199.140    88228087.21247
  23171074.180   121764855.32708  23171068.820    94881746.18944
  22632157.520   118932800.79508  22632157.240    92674913.30446
  24263926.640   127507764.91506  24263925.640    99356687.47545
  23585110.200   123940571.37408  23585108.980    96577046.90944
 15 02 21 00 46 30.0000000  0  7G16G18G21G22G27G29G31
  21335430.900   112118464.54909  21335426.040    87365041.48547
  22044032.680   115842209.62208  22044030.620    90266588.27646
  21555325.780   113274022.11008  21555324.740    88265454.21147
  23153513.400   121672574.16408  23153507.220    94809838.78944
  22620276.820   118870367.73709  22620276.900    92626264.20846
  24277704.560   127580168.02107  24277702.820    99413105.44744
  23602903.640   124034077.12908  23602902.280    96649908.46044
 15 02 21 00 47  0.0000000  0  7G16G18G21G22G27G29G31
  21323712.640   112056882.31509  21323707.760    87317055.32947
  22035156.220   115795563.75909  22035154.060    90230240.87346
  21564499.440   113322230.91008  21564498.680    88303019.50648
  23135974.800   121580409.33108  23135968.260    94738022.04544
  22608412.420   118808020.42708  22608412.960    92577681.90346
  24291489.360   127652606.92507  24291486.960    99469551.31843
  23620710.880   124127654.68108  23620709.240    96722825.98044
 15 02 21 00 47 30.0000000  0  7G16G18G21G22G27G29G31
  21312060.520   111995648.07409  21312055.700    87269340.33948
  22026353.940   115749306.61409  22026351.180    90194196.34746
  21573721.100   113370690.58708  21573720.340    88340780.28747
  23118458.840   121488362.03308  23118452.700    94666296.87745
  22596564.180   118745757.53709  22596564.960    92529165.38246
  24305280.800   127725080.74807  24305278.080    99526024.39243
  23638531.100   124221299.81208  23638528.820    96795796.18943
 15 02 21 00 48  0.0000000  0  7G16G18G21G22G27G29G31
  21300476.380   111934771.66009  21300471.620    87221904.16548
  22017627.600   115703447.75609  22017624.260    90158462.18446
  21582991.700   113419406.82308  21582990.660    88378740.98447
  23100967.360   121396442.66808  23100961.960    94594671.41945
  22584733.660   118683586.94909  22584734.320    92480720.76846
  24319079.800   127797597.08705                                
  23656365.140   124315017.30008  23656362.260    96868822.75843
 15 02 21 00 48 30.0000000  0  7G16G18G21G22G27G29G31
  21288967.700   111874292.52309  21288962.960    87174777.57248
  22008984.540   115658026.34309  22008980.740    90123068.86346
  21592317.900   113468414.87408  21592316.400    88416929.05347
  23083507.740   121304691.01508  23083503.060    94523176.65145
  22572927.880   118621545.88009  22572928.300    92432377.09246
  24332893.400   127870193.05805                                
  23674219.500   124408841.26508  23674216.200    96941932.31744
 15 02 21 00 49  0.0000000  0  7G16G18G21G22G27G29G31
  21277517.320   111814120.70909  21277512.680    87127890.45248
  22000407.560   115612951.90709  22000403.460    90087945.93846
  21601682.020   113517621.73308  21601679.780    88455272.04947
  23066062.840   121213017.77808  23066058.760    94451743.01345
  22561129.260   118559542.33609  22561129.540    92384062.65147
  24346705.080   127942776.55406                                
  23692076.020   124502676.59808  23692072.800    97015050.69244
 15 02 21 00 49 30.0000000  0  7G16G18G21G22G27G29G31
  21266149.920   111754385.62809  21266145.460    87081343.65648
  21991921.060   115568353.64309  21991916.940    90053194.05846
  21611107.740   113567152.19808  21611104.720    88493867.22047
  23048657.340   121121552.79608  23048653.940    94380471.65946
  22549361.960   118497703.67809  22549362.100    92335876.71447
  24360539.040   128015474.93805  24360550.980    99752405.94543
  23709958.220   124596647.65708  23709955.300    97088274.80044
 15 02 21 00 50  0.0000000  0  7G16G18G21G22G27G29G31
  21254820.480   111694850.92109  21254816.360    87034952.98147
  21983479.840   115523994.64809  21983475.980    90018628.60847
  21620549.360   113616766.01308  21620545.460    88532527.32147
  23031246.340   121030060.01608  23031243.400    94309178.64045
  22537580.540   118435791.34109  22537580.560    92287633.33247
  24374349.180   128088049.78404  24374358.680    99808927.70944
  23727819.920   124690512.64107  23727817.700    97161416.21744
 15 02 21 00 50 30.0000000  0  7G16G18G21G22G27G29G31
  21243583.880   111635804.66009  21243580.160    86988942.93048
  21975138.740   115480162.58909  21975135.400    89984473.78347
  21630060.840   113666747.06008  21630056.140    88571473.60346
  23013885.180   120938827.86608  23013882.300    94238088.68546
  22525839.420   118374091.22309  22525839.440    92239555.33747
  24388190.200   128160786.87705  24388196.860    99865605.83844
  23745715.160   124784554.54607  23745713.660    97234695.54244
 15 02 21 00 51  0.0000000  0  7G16G18G21G22G27G29G31
  21232406.660   111577070.28409  21232403.280    86943175.89748
  21966864.200   115436680.63709  21966861.360    89950591.76547
  21639607.760   113716914.67109  21639602.380    88610565.27146
  22996540.460   120847680.38708  22996537.240    94167064.70046
  22514104.640   118312424.69809  22514104.580    92191503.52247
  24402028.820   128233507.18706  24402033.260    99922270.98245
  23763609.480   124878591.67407  23763608.900    97307971.10144
 15 02 21 00 51 30.0000000  0  7G16G18G21G22G27G29G31
  21221299.520   111518703.87209  21221296.380    86897695.59147
  21958666.940   115393604.48609  21958664.380    89917025.94947
  21649200.100   113767321.53309  21649194.140    88649843.36446
  22979222.900   120756674.39709  22979219.100    94096150.96746
  22502386.540   118250846.09309  22502386.380    92143520.23047
  24415874.980   128306265.18706  24415877.560    99978965.51844
  23781512.800   124972675.27008  23781512.860    97381282.92044
 15 02 21 00 52  0.0000000  0  7G16G18G21G22G27G29G31
  21210264.580   111460716.68609  21210261.640    86852510.78047
