     2.11           OBSERVATION DATA    G                   RINEX VERSION / TYPE
SPIDER V4,0,0,3554                      2015 03 21 00:31    PGM / RUN BY / DATE 
CNGR                                                        MARKER NAME         
CNGR                                                        MARKER NUMBER       
                                                            OBSERVER / AGENCY   
496521              LEICA GRX1200+GNSS  8.10/4.007          REC # / TYPE / VERS 
10321004            LEIAR25         NONE                    ANT # / TYPE        
  5218738.7445   688113.1521  3590185.5476                  APPROX POSITION XYZ 
        0.0720        0.0000        0.0000                  ANTENNA: DELTA H/E/N
     1     1                                                WAVELENGTH FACT L1/2
     4    C1    L1    P2    L2                              # / TYPES OF OBSERV 
    30.000                                                  INTERVAL            
  2015    02    21    00    00    0.0000000     GPS         TIME OF FIRST OBS   
  2015    02    21    23    59   30.0000000     GPS         TIME OF LAST OBS    
    16                                                      LEAP SECONDS        
    30                                                      # OF SATELLITES     
   G 1   815   815   815   815                              PRN / # OF OBS      
   G 2   944   944   944   944                              PRN / # OF OBS      
   G 3   860   860   860   860                              PRN / # OF OBS      
   G 4   844   844   843   843                              PRN / # OF OBS      
   G 5   631   631   631   631                              PRN / # OF OBS      
   G 6   801   801   801   801                              PRN / # OF OBS      
   G 7   677   677   677   677                              PRN / # OF OBS      
   G 9   818   818   818   818                              PRN / # OF OBS      
   G10   737   737   737   737                              PRN / # OF OBS      
   G11   776   775   775   775                              PRN / # OF OBS      
   G12   841   841   841   841                              PRN / # OF OBS      
   G13   772   772   772   772                              PRN / # OF OBS      
   G14   943   943   942   942                              PRN / # OF OBS      
   G15   673   673   673   673                              PRN / # OF OBS      
   G16   667   667   667   667                              PRN / # OF OBS      
   G17   939   939   939   939                              PRN / # OF OBS      
   G18   903   903   903   903                              PRN / # OF OBS      
   G19   752   752   752   752                              PRN / # OF OBS      
   G20   765   765   765   765                              PRN / # OF OBS      
   G21   747   747   747   747                              PRN / # OF OBS      
   G22   661   660   661   660                              PRN / # OF OBS      
   G23   762   761   761   761                              PRN / # OF OBS      
   G24   828   828   827   827                              PRN / # OF OBS      
   G25   868   868   868   868                              PRN / # OF OBS      
   G27   808   808   808   808                              PRN / # OF OBS      
   G28   837   835   834   834                              PRN / # OF OBS      
   G29   766   766   766   766                              PRN / # OF OBS      
   G30   724   724   724   724                              PRN / # OF OBS      
   G31   863   863   863   863                              PRN / # OF OBS      
   G32   778   777   777   777                              PRN / # OF OBS      
BIT 2 OF LLI FLAGS DATA COLLECTED UNDER A/S CONDITION       COMMENT             
SNR is mapped to RINEX snr flag value [2-9]                 COMMENT             
Lx:     = 25dBHz -> 1; 26-27dBHz -> 2; 28-31dBHz -> 3       COMMENT             
       32-35dBHz -> 4; 36-38dBHz -> 5; 39-41dBHz -> 6       COMMENT             
       42-44dBHz -> 7; 45-48dBHz -> 8; >=49dBHz -> 9        COMMENT             
                                                            END OF HEADER       
 15 02 21 00 00  0.0000000  0  7G16G18G21G25G27G29G31
  22723278.960   119411645.46509  22723275.480    93048027.51247
  23068557.380   121226128.84509  23068554.640    94461925.11446
  20946497.380   110074588.36409  20946493.300    85772392.17348
  23730233.680   124703205.52508  23730233.580    97171327.06246
  23868127.820   125427867.26408  23868128.080    97735998.05046
  22979748.280   120759385.48109  22979746.820    94098209.47847
  22092642.500   116097613.64209  22092639.320    90465656.76848
 15 02 21 00 00 30.0000000  0  7G16G18G21G25G27G29G31
  22707084.520   119326543.40009  22707080.960    92981714.21947
  23054680.600   121153205.61909  23054677.860    94405101.84546
  20949858.280   110092250.31708  20949854.260    85786154.73648
  23747840.500   124795729.19708  23747840.320    97243423.38946
  23854798.100   125357819.41808  23854798.360    97681415.34146
  22992672.300   120827300.77309  22992670.200    94151130.48947
  22106615.380   116171041.21709  22106612.100    90522873.03648
 15 02 21 00 01  0.0000000  0  7G16G18G21G25G27G29G31
  22690916.740   119241581.22209  22690913.200    92915509.92247
  23040836.740   121080455.73808  23040834.120    94348413.64146
  20953294.480   110110308.11408  20953290.560    85800225.74948
  23765487.560   124888464.59308  23765487.260    97315684.71046
  23841483.680   125287851.82108  23841483.980    97626895.16846
  23005604.180   120895257.57808  23005602.000    94204083.79747
  22120652.980   116244809.04009  22120649.660    90580354.43048
 15 02 21 00 01 30.0000000  0  7G16G18G21G25G27G29G31
  22674775.660   119156759.47109  22674772.180    92849415.05946
  23027026.140   121007880.98108  23027023.760    94291861.91946
  20956805.500   110128759.07409  20956801.680    85814603.12048
  23783174.540   124981409.08908  23783173.940    97388108.98646
  23828184.240   125217962.98908  23828184.500    97572436.37946
  23018543.600   120963254.14009  23018541.440    94257068.11047
  22134754.480   116318912.97809  22134751.180    90638097.74248
 15 02 21 00 02  0.0000000  0  7G16G18G21G25G27G29G31
  22658662.300   119072083.55309  22658658.900    92783433.83947
  23013249.980   120935486.83509  23013247.740    94235450.92546
  20960391.700   110147605.09008  20960387.980    85829288.33348
  23800901.660   125074564.52708  23800901.120    97460697.59646
  23814900.300   125148155.83608  23814900.560    97518041.22446
  23031490.880   121031293.31509  23031488.780    94310085.60847
  22148919.980   116393353.41909  22148916.780    90696103.26248
 15 02 21 00 02 30.0000000  0  7G16G18G21G25G27G29G31
  22642576.420   118987551.90309  22642573.120    92717565.04447
  22999508.040   120863272.43708  22999505.700    94179179.98446
  20964052.100   110166841.02608  20964048.440    85844277.37748
  23818667.800   125167926.25408  23818667.500    97533446.96646
  23801631.220   125078426.81308  23801631.560    97463706.93046
  23044445.660   121099371.60609  23044443.380    94363133.61547
  22163148.280   116468123.91109  22163145.200    90754365.95748
 15 02 21 00 03  0.0000000  0  7G16G18G21G25G27G29G31
  22626519.060   118903169.82009  22626515.860    92651812.78147
  22985801.520   120791243.85508  22985799.000    94123053.84646
  20967787.240   110186469.55908  20967783.600    85859572.33948
  23836473.600   125261496.48608  23836473.260    97606358.79946
  23788377.720   125008779.28408  23788378.080    97409436.15947
  23057408.400   121167492.11108  23057406.240    94416214.47247
  22177439.580   116543225.44409  22177436.640    90812886.62148
 15 02 21 00 03 30.0000000  0  7G16G18G21G25G27G29G31
  22610490.160   118818937.48809  22610486.880    92586177.21847
  22972130.480   120719402.06809  22972127.940    94067073.25646
  20971596.440   110206487.18708  20971592.740    85875170.48948
  23854318.300   125355271.93908  23854318.280    97679430.53046
  23775139.360   124939211.12008  23775139.660    97355227.23746
  23070378.940   121235652.50108  23070376.600    94469326.46747
  22191793.000   116618653.33009  22191790.140    90871661.57348
 15 02 21 00 04  0.0000000  0  7G16G18G21G25G27G29G31
  22594489.440   118734853.12609  22594486.160    92520656.94647
  22958494.720   120647745.73408  22958491.880    94011237.16346
  20975478.680   110226888.71908  20975474.980    85891067.78348
  23872201.180   125449247.50808  23872201.380    97752658.21546
  23761915.320   124869718.33908  23761915.480    97301077.04747
  23083356.660   121303848.97009  23083354.200    94522466.56647
  22206207.300   116694400.94909  22206204.480    90930685.65848
 15 02 21 00 04 30.0000000  0  7G16G18G21G25G27G29G31
  22578518.940   118650927.40609  22578515.640    92455260.29447
  22944896.320   120576285.66709  22944893.380    93955554.01346
  20979435.400   110247681.36008  20979431.680    85907269.84348
  23890123.520   125543430.37408  23890123.740    97826047.44546
  23748707.180   124800309.23908  23748707.360    97246992.08547
  23096342.700   121372090.02209  23096340.140    94575641.35347
  22220683.520   116770473.77709  22220680.700    90989963.16748
 15 02 21 00 05  0.0000000  0  7G16G18G21G25G27G29G31
  22562577.640   118567155.22209  22562574.260    92389983.27147
  22931334.440   120505017.58809  22931331.320    93900020.46446
  20983464.920   110268856.43609  20983461.180    85923769.90848
  23908083.680   125637812.15908  23908084.040    97899591.63846
  23735513.540   124730976.61308  23735513.760    97192966.69147
  23109335.620   121440367.92309  23109332.960    94628844.86747
  22235219.780   116846861.90009  22235216.920    91049486.37448
 15 02 21 00 05 30.0000000  0  7G16G18G21G25G27G29G31
  22546666.740   118483542.94909  22546663.280    92324830.86947
  22917810.480   120433948.91708  22917807.440    93844642.30546
  20987567.880   110290417.28209  20987564.060    85940570.56748
  23926082.380   125732396.23908  23926082.840    97973293.50046
  23722335.340   124661725.03908  23722335.560    97139004.45447
  23122336.500   121508687.35109  23122333.580    94682080.77947
  22249816.420   116923567.24609  22249813.480    91109256.75148
 15 02 21 00 06  0.0000000  0  7G16G18G21G25G27G29G31
  22530785.780   118400088.23609  22530782.340    92259801.22847
  22904323.980   120363077.63809  22904321.160    93789417.95646
  20991743.200   110312358.16409  20991739.240    85957667.35248
  23944118.380   125827176.66308  23944119.080    98047148.33145
  23709171.740   124592549.77808  23709171.920    97085101.68047
  23135344.340   121577043.54709  23135341.520    94735345.30847
  22264472.000   117000582.43409  22264468.980    91169268.56348
 15 02 21 00 06 30.0000000  0  8G16G18G21G22G25G27G29G31
  22514936.040   118316797.40809  22514932.640    92194899.30347
  22890876.280   120292409.98908  22890873.500    93734352.26246
  20995991.240   110334681.27309  20995987.160    85975061.98148
  24539815.400   128957597.79908  24539812.060   100486425.57545
  23962192.280   125922156.21308  23962193.040    98121158.34745
  23696023.440   124523454.66608  23696023.540    97031261.37047
  23148359.860   121645440.39009  23148357.160    94788641.49847
  22279186.720   117077908.42109  22279183.660    91229522.55848
 15 02 21 00 07  0.0000000  0  8G16G18G21G22G25G27G29G31
  22499116.240   118233663.97409  22499112.820    92130120.02047
  22877466.240   120221940.57309  22877463.780    93679441.06346
  21000310.100   110357376.60709  21000305.900    85992746.66348
  24522006.800   128864015.67108  24522004.280   100413504.87045
  23980302.160   126017325.11808  23980303.140    98195315.88945
  23682888.760   124454431.27608  23682888.760    96977476.94247
  23161381.520   121713869.21809  23161378.980    94841962.64247
  22293958.520   117155534.39709  22293955.400    91290010.30548
 15 02 21 00 07 30.0000000  0  8G16G18G21G22G25G27G29G31
  22483329.900   118150706.22109  22483326.540    92065477.63447
  22864097.480   120151688.06908  22864095.300    93624698.86746
  21004702.680   110380459.53209  21004698.400    86010733.35548
  24504184.080   128770358.91208  24504182.000   100340526.00045
  23998450.940   126112698.17408  23998452.060    98269632.52546
  23669770.680   124385495.47908  23669770.700    96923760.77647
  23174412.120   121782345.69309  23174409.180    94895320.91647
  22308789.860   117233473.49409  22308786.740    91350742.04648
 15 02 21 00 08  0.0000000  0  8G16G18G21G22G25G27G29G31
  22467574.700   118067911.76609  22467571.300    92000962.49047
  22850767.740   120081640.75808  22850765.620    93570116.57746
  21009165.840   110403913.57509  21009161.580    86029009.23748
  24486344.900   128676615.45408  24486342.980   100267479.52445
  24016635.680   126208259.72208  24016636.720    98344096.06146
  23656666.480   124316632.84508  23656666.600    96870101.61447
  23187449.160   121850855.85909  23187446.640    94948705.40447
  22323677.500   117311708.35209  22323674.360    91411704.25548
 15 02 21 00 08 30.0000000  0  8G16G18G21G22G25G27G29G31
  22451852.340   117985290.11709  22451848.900    91936582.00547
  22837479.040   120011808.49109  22837476.720    93515701.83646
  21013700.680   110427744.79308  21013696.500    86047579.02148
  24468491.040   128582794.91208  24468489.260   100194372.99345
  24034857.360   126304015.58608  24034858.460    98418710.96445
  23643577.580   124247850.47908  23643577.800    96816505.00647
  23200493.860   121919406.49908  23200491.320    95002121.49147
  22338622.280   117390243.47709  22338619.140    91472900.43448
 15 02 21 00 09  0.0000000  0  8G16G18G21G22G25G27G29G31
  22436162.960   117902841.80009  22436159.440    91872336.57247
  22824231.660   119942192.39909  22824229.360    93461455.55546
  21018306.800   110451950.74208  21018302.760    86066440.79248
  24450622.780   128488898.35108  24450621.180   100121207.19545
  24053115.620   126399963.18208  24053116.820    98493475.29645
  23630503.720   124179147.00208  23630503.980    96762969.85347
  23213546.180   121987996.06009  23213543.440    95055567.88847
  22353623.420   117469075.02109  22353620.300    91534327.59048
 15 02 21 00 09 30.0000000  0  8G16G18G21G22G25G27G29G31
  22420506.840   117820568.17409  22420503.200    91808227.24947
  22811025.780   119872794.11109  22811023.300    93407378.98446
  21022983.660   110476528.63808  21022979.820    86085592.40148
  24432740.380   128394927.43908  24432739.040   100047983.46245
  24071409.980   126496100.03908  24071411.120    98568387.10845
  23617444.600   124110521.15808  23617444.880    96709495.21647
  23226605.560   122056623.46809  23226603.320    95109043.70847
  22368680.120   117548198.64509  22368677.040    91595982.33448
 15 02 21 00 10  0.0000000  0  8G16G18G21G22G25G27G29G31
  22404883.920   117738469.22809  22404880.240    91744254.06647
  22797861.420   119803613.90509  22797858.580    93353472.34646
  21027730.680   110501474.98509  21027726.920    86105031.11748
  24414843.980   128300882.44408  24414842.580    99974701.97845
  24089739.760   126592422.90508  24089740.980    98643443.85246
  23604399.880   124041970.95108  23604400.060    96656079.49247
  23239671.800   122125286.93009  23239669.280    95162547.71147
  22383791.520   117627609.68009  22383788.480    91657861.03748
 15 02 21 00 10 30.0000000  0  8G16G18G21G22G25G27G29G31
  22389295.380   117656551.13609  22389291.720    91680421.79747
  22784739.800   119734658.70409  22784736.900    93299741.04146
  21032548.400   110526792.57608  21032544.680    86124759.11248
  24396934.780   128206769.73508  24396933.200    99901367.70645
  24108105.440   126688934.30608  24108106.680    98718647.50446
  23591370.260   123973500.22008  23591370.400    96602725.70447
  23252745.540   122193989.92108  23252743.380    95216082.45047
  22398957.880   117707309.50009  22398954.880    91719964.76348
 15 02 21 00 11  0.0000000  0  8G16G18G21G22G25G27G29G31
  22373741.420   117574814.53809  22373737.780    91616730.96447
  22771661.220   119665929.85509  22771658.360    93246186.09846
  21037436.240   110552478.47808  21037432.540    86144774.10148
  24379012.780   128112590.43508  24379011.080    99827981.54445
  24126506.460   126785631.68008  24126507.740    98793996.06345
  23578355.560   123905107.54108  23578355.680    96549432.75547
  23265826.500   122262730.98208  23265823.780    95269646.92747
  22414178.300   117787293.51309  22414175.340    91782289.95748
 15 02 21 00 11 30.0000000  0  8G16G18G21G22G25G27G29G31
  22358222.300   117493261.04909  22358218.760    91553182.80547
  22758625.980   119597429.35109  22758623.180    93192809.09446
  21042393.800   110578530.57108  21042390.140    86165074.43148
  24361078.400   128018346.31108  24361076.540    99754544.82445
  24144942.460   126882512.91808  24144943.460    98869487.91746
  23565355.560   123836792.17708  23565355.680    96496200.04647
  23278914.500   122331509.57009  23278912.100    95323240.56047
  22429452.140   117867558.14909  22429449.200    91844833.80348
 15 02 21 00 12  0.0000000  0  8G16G18G21G22G25G27G29G31
  22342738.400   117411892.70509  22342734.860    91489778.92347
  22745634.360   119529158.99909  22745631.800    93139611.44646
  21047420.760   110604946.79909  21047417.000    86185658.50448
  24343132.260   127924039.48608  24343130.220    99681059.26745
  24163413.040   126979576.38408  24163413.980    98945121.72045
  23552370.120   123768553.67408  23552370.340    96443027.21947
  23292009.700   122400325.38609  23292007.080    95376863.23847
  22444778.860   117948100.52209  22444775.900    91907594.07348
 15 02 21 00 12 30.0000000  0  8G16G18G21G22G25G27G29G31
  22327290.460   117330713.32109  22327287.020    91426522.27947
  22732687.420   119461123.74208  22732685.040    93086596.98046
  21052517.160   110631727.95709  21052513.340    86206526.94248
  24325175.100   127829674.40208  24325172.680    99607528.24345
  24181918.480   127076822.66508  24181919.160    99020898.03045
  23539399.700   123700394.00608  23539400.040    96389915.81647
  23305112.120   122469180.06708  23305109.940    95430516.19847
  22460158.240   118028919.62309  22460155.280    91970569.97648
 15 02 21 00 13  0.0000000  0  8G16G18G21G22G25G27G29G31
  22311878.200   117249721.13009  22311874.740    91363411.49547
  22719784.760   119393321.65608  22719782.540    93033764.21046
  21057681.960   110658868.38709  21057678.020    86227675.33048
  24307206.500   127735249.51208  24307204.140    99533950.68446
  24200457.600   127174246.17508  24200458.120    99096812.41345
  23526443.480   123632308.84408  23526443.880    96336862.47647
  23318221.320   122538069.43308  23318219.420    95484196.18747
  22475589.000   118110008.57809  22475585.980    92033756.14948
 15 02 21 00 13 30.0000000  0  8G16G18G21G22G25G27G29G31
  22296502.480   117168921.40009  22296499.100    91300450.69347
  22706927.800   119325759.14909  22706925.800    92981118.11646
  21062915.400   110686369.72109  21062911.320    86249104.93448
  24289227.800   127640770.73808  24289225.280    99460331.07045
  24219030.920   127271848.87608  24219031.220    99172866.46445
  23513502.100   123564301.44908  23513502.460    96283869.72847
  23331337.780   122606996.37009  23331335.840    95537905.46447
  22491071.200   118191367.85409  22491068.100    92097152.96348
 15 02 21 00 14  0.0000000  0  8G16G18G21G22G25G27G29G31
  22281163.780   117088315.93709  22281160.360    91237641.25247
  22694116.800   119258437.61309  22694114.780    92928659.80846
  21068217.040   110714229.74609  21068212.840    86270814.05248
  24271239.260   127546239.76008  24271236.280    99386670.78145
  24237637.820   127369628.38808  24237638.260    99249058.25045
  23500575.340   123496370.79608  23500575.540    96230936.78847
  23344461.340   122675960.52609  23344459.460    95591643.73747
  22506604.020   118272993.25309  22506600.840    92160757.15448
 15 02 21 00 14 30.0000000  0  8G16G18G21G22G25G27G29G31
  22265862.920   117007909.55909  22265859.520    91174986.95047
  22681352.980   119191362.96309  22681350.760    92876393.85146
  21073587.180   110742449.85409  21073582.920    86292803.74148
  24253241.660   127451661.65508  24253238.400    99312973.74345
  24256278.700   127467586.50108  24256279.000    99325389.21245
  23487663.780   123428519.94608  23487663.840    96178066.03647
  23357592.580   122744964.77509  23357590.860    95645413.22647
  22522187.580   118354885.25309  22522184.320    92224569.06447
 15 02 21 00 15  0.0000000  0  8G16G18G21G22G25G27G29G31
  22250599.020   116927697.48409  22250595.640    91112484.04047
  22668635.380   119124530.58309  22668633.020    92824316.68947
  21079024.120   110771021.41909  21079019.940    86315067.28748
  24235234.140   127357032.03708  24235230.940    99239236.58145
  24274951.960   127565714.75308  24274952.440    99401852.74845
  23474766.060   123360741.80708  23474765.960    96125251.94547
  23370730.020   122814001.87309  23370727.920    95699208.33147
  22537819.920   118437033.64709  22537816.620    92288580.77648
 15 02 21 00 15 30.0000000  0  8G16G18G21G22G25G27G29G31
  22235373.900   116847689.07509  22235370.520    91050139.84847
  22655965.840   119057950.00109  22655963.040    92772435.73847
  21084528.960   110799950.13708  21084524.880    86337609.15248
  24217218.740   127262360.73408  24217215.420    99165466.90645
  24293658.640   127664018.97008  24293659.300    99478453.40845
  23461883.520   123293043.48908  23461883.360    96072500.05247
  23383875.200   122883078.83909  23383872.840    95753034.52747
  22553501.920   118519443.11009  22553498.620    92352795.92048
 15 02 21 00 16  0.0000000  0  8G16G18G21G22G25G27G29G31
  22220187.480   116767884.23509  22220184.080    90987954.26947
  22643344.200   118991621.42109  22643341.060    92720751.13947
  21090101.000   110829232.19108  21090097.100    86360426.33048
  24199195.300   127167647.62408  24199191.640    99091664.64345
  24312398.000   127762495.14508  24312398.980    99555188.05146
  23449015.620   123225422.43908  23449015.440    96019808.35647
  23397027.320   122952193.15209  23397025.020    95806889.79147
  22569232.600   118602108.19709  22569229.320    92417210.24147
 15 02 21 00 16 30.0000000  0  8G16G18G21G22G25G27G29G31
  22205040.460   116688286.20209  22205036.960    90925929.83047
  22630771.120   118925548.20009  22630767.720    92669265.52046
  21095740.220   110858867.20708  21095736.440    86383518.54448
  24181164.620   127072896.29408  24181160.800    99017832.59145
  24331170.000   127861142.82308  24331171.320    99632056.33345
  23436162.580   123157879.46808  23436162.400    95967177.50047
  23410186.700   123021345.80608  23410184.420    95860774.94847
  22585011.540   118685026.75809  22585008.260    92481822.08247
 15 02 21 00 17  0.0000000  0  8G16G18G21G22G25G27G29G31
  22189932.580   116608893.85709  22189928.980    90864065.68147
  22618246.400   118859729.80009  22618242.780    92617978.46746
  21101445.680   110888849.90908  21101441.900    86406881.69148
  24163126.380   126978105.98008  24163122.580    98943970.15446
  24349973.660   127959957.49808  24349975.260    99709054.70845
  23423323.820   123090411.42108  23423323.640    95914605.02447
  23423352.820   123090533.76808  23423350.740    95914687.61547
  22600837.560   118768192.91509  22600834.280    92546626.85547
 15 02 21 00 17 30.0000000  0  8G16G18G21G22G25G27G29G31
  22174864.760   116529711.72909  22174860.980    90802365.32347
  22605771.000   118794171.23309  22605767.580    92566893.89047
  21107217.560   110919181.47909  21107213.760    86430516.68148
  24145081.740   126883281.86108  24145077.900    98870081.38045
  24368809.380   128058940.08308  24368811.160    99786183.96345
  23410499.780   123023020.66708  23410499.580    95862092.77947
  23436525.840   123159759.37809  23436523.880    95968629.60347
  22616710.600   118851606.18509  22616707.340    92611624.18648
 15 02 21 00 18  0.0000000  0  8G16G18G21G22G25G27G29G31
  22159837.500   116450742.82409  22159833.700    90740831.12647
  22593345.580   118728875.66209  22593342.340    92516014.24147
  21113055.660   110949860.92009  21113051.840    86454422.74148
  24127031.160   126788426.88608  24127027.560    98796168.55245
  24387676.980   128158089.76108  24387678.680    99863443.42045
  23397690.520   122955707.66708  23397690.240    95809641.11647
  23449705.960   123229022.91308  23449704.600    96022601.16147
  22632630.180   118935264.12709  22632626.980    92676812.15847
 15 02 21 00 18 30.0000000  0  8G16G18G21G22G25G27G29G31
  22144850.200   116371983.96009  22144846.420    90679460.59047
  22580969.640   118663840.23109  22580966.660    92465337.30046
  21118958.600   110980881.03209  21118954.760    86478594.26048
  24108974.280   126693538.43208  24108970.640    98722229.62945
  24406575.240   128257399.78408  24406576.560    99940827.81745
  23384895.000   122888467.13908  23384894.640    95757245.92047
  23462892.480   123298319.56808  23462890.760    96076598.57046
  22648594.780   119019158.65309  22648591.680    92742184.49747
 15 02 21 00 19  0.0000000  0  8G16G18G21G22G25G27G29G31
  22129904.620   116293444.17809  22129900.820    90618260.76747
  22568644.820   118599073.64009  22568641.960    92414869.84547
  21124927.440   111012247.46408  21124923.660    86503035.64048
  24090912.820   126598625.54408  24090909.040    98648271.66846
  24425504.960   128356875.13008  24425506.200   100018341.01645
  23372114.500   122821305.47408  23372114.160    95704912.17747
  23476086.500   123367655.43109  23476085.140    96130626.46247
  22664605.040   119103293.13209  22664602.020    92807743.80748
 15 02 21 00 19 30.0000000  0  8G16G18G21G22G25G27G29G31
  22115000.800   116215124.18809  22114997.080    90557232.21647
  22556371.580   118534577.85709  22556368.800    92364613.40747
  21130961.620   111043957.04409  21130957.840    86527744.39648
  24072847.000   126503689.34008  24072843.260    98574295.51546
  24444465.520   128456513.23808  24444466.620   100095981.06845
  23359348.760   122754221.46708  23359348.580    95652638.95247
  23489287.880   123437029.29608  23489286.520    96184683.98247
  22680660.200   119187663.43909  22680657.200    92873486.87647
 15 02 21 00 20  0.0000000  0  8G16G18G21G22G25G27G29G31
  22100138.400   116137021.95109  22100134.780    90496373.34047
  22544149.560   118470350.81109  22544146.760    92314566.37447
  21137060.000   111076003.92709  21137056.180    86552715.99748
  24054776.560   126408728.30808  24054772.760    98500300.04145
  24463455.900   128556308.29108  24463456.880   100173743.43245
  23346597.020   122687210.75008  23346596.980    95600422.84747
  23502495.860   123506436.93408  23502494.500    96238767.83047
  22696758.880   119272262.47309  22696755.940    92939408.18147
 15 02 21 00 20 30.0000000  0  8G16G18G21G22G25G27G29G31
  22085319.200   116059147.00309  22085315.780    90435691.56847
  22531980.600   118406402.22109  22531977.680    92264736.31547
  21143223.620   111108393.50309  21143219.760    86577954.61348
  24036703.080   126313752.17908  24036699.280    98426292.78946
  24482477.000   128656265.89908  24482478.240   100251632.39845
  23333860.480   122620280.34808  23333860.680    95548269.33247
  23515711.540   123575885.22608  23515710.280    96292883.33347
  22712901.880   119357094.39509  22712898.960    93005510.93547
 15 02 21 00 21  0.0000000  0  8G16G18G21G22G25G27G29G31
  22070542.580   115981495.83509  22070539.320    90375184.18047
  22519863.980   118342728.65909  22519861.080    92215120.57747
  21149451.000   111141118.39109  21149447.140    86603454.53648
  24018626.180   126218757.64108  24018622.400    98352271.19646
  24501527.640   128756378.77108  24501528.940   100329642.42345
  23321138.140   122553424.48408  23321138.460    95496173.88647
  23528933.820   123645368.24308  23528932.800    96347025.86647
  22729087.560   119442150.57609  22729084.660    93071788.45947
 15 02 21 00 21 30.0000000  0  8G16G18G21G22G25G27G29G31
  22055809.800   115904074.57709  22055806.600    90314855.94647
  22507800.900   118279336.40909  22507798.020    92165724.03546
  21155742.700   111174181.15309  21155738.780    86629217.73848
  24000546.880   126123751.07708  24000543.160    98278240.24845
  24520608.240   128856649.54808  24520609.840   100407775.42345
  23308430.740   122486647.09808  23308431.080    95444139.60747
  23542163.500   123714890.53108  23542162.740    96401199.07547
  22745316.160   119527432.04209  22745313.260    93138241.52247
 15 02 21 00 22  0.0000000  0  8G16G18G21G22G25G27G29G31
  22041120.760   115826882.85909  22041117.480    90254706.55847
  22495791.280   118216225.50409  22495788.460    92116546.72846
  21162097.900   111207577.64209  21162093.900    86655240.97148
  23982465.280   126028732.62308  23982461.460    98204199.99146
  24539718.220   128957073.95608  24539720.040   100486028.17045
  23295737.780   122419945.47108  23295738.120    95392164.35447
  23555400.040   123784449.37308  23555399.420    96455400.73147
  22761586.560   119612933.17709  22761583.620    93204865.75047
 15 02 21 00 22 30.0000000  0  8G16G18G21G22G25G27G29G31
  22026475.720   115749922.18109  22026472.280    90194737.20347
  22483835.460   118153397.55109  22483832.780    92067589.88846
  21168516.020   111241304.76409  21168511.920    86681521.85048
  23964381.840   125933704.02208  23964377.860    98130151.85145
  24558857.060   129057649.68108  24558858.900   100564398.80544
  23283059.040   122353318.73408  23283059.300    95340247.44947
  23568643.140   123854043.89408  23568642.940    96509630.17547
  22777898.040   119698650.21509  22777895.040    93271658.21247
 15 02 21 00 23  0.0000000  0  8G16G18G21G22G25G27G29G31
  22011874.840   115673193.55309  22011871.260    90134948.65548
  22471933.640   118090853.79509  22471931.100    92018854.51647
  21174996.680   111275360.40509  21174992.420    86708058.70948
  23946296.760   125838666.62208  23946292.800    98056096.85346
  24578024.300   129158374.06508  24578026.140   100642885.30345
  23270394.340   122286765.70408  23270394.580    95288387.97247
  23581893.100   123923672.71408  23581893.140    96563886.38447
  22794249.800   119784578.91309  22794246.780    93338615.59847
 15 02 21 00 23 30.0000000  0  8G16G18G21G22G25G27G29G31
  21997319.040   115596701.97909  21997315.300    90075344.83547
  22460086.880   118028599.47309  22460084.480    91970344.67446
  21181539.760   111309744.63809  21181535.420    86734851.61648
  23928210.980   125743625.52708  23928206.920    97982038.96146
  24597220.180   129259248.21208  24597221.920   100721488.47145
  23257744.180   122220288.92508  23257744.420    95236587.91547
  23595150.120   123993338.65908  23595150.360    96618171.50147
  22810641.740   119870718.94209  22810638.720    93405737.67847
 15 02 21 00 24  0.0000000  0  8G16G18G21G22G25G27G29G31
  21982808.560   115520448.84209  21982804.800    90015926.80447
  22448295.520   117966636.11809  22448293.300    91922061.55047
  21188145.060   111344456.30809  21188140.760    86761899.66648
  23910124.980   125648582.78708  23910121.000    97907979.80646
  24616444.240   129360269.90808  24616445.380   100800206.61844
  23245108.440   122153887.72108  23245108.680    95184846.73746
  23608414.100   124063040.84008  23608414.560    96672484.84447
  22827073.200   119957066.74509  22827070.200    93473021.63347
 15 02 21 00 24 30.0000000  0  8G16G18G21G22G25G27G29G31
  21968343.820   115444436.22009  21968340.100    89956696.19848
  22436560.000   117904965.79309  22436557.980    91874006.77447
  21194812.220   111379493.15609  21194808.020    86789201.11048
  23892039.040   125553540.64408  23892035.160    97833921.09246
  24635696.080   129461437.26308  24635696.640   100879038.28044
  23232487.040   122087561.69508  23232487.240    95133164.14947
  23621684.960   124132779.20508  23621685.100    96726826.42447
  22843543.520   120043619.03409  22843540.600    93540464.94347
 15 02 21 00 25  0.0000000  0  8G16G18G21G22G25G27G29G31
  21953925.460   115368667.42209  21953921.800    89897655.58047
  22424880.980   117843592.04809  22424879.060    91826183.09547
  21201541.120   111414854.22109  21201536.980    86816755.18148
  23873953.900   125458502.54708  23873950.060    97759865.53045
  24654975.400   129562749.73008  24654975.540   100957983.00745
  23219880.160   122021311.71308  23219880.220    95081540.80647
  23634963.020   124202554.50109  23634962.900    96781196.73247
  22860052.340   120130373.50309  22860049.400    93608065.79547
 15 02 21 00 25 30.0000000  0  8G16G18G21G22G25G27G29G31
  21939554.100   115293145.67009  21939550.540    89838807.45748
  22413259.060   117782518.00209  22413257.180    91778592.94147
  21208331.600   111450538.56809  21208327.520    86844561.15548
  23855870.220   125363472.25908  23855866.260    97685816.06446
  24674282.140   129664206.82908  24674282.220   101037040.40545
  23207288.020   121955138.89008  23207287.920    95029977.59047
  23648248.040   124272367.59808  23648247.360    96835596.52546
  22876599.360   120217328.59609  22876596.420    93675822.97147
 15 02 21 00 26  0.0000000  0  8G16G18G21G22G25G27G29G31
  21925229.600   115217870.14809  21925226.100    89780151.21148
  22401694.160   117721743.33509  22401692.220    91731236.07147
  21215182.840   111486541.86709  21215178.720    86872615.67848
  23837787.920   125268449.11308  23837783.980    97611772.15046
  24693615.620   129765803.78608  24693615.260   101116206.85645
  23194709.940   121889040.00008  23194709.700    94978471.98447
  23661539.880   124342215.56409  23661539.020    96890023.47147
  22893183.420   120304478.28809  22893180.480    93743731.78947
 15 02 21 00 26 30.0000000  0  8G16G18G21G22G25G27G29G31
  21910953.320   115142847.99009  21910949.880    89721692.39948
  22390187.560   117661275.22409  22390185.360    91684118.08047
  21222095.400   111522867.42309  21222091.280    86900921.30448
  23819708.440   125173440.75208  23819704.300    97537739.75146
  24712976.340   129867544.02108  24712975.740   101195484.90445
  23182146.840   121823019.96708  23182146.500    94927027.82947
  23674839.160   124412103.60708  23674837.920    96944481.63946
  22909804.800   120391824.12709  22909801.840    93811793.43747
 15 02 21 00 27  0.0000000  0  8G16G18G21G22G25G27G29G31
  21896724.980   115068077.84509  21896721.620    89663429.94648
  22378738.900   117601112.19609  22378736.660    91637237.82347
  21229068.240   111559509.77408  21229064.140    86929473.78148
  23801631.540   125078446.01408  23801627.260    97463717.97446
  24732363.240   129969422.08008  24732362.720   101274870.32245
  23169597.940   121757074.89008  23169597.580    94875642.07347
  23688145.300   124482027.73508  23688143.860    96998967.94647
  22926462.260   120479359.58309  22926459.300    93880002.85147
 15 02 21 00 27 30.0000000  0  8G16G18G21G22G25G27G29G31
  21882545.160   114993562.41409  21882541.860    89605365.98648
  22367348.880   117541257.39509  22367346.480    91590597.73547
  21236101.140   111596467.82909  21236097.060    86958272.27248
  23783557.800   124983468.14308  23783553.580    97389709.34346
  24751776.300   130071437.24508  24751775.540   101354362.62844
  23157063.340   121691205.55908  23157063.020    94824315.34847
  23701458.360   124551988.89708  23701457.220    97053483.08046
  22943155.400   120567082.48209  22943152.480    93948358.32547
 15 02 21 00 28  0.0000000  0  8G16G18G21G22G25G27G29G31
  21868414.300   114919304.17809  21868410.980    89547502.43648
  22356017.940   117481712.79609  22356015.300    91544199.36647
  21243193.760   111633739.69109  21243189.760    86987315.27948
  23765487.820   124888509.71808  23765483.340    97315715.84546
  24771214.980   130173587.74607  24771214.380   101433960.38745
  23144543.120   121625411.79708  23144542.860    94773047.49847
  23714778.480   124621986.69708  23714777.460    97108026.80247
  22959883.540   120654989.46109  22959880.680    94016857.24047
 15 02 21 00 28 30.0000000  0  8G16G18G21G22G25G27G29G31
  21854333.500   114845309.27209  21854330.260    89489844.07148
  22344747.340   117422485.09809  22344744.520    91498047.92047
  21250346.640   111671328.00609  21250342.660    87016604.86548
  23747422.580   124793577.05808  23747418.040    97241742.41946
  24790679.820   130275876.03108  24790679.800   101513665.45845
  23132038.020   121559697.56608  23132037.860    94721841.62647
  23728106.300   124692025.26608  23728105.140    97162602.26346
  22976646.900   120743081.58609  22976644.080    94085500.41947
 15 02 21 00 29  0.0000000  0  8G16G18G21G22G25G27G29G31
  21840301.580   114771571.61809  21840298.500    89432386.17448
  22333535.820   117363567.99209  22333532.840    91452138.50547
  21257557.860   111709222.82309  21257553.860    87046133.30048
  23729361.280   124698664.91608  23729356.800    97167784.97446
  24810168.960   130378292.12908  24810169.120   101593470.16345
  23119546.520   121494054.53408  23119546.380    94670691.23547
  23741440.460   124762096.33208  23741439.500    97217203.05747
  22993443.320   120831347.43709  22993440.620    94154278.98647
 15 02 21 00 29 30.0000000  0  7G16G18G21G22G27G29G31
  21826322.120   114698109.78009  21826319.160    89375143.18348
  22322386.980   117304980.27209  22322383.800    91406485.74647
  21264829.900   111747437.51009  21264825.940    87075910.97248
  23711307.340   124603791.78608  23711302.860    97093857.93745
  23107071.640   121428498.88908  23107071.580    94619608.93447
  23754783.820   124832216.14908  23754783.040    97271841.79746
  23010275.420   120919800.64109  23010272.800    94223203.51547
 15 02 21 00 30  0.0000000  0  7G16G18G21G22G27G29G31
  21812391.460   114624904.30609  21812388.560    89318099.97948
  22311297.140   117246702.67209  22311293.840    91361074.64247
  21272158.420   111785949.32309  21272154.560    87105920.18948
  23693257.080   124508938.35108  23693252.740    97019946.24946
  23094609.260   121363008.78708  23094609.180    94568577.70747
  23768132.460   124902362.90308  23768131.280    97326501.58346
  23027138.440   121008416.11509  23027135.860    94292254.50947
 15 02 21 00 30 30.0000000  0  7G16G18G21G22G27G29G31
  21798511.900   114551967.03009  21798509.000    89261265.74748
  22300268.480   117188746.64109  22300265.160    91315914.12747
  21279545.140   111824766.89409  21279541.260    87136167.64748
  23675212.940   124414117.17408  23675208.720    96946059.69446
  23082161.180   121297593.96408  23082161.160    94517605.14047
  23781488.080   124972546.31108  23781486.200    97381189.95546
  23044033.620   121097200.55409  23044031.100    94361437.15247
 15 02 21 00 31  0.0000000  0  7G16G18G21G22G27G29G31
  21784685.020   114479306.09609  21784681.980    89204646.83948
  22289302.560   117131120.36609  22289299.260    91271010.55547
  21286990.500   111863892.56909  21286986.560    87166655.18648
  23657176.560   124319336.56908  23657172.580    96872204.75446
  23069728.520   121232260.03108  23069728.460    94466695.60647
  23794851.440   125042772.09808  23794850.020    97435911.26446
  23060961.520   121186156.77709  23060959.000    94430753.65747
 15 02 21 00 31 30.0000000  0  7G16G18G21G22G27G29G31
  21770909.380   114406914.25409  21770906.200    89148237.61848
  22278397.920   117073816.61109  22278394.800    91226358.30547
  21294492.700   111903317.01409  21294488.740    87197375.52948
  23639146.620   124224589.75808  23639142.840    96798376.13946
  23057309.500   121166997.64308  23057309.420    94415841.81247
  23808221.220   125113030.88708  23808219.800    97490658.32346
  23077919.740   121275272.23409  23077917.180    94500194.23247
 15 02 21 00 32  0.0000000  0  7G16G18G21G22G27G29G31
  21757186.320   114334798.90609  21757183.040    89092043.84448
  22267556.220   117016843.29809  22267553.240    91181963.53247
  21302052.240   111943042.58909  21302048.240    87228330.51448
  23621124.700   124129884.72308  23621121.000    96724580.08946
  23044905.120   121101812.02108  23044905.020    94365047.84347
  23821598.320   125183328.06708  23821596.500    97545435.32046
  23094908.700   121364549.34809  23094906.180    94569760.78447
 15 02 21 00 32 30.0000000  0  7G16G18G21G22G27G29G31
  21743516.580   114262963.55709  21743513.160    89036068.25548
  22256777.940   116960203.13109  22256774.940    91137828.34847
  21309669.020   111983069.09309  21309664.960    87259519.99648
  23603111.380   124035224.69708  23603107.720    96650819.08546
  23032515.520   121036703.94708  23032515.420    94314314.28747
  23834982.840   125253664.52508  23834980.880    97600242.91946
  23111927.960   121453985.72409  23111925.380    94639451.41947
 15 02 21 00 33  0.0000000  0  7G16G18G21G22G27G29G31
  21729899.900   114191407.12109  21729896.360    88980309.99548
  22246063.020   116903895.32109  22246059.920    91093952.15147
  21317342.080   112023391.36109  21317338.000    87290939.94148
  23585106.700   123940609.53408  23585102.980    96577093.03946
  23020140.120   120971670.44208  23020139.980    94263638.84547
  23848374.260   125324037.46208  23848372.840    97655078.89946
  23128976.380   121543575.41609  23128973.700    94709261.52847
 15 02 21 00 33 30.0000000  0  7G16G18G21G22G27G29G31
  21716337.260   114120134.70409  21716333.640    88924773.04948
  22235412.280   116847924.58409  22235408.980    91050338.60747
  21325071.640   112064010.41809  21325067.560    87322591.15048
  23567111.560   123846044.09008  23567107.520    96503405.72446
  23007779.360   120906714.01608  23007779.100    94213023.46447
  23861773.160   125394449.09108  23861771.840    97709945.04446
  23146053.840   121633318.11609  23146051.240    94779190.86247
 15 02 21 00 34  0.0000000  0  7G16G18G21G22G27G29G31
  21702828.460   114049145.35209  21702824.800    88869456.66748
  22224825.600   116792290.39609  22224822.080    91006987.29547
  21332856.560   112104920.55109  21332852.500    87354469.16848
  23549125.880   123751527.98108  23549121.740    96429756.86546
  22995432.680   120841831.45608  22995432.280    94162465.64247
  23875178.980   125464896.35208  23875177.300    97764838.97746
  23163159.180   121723207.38509  23163156.600    94849234.42147
 15 02 21 00 34 30.0000000  0  7G16G18G21G22G27G29G31
  21689374.320   113978443.75809  21689370.720    88814364.52048
  22214303.700   116736997.23309  22214300.060    90963901.72847
  21340697.200   112146123.29309  21340693.080    87386575.20248
  23531150.600   123657066.42209  23531146.260    96356150.51746
  22983100.500   120777025.30008  22983100.080    94111967.34947
  23888592.000   125535381.62208  23888590.500    97819762.52147
  23180292.320   121813242.90009  23180289.820    94919391.92247
 15 02 21 00 35  0.0000000  0  7G16G18G21G22G27G29G31
  21675976.060   113908035.89909  21675972.600    88759501.26548
  22203847.780   116682051.10309  22203844.100    90921086.57247
  21348593.900   112187620.84709  21348589.780    87418910.95848
  23513186.840   123562665.67209  23513182.540    96282591.54446
  22970783.600   120712299.39108  22970783.200    94061531.58947
  23902012.760   125605909.05908  23902011.780    97874718.88046
  23197453.380   121903425.23109  23197450.920    94989663.84447
 15 02 21 00 35 30.0000000  0  7G16G18G21G22G27G29G31
  21662633.280   113837919.55309  21662629.980    88704865.15848
  22193457.220   116627449.15309  22193453.740    90878539.61747
  21356545.500   112229406.92909  21356541.420    87451471.53148
  23495234.180   123468323.71508  23495229.820    96209078.37646
  22958481.000   120647648.96508  22958480.660    94011154.64847
  23915440.640   125676474.05408  23915439.860    97929704.57846
  23214640.920   121993746.56109  23214638.540    95060044.06247
 15 02 21 00 36  0.0000000  0  7G16G18G21G22G27G29G31
  21649346.540   113768097.48909  21649343.300    88650458.36148
  22183132.740   116573194.43009  22183129.440    90836263.22847
  21364551.640   112271479.83609  21364547.620    87484255.61948
  23477293.340   123374044.09608  23477288.720    96135613.77246
  22946192.880   120583074.70808  22946192.620    93960837.06847
  23928875.740   125747077.27608  23928875.660    97984720.02247
  23231854.560   122084205.04408  23231852.160    95130531.15747
 15 02 21 00 36 30.0000000  0  7G16G18G21G22G27G29G31
  21636115.680   113698568.94809  21636112.500    88596280.27948
  22172874.140   116519286.08809  22172871.000    90794256.74547
  21372611.440   112313834.67309  21372607.480    87517259.39048
  23459364.200   123279825.89009  23459359.500    96062197.04146
  22933918.680   120518573.54308  22933918.400    93910576.43947
  23942317.820   125817715.50208  23942317.820    98039762.78446
  23249093.080   122174794.19909  23249090.600    95201120.07047
 15 02 21 00 37  0.0000000  0  7G16G18G21G22G27G29G31
  21622941.960   113629340.65309  21622938.860    88542336.16548
  22162682.720   116465730.52109  22162679.660    90752525.14947
  21380725.500   112356474.52709  21380721.560    87550485.25148
  23441448.100   123185676.48008  23441443.440    95988833.89646
  22921659.160   120454149.75108  22921658.840    93860376.09247
  23955767.520   125888393.17508  23955767.400    98094836.25046
  23266356.720   122265515.22109  23266354.200    95271811.74747
 15 02 21 00 37 30.0000000  0  7G16G18G21G22G27G29G31
  21609825.680   113560414.15209  21609822.560    88488627.21048
  22152558.780   116412529.07009  22152555.800    90711069.47147
  21388893.160   112399395.96809  21388889.280    87583930.52148
  23423545.480   123091597.71909  23423540.820    95915525.81346
  22909414.160   120389802.66208  22909413.940    93810235.50947
  23969224.660   125959109.59108  23969224.240    98149939.88146
  23283644.840   122356364.66309  23283642.280    95342603.48147
 15 02 21 00 38  0.0000000  0  7G16G18G21G22G27G29G31
  21596767.380   113491792.50609  21596764.300    88435155.81048
  22142502.880   116359684.90609  22142499.900    90669892.22947
  21397114.440   112442599.07509  21397110.640    87617595.28448
  23405656.840   122997592.70408  23405652.160    95842275.18946
  22897183.960   120325533.26508  22897183.860    93760155.48647
  23982689.220   126029865.66708  23982688.320    98205074.47146
  23300957.060   122447340.44709  23300954.420    95413493.66547
 15 02 21 00 38 30.0000000  0  7G16G18G21G22G27G29G31
  21583767.020   113423475.30309  21583764.000    88381921.63648
  22132514.920   116307197.59109  22132511.940    90628993.03347
  21405388.320   112486078.53409  21405384.520    87651475.38248
  23387782.520   122903662.13209  23387777.780    95769082.57546
  22884968.060   120261338.88208  22884968.160    93710133.91547
  23996160.880   126100658.62508  23996159.740    98260237.78246
  23318292.160   122538436.61009  23318289.520    95484477.64747
 15 02 21 00 39  0.0000000  0  7G16G18G21G22G27G29G31
  21570825.500   113355467.24909  21570822.500    88328928.34848
  22122595.640   116255071.26509  22122592.660    90588375.12747
  21413715.040   112529835.76209  21413711.220    87685571.91548
  23369923.200   122809810.57509  23369918.420    95695951.52046
  22872766.960   120197221.79508  22872767.140    93660172.56347
  24009640.140   126171491.46108  24009638.920    98315432.13246
  23335650.020   122629652.41708  23335647.320    95555554.85747
 15 02 21 00 39 30.0000000  0  7G16G18G21G22G27G29G31
  21557943.120   113287769.90009  21557940.140    88276177.17848
  22112745.320   116203307.35009  22112742.320    90548039.61947
  21422094.080   112573867.85609  21422090.260    87719882.63348
  23352079.280   122716039.75609  23352074.320    95622883.38046
  22860580.520   120133181.36808  22860580.560    93610270.95447
  24023126.660   126242362.97908  24023125.200    98370656.67845
  23353030.020   122720984.60509  23353027.260    95626722.75547
 15 02 21 00 40  0.0000000  0  7G16G18G21G22G27G29G31
  21545120.340   113220385.40309  21545117.260    88223669.79248
  22102964.320   116151907.87209  22102961.380    90507988.09247
  21430525.080   112618173.26308  21430521.280    87754406.32348
  23334251.260   122622352.57409  23334246.180    95549880.41646
  22848408.720   120069217.61008  22848408.600    93560429.07948
  24036620.600   126313273.19808  24036619.200    98425911.36346
  23370431.520   122812429.92608  23370428.700    95697978.79247
 15 02 21 00 40 30.0000000  0  7G16G18G21G22G27G29G31
  21532357.880   113153317.87109  21532354.720    88171409.37548
  22093253.280   116100876.05709  22093250.260    90468223.05547
  21439007.960   112662751.44508  21439004.220    87789142.56848
  23316439.920   122528753.51909  23316434.800    95476946.13246
  22836251.880   120005332.25908  22836251.600    93510648.29948
  24050122.240   126384224.36408  24050120.880    98481197.92746
  23387854.240   122903986.79609  23387851.480    95769321.75847
 15 02 21 00 41  0.0000000  0  7G16G18G21G22G27G29G31
  21519655.520   113086566.30309  21519652.320    88119395.18948
  22083612.140   116050211.94209  22083609.120    90428744.54947
  21447541.880   112707598.04608  21447538.260    87824087.98248
  23298645.220   122435242.16708  23298640.040    95404080.18946
  22824109.360   119941522.37909  22824109.100    93460926.34747
  24063631.040   126455213.38208  24063629.440    98536514.04146
  23405297.120   122995649.39208  23405294.340    95840747.11847
 15 02 21 00 41 30.0000000  0  7G16G18G21G22G27G29G31
  21507014.820   113020138.56409  21507011.540    88067633.30448
  22074042.240   115999922.04409  22074039.220    90389557.61747
  21456127.380   112752715.60008  21456123.840    87859244.50548
  23280868.660   122341826.07108  23280863.440    95331288.45646
  22811982.160   119877793.06308  22811981.860    93411267.14847
  24077147.820   126526245.01608  24077146.480    98591863.32146
  23422760.500   123087419.66308  23422757.600    95912256.35147
 15 02 21 00 42  0.0000000  0  7G16G18G21G22G27G29G31
  21494435.060   112954030.84809  21494431.620    88016120.81548
  22064542.940   115950002.72509  22064539.860    90350659.46547
  21464763.180   112798097.12509  21464759.640    87894606.73948
  23263109.620   122248502.12808  23263104.460    95258568.54146
  22799869.100   119814138.45108  22799868.700    93361666.17047
  24090671.720   126597313.82408  24090670.540    98647241.56246
  23440242.760   123179289.11608  23440239.780    95983842.89446
 15 02 21 00 42 30.0000000  0  7G16G18G21G22G27G29G31
  21481917.360   112888249.46509  21481913.780    87964862.60448
  22055115.500   115900460.69909  22055112.400    90312055.29547
  21473449.840   112843745.72609  21473446.260    87930177.08348
  23245369.500   122155277.59109  23245364.480    95185926.07846
  22787771.120   119750563.32608  22787770.640    93312127.12647
  24104203.680   126668424.46708  24104202.460    98702652.46346
  23457744.100   123271259.02808  23457741.140    96055507.70446
 15 02 21 00 43  0.0000000  0  7G16G18G21G22G27G29G31
  21469461.700   112822794.30409  21469458.020    87913858.57748
  22045759.560   115851294.50109  22045756.440    90273743.99047
  21482186.320   112889656.11209  21482182.680    87965951.40448
  23227648.280   122062152.18508  23227643.300    95113360.85347
  22775687.680   119687064.71708  22775687.100    93262647.70547
  24117742.900   126739573.62808  24117741.680    98758093.32446
  23475263.440   123363323.39808  23475260.460    96127246.11646
 15 02 21 00 43 30.0000000  0  7G16G18G21G22G27G29G31
  21457068.900   112757669.91309  21457065.220    87863112.30848
  22036476.020   115802508.75409  22036472.900    90235729.13947
  21490972.740   112935828.65909  21490969.000    88001930.01048
  23209946.780   121969130.76109  23209942.080    95040876.68046
  22763619.260   119623645.01508  22763618.720    93213229.77247
  24131290.080   126810764.19708  24131288.740    98813566.48746
  23492800.620   123455481.58008  23492797.520    96199057.64046
 15 02 21 00 44  0.0000000  0  7G16G18G21G22G27G29G31
  21444739.320   112692877.76209  21444735.600    87812624.91148
  22027265.060   115754104.69009  22027261.940    90198011.69547
  21499808.640   112982261.27209  21499804.840    88038111.26148
  23192265.520   121876215.49309  23192261.060    94968475.20746
  22751565.620   119560303.49008  22751565.160    93163872.74947
  24144844.880   126881995.14708  24144843.520    98869071.10446
  23510354.880   123547729.87308  23510351.780    96270939.35746
 15 02 21 00 44 30.0000000  0  7G16G18G21G22G27G29G31
  21432473.020   112628418.48509  21432469.380    87762396.91248
  22018126.800   115706082.92809  22018123.700    90160592.15647
  21508693.380   113028950.69309  21508689.540    88074492.62648
  23174604.640   121783407.48109  23174600.300    94896157.31147
  22739526.560   119497038.82708  22739526.220    93114575.63647
  24158407.180   126953265.55908  24158405.940    98924606.44346
  23527925.460   123640063.93908  23527922.440    96342887.91646
 15 02 21 00 45  0.0000000  0  7G16G18G21G22G27G29G31
  21420270.980   112564296.82109  21420267.480    87712431.98548
  22009062.020   115658447.54809  22009059.040    90123473.69547
  21517627.060   113075897.33809  21517623.200    88111074.43048
  23156965.120   121690711.55408  23156960.820    94823926.74847
  22727502.620   119433853.33708  22727502.340    93065340.20747
  24171977.340   127024577.31308  24171976.100    98980173.99746
  23545512.200   123732482.76308  23545509.220    96414902.52946
 15 02 21 00 45 30.0000000  0  7G16G18G21G22G27G29G31
  21408132.980   112500511.34509  21408129.540    87662729.02348
  22000070.380   115611196.66509  22000067.520    90086654.84347
  21526608.520   113123095.37909  21526604.760    88147852.12148
  23139346.740   121598126.61508  23139342.400    94751782.69047
  22715493.180   119370743.54108  22715492.940    93016163.76347
  24185554.740   127095927.01008  24185553.600    99035771.14946
  23563113.900   123824979.92408  23563110.820    96486978.18246
 15 02 21 00 46  0.0000000  0  7G16G18G21G22G27G29G31
  21396060.000   112437067.43809  21396056.640    87613292.20648
  21991152.820   115564335.36209  21991150.020    90050139.54647
  21535638.140   113170546.68909  21535634.520    88184827.16448
  23121750.680   121505658.95609  23121746.320    94679730.00147
  22703498.840   119307712.67208  22703498.580    92967048.80747
  24199140.180   127167317.91808  24199138.900    99091400.39146
  23580730.560   123917555.75108  23580727.480    96559115.11246
 15 02 21 00 46 30.0000000  0  7G16G18G21G22G27G29G31
  21384052.420   112373967.11409  21384049.080    87564123.12848
  21982309.780   115517865.61709  21982307.120    90013929.37647
  21544715.500   113218248.84209  21544711.980    88221997.66748
  23104177.360   121413310.65909  23104173.040    94607770.32447
  22691519.520   119244760.57908  22691519.180    92917995.25647
  24212733.460   127238750.01408  24212732.040    99147061.74646
  23598361.540   124010206.91608  23598358.540    96631310.77646
 15 02 21 00 47  0.0000000  0  7G16G18G21G22G27G29G31
  21372110.280   112311210.76009  21372106.960    87515222.08448
  21973541.260   115471786.95909  21973538.560    89978023.93247
  21553840.020   113266198.60309  21553836.520    88259361.12148
  23086627.000   121321082.56409  23086622.560    94535904.30347
  22679554.840   119181885.38808  22679554.380    92869001.61947
  24226334.300   127310221.19308  24226332.660    99202753.54346
  23616005.840   124102928.25908  23616002.920    96703561.10147
 15 02 21 00 47 30.0000000  0  7G16G18G21G22G27G29G31
  21360234.960   112248805.51709  21360231.640    87466594.62148
  21964848.540   115426106.34409  21964845.780    89942428.66647
  21563012.220   113314398.75709  21563008.740    88296919.68548
  23069100.940   121228982.19509  23069096.500    94464137.81847
  22667605.660   119119092.04708  22667605.140    92820071.77247
  24239943.540   127381736.73108  24239941.760    99258479.94146
  23633663.860   124195721.84108  23633661.100    96775867.73946
 15 02 21 00 48  0.0000000  0  7G16G18G21G22G27G29G31
  21348426.700   112186752.64409  21348423.340    87418241.73248
  21956231.800   115380824.80209  21956228.860    89907144.35647
  21572231.520   113362846.45309  21572228.020    88334671.13448
  23051599.500   121137011.44409  23051595.040    94392472.32647
  22655671.920   119056380.04808  22655671.520    92771205.30047
  24253560.780   127453295.74708  24253559.040    99314240.18246
  23651334.900   124288583.97008  23651332.240    96848227.75246
 15 02 21 00 48 30.0000000  0  7G16G18G21G22G27G29G31
  21336685.500   112125051.88809  21336682.080    87370163.22048
  21947690.940   115335941.69909  21947687.860    89872170.52047
  21581497.080   113411537.19709  21581493.520    88372611.97048
  23034122.700   121045170.32909  23034118.220    94320907.84647
  22643753.180   118993746.73108  22643752.820    92722400.12847
  24267185.740   127524895.70508  24267184.140    99370032.35346
  23669017.920   124381508.95908  23669015.420    96920636.76446
 15 02 21 00 49  0.0000000  0  7G16G18G21G22G27G29G31
  21325011.800   112063706.14909  21325008.340    87322361.34648
  21939226.340   115291459.37909  21939223.160    89837508.98048
  21590808.860   113460470.79209  21590805.220    88410742.04048
  23016671.220   120953462.39609  23016666.760    94249447.14347
  22631849.620   118931193.02508  22631849.180    92673657.00347
  24280818.540   127596537.26208  24280817.340    99425856.92946
  23686712.480   124474494.49708  23686710.100    96993092.96047
 15 02 21 00 49 30.0000000  0  7G16G18G21G22G27G29G31
  21313406.340   112002719.31109  21313402.960    87274839.14048
  21930838.640   115247381.41309  21930835.420    89803162.52547
  21600166.740   113509646.52109  21600163.000    88449060.78348
  22999245.860   120861891.88709  22999241.440    94178093.53547
  22619961.520   118868720.58008  22619961.060    92624977.19647
  24294459.500   127668222.39408  24294458.520    99481715.45046
  23704418.360   124567539.41609  23704415.940    97065595.40946
 15 02 21 00 50  0.0000000  0  7G16G18G21G22G27G29G31
  21301868.960   111942090.51309  21301865.720    87227595.93248
  21922527.620   115203706.36909  21922524.300    89769130.03647
  21609569.740   113559059.59309  21609565.940    88487564.46748
  22981846.580   120770458.21109  22981842.160    94106846.53547
  22608088.320   118806326.43508  22608087.840    92576358.38447
  24308108.160   127739947.99208  24308107.380    99537605.49046
  23722134.380   124660637.27008  23722131.820    97138139.13646
 15 02 21 00 50 30.0000000  0  7G16G18G21G22G27G29G31
  21290400.560   111881824.22409  21290397.420    87180635.19148
  21914294.100   115160438.30209  21914290.580    89735414.65947
  21619017.960   113608710.30109  21619014.140    88526253.32048
  22964474.200   120679166.19809  22964469.760    94035709.93447
  22596230.380   118744012.86308  22596230.020    92527802.36648
  24321765.020   127811716.25908  24321764.340    99593528.79646
  23739860.400   124753787.63208  23739857.780    97210723.74946
 15 02 21 00 51  0.0000000  0  7G16G18G21G22G27G29G31
  21279001.280   111821920.91609  21278998.140    87133957.29548
  21906137.980   115117577.29409  21906134.300    89702016.48747
  21628510.720   113658594.93909  21628506.860    88565124.47148
  22947128.900   120588016.82709  22947124.520    93964684.48747
  22584387.520   118681778.24008  22584387.160    92479307.87948
  24335429.800   127883525.37808  24335428.720    99649483.95445
  23757595.520   124846985.69708  23757592.860    97283345.52246
 15 02 21 00 51 30.0000000  0  7G16G18G21G22G27G29G31
  21267671.620   111762382.93809  21267668.400    87087564.07348
  21898059.600   115075125.23909  21898055.900    89668936.98247
