     2.11           OBSERVATION DATA    G                   RINEX VERSION / TYPE
SPIDER V4,0,0,3554                      2015 03 31 03:03    PGM / RUN BY / DATE 
EADB                                                        MARKER NAME         
EADB                                                        MARKER NUMBER       
                                                            OBSERVER / AGENCY   
462408              LEICA GRX1200PRO    3.00/2.127          REC # / TYPE / VERS 
103310              LEIAT504                                ANT # / TYPE        
  5238464.6656   142765.3090  3625629.6523                  APPROX POSITION XYZ 
        0.0770        0.0000        0.0000                  ANTENNA: DELTA H/E/N
     1     1                                                WAVELENGTH FACT L1/2
     4    C1    L1    P2    L2                              # / TYPES OF OBSERV 
    30.000                                                  INTERVAL            
  2015    02    21    00    00    0.0000000     GPS         TIME OF FIRST OBS   
  2015    02    21    23    59   30.0000000     GPS         TIME OF LAST OBS    
    16                                                      LEAP SECONDS        
    30                                                      # OF SATELLITES     
   G 1   836   836   836   836                              PRN / # OF OBS      
   G 2   927   927   927   927                              PRN / # OF OBS      
   G 3   845   845   845   845                              PRN / # OF OBS      
   G 4   848   848   847   847                              PRN / # OF OBS      
   G 5   674   674   674   674                              PRN / # OF OBS      
   G 6   728   728   728   728                              PRN / # OF OBS      
   G 7   648   648   648   648                              PRN / # OF OBS      
   G 9   788   788   788   788                              PRN / # OF OBS      
   G10   783   783   783   783                              PRN / # OF OBS      
   G11   800   800   800   800                              PRN / # OF OBS      
   G12   818   818   818   818                              PRN / # OF OBS      
   G13   822   822   822   822                              PRN / # OF OBS      
   G14   930   930   930   930                              PRN / # OF OBS      
   G15   731   731   731   731                              PRN / # OF OBS      
   G16   694   694   694   694                              PRN / # OF OBS      
   G17   929   929   929   929                              PRN / # OF OBS      
   G18   937   937   937   937                              PRN / # OF OBS      
   G19   778   778   778   778                              PRN / # OF OBS      
   G20   811   811   811   811                              PRN / # OF OBS      
   G21   705   705   705   705                              PRN / # OF OBS      
   G22   778   778   778   778                              PRN / # OF OBS      
   G23   732   732   732   732                              PRN / # OF OBS      
   G24   843   843   843   843                              PRN / # OF OBS      
   G25   860   860   860   860                              PRN / # OF OBS      
   G27   833   833   833   833                              PRN / # OF OBS      
   G28   908   908   908   908                              PRN / # OF OBS      
   G29   748   748   748   748                              PRN / # OF OBS      
   G30   695   695   695   695                              PRN / # OF OBS      
   G31   783   783   783   783                              PRN / # OF OBS      
   G32   743   743   743   743                              PRN / # OF OBS      
BIT 2 OF LLI FLAGS DATA COLLECTED UNDER A/S CONDITION       COMMENT             
SNR is mapped to RINEX snr flag value [2-9]                 COMMENT             
Lx:     = 25dBHz -> 1; 26-27dBHz -> 2; 28-31dBHz -> 3       COMMENT             
       32-35dBHz -> 4; 36-38dBHz -> 5; 39-41dBHz -> 6       COMMENT             
       42-44dBHz -> 7; 45-48dBHz -> 8; >=49dBHz -> 9        COMMENT             
                                                            END OF HEADER       
 15 02 21 00 00  0.0000000  0  7G16G18G21G25G27G29G31
  22384971.214   117633823.00508  22384969.366    91662725.80047
  23413802.714   123040394.71807  23413802.346    95875638.49145
  21062195.709   110682592.77909  21062193.859    86246171.65949
  24170410.437   127016352.45106  24170413.124    98973786.05144
  23355017.332   122731465.82407  23355019.158    95634930.00546
  23407900.008   123009336.85008  23407899.874    95851425.38646
  21893988.127   115053675.43709  21893986.657    89652205.40148
 15 02 21 00 00 30.0000000  0  7G16G18G21G25G27G29G31
  22369946.367   117554867.46208  22369944.863    91601202.00447
  23400460.565   122970280.00007  23400459.844    95821003.67345
  21066081.141   110703010.32809  21066079.212    86262081.43949
  24187765.562   127107553.96607  24187768.394    99044852.13845
  23342197.388   122664096.62407  23342199.059    95582434.56246
  23422082.113   123083863.06508  23422081.845    95909497.74846
  21908375.075   115129279.01409  21908373.715    89711117.25048
 15 02 21 00 01  0.0000000  0  7G16G18G21G25G27G29G31
  22354947.940   117476050.29108  22354946.482    91539786.04547
  23387144.664   122900304.90407  23387143.877    95766477.64345
  21070044.783   110723839.84609  21070042.970    86278312.23949
  24205155.071   127198934.39107  24205157.570    99116057.65445
  23329400.287   122596847.31207  23329401.883    95530032.54646
  23436265.339   123158396.88608  23436265.518    95967576.01846
  21922828.076   115205230.70509  21922826.708    89770300.36848
 15 02 21 00 01 30.0000000  0  7G16G18G21G25G27G29G31
  22339977.710   117397381.11008  22339976.137    91478485.39147
  23373857.512   122830480.38707  23373856.398    95712068.94945
  21074088.130   110745087.90409  21074086.349    86294869.16749
  24222579.347   127290500.67006  24222582.231    99187407.94945
  23316627.442   122529725.65407  23316628.924    95477729.97646
  23450451.572   123232945.60608  23450451.462    96025665.89946
  21937348.464   115281535.70409  21937346.937    89829758.78248
 15 02 21 00 02  0.0000000  0  7G16G18G21G25G27G29G31
  22325035.320   117318858.91308  22325033.756    91417299.27547
  23360598.722   122760805.75907  23360598.135    95657777.07545
  21078210.475   110766750.25409  21078208.382    86311748.92549
  24240038.318   127382248.61906  24240041.150    99258899.80545
  23303878.360   122462728.46407  23303879.923    95425524.41746
  23464639.784   123307505.73107  23464639.573    96083764.68746
  21951935.132   115358188.31409  21951933.767    89889488.06648
 15 02 21 00 02 30.0000000  0  7G16G18G21G25G27G29G31
  22310121.190   117240484.62908  22310119.605    91356228.41647
  23347368.667   122691282.85007  23347368.219    95603603.40845
  21082411.004   110788824.40209  21082409.022    86328949.56049
  24257531.496   127474176.39306  24257533.900    99330531.81644
  23291152.509   122395854.79007  23291154.381    95373415.10746
  23478830.093   123382076.27507  23478829.747    96141871.57746
  21966586.933   115435184.79809  21966585.718    89949485.29548
 15 02 21 00 03  0.0000000  0  7G16G18G21G25G27G29G31
  22295235.814   117162261.38708  22295234.356    91295275.24747
  23334168.408   122621915.70607  23334168.393    95549551.13945
  21086690.186   110811311.05909  21086688.045    86346471.63249
  24275059.439   127566284.51106  24275061.687    99402304.35945
  23278450.644   122329105.94307  23278452.533    95321403.03946
  23493022.602   123456658.12907  23493022.344    96199987.26346
  21981304.300   115512524.24409  21981302.722    90009749.78048
 15 02 21 00 03 30.0000000  0  7G16G18G21G25G27G29G31
  22280379.232   117084189.89708  22280377.841    91234440.33147
  23320998.519   122552706.06808  23320997.836    95495621.56645
  21091047.156   110834207.43809  21091044.997    86364312.96749
  24292621.131   127658570.54307  24292623.226    99474215.52144
  23265772.242   122262480.49107  23265774.088    95269487.14546
  23507216.884   123531249.65008  23507216.605    96258110.48346
  21996085.926   115590202.74409  21996084.497    90070278.45548
 15 02 21 00 04  0.0000000  0  7G16G18G21G25G27G29G31
  22265552.340   117006273.83508  22265550.918    91173726.52947
  23307859.043   122483658.15507  23307858.281    95441818.03344
  21095482.313   110857514.03309  21095480.104    86382473.95549
  24310216.829   127751035.30906  24310218.928    99546265.98045
  23253117.664   122195980.14407  23253119.334    95217668.72946
  23521413.670   123605852.45008  23521413.328    96316242.50346
  22010932.054   115668219.42009  22010930.713    90131070.63748
 15 02 21 00 04 30.0000000  0  7G16G18G21G25G27G29G31
  22250755.464   116928515.35408  22250753.943    91113135.51547
  23294750.764   122414774.49907  23294749.639    95388142.46245
  21099995.147   110881229.72809  21099993.119    86400953.71949
  24327845.534   127843677.90606  24327848.373    99618454.92144
  23240486.685   122129604.83507  23240488.496    95165947.74546
  23535612.405   123680466.46508  23535611.936    96374383.27246
  22025841.936   115746571.53608  22025840.825    90192124.20748
 15 02 21 00 05  0.0000000  0  7G16G18G21G25G27G29G31
  22235987.758   116850910.66108  22235986.178    91052664.33047
  23281673.368   122346052.34807  23281672.679    95334592.77945
  21104584.645   110905347.35709  21104582.560    86419746.68049
  24345507.678   127936491.56606  24345510.435    99690777.23945
  23227878.562   122063348.82707  23227880.379    95114319.71046
  23549811.893   123755085.36808  23549811.121    96432527.84246
  22040814.053   115825250.73008  22040812.797    90253432.64848
 15 02 21 00 05 30.0000000  0  7G16G18G21G25G27G29G31
  22221251.466   116773470.26408  22221249.740    90992321.17547
  23268628.852   122277503.36008  23268628.683    95281178.01345
  21109251.951   110929874.52909  21109249.896    86438858.76549
  24363203.842   128029484.19506  24363206.223    99763239.03144
  23215294.872   121997220.93507  23215296.661    95062791.51646
  23564013.745   123829717.98107  23564013.348    96490683.09046
  22055849.752   115904263.26608  22055848.288    90315000.84548
 15 02 21 00 06  0.0000000  0  7G16G18G21G25G27G29G31
  22206545.331   116696189.94208  22206543.742    90932102.75847
  23255616.729   122209123.94207  23255616.404    95227895.37745
  21113995.751   110954803.87009  21113993.937    86458284.22949
  24380932.643   128122648.48107  24380934.454    99835834.58144
  23202734.213   121931214.82007  23202736.156    95011358.22646
  23578217.227   123904357.75208  23578216.579    96548843.91446
  22070947.004   115983600.23908  22070945.687    90376821.82948
 15 02 21 00 06 30.0000000  0  7G16G18G21G25G27G29G31
  22191870.968   116619075.11408  22191869.419    90872013.29747
  23242637.794   122140919.52408  23242637.575    95174749.11545
  21118816.441   110980136.86009  21118814.645    86478024.22249
  24398694.166   128215986.63606  24398696.342    99908565.54144
  23190197.518   121865333.51107  23190199.244    94960022.16747
  23592422.877   123979007.60208  23592422.245    96607012.58546
  22086106.106   116063261.88509  22086104.948    90438895.81348
 15 02 21 00 07  0.0000000  0  7G16G18G21G25G27G29G31
  22177227.662   116542124.23908  22177225.967    90812051.58947
  23229692.147   122072889.90608  23229691.740    95121739.05645
  21123713.053   111005868.63309  21123711.056    86498074.95549
  24416488.159   128309494.26006  24416490.613    99981428.54545
  23177683.857   121799573.65507  23177685.384    94908780.75146
  23606629.499   124053663.87207  23606629.058    96665186.26646
  22101326.004   116143242.64708  22101324.791    90501218.46048
 15 02 21 00 07 30.0000000  0  7G16G18G21G25G27G29G31
  22162616.497   116465342.20408  22162614.719    90752221.44147
  23216780.878   122005040.57108  23216780.172    95068869.46645
  21128685.998   111032001.35509  21128684.155    86518438.12149
  24434314.792   128403173.13006  24434317.222   100054424.99945
  23165193.704   121733937.98607  23165195.385    94857636.10446
  23620837.665   124128328.91707  23620837.530    96723366.77246
  22116606.566   116223542.57508  22116605.097    90563789.82348
 15 02 21 00 08  0.0000000  0  7G16G18G21G25G27G29G31
  22148037.285   116388728.77408  22148035.608    90692522.66947
  23203904.241   121937372.13708  23203903.132    95016140.82745
  21133734.290   111058530.87109  21133732.487    86539110.47649
  24452173.641   128497020.01907  24452175.425   100127552.47744
  23152726.990   121668424.33707  23152728.300    94806586.54046
  23635047.121   124203000.95107  23635047.175    96781552.73746
  22131946.923   116304156.63008  22131945.685    90626605.93748
 15 02 21 00 08 30.0000000  0  7G16G18G21G25G27G29G31
  22133491.415   116312289.27508  22133489.773    90632959.43647
  23191062.811   121869890.37508  23191061.733    94963557.66445
  21138858.712   111085459.20209  21138856.741    86560093.59549
  24470064.289   128591037.19606  24470065.943   100200812.59744
  23140283.694   121603035.75207  23140285.169    94755634.43546
  23649258.672   124277682.59407  23649258.764    96839746.19146
  22147347.202   116385085.39208  22147346.236    90689667.27548
 15 02 21 00 09  0.0000000  0  7G16G18G21G25G27G29G31
  22118977.896   116236020.18708  22118976.135    90573528.98347
  23178256.390   121802592.67808  23178255.655    94911117.94745
  21144057.744   111112780.08409  21144055.716    86581382.59249
  24487986.041   128685218.35306  24487987.971   100274200.46045
  23127863.530   121537767.00707  23127864.851    94704775.71646
  23663471.174   124352368.26408  23663470.703    96897942.79945
  22162805.957   116466321.29508  22162804.566    90752967.95748
 15 02 21 00 09 30.0000000  0  8G16G18G21G22G25G27G29G31
  22104499.950   116159938.34808  22104498.367    90514244.44347
  23165488.337   121735496.32608  23165487.699    94858835.11345
  21149333.818   111140506.41109  21149331.876    86602987.52549
  24556223.462   129043821.23716  24556221.573   100553624.52954
  24505941.906   128779576.90807  24505944.264   100347726.54245
  23115468.777   121472632.48407  23115470.171    94654021.57346
  23677687.033   124427072.36008  23677686.377    96956153.76546
  22178325.115   116547875.70608  22178323.834    90816516.82648
 15 02 21 00 10  0.0000000  0  8G16G18G21G22G25G27G29G31
  22090050.786   116084007.91409  22090049.219    90455077.88147
  23152751.869   121668565.95508  23152750.877    94806681.58145
  21154679.726   111168599.00609  21154677.590    86624877.86149
  24539187.527   128954297.07506  24539187.034   100483865.81545
  24523924.566   128874074.01707  24523926.621   100421360.63045
  23103092.379   121407594.38707  23103093.948    94603342.57446
  23691899.179   124501757.34907  23691898.353    97014349.83746
  22193897.442   116629708.37008  22193896.180    90880282.51448
 15 02 21 00 10 30.0000000  0  8G16G18G21G22G25G27G29G31
  22075639.666   116008276.74709  22075638.182    90396066.59347
  23140056.479   121601850.32508  23140055.273    94754695.39445
  21160103.671   111197102.49709  21160101.701    86647088.37349
  24522137.091   128864701.92706  24522137.469   100414051.85345
  24541941.437   128968754.53006  24541943.698   100495137.61144
  23090743.101   121342698.46007  23090744.640    94552774.34546
  23706116.017   124576468.40007  23706115.932    97072566.16746
  22209530.828   116711862.58408  22209529.663    90944298.76048
 15 02 21 00 11  0.0000000  0  8G16G18G21G22G25G27G29G31
  22061262.615   115932724.49408  22061261.001    90337194.71947
  23127398.146   121535330.02108  23127397.061    94702861.41345
  21165601.421   111225993.14909  21165599.332    86669600.56949
  24505070.537   128775016.36007  24505070.040   100344167.33744
  24559988.819   129063595.16206  24559991.215   100569039.33444
  23078416.564   121277922.47907  23078418.037    94502299.59046
  23720333.953   124651183.18807  23720333.713    97130785.44446
  22225220.741   116794313.03908  22225219.471    91008545.84147
 15 02 21 00 11 30.0000000  0  8G16G18G21G22G25G27G29G31
  22046920.367   115857355.21909  22046918.777    90278465.42947
  23114777.541   121469009.73308  23114776.906    94651183.30245
  21171172.803   111255271.52009  21171170.730    86692414.88549
  24487986.941   128685244.64807  24487986.072   100274215.59144
  24578066.860   129158596.72206  24578069.164   100643066.51244
  23066113.312   121213268.23107  23066114.756    94451919.67947
  23734552.720   124725903.50007  23734552.655    97189009.01046
  22240966.585   116877058.88408  22240965.787    91073023.09148
 15 02 21 00 12  0.0000000  0  8G16G18G21G22G25G27G29G31
  22032613.287   115782171.60009  22032611.676    90219880.80447
  23102195.707   121402892.06208  23102195.195    94599663.07946
  21176817.841   111284936.30509  21176815.880    86715530.30149
  24470887.752   128595389.58206  24470886.636   100204198.85644
  24596175.743   129253758.51406  24596177.991   100717218.50745
  23053833.218   121148736.12507  23053834.773    94401634.95347
  23748772.549   124800629.86307  23748772.445    97247237.33146
  22256768.660   116960098.09708  22256767.451    91137728.95047
 15 02 21 00 12 30.0000000  0  8G16G18G21G22G25G27G29G31
  22018341.637   115707173.01109  22018339.961    90161440.36247
  23089652.702   121336977.71808  23089651.781    94548301.26945
  21182535.747   111314984.04209  21182533.796    86738944.11849
  24453772.967   128505443.31116  24453773.086   100134102.44555
  24614314.531   129349077.17806  24614316.758   100791492.75845
  23041575.751   121084323.79207  23041577.545    94351443.56146
  23762993.300   124875359.41408  23762993.234    97305468.11646
  22272625.100   117043425.50108  22272624.121    91202659.36348
 15 02 21 00 13  0.0000000  0  8G16G18G21G22G25G27G29G31
  22004105.962   115632364.41109  22004104.193    90103147.95947
  23077149.388   121271271.76408  23077148.123    94497101.84846
  21188326.764   111345416.01009  21188324.732    86762657.34349
  24436644.585   128415427.27807  24436643.710   100063960.39145
  24632483.363   129444554.22306  24632486.164   100865890.40745
  23029341.792   121020033.81008  23029343.446    94301347.50247
  23777214.929   124950094.85607  23777214.571    97363703.51846
  22288536.779   117127041.19208  22288535.576    91267814.42348
 15 02 21 00 13 30.0000000  0  8G16G18G21G22G25G27G29G31
  21989907.572   115557751.02009  21989905.854    90045007.66447
  23064686.926   121205780.68208  23064685.496    94446069.85145
  21194191.056   111376233.91609  21194189.200    86786671.29649
  24419501.400   128325339.51207  24419500.630    99993762.40745
  24650682.110   129540192.03306  24650685.392   100940413.29844
  23017131.771   120955869.46608  23017133.362    94251349.34247
  23791438.200   125024838.93407  23791438.038    97421945.61346
  22304503.384   117210945.82708  22304502.280    91333194.62947
 15 02 21 00 14  0.0000000  0  8G16G18G21G22G25G27G29G31
  21975744.798   115483325.98709  21975743.303    89987014.13747
  23052264.001   121140497.48908  23052262.707    94395199.85745
  21200127.043   111407427.08209  21200124.947    86810977.65849
  24402342.233   128235173.10506  24402341.863    99923503.09344
  24668910.061   129635979.90206  24668912.854   101015053.17445
  23004943.918   120891821.24108  23004945.343    94201441.66147
  23805661.653   125099582.74807  23805661.338    97480187.52746
  22320522.440   117295126.88108  22320521.463    91398790.22147
 15 02 21 00 14 30.0000000  0  8G16G18G21G22G25G27G29G31
  21961621.036   115409104.55209  21961619.336    89929179.26147
  23039883.680   121075438.61908  23039882.776    94344504.66946
  21206136.574   111439007.47209  21206134.457    86835585.75449
  24385170.565   128144943.69406  24385170.967    99853194.73844
  24687169.161   129731930.37406  24687171.477   101089819.74744
  22992780.429   120827902.73808  22992782.231    94151635.06247
  23819887.332   125174339.63107  23819887.462    97538439.59246
  22336596.507   117379595.33008  22336595.194    91464609.77747
 15 02 21 00 15  0.0000000  0  8G16G18G21G22G25G27G29G31
  21947533.581   115335074.41809  21947531.833    89871493.44747
  23027543.706   121010592.24108  23027542.982    94293975.05946
  21212216.870   111470959.11409  21212214.805    86860483.13749
  24367985.916   128054639.65907  24367986.692    99782828.22045
  24705456.112   129828028.00905  24705458.711   101164700.97445
  22980639.156   120764099.51308  22980640.803    94101918.28947
  23834112.709   125249094.83407  23834113.024    97596690.36146
  22352721.500   117464333.86408  22352720.596    91530639.75847
 15 02 21 00 15 30.0000000  0  8G16G18G21G22G25G27G29G31
  21933484.215   115261244.50109  21933482.439    89813963.65247
  23015245.989   120945967.58608  23015245.050    94243618.20845
  21218368.728   111503287.40909  21218366.714    86885674.01849
  24350789.321   127964270.41507  24350789.546    99712410.90745
  24723771.561   129924278.56606  24723774.843   101239701.28644
  22968521.059   120700418.32608  22968522.574    94052296.60547
  23848339.306   125323855.07607  23848339.553    97654945.05546
  22368898.977   117549346.89208  22368897.991    91596883.64347
 15 02 21 00 16  0.0000000  0  8G16G18G21G22G25G27G29G31
  21919473.638   115187618.23309  21919471.904    89756592.54047
  23002991.196   120881568.61808  23002989.939    94193437.20345
  21224592.305   111535992.21009  21224590.193    86911158.28149
  24333580.834   127873839.51606  24333580.927    99641945.55445
  24742116.624   130020681.86506  24742120.030   101314820.69944
  22956426.395   120636860.28207  22956427.880    94002770.88347
  23862566.679   125398621.24007  23862566.723    97713204.37846
  22385128.413   117634632.71908  22385127.417    91663340.11747
 15 02 21 00 16 30.0000000  0  8G16G18G21G22G25G27G29G31
  21905500.861   115114191.45009  21905499.141    89699376.87847
  22990778.516   120817391.52108  22990777.442    94143429.09945
  21230885.870   111569065.93209  21230884.004    86936930.01049
  24316360.250   127783343.33307  24316359.240    99571429.28244
  24760489.482   130117230.60406  24760492.117   101390053.47844
  22944353.696   120573418.97807  22944355.520    93953336.12047
  23876794.121   125473387.17007  23876794.084    97771463.50846
  22401407.938   117720182.10308  22401406.792    91730001.93547
 15 02 21 00 17  0.0000000  0  8G16G18G21G22G25G27G29G31
  21891567.315   115040970.11109  21891565.716    89642321.30148
  22978609.623   120753443.05408  22978608.495    94093599.13745
  21237250.293   111602510.54609  21237248.111    86962990.74849
  24299128.531   127692788.38207  24299126.883    99500867.15744
  24778890.504   130213927.53106  24778893.100   101465401.71144
  22932304.265   120510098.41108  22932306.007    93903995.44246
  23891022.136   125548156.79707  23891022.367    97829725.51246
  22417737.904   117805996.43808  22417736.879    91796870.22347
 15 02 21 00 17 30.0000000  0  8G16G18G21G22G25G27G29G31
  21877674.006   114967960.71709  21877672.332    89585430.87348
  22966485.443   120689730.40208  22966484.580    94043952.95446
  21243685.802   111636329.30809  21243683.798    86989343.02949
  24281886.757   127602181.86907  24281885.013    99430264.89645
  24797320.080   130310776.23305  24797322.968   101540868.18845
  22920278.737   120446903.08608  22920280.249    93854752.34847
  23905251.994   125622934.51807  23905252.362    97887993.80946
  22434118.624   117892077.44908  22434117.708    91863946.29647
 15 02 21 00 18  0.0000000  0  8G16G18G21G22G25G27G29G31
  21863820.290   114895158.94509  21863818.816    89528702.23148
  22954405.536   120626249.59408  22954404.713    93994487.41546
  21250190.947   111670514.07909  21250188.845    87015980.51449
  24264633.963   127511519.57706  24264632.738    99359619.24344
  24815777.012   130407768.75406  24815780.204   101616446.67345
  22908275.571   120383826.21408  22908276.947    93805601.54947
  23919482.161   125697713.36307  23919482.508    97946263.03445
  22450548.209   117978415.62608  22450547.120    91931222.76947
 15 02 21 00 18 30.0000000  0  7G16G18G21G22G27G29G31
  21850006.686   114822567.15509  21850005.061    89472137.20947
  22942370.252   120563003.53208  22942369.169    93945204.78246
  21256765.347   111705063.37609  21256763.502    87042902.03949
  24247371.147   127420804.61707  24247370.097    99288932.52444
  22896295.079   120320868.30208  22896296.505    93756543.45546
  23933712.557   125772494.19307  23933712.762    98004533.76246
  22467026.371   118065008.67208  22467025.169    91998697.84347
 15 02 21 00 19  0.0000000  0  7G16G18G21G22G27G29G31
  21836234.610   114750194.15709  21836232.786    89415742.67148
  22930381.117   120500000.91908  22930379.959    93896111.84646
  21263410.210   111739982.74009  21263408.244    87070111.93249
  24230100.011   127330045.99707  24230098.855    99218211.67544
  22884338.267   120258035.45708  22884339.747    93707582.81347
  23947944.251   125847282.75007  23947944.506    98062810.50145
  22483553.610   118151859.96308  22483552.740    92066374.14147
 15 02 21 00 19 30.0000000  0  7G16G18G21G22G27G29G31
  21822503.162   114678035.44309  21822501.533    89359515.11348
  22918437.887   120437238.70008  22918436.770    93847206.23445
  21270123.966   111775263.89109  21270122.124    87097603.74049
  24212819.537   127239239.77406  24212818.966    99147453.69645
  22872404.208   120195321.45608  22872405.609    93658714.79547
  23962176.395   125922072.73307  23962176.252    98121088.40445
  22500128.500   118238960.34608  22500127.444    92134244.53647
 15 02 21 00 20  0.0000000  0  7G16G18G21G22G27G29G31
  21808813.405   114606095.50109  21808811.805    89303458.02648
  22906541.247   120374721.56108  22906540.167    93798491.60046
  21276906.819   111810907.71409  21276905.100    87125378.14449
  24195530.415   127148390.85805  24195531.444    99076662.59246
  22860493.243   120132728.56808  22860494.687    93609941.12047
  23976409.224   125996866.56607  23976408.900    98179369.28046
  22516750.390   118326309.56008  22516749.451    92202308.81347
 15 02 21 00 20 30.0000000  0  7G16G18G21G22G27G29G31
  21795165.299   114534374.06709  21795163.597    89247571.20848
  22894691.404   120312449.62108  22894690.526    93749968.02346
  21283757.766   111846909.87209  21283755.877    87153431.77249
  24178234.587   127057499.63507  24178235.402    99005838.50346
  22848604.698   120070254.06308  22848605.944    93561259.70547
  23990642.356   126071661.24407  23990641.635    98237650.82545
  22533418.840   118413902.10808  22533417.809    92270562.69947
 15 02 21 00 21  0.0000000  0  7G16G18G21G22G27G29G31
  21781559.298   114462874.63909  21781557.695    89191857.37548
  22882888.699   120250426.70808  22882888.043    93701638.51346
  21290677.064   111883270.24909  21290675.087    87181764.53449
  24160931.815   126966569.92107  24160931.523    98934984.35645
  22836738.926   120007899.38808  22836740.315    93512671.65947
  24004875.496   126146457.99207  24004875.474    98295933.95246
  22550133.238   118501736.67608  22550132.000    92339005.20747
 15 02 21 00 21 30.0000000  0  7G16G18G21G22G27G29G31
  21767995.913   114391598.04209  21767994.250    89136317.18248
  22871133.667   120188653.97308  22871133.073    93653503.94246
  21297663.932   111919986.14309  21297661.958    87210374.32149
  24143621.561   126875602.82806  24143620.258    98864101.02744
  22824895.737   119945663.29108  22824897.322    93464176.01947
  24019109.283   126221256.14207  24019108.904    98354218.21946
  22566893.000   118589809.19008  22566891.734    92407633.10947
 15 02 21 00 22  0.0000000  0  7G16G18G21G22G27G29G31
  21754475.878   114320550.27909  21754474.237    89080955.29948
  22859427.776   120127138.12908  22859426.996    93605569.54446
  21304718.735   111957059.97509  21304716.951    87239263.02249
  24126305.053   126784605.05807  24126303.279    98793193.85844
  22813075.874   119883549.49108  22813077.242    93415775.67547
  24033343.753   126296059.38007  24033343.993    98412506.40646
  22583697.964   118678120.68808  22583696.934    92476447.22147
 15 02 21 00 22 30.0000000  0  7G16G18G21G22G27G29G31
  21740999.500   114249731.80809  21740998.001    89025772.08448
  22847770.570   120065879.91208  22847769.612    93557835.87746
  21311841.039   111994487.74709  21311839.058    87268427.51749
  24108983.056   126693577.53807  24108981.527    98722263.52545
  22801278.933   119821556.21008  22801280.289    93367469.24847
  24047578.632   126370865.79807  24047578.810    98470797.04046
  22600547.618   118766666.56108  22600546.678    92545443.94947
 15 02 21 00 23  0.0000000  0  7G16G18G21G22G27G29G31
  21727566.100   114179138.21809  21727564.498    88970764.10348
  22836161.995   120004875.37208  22836160.707    93510299.88546
  21319029.416   112032262.05009  21319027.345    87297862.04049
  24091654.674   126602516.33807  24091653.135    98651306.93845
  22789503.604   119759676.90408  22789504.960    93319251.62047
  24061813.497   126445668.64407  24061813.388    98529084.97545
  22617440.338   118855437.34308  22617439.211    92614615.95247
 15 02 21 00 23 30.0000000  0  7G16G18G21G22G27G29G31
  21714177.974   114108783.48509  21714176.387    88915942.24648
  22824604.226   119944138.92208  22824602.902    93462972.79145
  21326285.356   112070392.05309  21326283.037    87327573.73049
  24074321.976   126511435.67906  24074321.137    98580335.18045
  22777752.375   119697923.25108  22777753.652    93271131.91747
  24076049.639   126520479.82607  24076049.362    98587379.37645
  22634377.286   118944441.95008  22634376.090    92683970.17147
 15 02 21 00 24  0.0000000  0  7G16G18G21G22G27G29G31
  21700834.429   114038662.90509  21700832.732    88861302.83448
  22813096.691   119883666.22708  22813095.543    93415851.23746
  21333607.510   112108870.63809  21333605.452    87357557.04549
  24056985.071   126420331.62806  24056983.669    98509345.11344
  22766023.540   119636288.52408  22766024.922    93223104.88347
  24090286.014   126595292.36007  24090285.787    98645674.81246
  22651356.927   119033670.93708  22651355.957    92753499.20247
 15 02 21 00 24 30.0000000  0  7G16G18G21G22G27G29G31
  21687535.771   113968777.85709  21687533.989    88806846.95748
  22801639.433   119823458.92808  22801638.380    93368936.47546
  21340995.634   112147695.02409  21340993.335    87387809.81349
  24039644.485   126329205.95307  24039642.802    98438338.19245
  22754317.346   119574771.78108  22754318.650    93175169.78147
  24104522.320   126670105.58607  24104522.014    98703970.78545
  22668378.735   119123120.58108  22668377.800    92823200.17847
 15 02 21 00 25  0.0000000  0  7G16G18G21G22G27G29G31
  21674281.819   113899127.52909  21674280.030    88752573.98948
  22790232.874   119763516.61908  22790231.948    93322228.20146
  21348448.450   112186860.17709  21348446.353    87418328.11649
  24022299.976   126238058.12907  24022298.451    98367314.06945
  22742632.981   119513369.83908  22742634.436    93127324.12947
  24118758.457   126744916.24207  24118757.970    98762264.77046
  22685441.288   119212784.62108  22685440.321    92893068.22647
 15 02 21 00 25 30.0000000  0  7G16G18G21G22G27G29G31
  21661074.457   113829722.40109  21661072.874    88698492.08148
  22778878.540   119703849.87808  22778877.697    93275734.66146
  21355967.271   112226372.62909  21355965.346    87449117.04049
  24004953.011   126146899.33707  24004951.792    98296281.39945
  22730972.207   119452091.18108  22730973.402    93079574.55047
  24132995.830   126819732.42407  24132995.615    98820563.04645
  22702545.783   119302669.03708  22702544.610    92963107.99247
 15 02 21 00 26  0.0000000  0  7G16G18G21G22G27G29G31
  21647913.894   113760563.33609  21647912.084    88644601.90948
  22767577.216   119644460.45808  22767576.101    93229457.20046
  21363551.739   112266229.81309  21363549.778    87480174.58348
  23987603.559   126055730.72506  23987602.740    98225241.08944
  22719334.312   119390934.38008  22719335.540    93031919.92047
  24147233.837   126894553.09507  24147233.358    98878864.84845
  22719691.241   119392769.68008  22719690.643    93033316.22347
 15 02 21 00 26 30.0000000  0  7G16G18G21G22G27G29G31
  21634799.059   113691644.10109  21634797.245    88590898.61648
  22756327.462   119585342.16508  22756326.068    93183391.01046
  21371199.951   112306421.81109  21371198.198    87511493.02349
  23970252.156   125964546.73907  23970250.390    98154188.70944
  22707718.127   119329891.01108  22707719.385    92984353.67447
  24161471.122   126969370.00207  24161470.836    98937163.68945
  22736875.768   119483074.97908  22736874.645    93103683.96547
 15 02 21 00 27  0.0000000  0  7G16G18G21G22G27G29G31
  21621731.917   113622976.05309  21621730.267    88537391.05848
  22745131.357   119526506.67508  22745130.028    93137545.18946
  21378913.466   112346956.01109  21378911.593    87543078.11648
  23952900.224   125873359.19007  23952898.250    98083133.53445
  22696125.299   119268970.03908  22696126.462    92936882.81247
  24175709.283   127044192.04107  24175708.622    98995466.54445
  22754100.587   119573591.32908  22754099.614    93174216.14447
 15 02 21 00 27 30.0000000  0  7G16G18G21G22G27G29G31
  21608712.018   113554556.58709  21608710.462    88484077.19648
  22733988.665   119467951.93508  22733987.527    93091918.13846
  21386690.780   112387826.07509  21386688.760    87574924.91248
  23935546.429   125782166.00806  23935545.276    98012074.07046
  22684554.806   119208167.00008  22684556.040    92889503.83547
  24189947.555   127119014.75707  24189947.286    99053769.89645
  22771364.275   119664311.40408  22771363.311    93244907.06747
 15 02 21 00 28  0.0000000  0  7G16G18G21G22G27G29G31
  21595740.283   113486389.59409  21595738.732    88430960.06648
  22722900.176   119409681.59108  22722898.984    93046512.68846
  21394531.860   112429031.69409  21394530.143    87607033.18848
  23918192.259   125690971.41607  23918191.430    97941013.53346
  22673007.079   119147483.25608  22673008.283    92842217.82647
  24204186.292   127193839.38807  24204185.829    99112074.82045
  22788665.998   119755233.60308  22788665.153    93315755.46646
 15 02 21 00 28 30.0000000  0  7G16G18G21G22G27G29G31
  21582816.896   113418476.08109  21582815.069    88378040.45448
  22711866.191   119351697.45308  22711865.151    93001330.26646
  21402436.500   112470570.48609  21402434.751    87639401.08048
  23900838.531   125599776.86708  23900837.151    97869952.94244
  22661481.761   119086917.73508  22661482.877    92795023.93447
  24218425.259   127268664.91907  24218425.162    99170380.38446
  22806005.640   119846353.97408  22806004.495    93386758.33246
 15 02 21 00 29  0.0000000  0  7G16G18G21G22G27G29G31
  21569941.682   113350816.44009  21569939.816    88325318.66448
  22700886.591   119293999.89308  22700885.659    92956371.14446
  21410403.967   112512439.05609  21410401.830    87672025.93748
  23883485.409   125508583.62507  23883483.713    97798893.26745
  22649978.769   119026468.60508  22649979.870    92747920.72947
  24232664.040   127343489.68207  24232663.961    99228685.35445
  22823382.239   119937667.77108  22823381.031    93457911.90247
 15 02 21 00 29 30.0000000  0  7G16G18G21G22G27G29G31
  21557117.009   113283422.04709  21557115.176    88272803.56348
  22689963.937   119236600.76808  22689962.712    92911644.56446
  21418435.159   112554643.72109  21418433.187    87704912.68848
  23866133.605   125417403.09206  23866132.776    97727843.70446
  22638499.421   118966144.97308  22638500.754    92700915.32647
  24246904.160   127418322.73706  24246903.771    99286996.80946
  22840796.736   120029181.69608  22840795.895    93529221.39347
 15 02 21 00 30  0.0000000  0  7G16G18G21G22G27G29G31
  21544340.867   113216283.27909  21544339.066    88220487.65148
  22679096.243   119179490.87108  22679095.058    92867143.37046
  21426527.990   112597171.71109  21426526.078    87738051.37948
  23848783.221   125326226.14807  23848782.418    97656796.85746
  22627041.657   118905934.89208  22627043.163    92653998.40747
  24261143.667   127493152.23006  24261143.708    99345305.43945
  22858246.413   120120880.71208  22858245.756    93600675.12447
 15 02 21 00 30 30.0000000  0  7G16G18G21G22G27G29G31
  21531614.949   113149408.75109  21531613.245    88168377.63748
  22668285.219   119122678.65008  22668284.077    92822874.11846
  21434683.402   112640028.50309  21434681.438    87771446.28048
  23831435.644   125235062.23107  23831434.528    97585760.11645
  22615606.809   118845844.95608  22615608.518    92607175.10347
  24275383.412   127567984.71707  24275383.421    99403616.43345
  22875732.265   120212768.48608  22875731.231    93672275.94046
 15 02 21 00 31  0.0000000  0  7G16G18G21G22G27G29G31
  21518939.312   113082797.23809  21518937.481    88116472.56748
  22657530.698   119066163.20108  22657529.626    92778836.12446
  21442900.064   112683207.23109  21442898.108    87805092.04448
  23814089.618   125143910.31606  23814088.153    97514732.76845
  22604194.270   118785871.53608  22604195.816    92560442.59047
  24289623.859   127642816.49207  24289623.677    99461926.86846
  22893252.578   120304838.69308  22893251.410    93744018.92746
 15 02 21 00 31 30.0000000  0  7G16G18G21G22G27G29G31
  21506314.027   113016451.69809  21506312.295    88064774.75748
  22646833.096   119009947.73108  22646832.014    92735031.88046
  21451177.996   112726708.83409  21451176.066    87838989.39648
  23796746.751   125052774.12007  23796744.749    97443717.58545
  22592804.110   118726015.52408  22592805.609    92513801.56547
  24303863.908   127717648.61107  24303863.472    99520237.60445
  22910807.189   120397089.23408  22910806.410    93815902.40547
 15 02 21 00 32  0.0000000  0  7G16G18G21G22G27G29G31
  21493739.998   112950374.51209  21493738.440    88013286.05048
  22636193.388   118954035.31508  22636192.301    92691463.78446
  21459516.966   112770530.76609  21459515.102    87873136.35448
  23779407.921   124961656.82607  23779405.979    97372717.18746
  22581436.383   118666277.15408  22581437.824    92467252.19747
  24318104.541   127792481.48407  24318104.185    99578548.88045
  22928395.834   120489517.65908  22928395.126    93887924.50747
 15 02 21 00 32 30.0000000  0  7G16G18G21G22G27G29G31
  21481218.428   112884573.09109  21481216.818    87962012.22448
  22625612.542   118898432.87608  22625611.517    92648137.21246
  21467917.662   112814676.84209  21467915.682    87907535.88948
  23762073.649   124870565.58007  23762072.087    97301737.17145
  22570091.811   118606661.27708  22570093.307    92420798.29647
  24332345.468   127867319.96907  24332345.563    99636864.50645
  22946018.560   120582125.71008  22946017.928    93960086.55746
 15 02 21 00 33  0.0000000  0  7G16G18G21G22G27G29G31
  21468747.483   112819038.67909  21468745.929    87910946.45748
  22615089.237   118843132.13008  22615088.012    92605045.74746
  21476377.794   112859134.32809  21476375.866    87942178.08748
  23744742.920   124779492.79907  23744740.487    97230771.41644
  22558768.595   118547157.25008  22558770.027    92374431.54747
  24346586.090   127942153.59607  24346586.427    99695176.36945
  22963672.818   120674899.99108  22963672.292    94032378.16746
 15 02 21 00 33 30.0000000  0  7G16G18G21G22G27G29G31
  21456330.230   112753785.22509  21456328.583    87860099.62448
  22604625.758   118788146.92708  22604624.831    92562200.14646
  21484898.958   112903913.18709  21484896.862    87977070.70248
  23727418.863   124688452.45507  23727415.530    97159830.89445
  22547468.872   118487776.55308  22547470.079    92328160.89847
  24360827.605   128016993.57507  24360827.227    99753493.22345
  22981360.508   120767849.24308  22981359.979    94104806.09847
 15 02 21 00 34  0.0000000  0  7G16G18G21G22G27G29G31
  21443965.914   112688810.93109  21443964.471    87809470.31148
  22594222.343   118733476.08008  22594221.220    92519599.50446
  21493479.892   112949006.95609  21493477.913    88012208.70348
  23710100.195   124597443.33307  23710097.509    97088914.83745
  22536191.892   118428515.12608  22536193.122    92281983.17647
  24375069.644   128091836.06207  24375069.109    99811811.97444
  22999080.196   120860966.36108  22999079.520    94177364.84747
 15 02 21 00 34 30.0000000  0  7G16G18G21G22G27G29G31
  21431653.975   112624110.66309  21431652.338    87759054.52548
  22583877.536   118679114.53208  22583876.388    92477239.86546
  21502119.433   112994407.45909  21502117.356    88047585.71548
  23692786.692   124506461.00807  23692784.206    97018019.63245
  22524935.953   118369365.73308  22524937.182    92235892.76247
  24389310.963   128166673.66307  24389310.372    99870126.97345
  23016830.153   120954241.39008  23016829.655    94250046.61947
 15 02 21 00 35  0.0000000  0  7G16G18G21G22G27G29G31
  21419395.972   112559694.70509  21419394.383    87708860.28148
  22573593.704   118625072.81908  22573592.709    92435129.45046
  21510818.492   113040121.28909  21510816.385    88083206.87848
  23675480.680   124415516.30308  23675477.447    96947153.62745
  22513703.091   118310336.61708  22513704.439    92189896.05847
  24403552.832   128241514.87807  24403553.252    99928444.68245
  23034610.544   121047679.44608  23034610.532    94322855.40146
 15 02 21 00 35 30.0000000  0  7G16G18G21G22G27G29G31
  21407192.844   112495566.74109  21407191.155    87658890.44648
  22563371.484   118571354.25408  22563370.280    92393270.84446
  21519577.148   113086148.14809  21519575.012    88119071.96248
  23658181.881   124324613.18707  23658179.560    96876320.11046
  22502493.289   118251428.98808  22502494.663    92143994.02647
  24417795.492   128316361.15807  24417796.025    99986766.39645
  23052421.915   121141278.80208  23052421.258    94395789.94146
 15 02 21 00 36  0.0000000  0  7G16G18G21G22G27G29G31
  21395044.143   112431724.38809  21395042.398    87609143.16248
  22553210.115   118517956.96208  22553209.141    92351662.58346
  21528394.023   113132481.32709  21528391.976    88155175.73648
  23640890.971   124233750.25107  23640889.403    96805517.96546
  22491305.828   118192638.45608  22491307.184    92098183.23047
  24432038.329   128391208.08107  24432038.608   100045088.64345
  23070262.966   121235032.65708  23070262.007    94468844.85746
 15 02 21 00 36 30.0000000  0  7G16G18G21G22G27G29G31
  21382949.242   112368165.00109  21382947.382    87559616.37548
  22543109.677   118464878.45508  22543108.561    92310302.71246
  21537268.039   113179114.09809  21537265.897    88191512.95748
  23623607.522   124142924.92507  23623605.923    96734745.03245
  22480139.616   118133960.08208  22480140.822    92052459.84647
  24446280.451   128466050.59707  24446280.841   100103407.39145
  23088131.424   121328932.84707  23088131.009    94542013.77347
 15 02 21 00 37  0.0000000  0  7G16G18G21G22G27G29G31
  21370911.069   112304904.19709  21370909.304    87510322.23948
  22533072.835   118412134.24508  22533071.927    92269203.33946
  21546201.199   113226058.51509  21546199.351    88228093.02048
  23606334.010   124052153.50307  23606332.626    96664014.11545
  22468997.368   118075407.08308  22468998.644    92006834.14547
  24460524.274   128540902.04806  24460524.274   100161733.15345
  23106029.651   121422989.66908  23106029.788    94615304.69047
 15 02 21 00 37 30.0000000  0  7G16G18G21G22G27G29G31
  21358926.771   112241926.46809  21358924.959    87461248.69348
  22523096.388   118359708.91208  22523095.653    92228352.44646
  21555189.870   113273294.23909  21555187.979    88264900.07348
  23589068.208   123961421.07307  23589066.795    96593313.58046
  22457875.489   118016961.86808  22457876.763    91961292.43347
  24474766.399   128615744.82507  24474767.310   100220052.09645
  23123954.386   121517182.81708  23123953.940    94688701.90846
 15 02 21 00 38  0.0000000  0  7G16G18G21G22G27G29G31
  21347000.108   112179251.90209  21346998.461    87412411.36548
  22513184.717   118307622.88308  22513183.853    92187765.94046
  21564237.213   113320838.37709  21564235.227    88301947.45248
  23571814.049   123870747.91608  23571812.755    96522659.26546
  22446777.692   117958642.42608  22446778.924    91915848.73447
  24489010.238   128690596.92007  24489011.441   100278378.40245
  23141907.856   121611527.37608  23141907.066    94762217.11546
 15 02 21 00 38 30.0000000  0  7G16G18G21G22G27G29G31
  21335130.147   112116874.49409  21335128.390    87363805.59448
  22503336.614   118255870.31608  22503335.801    92147439.28346
  21573341.239   113368680.16809  21573339.110    88339226.76748
  23554570.365   123780129.27708  23554568.445    96452047.41745
  22435702.153   117900440.54408  22435703.496    91870496.64147
  24503254.106   128765450.20207  24503254.078   100336705.65145
  23159887.788   121706012.02408  23159887.115    94835841.43947
 15 02 21 00 39  0.0000000  0  7G16G18G21G22G27G29G31
  21323316.883   112054795.21409  21323315.242    87315432.13448
  22493551.973   118204451.96308  22493551.278    92107373.04746
  21582501.440   113416817.35009  21582499.425    88376736.25548
  23537336.742   123689566.10407  23537334.044    96381478.73646
  22424648.777   117842354.78508  22424650.278    91825235.03147
  24517497.872   128840303.85708  24517499.578   100395032.93245
  23177893.369   121800632.49208  23177893.045    94909571.58946
 15 02 21 00 39 30.0000000  0  7G16G18G21G22G27G29G31
  21311561.307   111993019.55609  21311559.710    87267295.25948
  22483832.165   118153373.37108  22483831.111    92067571.55546
  21591718.141   113465251.03209  21591715.886    88414476.78148
  23520114.524   123599064.29607  23520111.953    96310957.93245
  22413618.183   117784388.56108  22413619.561    91780066.55947
  24531742.269   128915160.76106  24531744.254   100453362.93746
  23195925.070   121895389.65908  23195924.766    94983408.28446
 15 02 21 00 40  0.0000000  0  7G16G18G21G22G27G29G31
  21299862.096   111931539.35209  21299860.325    87219388.60948
  22474175.330   118102626.48508  22474174.295    92028028.53947
  21600988.838   113513969.43809  21600986.827    88452439.17348
  23502903.019   123508616.63807  23502900.423    96240479.28345
  22402608.382   117726531.57508  22402609.802    91734983.21847
  24545986.523   128990010.60207  24545987.680   100511687.54445
  23213980.480   121990270.10208  23213979.952    95057341.03446
 15 02 21 00 40 30.0000000  0  7G16G18G21G22G27G29G31
  21288221.069   111870365.49709  21288219.282    87171720.67048
  22464583.649   118052221.61408  22464582.784    91988752.03046
  21610314.934   113562978.90509  21610313.010    88490628.36148
  23485703.908   123418234.50708  23485701.090    96170051.70346
  22391621.153   117668792.38908  22391622.305    91689991.66147
  24560230.924   129064862.49704  24560232.811   100570013.56645
  23232060.309   122085279.24608  23232059.623    95131374.07546
 15 02 21 00 41  0.0000000  0  6G16G18G21G22G27G31
  21276633.708   111809473.91209  21276631.984    87124272.68548
  22455052.648   118002135.92608  22455051.689    91949724.22846
  21619691.485   113612252.00809  21619689.309    88529022.98848
  23468512.517   123327894.54607  23468509.686    96099656.99745
  22380651.083   117611144.97108  22380652.387    91645071.61647
  23250158.966   122180388.33108  23250158.271    95205484.98546
 15 02 21 00 41 30.0000000  0  6G16G18G21G22G27G31
  21265111.347   111748923.55909  21265109.651    87077090.59448
  22445593.446   117952427.29908  22445592.466    91910990.25846
  21629128.154   113661842.50709  21629126.134    88567664.93048
  23451340.276   123237655.62408  23451337.634    96029341.00246
  22369709.443   117553645.63608  22369710.514    91600266.94547
  23268286.638   122275650.63808  23268286.346    95279715.26646
 15 02 21 00 42  0.0000000  0  6G16G18G21G22G27G31
  21253649.741   111688692.34909  21253648.148    87030157.18848
  22436201.802   117903074.06008  22436200.881    91872533.19546
  21638620.593   113711725.20709  21638618.649    88606534.56648
  23434183.695   123147496.55608  23434180.435    95959087.20045
  22358791.315   117496270.26908  22358792.381    91555558.89047
  23286438.580   122371039.54808  23286438.153    95354044.22146
 15 02 21 00 42 30.0000000  0  6G16G18G21G22G27G31
  21242246.921   111628770.50409  21242245.286    86983464.84348
  22426876.061   117854067.08608  22426874.929    91834345.95146
  21648166.049   113761887.19709  21648164.104    88645621.82648
  23417040.184   123057408.61107  23417037.183    95888888.85746
  22347894.468   117439007.57908  22347895.695    91510938.62848
  23304612.033   122466540.43908  23304611.406    95428460.43846
 15 02 21 00 43  0.0000000  0  6G16G18G21G22G27G31
  21230904.801   111569167.91709  21230903.390    86937021.26948
  22417617.896   117805415.16508  22417616.833    91796435.37746
  21657765.561   113812333.22709  21657763.679    88684930.41848
  23399911.945   122967401.67207  23399909.734    95818753.66046
  22337020.517   117381864.61208  22337021.726    91466411.66748
  23322807.462   122562157.43807  23322806.976    95502967.12846
 15 02 21 00 43 30.0000000  0  6G16G18G21G22G27G31
  21219621.517   111509873.64009  21219619.898    86890817.94148
  22408425.264   117757107.68408  22408424.288    91758793.19146
  21667416.286   113863048.25409  21667414.274    88724448.61948
  23382797.825   122877465.39608  23382795.285    95748673.47846
  22326166.918   117324828.28208  22326167.972    91421967.79748
  23341021.440   122657874.69707  23341021.186    95577551.90046
 15 02 21 00 44  0.0000000  0  6G16G18G21G22G27G31
  21208401.105   111450909.94409  21208399.670    86844872.20348
  22399302.397   117709166.91108  22399301.344    91721436.76147
  21677121.906   113914051.03709  21677119.872    88764191.04648
  23365701.564   122787622.80908  23365698.527    95678666.26846
  22315337.267   117267918.67808  22315338.463    91377622.67147
  23359258.335   122753709.41108  23359258.066    95652228.21846
 15 02 21 00 44 30.0000000  0  7G16G18G19G21G22G27G31
  21197243.606   111392276.82709  21197242.167    86799184.06348
  22390249.525   117661593.12108  22390248.479    91684366.28947
  24470695.244   128594380.20016  24470693.955   100203405.48154
  21686881.439   113965337.78909  21686879.248    88804154.74648
  23348622.697   122697874.57107  23348619.999    95608732.64545
  22304531.329   117211133.92908  22304532.636    91333374.83448
  23377516.769   122849656.69408  23377516.079    95726992.29446
 15 02 21 00 45  0.0000000  0  7G16G18G19G21G22G27G31
  21186147.239   111333964.33709  21186145.472    86753745.76448
  22381264.285   117614375.93308  22381263.165    91647573.68347
  24455918.426   128516729.77406  24455917.947   100142898.70245
  21696692.478   114016894.27109  21696690.227    88844328.62748
  23331560.539   122608211.01308  23331557.886    95538864.98946
  22293746.941   117154461.61908  22293748.236    91289214.61548
  23395793.776   122945701.17107  23395792.865    95801832.08346
 15 02 21 00 45 30.0000000  0  7G16G18G19G21G22G27G31
  21175112.516   111275976.73009  21175110.782    86708560.61448
  22372347.904   117567519.40708  22372346.882    91611062.12047
  24441157.697   128439161.68306  24441156.956   100082456.06545
  21706554.627   114068720.37009  21706552.482    88884712.59948
  23314515.454   122518636.92508  23314513.098    95469067.05346
  22282984.316   117097903.98908  22282985.598    91245143.75348
  23414088.554   123041842.25407  23414088.161    95876747.10446
 15 02 21 00 46  0.0000000  0  7G16G18G19G21G22G27G31
  21164140.179   111218316.61509  21164138.436    86663630.66148
  22363500.629   117521026.10208  22363499.388    91574833.57947
  24426412.871   128361676.53606  24426411.706   100022078.04344
  21716467.831   114120815.26709  21716466.016    88925306.01948
  23297487.578   122429155.89507  23297484.994    95399341.62646
  22272243.751   117041461.49908  22272245.007    91201162.61048
  23432401.457   123138077.58008  23432401.277    95951735.56546
 15 02 21 00 46 30.0000000  0  7G16G18G19G21G22G27G31
  21153231.630   111160991.61309  21153229.806    86618961.83248
  22354723.672   117474903.84808  22354722.549    91538894.17047
  24411684.651   128284279.47206  24411683.523    99961768.69044
  21726432.751   114173182.17909  21726431.030    88966111.40048
  23280478.902   122339775.85807  23280475.893    95329694.86146
  22261526.040   116985139.64108  22261527.394    91157275.46448
  23450733.110   123234409.66608  23450732.628    96026799.47946
 15 02 21 00 47  0.0000000  0  7G16G18G19G21G22G27G31
  21142386.419   111103999.74209  21142384.628    86574552.58048
  22346017.135   117429150.06408  22346015.790    91503241.88547
  24396972.479   128206966.48606  24396971.521    99901524.87644
  21736448.450   114225815.59709  21736446.804    89007124.44648
  23263489.571   122250495.44208  23263486.733    95260125.74646
  22250830.576   116928934.16508  22250831.989    91113479.00948
  23469081.501   123330831.14007  23469081.173    96101933.01346
 15 02 21 00 47 30.0000000  0  7G16G18G19G21G22G27G31
  21131605.156   111047343.76009  21131603.461    86530405.06648
  22337380.932   117383767.60308  22337379.837    91467878.94747
  24382276.336   128129737.95306  24382275.456    99841346.88345
  21746514.692   114278713.95909  21746512.958    89048343.94248
  23246519.876   122161318.00007  23246517.257    95190636.88846
  22240157.245   116872845.74408  22240158.475    91069773.75348
  23487446.390   123427339.87907  23487446.228    96177134.53346
 15 02 21 00 48  0.0000000  0  7G16G18G19G21G22G27G31
  21120888.593   110991027.37009  21120886.809    86486522.16748
  22328816.373   117338760.16908  22328815.378    91432808.23047
  24367596.723   128052595.81406  24367595.788    99781236.19045
  21756631.450   114331876.88409  21756629.617    89089769.59548
  23229570.025   122072247.96508  23229567.816    95121231.73346
  22229506.756   116816876.17108  22229507.931    91026161.11848
  23505827.803   123523934.69907  23505827.753    96252403.11846
 15 02 21 00 48 30.0000000  0  7G16G18G19G21G22G27G31
  21110236.869   110935052.31109  21110235.096    86442905.24448
  22320323.407   117294129.39508  22320322.403    91398031.01047
  24352933.425   127975539.53606  24352932.212    99721192.36245
  21766798.016   114385301.92509  21766796.095    89131399.49948
  23212641.398   121983287.55308  23212638.794    95051911.96646
  22218878.507   116761024.87408  22218879.663    90982640.63648
  23524225.242   123620612.14007  23524224.834    96327736.11946
 15 02 21 00 49  0.0000000  0  7G16G18G19G21G22G27G31
  21099650.632   110879421.19409  21099648.854    86399556.32248
  22311902.523   117249877.56608  22311901.424    91363549.07147
  24338286.344   127898569.35606  24338285.089    99661215.65445
  21777014.322   114438988.63209  21777012.397    89173233.29748
  23195734.088   121894440.16308  23195731.722    94982680.27046
  22208273.127   116705292.44508  22208274.060    90939212.77748
  23542637.261   123717369.77007  23542637.244    96403131.58046
 15 02 21 00 49 30.0000000  0  7G16G18G19G21G22G27G31
  21089129.297   110824131.42509  21089127.585    86356473.39148
  22303553.371   117206002.10508  22303552.174    91329360.41547
  24323654.825   127821680.73906  24323653.605    99601302.48645
  21787278.843   114492929.89809  21787277.016    89215265.44948
  23178848.229   121805703.84308  23178846.169    94913535.12846
  22197689.338   116649674.19808  22197690.248    90895873.90048
  23561063.466   123814200.10007  23561063.501    96478583.67646
 15 02 21 00 50  0.0000000  0  7G16G18G19G21G22G27G31
  21078674.119   110769189.28109  21078672.505    86313661.33848
  22295276.780   117162508.91608  22295275.738    91295469.63647
  24309039.865   127744877.76106  24309038.472    99541456.05245
  21797592.443   114547128.07309  21797590.501    89257497.78848
  23161984.390   121717085.17908  23161982.377    94844481.68846
  22187127.939   116594174.17108  22187129.060    90852627.13148
  23579503.739   123911103.94707  23579503.684    96554093.11246
 15 02 21 00 50 30.0000000  0  7G16G18G19G21G22G27G31
  21068286.171   110714600.81109  21068284.543    86271124.86948
  22287074.170   117119403.88009  22287073.156    91261881.31047
  24294441.501   127668163.93206  24294440.187    99481679.07745
  21807955.218   114601585.07609  21807953.353    89299931.80848
  23145144.306   121628590.81408  23145142.570    94775525.08646
  22176589.790   116538796.26108  22176590.850    90809475.51548
  23597958.262   124008082.59207  23597958.131    96629660.80046
 15 02 21 00 51  0.0000000  0  7G16G18G19G21G22G27G31
  21057965.212   110660363.11709  21057963.462    86228861.73448
  22278945.063   117076684.01108  22278943.708    91228593.10847
  24279859.355   127591534.42406  24279857.715    99421967.79545
  21818365.847   114656293.89109  21818364.298    89342562.04448
  23128327.779   121540218.55608  23128325.404    94706663.60546
  22166073.912   116483535.44808  22166075.097    90766415.14148
  23616425.355   124105128.10107  23616425.809    96705280.54246
 15 02 21 00 51 30.0000000  0  7G16G18G19G21G22G27G31
  21047710.645   110606475.94009  21047709.043    86186871.72948
  22270888.742   117034348.85109  22270887.438    91195604.68947
  24265292.733   127514987.31106  24265291.416    99362320.76545
  21828823.905   114711250.88909  21828822.144    89385385.67648
  23111534.483   121451969.00208  23111532.023    94637897.76846
  22155579.854   116428389.73908  22155581.137    90723444.47448
  23634904.229   124202235.48707  23634904.844    96780948.51045
 15 02 21 00 52  0.0000000  0  7G16G18G19G21G22G27G31
  21037524.777   110552948.43509  21037523.015    86145161.98948
  22262907.661   116992407.08009  22262906.127    91162922.80247
  24250743.385   127438529.18806  24250742.044    99302743.08145
  21839330.352   114766461.10809  21839328.330    89428406.62748
  23094766.304   121363851.93908  23094763.742    94569235.14446
  22145109.365   116373366.10708  22145110.346    90680568.92748
  23653395.844   124299408.39107  23653395.974    96856667.59346
 15 02 21 00 52 30.0000000  0  7G16G18G19G21G22G27G31
  21027406.465   110499776.50209  21027404.886    86103729.31748
  22255000.387   116950854.57409  22254999.110    91130544.23247
  24236209.467   127362153.99806  24236208.332    99243230.02245
  21849883.152   114821916.10209  21849881.147    89471618.30448
  23078022.817   121275863.76008  23078020.286    94500672.99446
  22134660.726   116318458.41708  22134661.830    90637783.72248
  23671898.227   124396638.13507  23671898.182    96932430.91945
 15 02 21 00 53  0.0000000  0  7G16G18G19G21G22G27G31
  21017356.873   110446965.85309  21017355.354    86062578.16548
  22247168.235   116909696.52509  22247167.173    91098473.04247
  24221692.353   127285865.20706  24221690.936    99183784.24646
  21860482.617   114877617.51009  21860480.566    89515021.99548
  23061305.159   121188010.53008  23061302.220    94432215.96446
  22124234.674   116263669.98908  22124235.958    90595091.45448
  23690411.486   124493925.15707  23690411.495    97008238.87246
 15 02 21 00 53 30.0000000  0  7G16G18G19G21G22G27G31
  21007376.561   110394518.08709  21007374.686    86021709.77948
  22239411.426   116868934.68809  22239410.334    91066710.58447
  24207191.367   127209662.53806  24207190.067    99124405.61245
  21871128.684   114933563.37909  21871126.862    89558616.17448
  23044613.818   121100295.00408  23044610.100    94363866.20846
  22113831.546   116209000.71408  22113832.853    90552492.04048
  23708934.892   124591266.15607  23708935.010    97084088.87946
 15 02 21 00 54  0.0000000  0  7G16G18G19G21G22G27G31
