     2.11           OBSERVATION DATA    G                   RINEX VERSION / TYPE
SPIDER V4,0,0,3554                      2015 03 23 00:05    PGM / RUN BY / DATE 
ORAN                                                        MARKER NAME         
ORAN                                                        MARKER NUMBER       
                                                            OBSERVER / AGENCY   
462404              LEICA GRX1200PRO    8.20/2.127          REC # / TYPE / VERS 
103294              LEIAT504                                ANT # / TYPE        
  5184926.0915   -52286.2727  3702001.0151                  APPROX POSITION XYZ 
        0.1860        0.0000        0.0000                  ANTENNA: DELTA H/E/N
     1     1                                                WAVELENGTH FACT L1/2
     4    C1    L1    P2    L2                              # / TYPES OF OBSERV 
    30.000                                                  INTERVAL            
  2015    02    21    00    00    0.0000000     GPS         TIME OF FIRST OBS   
  2015    02    21    23    59   30.0000000     GPS         TIME OF LAST OBS    
    16                                                      LEAP SECONDS        
    30                                                      # OF SATELLITES     
   G 1   763   763   763   763                              PRN / # OF OBS      
   G 2   903   903   903   903                              PRN / # OF OBS      
   G 3   805   805   805   805                              PRN / # OF OBS      
   G 4   771   771   771   771                              PRN / # OF OBS      
   G 5   658   658   658   658                              PRN / # OF OBS      
   G 6   631   631   631   631                              PRN / # OF OBS      
   G 7   764   764   764   764                              PRN / # OF OBS      
   G 9   770   770   770   770                              PRN / # OF OBS      
   G10   753   753   753   753                              PRN / # OF OBS      
   G11   734   734   734   734                              PRN / # OF OBS      
   G12   796   796   796   796                              PRN / # OF OBS      
   G13   756   756   755   755                              PRN / # OF OBS      
   G14   892   892   892   892                              PRN / # OF OBS      
   G15   739   739   739   739                              PRN / # OF OBS      
   G16   681   681   681   681                              PRN / # OF OBS      
   G17   904   904   904   904                              PRN / # OF OBS      
   G18   848   848   848   848                              PRN / # OF OBS      
   G19   765   765   765   765                              PRN / # OF OBS      
   G20   745   745   745   745                              PRN / # OF OBS      
   G21   642   642   642   642                              PRN / # OF OBS      
   G22   820   820   820   820                              PRN / # OF OBS      
   G23   708   708   708   708                              PRN / # OF OBS      
   G24   770   770   770   770                              PRN / # OF OBS      
   G25   823   823   823   823                              PRN / # OF OBS      
   G27   766   766   766   766                              PRN / # OF OBS      
   G28   832   832   831   831                              PRN / # OF OBS      
   G29   706   706   706   706                              PRN / # OF OBS      
   G30   665   665   665   665                              PRN / # OF OBS      
   G31   732   732   732   732                              PRN / # OF OBS      
   G32   722   722   722   722                              PRN / # OF OBS      
BIT 2 OF LLI FLAGS DATA COLLECTED UNDER A/S CONDITION       COMMENT             
SNR is mapped to RINEX snr flag value [2-9]                 COMMENT             
Lx:     = 25dBHz -> 1; 26-27dBHz -> 2; 28-31dBHz -> 3       COMMENT             
       32-35dBHz -> 4; 36-38dBHz -> 5; 39-41dBHz -> 6       COMMENT             
       42-44dBHz -> 7; 45-48dBHz -> 8; >=49dBHz -> 9        COMMENT             
                                                            END OF HEADER       
 15 02 21 00 00  0.0000000  0  7G16G18G21G25G27G29G31
  22221979.840   116777305.33708  22221978.580    90995326.15546
  23602114.560   124029971.79807  23602114.460    96646730.90944
  21113431.680   110951839.20208  21113430.580    86455976.84049
  24377684.620   128105583.36206  24377687.760    99822539.45144
  23172501.460   121772320.91207  23172503.760    94887537.54647
  23529102.340   123646258.69607  23529102.440    96347730.77145
  21891412.840   115040142.99908  21891412.420    89641663.41848
 15 02 21 00 00 30.0000000  0  7G16G18G21G25G27G29G31
  22207475.220   116701082.77308  22207473.900    90935931.96047
  23588767.340   123959831.57007  23588767.200    96592076.23145
  21117159.500   110971429.06308  21117158.400    86471241.66948
  24395131.840   128197268.78906  24395135.180    99893982.60445
  23159631.340   121704688.65307  23159633.740    94834837.11947
  23543849.660   123723756.13107  23543849.740    96408118.35645
  21906188.940   115117791.92108  21906188.500    89702169.04948
 15 02 21 00 01  0.0000000  0  7G16G18G21G25G27G29G31
  22193000.000   116625014.72908  22192998.680    90876658.17047
  23575444.660   123889820.86107  23575444.460    96537522.47745
  21120968.680   110991446.47508  21120967.600    86486839.65749
  24412611.120   128289122.98306  24412614.700    99965557.26044
  23146788.560   121637199.75607  23146791.040    94782248.41247
  23558598.700   123801262.56507  23558598.800    96468512.94945
  21921031.780   115195791.64208  21921031.340    89762948.02648
 15 02 21 00 01 30.0000000  0  7G16G18G21G25G27G29G31
  22178554.260   116549102.02108  22178553.020    90817505.42547
  23562147.160   123819941.92707  23562146.940    96483071.39045
  21124858.820   111011889.34108  21124857.740    86502769.16549
  24430122.180   128381144.14306  24430125.820   100037262.04944
  23133972.880   121569853.38407  23133975.400    94729770.76647
  23573349.200   123878776.50607  23573349.260    96528913.38545
  21935940.760   115274138.65108  21935940.280    89823997.62248
 15 02 21 00 02  0.0000000  0  7G16G18G21G25G27G29G31
  22164138.620   116473347.80308  22164137.500    90758476.18247
  23548875.380   123750198.22107  23548875.120    96428725.67845
  21128829.940   111032757.68108  21128828.860    86519030.21549
  24447664.860   128473332.40806  24447668.600   100109097.02245
  23121184.480   121502650.42207  23121187.060    94677404.85946
  23588101.260   123956298.53607  23588101.360    96589320.14446
  21950915.520   115352831.45608  21950915.000    89885316.66948
 15 02 21 00 02 30.0000000  0  7G16G18G21G25G27G29G31
  22149753.280   116397752.82708  22149752.220    90699571.01747
  23535629.620   123680591.54807  23535629.460    96374486.75245
  21132881.540   111054048.97508  21132880.480    86535620.83749
  24465239.120   128565685.84306  24465242.720   100181060.72645
  23108423.100   121435589.96807  23108425.820    94625150.00947
  23602854.600   124033827.51207  23602854.780    96649732.29846
  21965955.360   115431866.26208  21965954.820    89946902.21248
 15 02 21 00 03  0.0000000  0  7G16G18G21G25G27G29G31
  22135398.740   116322319.59208  22135397.740    90640791.88647
  23522410.580   123611125.27107  23522410.540    96320357.21944
  21137013.700   111075763.42208  21137012.600    86552541.19049
  24482844.720   128658204.48206  24482848.460   100253153.09845
  23095689.000   121368672.83007  23095691.820    94573006.84247
  23617609.220   124111363.63207  23617609.480    96710150.02745
  21981059.980   115511241.60008  21981059.460    90008753.09348
 15 02 21 00 03 30.0000000  0  7G16G18G21G25G27G29G31
  22121074.720   116247046.60008  22121073.740    90582137.60947
  23509218.160   123541799.08007  23509218.180    96266336.85944
  21141225.420   111097896.16008  21141224.300    86569787.48049
  24500481.120   128750883.75405  24500484.680   100325370.72246
  23082981.520   121301895.40507  23082984.400    94520972.52546
  23632364.480   124188902.98607  23632364.720    96770570.27345
  21996228.280   115590951.44908  21996227.740    90070864.64648
 15 02 21 00 04  0.0000000  0  7G16G18G21G25G27G29G31
  22106782.500   116171940.61408  22106781.500    90523613.46847
  23496053.840   123472620.32707  23496053.760    96212431.36645
  21145517.460   111120450.88308  21145516.280    86587362.59448
  24518148.680   128843727.77306  24518152.520   100397716.63444
  23070301.640   121235262.66907  23070304.460    94469050.96046
  23647121.220   124266450.36207  23647121.440    96830996.77146
  22011460.680   115670998.09108  22011460.120    90133238.63048
 15 02 21 00 04 30.0000000  0  7G16G18G21G25G27G29G31
  22092521.260   116096997.68608  22092520.280    90465216.39047
  23482916.900   123403585.49607  23482916.700    96158637.99845
  21149888.420   111143420.48308  21149887.220    86605260.98848
  24535846.520   128936729.47005  24535850.260   100470185.47844
  23057648.200   121168768.49807  23057650.920    94417237.33946
  23661878.300   124343999.43507  23661878.580    96891424.59845
  22026755.520   115751372.75008  22026754.900    90195868.21048
 15 02 21 00 05  0.0000000  0  7G16G18G21G25G27G29G31
  22078293.040   116022228.24808  22078292.120    90406954.50047
  23469809.520   123334706.09607  23469809.300    96104965.77744
  21154339.720   111166812.14009  21154338.460    86623488.25849
  24553575.560   129029896.62705  24553579.340   100542783.21844
  23045022.700   121102421.50007  23045025.440    94365538.41846
  23676637.200   124421558.11207  23676637.620    96951859.89146
  22042113.880   115832081.36308  22042113.220    90258758.01248
 15 02 21 00 05 30.0000000  0  7G16G18G21G25G27G29G31
  22064096.540   115947625.43608  22064095.680    90348822.44747
  23456730.560   123265976.50907  23456730.460    96051410.30244
  21158869.500   111190616.24009  21158868.200    86642036.90949
  24571334.360   129123219.73805  24571338.180   100615502.52345
  23032423.620   121036213.25007  23032426.420    94313947.61946
  23691396.320   124499117.88806  23691396.800    97012296.03546
  22057533.720   115913112.99108  22057533.060    90321899.51548
 15 02 21 00 06  0.0000000  0  7G16G18G21G25G27G29G31
  22049933.000   115873195.68608  22049932.180    90290825.25047
  23443681.520   123197403.80907  23443681.620    95997977.04345
  21163478.440   111214836.19109  21163477.120    86660909.60048
  24589123.420   129216702.44405  24589127.220   100688346.12943
  23019851.840   120970148.13507  23019854.660    94262468.34146
  23706156.480   124576682.73407  23706156.980    97072736.15745
  22073015.380   115994469.37908  22073014.720    90385294.07948
 15 02 21 00 06 30.0000000  0  7G16G18G21G25G27G29G31
  22035802.180   115798937.75508  22035801.360    90232961.94147
  23430662.240   123128986.93907  23430662.280    95944665.23544
  21168165.540   111239466.89209  21168164.160    86680102.35248
  24606942.240   129310340.14205  24606946.080   100761310.52444
  23007306.680   120904222.63007  23007309.480    94211097.84646
  23720916.900   124654249.03307  23720917.360    97133177.39445
  22088557.640   116076144.23608  22088556.980    90448936.80648
 15 02 21 00 07  0.0000000  0  7G16G18G21G25G27G29G31
  22021705.140   115724857.18308  22021704.300    90175236.83147
  23417673.960   123060732.81407  23417673.900    95891480.21344
  21172931.260   111264510.73809  21172929.860    86699617.03548
  24624790.980   129404135.89605  24624794.720   100834398.11643
  22994788.860   120838440.60507  22994791.500    94159839.15146
  23735678.280   124731820.14607  23735678.700    97193622.40545
  22104160.820   116158139.17208  22104160.180    90512828.93848
 15 02 21 00 07 30.0000000  0  7G16G18G21G25G27G29G31
  22007641.800   115650953.80708  22007640.960    90117649.79647
  23404716.620   122992641.87707  23404716.640    95838422.36545
  21177775.040   111289964.90808  21177773.620    86719451.45848
  24642669.280   129498086.40005  24642672.920   100907606.27145
  22982297.920   120772799.83107  22982300.440    94108690.53447
  23750439.800   124809393.28806  23750440.380    97254068.96245
  22119823.920   116240449.25308  22119823.320    90576966.63848
 15 02 21 00 08  0.0000000  0  7G16G18G21G25G27G29G31
  21993612.740   115577230.50408  21993611.840    90060203.06747
  23391791.080   122924717.97907  23391791.020    95785494.67744
  21182696.680   111315828.52708  21182695.280    86739604.92348
  24660576.840   129592191.83105  24660580.760   100980935.08544
  22969834.020   120707301.29507  22969836.500    94057652.74747
  23765202.120   124886969.71607  23765202.720    97314518.11845
  22135546.580   116323072.64608  22135546.060    90641348.47248
 15 02 21 00 08 30.0000000  0  7G16G18G21G25G27G29G31
  21979617.880   115503687.07108  21979616.980    90002896.50847
  23378897.320   122856961.40207  23378897.340    95732697.37444
  21187695.620   111342098.19708  21187694.240    86760074.80448
  24678513.500   129686448.81105  24678517.100   101054382.08945
  22957396.720   120641942.71107  22957399.240    94006724.02547
  23779964.460   124964546.56506  23779965.180    97374967.57046
  22151327.960   116406004.49408  22151327.480    90705970.65948
 15 02 21 00 09  0.0000000  0  7G16G18G21G25G27G29G31
  21965658.220   115430328.58408  21965657.300    89945734.05847
  23366036.600   122789378.26407  23366036.700    95680035.21245
  21192772.300   111368776.37308  21192770.940    86780862.99248
  24696479.360   129780859.91905  24696483.040   101127949.12143
  22944986.700   120576727.52907  22944989.220    93955907.03547
  23794727.560   125042126.88507  23794728.320    97435419.72446
  22167168.300   116489245.91408  22167167.780    90770834.08748
 15 02 21 00 09 30.0000000  0  7G16G18G21G25G27G29G31
  21951733.860   115357155.47308  21951732.900    89888716.05447
  23353209.040   122721969.41507  23353209.220    95627508.87944
  21197926.020   111395859.61409  21197924.700    86801966.82148
  24714473.880   129875422.09705  24714477.660   101201633.96944
  22932603.560   120511653.75207  22932606.060    93905200.24147
  23809491.000   125119708.57407  23809491.540    97495872.97445
  22183066.620   116572791.95808  22183066.120    90835934.86748
 15 02 21 00 10  0.0000000  0  7G16G18G21G25G27G29G31
  21937845.200   115284169.99308  21937844.220    89831844.26247
  23340415.120   122654737.71307  23340415.420    95575120.57245
  21203156.680   111423347.01809  21203155.400    86823385.57548
  24732497.020   129970135.09905  24732500.680   101275436.20645
  22920247.480   120446721.90307  22920249.900    93854604.02847
  23824254.700   125197292.21807  23824255.160    97556327.71845
  22199022.520   116656640.53408  22199022.000    90901271.39148
 15 02 21 00 10 30.0000000  0  7G16G18G21G25G27G29G31
  21923991.920   115211370.43708  21923990.900    89775117.34747
  23327654.880   122587682.47507  23327655.220    95522869.75044
  21208463.320   111451233.73808  21208462.080    86845115.48948
  24750548.160   130064993.93305  24750551.640   101349352.15844
  22907917.740   120381928.16507  22907920.040    93804115.42947
  23839017.920   125274873.39907  23839018.360    97616780.55245
  22215034.760   116740785.51508  22215034.300    90966838.87848
 15 02 21 00 11  0.0000000  0  7G16G18G21G25G27G29G31
  21910175.440   115138764.26308  21910174.400    89718541.11047
  23314929.840   122520812.11207  23314930.160    95470763.00845
  21213846.740   111479524.01408  21213845.520    86867159.86448
  24768627.860   130160003.45005  24768631.640   101423385.51144
  22895615.360   120317278.30407  22895617.560    93753738.93846
  23853781.740   125352457.53406  23853782.200    97677235.69645
  22231103.920   116825229.46508  22231103.440    91032639.33747
 15 02 21 00 11 30.0000000  0  7G16G18G21G25G27G29G31
  21896395.500   115066350.05008  21896394.380    89662114.45447
  23302239.880   122454125.89607  23302240.300    95418799.74545
  21219306.060   111508212.98208  21219304.860    86889514.90248
  24786735.460   130255159.07305  24786739.140   101497532.69545
  22883339.620   120252768.71308  22883341.780    93703471.74547
  23868545.420   125430041.02006  23868546.040    97737690.33845
  22247228.760   116909966.13708  22247228.340    91098667.87547
 15 02 21 00 12  0.0000000  0  7G16G18G21G25G27G29G31
  21882652.960   114994132.40708  21882651.780    89605840.97747
  23289585.820   122387628.53507  23289586.260    95366983.66145
  21224841.400   111537301.39308  21224840.220    86912181.19648
  24804870.960   130350462.14505  24804874.840   101571794.79444
  22871091.000   120188401.77008  22871093.160    93653315.70247
  23883309.340   125507626.14806  23883310.060    97798146.26345
  22263409.340   116994995.53808  22263408.940    91164924.51448
 15 02 21 00 12 30.0000000  0  6G16G18G21G27G29G31
  21868947.680   114922110.67508  21868946.440    89549720.15247
  23276967.900   122321320.71607  23276968.340    95315315.25945
  21230452.100   111566785.88008  21230450.920    86935156.12148
  22858869.120   120124175.20408  22858871.260    93603269.05646
  23898073.080   125585210.12607  23898073.880    97858601.26845
  22279644.640   117080312.52408  22279644.220    91231405.26247
 15 02 21 00 13  0.0000000  0  6G16G18G21G27G29G31
  21855280.680   114850290.30208  21855279.440    89493756.23647
  23264387.140   122255207.98907  23264387.580    95263798.88045
  21236138.520   111596668.31608  21236137.360    86958441.13448
  22846674.540   120060092.22808  22846676.700    93553334.30047
  23912837.120   125662796.02907  23912837.940    97919057.77545
  22295934.800   117165917.78408  22295934.420    91298110.62148
 15 02 21 00 13 30.0000000  0  7G16G18G21G22G27G29G31
  21841651.380   114778668.10408  21841650.160    89437946.73347
  23251843.120   122189288.62207  23251843.540    95212433.15745
  21241899.420   111626942.11908  21241898.280    86982031.11248
  24554166.380   129033020.65706  24554166.900   100545205.84845
  22834506.280   119996147.73208  22834508.480    93503507.43647
  23927600.560   125740378.21706  23927601.400    97979511.36845
  22312278.400   117251803.69108  22312277.960    91365034.67547
 15 02 21 00 14  0.0000000  0  7G16G18G21G22G27G29G31
  21828058.700   114707238.36008  21828057.540    89382287.19847
  23239334.800   122123556.79607  23239335.140    95161213.57144
  21247733.000   111657597.87508  21247731.860    87005918.71548
  24537253.660   128944143.78106  24537254.160   100475951.42545
  22822362.820   119932333.51608  22822365.080    93453782.11047
  23942361.860   125817948.95206  23942362.660    98039956.08646
  22328673.240   117337958.88308  22328672.780    91432168.56248
 15 02 21 00 14 30.0000000  0  7G16G18G21G22G27G29G31
  21814506.600   114636021.86708  21814505.520    89326793.82747
  23226866.320   122058034.63907  23226866.580    95110157.37544
  21253642.620   111688653.19808  21253641.500    87030117.66848
  24520326.480   128855191.56706  24520326.940   100406638.28645
  22810247.800   119868668.81608  22810250.060    93404173.28047
  23957124.580   125895527.07507  23957125.400    98100406.52744
  22345122.520   117424400.06808  22345122.060    91499525.30148
 15 02 21 00 15  0.0000000  0  7G16G18G21G22G27G29G31
  21800993.800   114565011.76308  21800992.800    89271461.28047
  23214436.620   121992715.78307  23214436.600    95059259.58244
  21259626.280   111720097.67808  21259625.200    87054619.86248
  24503383.700   128766157.70306  24503384.220   100337261.49945
  22798159.540   119805144.68408  22798161.820    93354673.98147
  23971886.940   125973103.30607  23971887.800    98160855.48745
  22361623.900   117511115.39908  22361623.500    91567095.64947
 15 02 21 00 15 30.0000000  0  7G16G18G21G22G27G29G31
  21787520.660   114494209.98708  21787519.700    89216291.07347
  23202046.040   121927602.58007  23202045.840    95008522.04445
  21265683.740   111751929.85508  21265682.660    87079424.15648
  24486425.920   128677044.77506  24486426.460   100267823.12345
  22786098.020   119741761.06008  22786100.280    93305284.16947
  23986648.920   126050677.28607  23986649.620    98221302.72045
  22378177.020   117598102.38808  22378176.600    91634877.69347
 15 02 21 00 16  0.0000000  0  7G16G18G21G22G27G29G31
  21774087.700   114423619.42908  21774086.780    89161285.45847
  23189695.180   121862698.53607  23189695.000    94957947.48844
  21271814.860   111784149.14308  21271813.800    87104530.09448
  24469453.560   128587855.84006  24469454.120   100198325.50844
  22774063.340   119678518.58208  22774065.580    93256004.33847
  24001410.540   126128249.42907  24001411.080    98281748.49445
  22394781.400   117685358.93808  22394781.000    91702869.78247
 15 02 21 00 16 30.0000000  0  7G16G18G21G22G27G29G31
  21760695.280   114353241.91308  21760694.380    89106445.83847
  23177384.520   121798005.90907  23177384.440    94907537.68444
  21278019.380   111816754.05508  21278018.380    87129936.51748
  24452467.180   128498593.27906  24452467.760   100128770.53644
  22762055.460   119615416.93008  22762057.660    93206834.24947
  24016171.800   126205819.44107  24016172.160    98342192.63545
  22411436.520   117772881.86208  22411436.080    91771069.42947
 15 02 21 00 17  0.0000000  0  7G16G18G21G22G27G29G31
  21747343.320   114283077.05209  21747342.460    89051771.93347
  23165114.160   121733525.21107  23165114.140    94857292.98044
  21284296.480   111849740.32508  21284295.460    87155640.10448
  24435466.920   128409257.37706  24435467.400   100059158.39645
  22750073.980   119552453.84608  22750076.140    93157772.11447
  24030932.120   126283385.04706  24030932.520    98402633.32246
  22428141.400   117860666.32808  22428140.940    91839472.87347
 15 02 21 00 17 30.0000000  0  7G16G18G21G22G27G29G31
  21734033.000   114213130.71708  21734032.100    88997268.30147
  23152885.440   121669263.07107  23152885.400    94807218.61245
  21290646.660   111883110.71508  21290645.620    87181643.00548
  24418453.880   128319854.63306  24418454.280    99989494.16045
  22738119.620   119489633.29208  22738121.740    93108821.03647
  24045692.160   126360949.89907  24045692.680    98463073.42944
  22444896.280   117948713.50908  22444895.740    91908081.04147
 15 02 21 00 18  0.0000000  0  7G16G18G21G22G27G29G31
  21720763.980   114143401.40509  21720763.060    88942933.78247
  23140698.160   121605218.40607  23140698.020    94757313.68345
  21297068.980   111916859.98408  21297067.920    87207941.13748
  24401427.860   128230383.83306  24401428.180    99919776.88944
  22726191.620   119426951.41608  22726193.820    93059978.05347
  24060451.420   126438509.84207  24060451.820    98523509.72845
  22461699.880   118037016.81608  22461699.300    91976888.77647
 15 02 21 00 18 30.0000000  0  7G16G18G21G22G27G29G31
  21707536.740   114073891.77909  21707535.840    88888770.45147
  23128552.900   121541394.55007  23128552.600    94707580.83444
  21303563.200   111950987.08108  21303562.120    87234533.67848
  24384389.700   128140848.28906  24384389.820    99850009.13844
  22714290.220   119364409.07308  22714292.400    93011243.77047
  24075209.880   126516066.02807  24075210.380    98583943.03245
  22478551.880   118125574.33708  22478551.240    92045894.61047
 15 02 21 00 19  0.0000000  0  7G16G18G21G22G27G29G31
  21694351.900   114004604.93509  21694351.020    88834780.71147
  23116450.320   121477794.58207  23116449.880    94658022.43245
  21310129.280   111985491.96408  21310128.160    87261420.60248
  24367339.880   128051251.40906  24367339.760    99780193.60645
  22702415.480   119302006.84108  22702417.560    92962618.66447
  24089967.540   126593618.54406  24089968.260    98644373.52245
  22495451.780   118214383.86408  22495451.220    92115096.80147
 15 02 21 00 19 30.0000000  0  7G16G18G21G22G27G29G31
  21681209.780   113935542.60509  21681208.920    88780965.92148
  23104390.940   121414421.75307  23104390.480    94608641.03545
  21316766.880   112020372.66208  21316765.760    87288600.36248
  24350278.760   127961595.44606  24350278.400    99710332.02944
  22690567.380   119239744.78708  22690569.480    92914102.81047
  24104724.600   126671167.24406  24104725.360    98704801.06245
  22512399.120   118303442.56008  22512398.660    92184493.15647
 15 02 21 00 20  0.0000000  0  7G16G18G21G22G27G29G31
  21668110.580   113866705.56509  21668109.700    88727326.67348
  23092375.000   121351277.15407  23092374.540    94559437.45645
  21323475.420   112055626.47408  21323474.320    87316070.87048
  24333206.660   127871881.90306  24333206.340    99640425.56944
  22678745.700   119177621.57008  22678747.800    92865695.14247
  24119480.680   126748710.89107  24119481.540    98765224.64145
  22529393.120   118392746.52008  22529392.720    92254080.61447
 15 02 21 00 20 30.0000000  0  7G16G18G21G22G27G29G31
  21655055.040   113798098.02709  21655054.160    88673866.27048
  23080403.260   121288365.43808  23080402.860    94510415.36445
  21330255.000   112091253.65708  21330253.940    87343832.30548
  24316124.400   127782115.40806  24316124.460    99570477.89545
  22666950.780   119115639.10208  22666952.860    92817397.13447
  24134236.140   126826250.91007  24134237.040    98825645.39245
  22546433.620   118482294.85208  22546433.240    92323858.50647
 15 02 21 00 21  0.0000000  0  7G16G18G21G22G27G29G31
  21642042.960   113729719.02509  21642042.080    88620583.94348
  23068475.800   121225686.08708  23068475.360    94461574.32245
  21337104.800   112127249.69908  21337103.780    87371881.17148
  24299032.180   127692295.44406  24299032.200    99500488.54745
  22655182.060   119053794.32708  22655184.160    92769206.42847
  24148990.320   126903784.02206  24148991.120    98886060.79144
  22563519.560   118572081.88408  22563519.220    92393822.39047
 15 02 21 00 21 30.0000000  0  7G16G18G21G22G27G29G31
  21629075.500   113661574.64609  21629074.600    88567484.44448
  23056593.780   121163245.66908  23056593.320    94412919.47545
  21344025.300   112163617.32408  21344024.280    87400219.58248
  24281931.120   127602428.54606  24281930.840    99430462.55545
  22643440.300   118992091.40008  22643442.520    92721126.25447
  24163743.960   126981314.89206  24163744.800    98946474.42145
  22580651.140   118662108.88408  22580650.800    92463973.26247
 15 02 21 00 22  0.0000000  0  7G16G18G21G22G27G29G31
  21616152.320   113593662.86109  21616151.400    88514566.18248
  23044756.940   121101042.87607  23044756.500    94364449.78245
  21351015.460   112200350.98908  21351014.440    87428843.21548
  24264820.880   127512513.38107  24264820.240    99360398.99145
  22631724.740   118930526.11108  22631727.040    92673153.33247
  24178496.360   127058839.14006  24178497.240    99006882.87145
  22597827.080   118752368.94208  22597826.720    92534305.74147
 15 02 21 00 22 30.0000000  0  7G16G18G21G22G27G29G31
  21603274.100   113525987.27709  21603273.140    88461831.96748
  23032966.100   121039081.70308  23032965.620    94316168.36445
  21358075.140   112237449.98108  21358074.160    87457751.52148
  24247702.140   127422553.99206  24247701.220    99290300.93445
  22620035.700   118869099.98008  22620038.000    92625288.84247
  24193247.720   127136357.95006  24193248.560    99067287.12045
  22615047.120   118842860.75008  22615046.760    92604818.80147
 15 02 21 00 23  0.0000000  0  7G16G18G21G22G27G29G31
  21590441.580   113458551.83209  21590440.580    88409284.88348
  23021222.060   120977366.67507  23021221.580    94268078.76246
  21365204.560   112274915.31508  21365203.560    87486945.28948
  24230575.500   127332554.81207  24230574.800    99220171.89944
  22608373.540   118807814.84008  22608375.840    92577534.20947
  24207998.320   127213873.03106  24207999.060    99127688.43544
  22632311.060   118933583.25908  22632310.760    92675511.62047
 15 02 21 00 23 30.0000000  0  7G16G18G21G22G27G29G31
  21577654.540   113391355.60909  21577653.520    88356924.20448
  23009524.820   120915897.42407  23009524.200    94220180.65446
  21372402.660   112312741.41308  21372401.600    87516420.17148
  24213441.300   127242515.32306  24213440.880    99150011.41445
  22596737.660   118746667.62008  22596739.900    92529887.05447
  24222747.640   127291381.33306  24222748.480    99188084.49644
  22649617.780   119024530.59008  22649617.520    92746379.63947
 15 02 21 00 24  0.0000000  0  7G16G18G21G22G27G29G31
  21564913.800   113324402.65609  21564912.760    88304753.08048
  22997875.180   120854678.42308  22997874.660    94172477.56846
  21379669.760   112350929.96808  21379668.640    87546177.48748
  24196300.500   127152440.45007  24196300.300    99079823.34445
  22585128.300   118685660.37608  22585130.580    92482348.97247
  24237496.020   127368884.53806  24237496.800    99248476.56344
  22666967.120   119115702.13608  22666966.940    92817422.36247
 15 02 21 00 24 30.0000000  0  7G16G18G21G22G27G29G31
  21552219.380   113257693.29109  21552218.380    88252771.76948
  22986273.320   120793710.40308  22986272.880    94124970.02145
  21387005.120   112389477.27708  21387003.900    87576214.35548
  24179153.240   127062330.82206  24179152.820    99009608.20445
  22573545.260   118624791.26108  22573547.540    92434918.51747
  24252243.060   127446381.05906  24252244.040    99308863.39644
  22684358.280   119207093.22308  22684358.140    92888636.15247
 15 02 21 00 25  0.0000000  0  7G16G18G21G22G27G29G31
  21539571.800   113191230.26109  21539570.840    88200982.40348
  22974719.800   120732996.56908  22974719.400    94077660.56745
  21394408.440   112428381.96808  21394407.160    87606529.69848
  24162000.020   126972189.52307  24161999.180    98939368.38744
  22561988.600   118564060.72108  22561990.880    92387596.04147
  24266988.920   127523871.10506  24266989.900    99369245.20844
  22701790.740   119298701.26308  22701790.580    92960019.00847
 15 02 21 00 25 30.0000000  0  7G16G18G21G22G27G29G31
  21526971.680   113125016.43309  21526970.740    88149387.22748
  22963215.280   120672540.10807  22963214.960    94030551.65545
  21401879.580   112467643.05508  21401878.300    87637122.74948
  24144841.400   126882020.27406  24144840.240    98869106.77745
  22550458.400   118503469.69708  22550460.780    92340382.27947
  24281733.740   127601355.20006  24281734.640    99429622.38844
  22719264.180   119390524.72608  22719264.040    93031569.71247
 15 02 21 00 26  0.0000000  0  7G16G18G21G22G27G29G31
  21514419.880   113059056.40509  21514418.920    88097989.81148
  22951760.800   120612346.40607  22951760.540    93983647.49646
  21409418.780   112507261.79308  21409417.500    87667994.49048
  24127678.180   126791827.97406  24127676.940    98798827.20446
  22538955.180   118443020.60108  22538957.700    92293279.12247
  24296477.720   127678836.00806  24296478.620    99489996.99845
  22736778.580   119482563.28808  22736778.440    93103288.03947
 15 02 21 00 26 30.0000000  0  7G16G18G21G22G27G29G31
  21501915.600   112993345.90509  21501914.580    88046786.83048
  22940355.500   120552411.50808  22940355.320    93936944.99645
  21417024.540   112547230.33608  21417023.240    87699138.81048
  24110509.900   126701609.07106  24110508.800    98728526.91746
  22527477.760   118382707.08508  22527480.460    92246281.61248
  24311219.960   127756307.24606  24311220.840    99550364.18745
  22754332.040   119574807.42708  22754331.960    93175166.53847
 15 02 21 00 27  0.0000000  0  7G16G18G21G22G27G29G31
  21489459.640   112927889.36409  21489458.580    87995781.74148
  22929000.360   120492740.21208  22929000.300    93890447.90545
  21424696.940   112587549.25208  21424695.720    87730556.14948
  24093337.660   126611368.45907  24093336.600    98658209.67845
  22516026.640   118322531.24008  22516029.360    92199391.36147
  24325960.800   127833770.84406  24325961.760    99610725.38044
  22771924.620   119667256.72008  22771924.500    93247204.91747
 15 02 21 00 27 30.0000000  0  7G16G18G21G22G27G29G31
  21477052.380   112862688.94409  21477051.320    87944976.23548
  22917695.920   120433335.32108  22917695.940    93844158.39845
  21432435.760   112628217.08108  21432434.560    87762245.36648
  24076161.920   126521108.99906  24076160.880    98587877.76145
  22504601.800   118262493.46908  22504604.500    92152608.71148
  24340700.320   127911227.23106  24340701.180    99671080.96844
  22789555.720   119759908.75208  22789555.640    93319401.25647
 15 02 21 00 28  0.0000000  0  7G16G18G21G22G27G29G31
  21464694.720   112797749.21209  21464693.700    87894373.85548
  22906443.100   120374201.33408  22906443.080    93798079.98346
  21440241.040   112669234.27208  21440239.840    87794206.81448
  24058983.440   126430835.55106  24058982.480    98517534.91844
  22493203.620   118202595.90208  22493206.320    92105935.30547
  24355438.840   127988678.24806  24355439.600    99731432.38544
  22807225.240   119852762.59408  22807225.180    93391754.85447
 15 02 21 00 28 30.0000000  0  7G16G18G21G22G27G29G31
  21452387.120   112733072.28309  21452386.080    87843976.25248
  22895242.420   120315341.19008  22895242.340    93752214.95245
  21448112.560   112710599.64608  21448111.400    87826439.57548
  24041802.480   126340550.70006  24041801.800    98447183.20345
  22481832.120   118142838.66808  22481834.860    92059371.25548
  24370176.280   128066123.98206  24370176.940    99791779.71444
  22824932.660   119945815.58008  22824932.580    93464263.62547
 15 02 21 00 29  0.0000000  0  7G16G18G21G22G27G29G31
  21440129.260   112668656.59909  21440128.180    87793782.21948
  22884093.620   120256753.51708  22884093.420    93706562.23845
  21456049.340   112752307.99608  21456048.220    87858939.59248
  24024619.200   126250253.91906  24024618.600    98376822.20446
  22470486.680   118083218.09708  22470489.400    92012913.68047
  24384912.040   128143560.82606  24384912.620    99852120.08444
  22842676.720   120039061.13408  22842676.640    93536922.45447
 15 02 21 00 29 30.0000000  0  7G16G18G21G22G27G29G31
  21427921.800   112604505.85909  21427920.700    87743794.63548
  22872997.500   120198442.54208  22872997.160    93661125.13245
  21464051.180   112794358.04908  21464050.060    87891705.86748
  24007434.580   126159949.06706  24007433.780    98306454.87144
  22459167.540   118023735.68808  22459170.260    91966563.77548
  24399646.400   128220990.23906  24399646.960    99912454.66544
  22860457.240   120132498.36308  22860457.140    93609730.64147
 15 02 21 00 30  0.0000000  0  7G16G18G21G22G27G29G31
  21415765.020   112540621.52009  21415763.900    87694014.63948
  22861954.360   120140410.27108  22861953.920    93615905.19345
  21472117.760   112836748.17108  21472116.660    87924737.13348
  23990248.900   126069637.96406  23990247.840    98236082.67345
  22447874.540   117964390.68308  22447877.260    91920320.93548
  24414379.240   128298411.36106  24414379.840    99972782.76044
  22878273.500   120226123.39708  22878273.500    93682685.15547
 15 02 21 00 30 30.0000000  0  7G16G18G21G22G27G29G31
  21403659.920   112477008.74809  21403658.820    87644446.25348
  22850965.240   120082661.82208  22850964.640    93570906.41545
  21480249.500   112879480.53208  21480248.380    87958035.07548
  23973063.260   125979326.69506  23973062.120    98165710.34645
  22436608.280   117905186.25808  22436611.040    91874187.63947
  24429110.940   128375827.26405  24429111.900   100033106.74845
  22896125.600   120319936.58208  22896125.620    93755786.28747
 15 02 21 00 31  0.0000000  0  7G16G18G21G22G27G29G31
  21391606.100   112413665.40209  21391605.020    87595087.80448
  22840029.820   120025195.46608  22840029.120    93526127.45945
  21488444.900   112922547.43408  21488443.780    87991593.69648
  23955877.180   125889013.54506  23955876.280    98095336.56345
  22425367.980   117846118.03308  22425370.680    91828160.46947
  24443840.940   128453233.42606  24443842.020   100093423.20844
  22914012.120   120413930.80308  22914012.140    93829028.49847
 15 02 21 00 31 30.0000000  0  7G16G18G21G22G27G29G31
  21379604.160   112350594.74709  21379603.080    87545941.84548
  22829148.700   119968014.83908  22829147.960    93481571.14945
  21496704.220   112965950.20108  21496703.060    88025414.03648
  23938691.180   125798702.40306  23938690.900    98024964.32645
  22414153.860   117787187.23008  22414156.500    91782240.37748
  24458569.500   128530631.13606  24458570.220   100153733.10044
  22931932.840   120508104.28308  22931932.840    93902410.37647
 15 02 21 00 32  0.0000000  0  7G16G18G21G22G27G29G31
  21367654.980   112287801.29309  21367653.900    87497011.88548
  22818322.960   119911125.28608  22818322.240    93437241.64345
  21505027.340   113009688.54008  21505026.180    88059495.86048
  23921506.560   125708398.69106  23921506.840    97954597.91046
  22402966.360   117728396.35508  22402968.940    91736429.32647
  24473296.780   128608023.00306  24473297.180   100214038.45244
  22949887.600   120602456.85508  22949887.600    93975931.81847
 15 02 21 00 32 30.0000000  0  7G16G18G21G22G27G29G31
  21355758.740   112225286.10109  21355757.680    87448298.75548
  22807552.740   119854527.47608  22807552.080    93393139.46446
  21513413.860   113053760.00009  21513412.720    88093837.25548
  23904323.600   125618103.35006  23904324.080    97884237.99845
  22391805.240   117669743.94708  22391807.660    91690726.16647
  24488022.540   128685407.49606  24488023.040   100274338.02745
  22967875.580   120696984.05508  22967875.520    94049589.32347
 15 02 21 00 33  0.0000000  0  7G16G18G21G22G27G29G31
  21343915.660   112163050.21709  21343914.580    87399803.26548
  22796838.420   119798223.06608  22796837.740    93349265.89645
  21521863.240   113098161.76508  21521862.100    88128436.02948
  23887143.000   125527818.69106  23887143.240    97813886.40645
  22380670.320   117611229.30408  22380672.620    91645130.35247
  24502746.600   128762784.08105  24502747.460   100334631.44945
  22985896.100   120791682.32708  22985896.040    94123380.14747
 15 02 21 00 33 30.0000000  0  7G16G18G21G22G27G29G31
  21332126.120   112101095.63209  21332125.000    87351526.96748
  22786180.280   119742214.04708  22786179.560    93305622.52546
  21530375.100   113142891.89908  21530373.960    88163290.68348
  23869964.920   125437546.52505  23869964.620    97743544.55246
  22369561.460   117552851.93708  22369563.760    91599641.51547
  24517469.060   128840151.93406  24517470.160   100394917.95945
  23003948.520   120886548.58408  23003948.540    94197301.84547
 15 02 21 00 34  0.0000000  0  7G16G18G21G22G27G29G31
  21320390.160   112039422.71709  21320389.000    87303470.15048
  22775578.480   119686501.53008  22775577.740    93262210.18245
  21538948.660   113187946.22708  21538947.520    88198397.94848
  23852789.340   125347288.13506  23852788.700    97673213.41945
  22358478.420   117494610.14508  22358480.640    91554258.31548
  24532189.800   128917509.29407  24532190.880   100455196.37645
  23022032.060   120981577.98908  23022032.100    94271350.68347
 15 02 21 00 34 30.0000000  0  7G16G18G21G22G27G29G31
  21308708.740   111978036.37509  21308707.560    87255636.64148
  22765034.060   119631090.59108  22765033.440    93219032.84846
  21547584.240   113233326.67208  21547583.140    88233759.33548
  23835617.380   125257049.12306  23835616.720    97602897.38846
  22347421.720   117436506.79408  22347423.880    91508982.98947
  24546909.160   128994858.89406  24546909.880   100515468.78144
  23040146.660   121076770.79408  23040146.740    94345526.82746
 15 02 21 00 35  0.0000000  0  7G16G18G21G22G27G29G31
  21297082.200   111916938.47909  21297081.060    87208027.89948
  22754547.480   119575983.53608  22754546.980    93176092.29745
  21556281.540   113279031.55408  21556280.500    88269373.53048
  23818449.360   125166831.88805  23818449.040    97532598.33445
  22336391.300   117378541.75608  22336393.420    91463815.43747
  24561627.080   129072200.82206  24561627.640   100575735.16544
  23058291.740   121172123.68608  23058291.860    94419827.73847
 15 02 21 00 35 30.0000000  0  6G16G18G21G22G27G31
  21285507.480   111856112.85209  21285506.380    87160631.31248
  22744115.580   119521163.91008  22744115.120    93133375.71445
  21565036.780   113325040.79508  21565035.760    88305224.89048
  23801282.360   125076620.70706  23801282.680    97462304.01845
  22325383.720   117320696.54908  22325385.840    91418741.28047
  23076463.220   121267615.26108  23076463.380    94494236.70747
 15 02 21 00 36  0.0000000  0  6G16G18G21G22G27G31
  21273991.940   111795598.58009  21273990.940    87113477.34748
  22733745.940   119466671.43308  22733745.500    93090914.06045
  21573856.560   113371389.22808  21573855.560    88341340.55048
  23784124.400   124986455.72006  23784125.040    97392045.65045
  22314405.980   117263008.25108  22314408.040    91373789.37848
  23094667.720   121363280.31208  23094667.880    94568780.83147
 15 02 21 00 36 30.0000000  0  6G16G18G21G22G27G31
  21262531.760   111735375.13509  21262530.800    87066549.98748
  22723434.720   119412485.87208  22723434.380    93048691.55145
  21582736.240   113418052.36108  21582735.240    88377701.43348
  23766971.540   124896316.41206  23766972.140    97321807.29345
  22303453.800   117205454.15208  22303455.820    91328942.04448
  23112900.280   121459092.83908  23112900.440    94643439.89547
 15 02 21 00 37  0.0000000  0  6G16G18G21G22G27G31
  21251128.020   111675448.25309  21251127.100    87019853.71748
  22713183.020   119358612.97708  22713182.780    93006712.68646
  21591676.300   113465032.43108  21591675.260    88414309.28248
  23749824.980   124806209.44106  23749825.340    97251594.14145
  22292527.800   117148037.66808  22292529.780    91284201.93247
  23131160.980   121555053.39908  23131161.200    94718214.30047
 15 02 21 00 37 30.0000000  0  6G16G18G21G22G27G31
  21239781.200   111615820.39809  21239780.340    86973390.46248
  22702991.340   119305055.41108  22702991.160    92964979.53246
  21600676.240   113512327.16409  21600675.160    88451162.31748
  23732685.140   124716137.77806  23732684.900    97181408.47345
  22281628.060   117090759.24008  22281630.020    91239569.40647
  23149449.420   121651159.75508  23149449.700    94793102.31346
 15 02 21 00 38  0.0000000  0  6G16G18G21G22G27G31
  21228492.340   111556497.18309  21228491.520    86927164.58448
  22692860.880   119251819.27908  22692860.640    92923496.84446
  21609736.580   113559939.30209  21609735.440    88488262.67748
  23715552.920   124626107.31006  23715552.100    97111254.91045
  22270755.280   117033622.51608  22270757.220    91195047.30547
  23167765.740   121747412.66108  23167766.020    94868104.52847
 15 02 21 00 38 30.0000000  0  6G16G18G21G22G27G31
  21217261.640   111497479.50609  21217260.860    86881176.78848
  22682791.820   119198905.75708  22682791.420    92882265.54746
  21618856.620   113607865.05709  21618855.340    88525607.42048
  23698428.720   124536120.30606  23698427.720    97041135.24045
  22259909.220   116976626.21508  22259911.160    91150634.61247
  23186109.120   121843807.72908  23186109.480    94943217.49847
 15 02 21 00 39  0.0000000  0  6G16G18G21G22G27G31
  21206088.480   111438764.49309  21206087.780    86835424.83248
  22672783.580   119146311.88508  22672783.060    92841283.31946
  21628035.180   113656098.41608  21628033.820    88563191.85148
  23681312.100   124446173.93606  23681311.420    96971047.20345
  22249088.860   116919765.19108  22249090.840    91106327.33447
  23204478.000   121940337.00507  23204478.440    95018435.04946
 15 02 21 00 39 30.0000000  0  6G16G18G21G22G27G31
  21194973.260   111380353.78609  21194972.580    86789910.00348
  22662836.520   119094039.51708  22662835.900    92800551.61046
  21637271.760   113704636.73509  21637270.360    88601013.91648
  23664203.760   124356270.35606  23664203.480    96900992.56245
  22238294.280   116863039.08608  22238296.220    91062125.19447
  23222871.900   122036997.61808  23222872.380    95093754.94947
 15 02 21 00 40  0.0000000  0  6G16G18G21G22G27G31
  21183916.760   111322251.48409  21183916.060    86744635.48648
  22652951.440   119042092.95208  22652950.780    92760073.78646
  21646566.440   113753480.57708  21646565.040    88639074.04048
  23647104.780   124266414.55206  23647104.700    96830975.13046
  22227525.740   116806449.86608  22227527.620    91018029.70647
  23241290.660   122133788.47907  23241291.120    95169176.34447
 15 02 21 00 40 30.0000000  0  6G16G18G21G22G27G31
  21172919.220   111264459.17309  21172918.540    86699602.52148
  22643128.580   118990473.35408  22643127.860    92719850.73246
  21655918.680   113802627.06108  21655917.300    88677370.00448
  23630015.580   124176608.84906  23630015.440    96760996.72345
  22216783.120   116749996.91908  22216784.960    90974040.40547
  23259733.500   122230705.87907  23259733.940    95244696.31246
 15 02 21 00 41  0.0000000  0  6G16G18G21G22G27G31
  21161980.700   111206977.05209  21161980.040    86654811.25848
  22633368.180   118939182.31108  22633367.500    92679883.70246
  21665327.900   113852073.16608  21665326.600    88715899.43248
  23612936.160   124086854.14606  23612935.780    96691058.03946
  22206066.180   116693678.61808  22206067.940    90930156.03347
  23278199.600   122327745.40907  23278199.960    95320311.46746
 15 02 21 00 41 30.0000000  0  6G16G18G21G22G27G31
  21151102.960   111149814.28709  21151102.300    86610268.84348
  22623671.860   118888228.04908  22623671.240    92640179.09546
  21674794.920   113901822.90008  21674793.640    88754665.45848
  23595868.040   123997159.63506  23595867.460    96621166.27445
  22195376.080   116637501.52408  22195377.800    90886381.68047
  23296689.580   122424910.65507  23296689.940    95396024.58846
 15 02 21 00 42  0.0000000  0  6G16G18G21G22G27G31
  21140286.900   111092975.64209  21140286.240    86565978.99248
  22614040.600   118837615.83308  22614040.100    92600741.02746
  21684320.040   113951878.01108  21684318.800    88793669.43748
  23578812.080   123907530.91706  23578811.540    96551325.80445
  22184713.340   116581468.44708  22184715.100    90842719.55947
  23315203.500   122522201.96607  23315203.940    95471835.92246
 15 02 21 00 42 30.0000000  0  6G16G18G21G22G27G31
  21129531.080   111036453.45009  21129530.400    86521935.72648
  22604473.240   118787338.83108  22604472.760    92561564.16646
  21693901.220   114002227.76708  21693900.040    88832903.00548
  23561767.280   123817961.59106  23561766.740    96481531.58545
  22174076.320   116525570.26208  22174077.980    90799162.54347
  23333739.100   122619606.93407  23333739.620    95547735.81746
 15 02 21 00 43  0.0000000  0  6G16G18G21G22G27G31
  21118835.380   110980247.25909  21118834.680    86478138.70048
  22594969.440   118737395.67508  22594968.880    92522647.43446
  21703537.460   114052866.71008  21703536.340    88872361.92048
  23544733.840   123728451.30806  23544733.060    96411783.34445
  22163464.400   116469803.78308  22163465.960    90755708.15548
  23352295.160   122717119.47207  23352295.800    95623719.54746
 15 02 21 00 43 30.0000000  0  6G16G18G21G22G27G31
  21108201.840   110924367.71609  21108201.160    86434596.20148
  22585531.200   118687797.40208  22585530.600    92483999.44446
  21713230.020   114103801.42808  21713228.900    88912051.30648
  23527714.060   123639011.21907  23527712.800    96342089.81545
  22152879.100   116414177.61708  22152880.640    90712363.11347
  23370872.800   122814745.37407  23370873.460    95699791.61346
 15 02 21 00 44  0.0000000  0  6G16G18G21G22G27G31
  21097631.140   110868818.52309  21097630.520    86391311.12648
  22576159.260   118638547.88208  22576158.740    92445623.21346
  21722978.940   114155032.21408  21722977.820    88951971.39748
  23510708.600   123549645.97806  23510706.980    96272454.59345
  22142320.780   116358693.31008  22142322.320    90669128.59648
  23389471.900   122912483.41607  23389472.400    95775951.05746
 15 02 21 00 44 30.0000000  0  6G16G18G21G22G27G31
  21087122.580   110813595.85409  21087121.960    86348280.47248
  22566853.020   118589643.70308  22566852.580    92407516.07246
  21732782.760   114206551.55508  21732781.620    88992116.32648
  23493716.740   123460352.48607  23493714.980    96202875.29445
  22131788.380   116303345.26108  22131789.940    90626000.26348
  23408090.740   123010325.05307  23408091.060    95852191.22246
 15 02 21 00 45  0.0000000  0  6G16G18G21G22G27G31
  21076676.680   110758702.35009  21076676.040    86305506.31748
  22557612.960   118541087.22508  22557612.600    92369679.88446
  21742641.180   114258357.89108  21742640.020    89032484.89348
  23476739.100   123371133.72607  23476737.400    96133354.23945
  22121281.960   116248133.75908  22121283.480    90582978.32548
  23426728.720   123108267.54807  23426728.940    95928509.96946
 15 02 21 00 45 30.0000000  0  6G16G18G21G22G27G31
  21066294.200   110704142.07309  21066293.560    86262991.81848
  22548439.840   118492882.45308  22548439.540    92332117.74346
  21752554.160   114310450.95808  21752552.980    89073076.88948
  23459776.480   123281994.31707  23459774.980    96063895.02346
  22110801.920   116193060.86908  22110803.460    90540064.40048
  23445385.720   123206310.18707  23445385.860    96004906.75346
 15 02 21 00 46  0.0000000  0  6G16G18G21G22G27G31
  21055975.200   110649915.48009  21055974.620    86220737.33448
  22539333.760   118445029.96608  22539333.540    92294830.10546
  21762521.200   114362827.90908  21762520.000    89113890.08848
  23442829.120   123192935.89607  23442827.860    95994498.90845
  22100347.960   116138125.04408  22100349.520    90497257.27148
  23464060.920   123304448.64507  23464061.060    96081378.20145
 15 02 21 00 46 30.0000000  0  6G16G18G21G22G27G31
  21045720.340   110596025.92909  21045719.820    86178745.47948
  22530295.400   118397533.44508  22530295.180    92257819.84746
  21772542.080   114415487.74508  21772540.860    89154923.72648
  23425897.800   123103962.13407  23425896.780    95925168.77045
  22089920.280   116083327.52808  22089921.920    90454557.92748
  23482753.920   123402681.28007  23482754.180    96157923.03246
 15 02 21 00 47  0.0000000  0  6G16G18G21G22G27G31
  21035529.660   110542473.40309  21035529.120    86137016.23748
  22521324.780   118350392.41608  22521324.500    92221086.58246
  21782616.140   114468427.01208  21782614.880    89196175.09048
  23408982.780   123015073.72107  23408981.720    95855905.11945
  22079518.540   116028666.14208  22079520.260    90411964.65348
  23501463.800   123501002.72907  23501464.180    96234537.07146
 15 02 21 00 47 30.0000000  0  7G16G18G19G21G22G27G31
  21025404.080   110489263.06809  21025403.520    86095553.64348
  22512422.880   118303612.33508  22512422.520    92184634.58746
  24185943.040   127097988.59705  24185940.580    99037402.35744
  21792743.520   114521646.65008  21792742.240    89237644.92948
  23392085.240   122926276.47807  23392083.880    95786712.50945
  22069143.340   115974144.01908  22069145.060    90369479.89448
  23520190.780   123599413.42807  23520191.220    96311220.64546
 15 02 21 00 48  0.0000000  0  7G16G18G19G21G22G27G31
  21015340.000   110436375.87109  21015339.420    86054342.84048
  22503586.060   118257174.28508  22503585.620    92148449.10246
  24171136.300   127020180.60805  24171134.720    98976772.81442
  21802919.860   114575123.58108  21802918.560    89279315.25648
  23375201.720   122837552.21507  23375199.880    95717576.73545
  22058790.620   115919740.27608  22058792.360    90327087.38448
  23538930.300   123697889.53507  23538930.820    96387955.17246
 15 02 21 00 48 30.0000000  0  7G16G18G19G21G22G27G31
  21005345.540   110383854.46609  21005344.940    86013417.07448
  22494822.420   118211120.94408  22494821.940    92112563.39246
  24156353.300   126942496.11305  24156351.400    98916239.48043
  21813152.500   114628896.38808  21813151.200    89321216.13848
  23358340.320   122748944.08507  23358338.120    95648531.47045
  22048468.120   115865495.35408  22048469.860    90284818.62148
  23557689.420   123796468.64307  23557689.940    96464769.95046
 15 02 21 00 49  0.0000000  0  7G16G18G19G21G22G27G31
  20995416.660   110331677.60809  20995416.020    85972759.78248
  22486127.900   118165430.88508  22486127.380    92076960.75946
  24141589.340   126864911.69706  24141587.840    98855784.08844
  21823436.800   114682940.82308  21823435.600    89363328.68348
  23341497.120   122660431.78607  23341494.800    95579560.88646
  22038171.480   115811386.03808  22038173.220    90242655.52848
  23576463.140   123895124.53707  23576463.580    96541644.57946
 15 02 21 00 49 30.0000000  0  7G16G18G19G21G22G27G31
  20985553.520   110279846.47009  20985552.880    85932371.88748
  22477502.740   118120105.45008  22477502.220    92041642.24946
  24126844.480   126787426.66106  24126843.100    98795406.17844
  21833772.180   114737253.60308  21833771.040    89405650.32248
  23324672.400   122572017.12207  23324670.140    95510666.38046
  22027900.420   115757411.47408  22027902.180    90200597.43248
  23595250.740   123993853.57407  23595251.100    96618576.22245
 15 02 21 00 50  0.0000000  0  7G16G18G19G21G22G27G31
  20975757.380   110228367.46009  20975756.720    85892258.36848
  22468948.140   118075150.84008  22468947.640    92006612.69446
  24112119.320   126710045.38606  24112118.060    98735109.09544
  21844159.080   114791837.30008  21844157.980    89448183.06848
  23307867.480   122483706.98207  23307865.480    95441853.32946
  22017655.800   115703575.92908  22017657.600    90158647.66848
  23614052.460   124092656.88307  23614052.760    96695565.71346
 15 02 21 00 50 30.0000000  0  7G16G18G19G21G22G27G31
  20966028.840   110177243.64009  20966028.120    85852421.62548
  22460464.680   118030570.11408  22460464.220    91971874.47546
  24097414.020   126632768.58206  24097413.060    98674893.44244
  21854597.360   114846690.93608  21854596.320    89490926.15648
  23291083.120   122395505.06607  23291081.440    95373124.62946
  22007437.800   115649880.36808  22007439.660    90116806.98948
  23632868.000   124191532.85007  23632868.320    96772611.81746
 15 02 21 00 51  0.0000000  0  7G16G18G19G21G22G27G31
  20956367.940   110126475.35709  20956367.220    85812861.93048
  22452052.440   117986363.67108  22452052.000    91937427.90846
  24082728.240   126555594.72006  24082727.260    98614758.01844
  21865086.320   114901810.82508  21865085.300    89533876.71448
  23274319.560   122307412.52607  23274318.080    95304481.14046
  21997246.100   115596323.08908  21997248.080    90075074.05248
  23651696.500   124290476.83907  23651696.920    96849710.90646
 15 02 21 00 51 30.0000000  0  7G16G18G19G21G22G27G31
  20946774.320   110076060.60109  20946773.620    85773577.70348
  22443711.080   117942529.46808  22443710.560    91903271.38646
  24068061.480   126478520.30006  24068060.460    98554700.07645
  21875624.940   114957191.61508  21875623.880    89577030.57648
  23257576.600   122219428.28107  23257575.140    95235922.00945
  21987080.060   115542900.41408  21987082.080    90033446.00648
  23670536.660   124389482.28807  23670537.180    96926857.88245
 15 02 21 00 52  0.0000000  0  7G16G18G19G21G22G27G31
  20937249.440   110026006.82509  20937248.720    85734574.76448
  22435441.940   117899074.62808  22435441.360    91869410.49046
  24053414.560   126401550.36606  24053413.460    98494723.56546
  21886213.860   115012836.78108  21886212.840    89620390.43648
  23240855.840   122131560.53308  23240854.320    95167453.67346
  21976940.680   115489617.69408  21976942.740    89991927.02048
  23689388.880   124488551.23107  23689389.500    97004054.34945
 15 02 21 00 52 30.0000000  0  7G16G18G19G21G22G27G31
  20927793.060   109976313.27309  20927792.360    85695852.51248
  22427244.860   117855998.55108  22427244.220    91835844.72446
  24038787.080   126324682.29006  24038785.940    98434826.40645
  21896852.120   115068741.26408  21896851.120    89663952.36548
  23224157.220   122043809.08507  23224155.540    95099075.95945
  21966827.380   115436472.18008  21966829.480    89950514.94148
  23708252.220   124587678.45707  23708252.840    97081296.22945
 15 02 21 00 53  0.0000000  0  7G16G18G19G21G22G27G31
  20918406.520   109926986.78509  20918405.820    85657416.29248
  22419121.000   117813307.69308  22419120.380    91802579.13546
  24024179.820   126247920.82506  24024178.740    98375012.34146
  21907540.260   115124907.90308  21907539.260    89707718.57348
  23207482.100   121956181.21808  23207480.220    95030794.52146
  21956741.060   115383468.39408  21956743.200    89909213.29948
  23727126.980   124686865.58007  23727127.640    97158584.77946
 15 02 21 00 53 30.0000000  0  7G16G18G19G21G22G27G31
  20909088.880   109878022.41709  20909088.160    85619262.23448
  22411069.540   117770997.43708  22411068.980    91769610.12146
  24009591.560   126171259.29106  24009590.520    98315276.16045
  21918276.680   115181328.29508  21918275.700    89751682.50848
  23190829.800   121868673.20107  23190827.960    94962606.50746
  21946680.460   115330599.79508  21946682.620    89868016.98948
  23746011.260   124786102.92607  23746012.000    97235912.43246
 15 02 21 00 54  0.0000000  0  7G16G18G19G21G22G27G31
  20899841.180   109829425.62809  20899840.520    85581394.61348
  22403091.420   117729072.76708  22403091.020    91736941.56346
  23995022.960   126094700.83107  23995021.900    98255620.26945
  21929061.640   115238003.61808  21929060.660    89795845.09648
  23174201.260   121781290.67907  23174199.620    94894516.29846
  21936646.180   115277869.60208  21936648.360    89826928.53648
  23764905.160   124885390.67607  23764905.940    97313279.35846
 15 02 21 00 54 30.0000000  0  7G16G18G19G21G22G27G31
  20890663.880   109781198.49609  20890663.240    85543815.02748
  22395187.160   117687535.91308  22395186.820    91704575.19346
  23980473.980   126018245.62507  23980472.900    98196044.84746
  21939894.880   115294932.58208  21939893.880    89840205.31948
  23157597.340   121694036.95108  23157595.780    94826526.39446
  21926638.340   115225278.12708  21926640.540    89785948.18448
  23783808.200   124984726.53707  23783809.080    97390683.76246
 15 02 21 00 55  0.0000000  0  7G16G18G19G21G22G27G31
  20881557.420   109733343.56809  20881556.800    85506525.47948
  22387357.160   117646389.18808  22387356.840    91672512.82046
  23965944.800   125941894.26607  23965943.620    98136550.32745
  21950776.140   115352113.85808  21950775.120    89884762.15148
  23141018.520   121606915.42807  23141017.200    94758639.54946
  21916657.060   115172825.95008  21916659.280    89745076.37648
  23802720.020   125084108.34707  23802720.940    97468123.98146
 15 02 21 00 55 30.0000000  0  7G16G18G19G21G22G27G31
  20872522.000   109685861.91809  20872521.340    85469526.78148
  22379601.580   117605633.60508  22379601.280    91640755.24846
  23951435.240   125865645.91907  23951433.980    98077136.06946
  21961704.920   115409544.91308  21961703.940    89929513.61348
  23124465.300   121519927.85108  23124464.060    94690857.05845
  21906702.100   115120512.27908  21906704.300    89704312.49348
  23821639.900   125183532.10707  23821640.820    97545596.90445
 15 02 21 00 56  0.0000000  0  7G16G18G19G21G22G27G31
  20863557.980   109638755.64409  20863557.300    85432820.59148
  22371920.840   117565271.25408  22371920.560    91609304.07446
  23936945.260   125789500.76707  23936944.080    98017802.23646
  21972680.800   115467223.45708  21972679.820    89974457.92448
  23107938.160   121433077.03408  23107936.820    94623181.12146
  21896773.540   115068337.15508  21896775.680    89663656.56448
  23840567.120   125282994.83307  23840568.160    97623100.18446
