     2.11           OBSERVATION DATA    G                   RINEX VERSION / TYPE
SPIDER V4,0,0,3554                      2015 04 15 02:03    PGM / RUN BY / DATE 
CABS                                                        MARKER NAME         
CABS                                                        MARKER NUMBER       
                                                            OBSERVER / AGENCY   
462287              LEICA GRX1200PRO    8.10/2.127          REC # / TYPE / VERS 
103298              LEIAT504                                ANT # / TYPE        
  5116912.3402   671231.6412  3737143.4301                  APPROX POSITION XYZ 
        0.0600        0.0000        0.0000                  ANTENNA: DELTA H/E/N
     1     1                                                WAVELENGTH FACT L1/2
     4    C1    L1    P2    L2                              # / TYPES OF OBSERV 
    30.000                                                  INTERVAL            
  2015    01    22    00    00    0.0000000     GPS         TIME OF FIRST OBS   
  2015    01    22    23    59   30.0000000     GPS         TIME OF LAST OBS    
    16                                                      LEAP SECONDS        
    30                                                      # OF SATELLITES     
   G 1   803   803   803   803                              PRN / # OF OBS      
   G 2   948   948   948   948                              PRN / # OF OBS      
   G 3   846   846   846   846                              PRN / # OF OBS      
   G 4   831   831   831   831                              PRN / # OF OBS      
   G 5   646   646   646   646                              PRN / # OF OBS      
   G 6   838   838   838   838                              PRN / # OF OBS      
   G 7   671   671   671   671                              PRN / # OF OBS      
   G 9   807   807   807   807                              PRN / # OF OBS      
   G10   753   753   753   753                              PRN / # OF OBS      
   G11   768   768   768   768                              PRN / # OF OBS      
   G12   836   836   836   836                              PRN / # OF OBS      
   G13   792   792   792   792                              PRN / # OF OBS      
   G14   948   948   948   948                              PRN / # OF OBS      
   G15   699   699   699   699                              PRN / # OF OBS      
   G16   659   659   659   659                              PRN / # OF OBS      
   G17   941   941   941   941                              PRN / # OF OBS      
   G18   899   899   899   899                              PRN / # OF OBS      
   G19   751   751   751   751                              PRN / # OF OBS      
   G20   829   829   829   829                              PRN / # OF OBS      
   G21   743   743   743   743                              PRN / # OF OBS      
   G22   655   655   655   655                              PRN / # OF OBS      
   G23   755   755   755   755                              PRN / # OF OBS      
   G24   817   817   817   817                              PRN / # OF OBS      
   G25   856   856   856   856                              PRN / # OF OBS      
   G27   793   793   793   793                              PRN / # OF OBS      
   G28   879   879   879   879                              PRN / # OF OBS      
   G29   784   784   784   784                              PRN / # OF OBS      
   G30   714   714   714   714                              PRN / # OF OBS      
   G31   868   868   868   868                              PRN / # OF OBS      
   G32   771   771   771   771                              PRN / # OF OBS      
BIT 2 OF LLI FLAGS DATA COLLECTED UNDER A/S CONDITION       COMMENT             
SNR is mapped to RINEX snr flag value [2-9]                 COMMENT             
Lx:     = 25dBHz -> 1; 26-27dBHz -> 2; 28-31dBHz -> 3       COMMENT             
       32-35dBHz -> 4; 36-38dBHz -> 5; 39-41dBHz -> 6       COMMENT             
       42-44dBHz -> 7; 45-48dBHz -> 8; >=49dBHz -> 9        COMMENT             
                                                            END OF HEADER       
 15 01 22 00 00  0.0000000  0  7G02G12G14G21G25G29G31
  24482589.740   128656888.92306  24482589.520   100252128.02245
  23435984.600   123157047.05707  23435986.300    95966593.84146
  23890753.900   125546751.23306  23890756.740    97828625.96544
  22808734.100   119860736.86607  22808734.860    93398004.91646
  20936411.520   110021669.38909  20936415.500    85731230.72148
  20261884.620   106476993.28609  20261886.180    82969135.06649
  21335365.700   112118115.60409  21335366.360    87364779.33448
 15 01 22 00 00 30.0000000  0  7G02G12G14G21G25G29G31
  24497950.320   128737609.01406  24497950.040   100315026.78844
  23449698.940   123229115.62307  23449700.580    96022751.14846
  23905756.880   125625592.47005  23905759.760    97890060.65245
  22792536.260   119775616.41907  22792536.980    93331677.33646
  20942034.760   110051219.33409  20942038.620    85754256.64648
  20267088.040   106504337.40109  20267089.620    82990442.17249
  21326748.060   112072829.65009  21326748.740    87329491.58048
 15 01 22 00 01  0.0000000  0  7G02G12G14G21G25G29G31
  24513361.400   128818594.57806  24513361.180   100378132.40845
  23463440.520   123301328.13907  23463442.200    96079020.61946
  23920784.060   125704560.83906  23920787.020    97951594.43245
  22776383.300   119690732.94007  22776384.260    93265534.38446
  20947709.640   110081040.94609  20947713.460    85777494.25548
  20272355.980   106532020.52909  20272357.580    83012013.43849
  21318221.360   112028021.52309  21318222.020    87294576.16348
 15 01 22 00 01 30.0000000  0  7G02G12G14G21G25G29G31
  24528822.340   128899842.42406  24528822.240   100441442.39945
  23477209.200   123373684.12306  23477211.100    96135401.90346
  23935834.660   125783652.01506  23935837.640    98013223.84745
  22760275.480   119606087.59807  22760276.900    93199576.99746
  20953436.100   110111133.54909  20953439.860    85800943.03348
  20277687.860   106560039.70009  20277689.460    83033846.56549
  21309785.720   111983691.96509  21309786.400    87260033.65648
 15 01 22 00 02  0.0000000  0  7G02G12G14G21G25G29G31
  24544332.900   128981350.94306  24544332.940   100504955.50945
  23491005.160   123446184.13006  23491007.320    96191895.41146
  23950908.200   125862863.78206  23950911.200    98074947.28145
  22744213.540   119521683.42207  22744215.460    93133807.52846
  20959214.260   110141498.30308  20959218.100    85824603.87348
  20283083.500   106588394.03209  20283085.100    83055940.84949
  21301441.640   111939843.54909  21301442.360    87225866.06848
 15 01 22 00 02 30.0000000  0  7G02G12G14G21G25G29G31
  24559892.540   129063117.35605  24559892.560   100568669.60145
  23504828.360   123518826.94207  23504830.580    96248500.17945
  23966003.940   125942192.33706  23966007.060    98136761.68345
  22728197.920   119437521.82207  22728200.160    93068227.06746
  20965044.120   110172134.82308  20965048.060    85848476.47948
  20288542.500   106617081.30709  20288544.080    83078294.57549
  21293189.320   111896477.29709  21293190.060    87192074.18848
 15 01 22 00 03  0.0000000  0  7G02G12G14G21G25G29G31
  24575500.840   129145139.21906  24575500.740   100632582.70444
  23518679.020   123591613.07407  23518681.120    96305216.63046
  23981121.280   126021634.24506  23981124.460    98198664.42844
  22712229.080   119353604.91507  22712231.360    93002837.29746
  20970925.760   110203043.51008  20970929.800    85872561.16148
  20294064.480   106646099.74409  20294066.080    83100906.35049
  21285029.040   111853594.79609  21285029.760    87158659.25548
 15 01 22 00 03 30.0000000  0  7G02G12G14G21G25G29G31
  24591157.340   129227414.42406  24591157.040   100696693.24944
  23532557.000   123664541.81607  23532558.800    96362044.20245
  23996259.720   126101186.64006  23996262.880    98260653.26745
  22696307.300   119269934.60807  22696309.320    92937639.66846
  20976859.280   110234224.50708  20976863.340    85896858.03848
  20299649.160   106675447.48609  20299650.740    83123774.72249
  21276961.220   111811198.06409  21276961.920    87125622.83848
 15 01 22 00 04  0.0000000  0  7G02G12G14G21G25G29G31
  24606861.760   129309941.99705  24606861.440   100761000.43945
  23546462.560   123737614.87607  23546463.940    96418984.23645
  24011418.800   126180847.42906  24011421.880    98322726.55144
  22680433.260   119186514.74007  22680434.880    92872637.19246
  20982845.000   110265679.67509  20982849.060    85921368.55148
  20305296.460   106705124.27909  20305298.000    83146899.50249
  21268986.280   111769289.65509  21268987.000    87092966.93748
 15 01 22 00 04 30.0000000  0  7G02G12G14G21G25G29G31
  24622613.580   129392718.65605  24622613.320   100825501.71545
  23560395.300   123810830.78307  23560396.420    96476035.58145
  24026597.740   126260612.79006  24026600.780    98384881.34945
  22664607.040   119103346.38107  22664608.220    92807830.71346
  20988882.780   110297408.44708  20988886.840    85946092.26148
  20311005.860   106735127.37609  20311007.380    83170278.54149
  21261104.460   111727870.45909  21261105.180    87060692.23948
 15 01 22 00 05  0.0000000  0  7G02G12G14G21G25G29G31
  24638412.680   129475743.69006  24638412.480   100890196.52245
  23574355.420   123884191.52807  23574356.640    96533199.78146
  24041796.140   126340481.01805  24041799.160    98447116.28344
  22648829.280   119020433.08107  22648830.160    92743222.96946
  20994972.960   110329412.61108  20994977.020    85971030.56348
  20316777.400   106765457.00809  20316778.900    83193912.02049
  21253316.360   111686943.76109  21253317.060    87028801.30648
 15 01 22 00 05 30.0000000  0  7G02G12G14G21G25G29G31
  24654258.660   129559014.70106  24654258.600   100955083.02244
  23588342.740   123957696.28706  23588344.280    96590476.20846
  24057013.280   126420448.23006  24057016.380    98509428.35745
  22633100.220   118937776.64407  22633101.080    92678815.37246
  21001115.600   110361692.22609  21001119.660    85996183.50548
  20322610.620   106796111.02009  20322612.180    83217798.26349
  21245622.240   111646510.75909  21245622.900    86997295.06248
 15 01 22 00 06  0.0000000  0  7G02G12G14G21G25G29G31
  24670150.680   129642527.97106  24670150.700   101020158.25944
  23602357.280   124031343.80907  23602359.160    96647863.88346
  24072248.540   126500510.18806  24072251.700    98571814.26445
  22617420.080   118855378.07907  22617421.180    92614608.70746
  21007310.500   110394246.32509  21007314.520    86021550.32548
  20328505.020   106827086.43709  20328506.620    83241934.95049
  21238022.140   111606572.04609  21238022.820    86966173.98948
 15 01 22 00 06 30.0000000  0  7G02G12G14G21G25G29G31
  24686088.240   129726280.37206  24686088.180   101085419.88245
  23616398.860   124105132.90707  23616400.940    96705361.86846
  24087501.140   126580663.23106  24087504.240    98634271.12344
  22601789.160   118773238.23007  22601790.620    92550603.64246
  21013557.480   110427074.12709  21013561.460    86047130.42248
  20334459.920   106858379.86609  20334461.540    83266319.44449
  21230516.080   111567127.57609  21230516.800    86935438.03848
 15 01 22 00 07  0.0000000  0  7G02G12G14G21G25G29G31
  24702071.260   129810271.53805  24702071.080   101150867.54844
  23630467.880   124179065.75707  23630469.940    96762971.86245
  24102770.940   126660906.30406  24102773.920    98696798.14445
  22586208.440   118691361.58807  22586210.180    92486803.68346
  21019857.060   110460178.27809  21019861.000    86072925.86148
  20340475.620   106889992.62509  20340477.240    83290952.76549
  21223104.860   111528181.55209  21223105.660    86905090.49148
 15 01 22 00 07 30.0000000  0  7G02G12G14G21G25G29G31
  24718099.120   129894498.67705  24718099.000   101216499.07245
  23644564.240   124253141.47207  23644566.120    96820693.18246
  24118057.180   126741235.30906  24118060.000    98759392.10645
  22570678.220   118609749.48907  22570680.040    92423209.86546
  21026209.120   110493558.51809  21026213.020    86098936.43548
  20346551.620   106921922.17809  20346553.240    83315832.94049
  21215788.760   111489735.04509  21215789.560    86875132.17648
 15 01 22 00 08  0.0000000  0  7G02G12G14G21G25G29G31
  24734171.580   129978960.56305  24734171.440   101282313.51945
  23658687.980   124327361.03907  23658689.620    96878526.58546
  24133359.400   126821648.10106  24133362.140    98822051.39644
  22555199.000   118528404.76208  22555200.740    92359824.38346
  21032613.920   110527215.92209  21032617.840    86125162.98048
  20352687.680   106954167.31509  20352689.300    83340959.02349
  21208568.140   111451790.27309  21208568.940    86845564.81748
 15 01 22 00 08 30.0000000  0  7G02G12G14G21G25G29G31
  24750288.160   130063654.32205  24750288.160   101348308.63346
  23672838.900   124401723.74307  23672840.400    96936471.52646
  24148676.760   126902140.98506  24148679.560    98884773.05645
  22539771.080   118447329.28908  22539772.520    92296648.72146
  21039071.400   110561150.41608  21039075.400    86151605.43848
  20358883.480   106986726.32509  20358885.100    83366329.68049
  21201443.220   111414348.51309  21201443.980    86816389.42248
 15 01 22 00 09  0.0000000  0  7G02G12G14G21G25G29G31
  24766448.660   130148578.85905  24766448.820   101414483.59545
  23687017.060   124476230.08507  23687018.540    96994528.37546
  24164008.900   126982712.11106  24164011.860    98947555.71945
  22524395.020   118366526.52308  22524396.140    92233685.55246
  21045581.900   110595363.47708  21045585.940    86178264.96448
  20365138.860   107019598.53709  20365140.480    83391944.39349
  21194414.480   111377412.27509  21194415.240    86787607.93548
 15 01 22 00 09 30.0000000  0  7G02G12G14G21G25G29G31
  24782652.320   130233729.76905  24782652.480   101480834.93944
  23701222.140   124550878.63107  23701223.640    97052696.05946
  24179355.020   127063356.42706  24179358.120    99010395.39845
  22509070.640   118285996.16307  22509071.600    92170934.64846
  21052145.080   110629853.50208  21052149.180    86205140.30448
  20371453.180   107052780.49109  20371454.800    83417800.46549
  21187481.840   111340981.12109  21187482.580    86759220.02448
 15 01 22 00 10  0.0000000  0  7G02G12G14G21G25G29G31
  24798898.900   130319105.44805  24798899.020   101547361.43845
  23715454.380   124625669.54707  23715455.880    97110974.68446
  24194714.520   127144071.13606  24194717.700    99073289.93245
  22493798.420   118205740.54907  22493799.360    92108397.83346
  21058761.140   110664621.21808  21058765.280    86232232.02348
  20377826.120   107086270.55109  20377827.740    83443896.61649
  21180645.680   111305056.83409  21180646.400    86731227.07348
 15 01 22 00 10 30.0000000  0  6G12G14G21G25G29G31
  23729715.160   124700609.82607  23729716.400    97169369.70745
  24210088.240   127224860.31706  24210091.500    99136242.48144
  22478580.160   118125769.19607  22478581.240    92046082.52047
  21065431.480   110699674.01808  21065435.620    86259545.88748
  20384258.760   107120074.16609  20384260.360    83470237.09549
  21173907.640   111269648.19509  21173908.380    86703635.92748
 15 01 22 00 11  0.0000000  0  6G12G14G21G25G29G31
  23744001.960   124775687.02307  23744003.020    97227871.39846
  24225473.120   127305708.36306  24225476.440    99199240.89744
  22463413.960   118046071.58307  22463415.260    91983980.50046
  21072153.760   110734999.76208  21072157.900    86287072.43248
  20390748.380   107154177.10509  20390749.920    83496810.81749
  21167265.620   111234743.95809  21167266.340    86676437.82048
 15 01 22 00 11 30.0000000  0  6G12G14G21G25G29G31
  23758316.080   124850908.34707  23758317.140    97286485.37645
  24240870.040   127386619.47106  24240873.340    99262288.47744
  22448301.700   117966657.05107  22448303.220    91922099.06947
  21078929.440   110770606.17408  21078933.620    86314817.68548
  20397296.100   107188585.48509  20397297.620    83523622.54649
  21160721.420   111200353.72309  21160722.100    86649640.23948
 15 01 22 00 12  0.0000000  0  6G12G14G21G25G29G31
  23772657.240   124926271.71907  23772658.260    97345210.09645
  24256278.120   127467589.26205  24256281.360    99325381.78245
  22433243.560   117887526.08308  22433245.140    91860438.59147
  21085758.280   110806491.98608  21085762.480    86342780.64948
  20403901.280   107223295.85909  20403902.780    83550669.58949
  21154274.860   111166476.70909  21154275.540    86623242.56449
 15 01 22 00 12 30.0000000  0  6G12G14G21G25G29G31
  23787025.800   125001779.56106  23787027.080    97404047.37146
  24271697.140   127548616.74106  24271700.420    99388520.00345
  22418240.380   117808682.88108  22418241.820    91799002.37047
  21092640.820   110842659.81808  21092645.020    86370963.37148
  20410564.040   107258308.64709  20410565.500    83577952.27849
  21147926.560   111133116.31409  21147927.300    86597247.46149
 15 01 22 00 13  0.0000000  0  6G12G14G21G25G29G31
  23801421.320   125077428.85007  23801422.820    97462994.84345
  24287125.960   127629695.86605  24287129.200    99451698.50445
  22403291.780   117730126.72508  22403293.100    91737789.81447
  21099576.580   110879107.07309  21099580.740    86399363.82948
  20417283.420   107293618.99009  20417284.840    83605466.83649
  21141676.360   111100271.65409  21141677.180    86571654.22249
 15 01 22 00 13 30.0000000  0  6G12G14G21G25G29G31
  23815843.600   125153218.92607  23815845.120    97522052.02445
  24302564.080   127710823.51105  24302567.360    99514914.78545
  22388398.040   117651859.11508  22388399.240    91676802.07647
  21106565.440   110915833.43608  21106569.560    86427981.77448
  20424059.080   107329225.34509  20424060.540    83633212.05049
  21135524.420   111067943.31709  21135525.280    86546463.31448
 15 01 22 00 14  0.0000000  0  6G12G14G21G25G29G31
  23830292.440   125229147.93806  23830293.820    97581217.49246
  24318010.440   127791994.25005  24318013.800    99578164.66445
  22373559.120   117573880.53208  22373560.300    91616039.56446
  21113607.080   110952837.54308  21113611.220    86456816.14048
  20430890.380   107365124.09509  20430891.900    83661185.10249
  21129470.720   111036131.03809  21129471.580    86521674.52348
 15 01 22 00 14 30.0000000  0  6G12G14G21G25G29G31
  23844768.440   125305219.38706  23844769.760    97640493.95245
  24333465.280   127873209.10405  24333468.480    99641448.91945
  22358776.160   117496196.70307  22358777.440    91555506.73547
  21120702.380   110990123.71508  21120706.520    86485870.29148
  20437777.700   107401317.26409  20437779.240    83689387.57149
  21123516.260   111004840.04509  21123517.060    86497291.93148
 15 01 22 00 15  0.0000000  0  6G12G14G21G25G29G31
  23859272.000   125381436.79006  23859273.480    97699884.09746
  24348928.600   127954468.78705  24348931.740    99704768.11444
  22344050.280   117418812.80308  22344051.680    91495207.61147
  21127852.060   111027695.42608  21127856.160    86515146.94148
  20444721.380   107437806.61909  20444722.920    83717820.83349
  21117661.860   110974075.00409  21117662.640    86473319.17248
 15 01 22 00 15 30.0000000  0  6G12G14G21G25G29G31
  23873802.600   125457796.19406  23873804.220    97759384.95746
  24364399.000   128035765.97505  24364402.020    99768116.51745
  22329381.260   117341727.00408  22329382.660    91435140.78047
  21135055.400   111065549.27508  21135059.460    86544643.43948
  20451720.340   107474586.50509  20451721.900    83746480.49049
  21111907.120   110943833.50509  21111907.840    86449754.36348
 15 01 22 00 16  0.0000000  0  6G12G14G21G25G29G31
  23888360.380   125534298.57507  23888362.220    97818997.16446
  24379876.100   128117099.08205  24379879.260    99831492.88945
  22314769.760   117264942.88208  22314771.120    91375309.01847
  21142312.740   111103687.04108  21142316.780    86574361.17248
  20458774.580   107511656.92809  20458776.160    83775366.53449
  21106252.580   110914118.52109  21106253.260    86426599.83049
 15 01 22 00 16 30.0000000  0  6G12G14G21G25G29G31
  23902944.860   125610940.88906  23902946.940    97878718.42846
  24395359.000   128198462.52805  24395362.220    99894892.90844
  22300215.580   117188459.56708  22300216.860    91315711.66447
  21149623.560   111142106.11408  21149627.660    86604298.11248
  20465883.180   107549013.06009  20465884.780    83804475.21249
  21100697.820   110884928.10209  21100698.500    86403854.05149
 15 01 22 00 17  0.0000000  0  6G12G14G21G25G29G31
  23917556.300   125687724.18906  23917558.420    97938549.55246
  24410847.200   128279853.89405  24410850.540    99958314.69644
  22285719.100   117112279.49308  22285720.320    91256350.59847
  21156988.100   111180807.44808  21156992.240    86634454.99248
  20473046.100   107586654.70309  20473047.740    83833806.36349
  21095243.240   110856264.23509  21095243.960    86381518.56848
 15 01 22 00 17 30.0000000  0  6G12G14G21G25G29G31
  23932194.840   125764650.01706  23932196.880    97998491.73546
  24426340.400   128361271.82205  24426343.860   100021757.21744
  22271281.040   117036406.72308  22271282.240    91197228.97847
  21164406.820   111219793.14808  21164410.960    86664833.45948
  20480263.260   107624581.07909  20480264.880    83863359.38749
  21089889.480   110828130.01309  21089890.200    86359595.80449
 15 01 22 00 18  0.0000000  0  6G12G14G21G25G29G31
  23946859.840   125841713.99306  23946861.600    98058541.61145
  24441837.300   128442709.09605  24441840.800   100085214.78044
  22256900.880   116960839.02208  22256902.180    91138345.07347
  21171878.940   111259059.30408  21171883.100    86695430.45248
  20487533.560   107662786.67509  20487535.160    83893129.98349
  21084636.040   110800522.66609  21084636.700    86338083.58149
 15 01 22 00 18 30.0000000  0  6G12G14G21G25G29G31
  23961551.860   125918920.50706  23961553.400    98118702.49846
  24457338.300   128524167.15405  24457341.860   100148688.54245
  22242579.880   116885582.61508  22242581.400    91079703.72847
  21179405.420   111298610.81608  21179409.480    86726249.80548
  20494857.540   107701274.36009  20494859.080    83923120.39549
  21079483.940   110773447.82409  21079484.520    86316986.30049
 15 01 22 00 19  0.0000000  0  6G12G14G21G25G29G31
  23976270.300   125996266.39106  23976271.840    98178972.00846
  24472842.420   128605640.43005  24472845.860   100212174.10144
  22228317.900   116810636.71508  22228319.660    91021304.34247
  21186985.740   111338445.27508  21186989.700    86757289.64048
  20502234.380   107740039.85509  20502235.880    83953327.27549
  21074432.860   110746904.08609  21074433.420    86296302.86949
 15 01 22 00 19 30.0000000  0  6G12G14G21G25G29G31
  23991016.260   126073757.75406  23991018.020    98239354.85846
  24488350.100   128687132.36205  24488353.520   100275674.25045
  22214116.820   116736010.04308  22214118.660    90963153.71547
  21194621.120   111378569.22308  21194625.060    86788555.04848
  20509664.980   107779087.88509  20509666.460    83983754.31749
  21069484.240   110720898.98609  21069484.820    86276039.15749
 15 01 22 00 20  0.0000000  0  6G12G14G21G25G29G31
  24005789.100   126151390.19106  24005791.100    98299847.64545
  24503859.780   128768635.58705  24503863.260   100339183.18344
  22199976.080   116661699.62708  22199977.840    90905249.52147
  21202310.820   111418978.56208  21202314.700    86820042.83848
  20517148.140   107818412.13309  20517149.620    84014396.58849
  21064637.420   110695429.05309  21064638.080    86256192.45749
 15 01 22 00 20 30.0000000  0  6G12G14G21G25G29G31
  24020588.760   126229163.16306  24020590.780    98360449.96544
  24519370.820   128850146.22605  24519374.300   100402697.90243
  22185895.900   116587706.83408  22185897.400    90847592.82747
  21210054.680   111459672.71608  21210058.520    86851752.56248
  20524683.400   107858010.28309  20524684.920    84045252.29449
  21059892.560   110670494.90009  21059893.280    86236763.24949
 15 01 22 00 21  0.0000000  0  5G12G21G25G29G31
  24035414.860   126307074.49206  24035416.660    98421160.11645
  22171876.240   116514032.06408  22171877.500    90790183.94147
  21217852.500   111500650.47608  21217856.340    86883683.27848
  20532270.200   107897879.16509  20532271.740    84076318.95749
  21055249.600   110646096.20709  21055250.380    86217751.28449
 15 01 22 00 21 30.0000000  0  5G12G21G25G29G31
  24050268.320   126385129.05006  24050269.860    98481981.86845
  22157918.400   116440682.68908  22157919.540    90733028.61647
  21225705.400   111541917.67808  21225709.240    86915839.53048
  20539909.300   107938022.85909  20539910.840    84107599.76249
  21050709.760   110622239.27109  21050710.580    86199161.46849
 15 01 22 00 22  0.0000000  0  5G12G21G25G29G31
  24065148.300   126463322.92407  24065149.740    98542912.08446
  22144021.740   116367655.49708  22144022.900    90676124.32947
  21233612.520   111583469.83808  21233616.400    86948217.83348
  20547599.460   107978434.86009  20547601.000    84139089.63549
  21046272.420   110598920.73409  21046273.240    86180991.17949
 15 01 22 00 22 30.0000000  0  5G12G21G25G29G31
  24080053.680   126541649.67406  24080055.040    98603945.93445
  22130185.620   116294946.68508  22130186.860    90619468.13247
  21241572.700   111625300.83708  21241576.600    86980813.41348
  20555339.100   108019107.17109  20555340.660    84170782.35149
  21041936.540   110576135.21509  21041937.320    86163236.22649
 15 01 22 00 23  0.0000000  0  5G12G21G25G29G31
  24094986.740   126620123.44706  24094988.280    98665094.25145
  22116413.200   116222572.68908  22116414.520    90563072.82347
  21249588.840   111667425.92708  21249592.760    87013638.15248
  20563130.840   108060053.18809  20563132.400    84202688.33849
  21037705.160   110553898.82209  21037705.860    86145909.16649
 15 01 22 00 23 30.0000000  0  5G12G21G25G29G31
  24109946.900   126698740.03907  24109948.440    98726353.96345
  22102704.120   116150531.19508  22102705.440    90506936.61447
  21257660.180   111709841.20408  21257664.160    87046689.01048
  20570973.540   108101266.94409  20570975.100    84234802.95349
  21033577.660   110532208.45809  21033578.300    86129007.58349
 15 01 22 00 24  0.0000000  0  5G12G21G25G29G31
  24124932.760   126777491.72506  24124934.180    98787718.97945
  22089057.320   116078816.66908  22089058.560    90451055.19447
  21265785.400   111752539.52108  21265789.460    87079960.42148
  20578865.460   108142739.37209  20578867.040    84267119.13049
  21029552.760   110511057.60009  21029553.440    86112526.39349
 15 01 22 00 24 30.0000000  0  5G12G21G25G29G31
  24139945.800   126856386.91506  24139947.420    98849195.68745
  22075474.780   116007439.42708  22075475.880    90395436.58747
  21273966.100   111795529.40508  21273970.180    87113459.03348
  20586807.920   108184477.23909  20586809.500    84299642.14649
  21025632.320   110490455.69609  21025633.020    86096472.96149
 15 01 22 00 25  0.0000000  0  5G12G21G25G29G31
  24154984.980   126935418.25807  24154986.620    98910778.57445
  22061955.500   115936394.77608  22061956.500    90340077.14347
  21282201.060   111838804.51008  21282205.160    87147179.88748
  20594799.400   108226472.51009  20594800.960    84332365.73849
  21021815.260   110470397.07609  21021816.020    86080842.86649
 15 01 22 00 25 30.0000000  0  5G12G21G25G29G31
  24170049.380   127014580.75306  24170050.820    98972463.66645
  22048498.620   115865678.54208  22048499.620    90284973.60947
  21290489.260   111882359.38908  21290493.400    87181118.74648
  20602838.420   108268717.58009  20602839.900    84365283.97649
  21018100.680   110450876.94209  21018101.480    86065632.37449
 15 01 22 00 26  0.0000000  0  5G12G21G25G29G31
  24185141.540   127093890.61006  24185142.980    99034263.46746
  22035107.720   115795309.39208  22035108.820    90230140.51947
  21298833.960   111926211.02608  21298838.080    87215288.84848
  20610927.940   108311228.18409  20610929.380    84398409.12749
  21014492.000   110431913.17109  21014492.800    86050855.40849
 15 01 22 00 26 30.0000000  0  5G12G21G25G29G31
  24200260.160   127173339.01107  24200261.500    99096171.33645
  22021781.560   115725280.81808  22021782.860    90175572.82847
  21307233.640   111970351.63208  21307237.760    87249684.11348
  20619066.080   108353994.35909  20619067.500    84431733.41949
  21010987.800   110413498.38709  21010988.560    86036506.22549
 15 01 22 00 27  0.0000000  0  5G12G21G25G29G31
  24215404.260   127252921.52106  24215405.620    99158183.67146
  22008519.800   115655590.45808  22008521.260    90121268.66247
  21315687.460   112014776.72108  21315691.580    87284301.05448
  20627251.600   108397009.60209  20627253.040    84465251.79049
  21007587.420   110395629.04309  21007588.140    86022582.05549
 15 01 22 00 27 30.0000000  0  5G12G21G25G29G31
  24230575.940   127332650.13106  24230577.580    99220309.83146
  21995325.140   115586252.04208  21995326.620    90067238.74347
  21324197.820   112059498.94708  21324201.920    87319149.53748
  20635486.580   108440284.46409  20635488.020    84498972.46649
  21004293.380   110378318.68609  21004294.080    86009093.46749
 15 01 22 00 28  0.0000000  0  5G12G21G25G29G31
  24245773.020   127412511.78006  24245774.860    99282539.69845
  21982195.360   115517254.31908  21982196.760    90013474.30547
  21332762.200   112104505.22808  21332766.320    87354219.36048
  20643768.260   108483804.83109  20643769.700    84532884.44249
  21001103.320   110361554.67309  21001103.980    85996030.60049
 15 01 22 00 28 30.0000000  0  5G12G21G25G29G31
  24260996.520   127492512.26906  24260998.380    99344877.73645
  21969131.940   115448605.41608  21969133.280    89959981.68347
  21341381.880   112149802.11508  21341386.080    87389515.63048
  20652097.500   108527575.12009  20652098.920    84566991.16349
  20998018.480   110345343.67709  20998019.140    85983398.65549
 15 01 22 00 29  0.0000000  0  5G12G21G25G29G31
  24276246.320   127572650.74006  24276248.080    99407323.29845
  21956135.120   115380306.46608  21956136.360    89906761.73547
  21350056.860   112195389.29208  21350061.080    87425038.10048
  20660473.840   108571592.98909  20660475.220    84601290.80349
  20995039.000   110329686.39909  20995039.660    85971198.17849
 15 01 22 00 29 30.0000000  0  5G12G21G25G29G31
  24291521.480   127652921.58106  24291522.960    99469872.00245
  21943204.060   115312353.12908  21943205.180    89853811.11147
  21358786.040   112241261.17808  21358790.260    87460782.42448
  20668895.920   108615851.42909  20668897.340    84635777.90149
  20992163.980   110314577.94609  20992164.580    85959425.35849
 15 01 22 00 30  0.0000000  0  5G12G21G25G29G31
  24306823.440   127733332.81706  24306824.640    99532530.08845
  21930340.860   115244756.37108  21930341.860    89801138.33347
  21367571.120   112287426.75908  21367575.300    87496755.60048
  20677365.120   108660357.48009  20677366.580    84670457.94349
  20989395.100   110300027.61709  20989395.720    85948087.43749
 15 01 22 00 30 30.0000000  0  5G12G21G25G29G31
  24322151.320   127813880.30306  24322152.280    99595294.35745
  21917544.960   115177513.36508  21917545.860    89748741.21247
  21376411.300   112333881.92908  21376415.380    87532954.43248
  20685880.340   108705105.27709  20685881.800    84705326.35649
  20986731.800   110286032.03309  20986732.460    85937181.79049
 15 01 22 00 31  0.0000000  0  5G12G21G25G29G31
  24337505.500   127894566.76106  24337506.460    99658166.89145
  21904817.260   115110629.22608  21904818.200    89696623.72447
  21385307.220   112380630.18308  21385311.200    87569381.63548
  20694441.960   108750096.78809  20694443.380    84740384.68049
  20984174.900   110272595.48809  20984175.600    85926711.76349
 15 01 22 00 31 30.0000000  0  5G12G21G25G29G31
  24352885.520   127975389.49107  24352886.700    99721145.62945
  21892157.600   115044102.60808  21892158.640    89644784.81747
  21394258.380   112427668.82808  21394262.300    87606035.11448
  20703049.000   108795327.04409  20703050.380    84775629.04049
  20981723.920   110259715.52009  20981724.620    85916675.42249
 15 01 22 00 32  0.0000000  0  5G12G21G25G29G31
  24368291.240   128056347.54007  24368292.560    99784229.83545
  21879566.240   114977934.84308  21879567.340    89593225.53847
  21403264.700   112474997.59308  21403268.620    87642914.66548
  20711701.080   108840794.18909  20711702.480    84811057.98249
  20979378.940   110247392.46409  20979379.620    85907073.04549
 15 01 22 00 32 30.0000000  0  5G12G21G25G29G31
  24383722.760   128137441.21906  24383724.220    99847419.75644
  21867043.580   114912127.97308  21867044.720    89541947.47647
  21412326.360   112522617.13208  21412330.340    87680020.79548
  20720398.060   108886497.46408  20720399.540    84846670.92349
  20977140.100   110235627.31809  20977140.780    85897905.40049
 15 01 22 00 33  0.0000000  0  5G12G21G25G29G31
  24399180.000   128218669.75806  24399181.520    99910714.74245
  21854589.980   114846683.89208  21854591.140    89490952.10447
  21421443.360   112570527.59608  21421447.420    87717353.61648
  20729139.600   108932435.08708  20729141.180    84882466.47449
  20975007.660   110224421.25909  20975008.320    85889173.40749
 15 01 22 00 33 30.0000000  0  5G12G21G25G29G31
  24414663.660   128300037.74905  24414665.380    99974118.35545
  21842206.480   114781608.20208  21842207.640    89440243.79547
  21430616.580   112618733.19208  21430620.660    87754916.41448
  20737926.220   108978609.50908  20737927.880    84918446.54149
  20972982.360   110213778.34409  20972983.000    85880880.23249
 15 01 22 00 34  0.0000000  0  5G12G21G25G29G31
  24430172.280   128381536.01606  24430174.100   100037623.47244
  21829891.680   114716893.68608  21829892.840    89389816.91647
  21439844.380   112667225.43208  21439848.460    87792702.57348
  20746756.020   109025010.75308  20746757.740    84954603.35449
  20971062.720   110203690.76409  20971063.380    85873019.77849
 15 01 22 00 34 30.0000000  0  5G12G21G25G29G31
  24445706.780   128463170.12006  24445708.520   100101234.43745
  21817647.100   114652548.08908  21817648.240    89339677.51048
  21449127.900   112716010.34608  21449131.920    87830716.79248
  20755629.900   109071643.40108  20755631.640    84990940.47949
  20969250.020   110194165.08809  20969250.680    85865597.17349
 15 01 22 00 35  0.0000000  0  5G12G21G25G29G31
  24461266.720   128544937.57106  24461268.380   100164949.32645
  21805472.620   114588570.77008  21805473.700    89289825.06847
  21458466.720   112765085.90608  21458470.640    87868957.48848
  20764547.020   109118502.97808  20764548.720    85027454.43349
  20967543.940   110185199.71609  20967544.640    85858611.16749
 15 01 22 00 35 30.0000000  0  5G12G21G25G29G31
  24476852.260   128626839.37706  24476853.560   100228768.92945
  21793368.800   114524964.74508  21793369.800    89240261.95148
  21467861.120   112814453.57208  21467864.960    87907425.80148
  20773507.360   109165589.62008  20773509.000    85064145.32549
  20965944.840   110176796.31309  20965945.540    85852063.05949
 15 01 22 00 36  0.0000000  0  5G12G21G25G29G31
  24492463.420   128708876.32406  24492464.620   100292693.85045
  21781336.120   114461732.47208  21781337.040    89190990.07247
  21477311.300   112864114.53508  21477315.120    87946122.64548
  20782510.900   109212903.25808  20782512.460    85101013.09349
  20964453.000   110168956.50409  20964453.680    85845954.11349
 15 01 22 00 36 30.0000000  0  5G12G21G25G29G31
  24508100.020   128791047.14906  24508101.140   100356723.03544
  21769374.760   114398875.12008  21769375.660    89142010.33747
  21486817.160   112914068.34508  21486821.000    87985047.68648
  20791557.180   109260441.52009  20791558.700    85138055.89849
  20963068.440   110161680.38409  20963069.100    85840284.41149
 15 01 22 00 37  0.0000000  0  5G12G21G25G29G31
  24523761.460   128873348.37206  24523762.520   100420853.84644
  21757484.260   114336390.11008  21757485.160    89093320.74248
  21496378.000   112964311.31908  21496381.880    88024198.05148
  20800645.180   109308199.07808  20800646.660    85175269.57949
  20961790.480   110154964.54609  20961791.140    85835051.28749
 15 01 22 00 37 30.0000000  0  5G12G21G25G29G31
  24539448.720   128955785.21706  24539449.620   100485090.34645
  21745666.020   114274284.80508  21745666.960    89044927.01248
  21505994.980   113014849.25208  21505998.880    88063578.25948
  20809775.720   109356180.09009  20809777.140    85212657.38549
  20960620.220   110148814.93809  20960620.900    85830259.38049
 15 01 22 00 38  0.0000000  0  5G12G21G25G29G31
  24555161.480   129038356.58006  24555162.320   100549431.68144
  21733920.240   114212560.16808  21733921.180    88996829.90848
  21515667.980   113065681.41008  21515671.880    88103187.72648
  20818948.320   109404382.08909  20818949.640    85250217.38749
  20959557.640   110143231.39209  20959558.400    85825908.56549
 15 01 22 00 38 30.0000000  0  5G12G21G25G29G31
  24570899.440   129121060.94806  24570900.460   100613876.62945
  21722246.960   114151216.54108  21722247.880    88949029.69848
  21525396.800   113116806.96208  21525400.780    88143025.81248
  20828162.460   109452802.67209  20828163.760    85287947.71549
  20958602.620   110138212.95409  20958603.460    85821998.09649
 15 01 22 00 39  0.0000000  0  5G12G21G25G29G31
  24586662.140   129203894.91106  24586663.340   100678422.58445
  21710645.840   114090252.34608  21710646.780    88901525.15348
  21535180.980   113168222.90408  21535185.000    88183090.17748
  20837417.340   109501437.37108  20837418.640    85325844.88149
  20957754.760   110133757.43009  20957755.620    85818526.26149
 15 01 22 00 39 30.0000000  0  5G12G21G25G29G31
  24602449.860   129286860.01106  24602451.100   100743070.70344
  21699117.500   114029670.67908  21699118.480    88854318.68448
  21545020.780   113219931.22108  21545024.880    88223382.36148
  20846712.980   109550286.56509  20846714.360    85363909.19249
  20957014.420   110129866.79109  20957015.260    85815494.59249
 15 01 22 00 40  0.0000000  0  5G12G21G25G29G31
  24618262.360   129369954.87306  24618263.500   100807819.94944
  21687662.120   113969472.36108  21687663.100    88807410.92048
  21554915.940   113271930.64008  21554920.140    88263901.38748
  20856048.940   109599347.49209  20856050.360    85402138.48849
  20956381.440   110126540.19609  20956382.200    85812902.43649
 15 01 22 00 40 30.0000000  0  5G12G21G25G29G31
  24634100.180   129453183.61706  24634101.400   100872673.51045
  21676280.700   113909662.86608  21676281.700    88760806.13948
  21564867.280   113324225.52908  21564871.580    88304650.64548
  20865425.640   109648622.43008  20865427.080    85440534.54649
  20955856.640   110123782.29809  20955857.380    85810753.42749
 15 01 22 00 41  0.0000000  0  5G12G21G25G29G31
  24649962.700   129536542.02706  24649963.960   100937628.10944
  21664972.860   113850240.07308  21664973.900    88714502.68548
  21574874.220   113376812.71708  21574878.620    88345627.66648
  20874842.300   109698107.52808  20874843.780    85479094.36449
  20955439.480   110121589.94509  20955440.180    85809045.09149
 15 01 22 00 41 30.0000000  0  5G12G21G25G29G31
  24665849.860   129620029.48506  24665851.060   101002683.26045
  21653738.820   113791205.06008  21653739.880    88668501.39248
  21584936.720   113429691.59808  21584941.140    88386831.97948
  20884298.520   109747800.32309  20884300.000    85517816.02749
  20955129.880   110119962.91809  20955130.580    85807777.27449
 15 01 22 00 42  0.0000000  0  5G12G21G25G29G31
  24681762.180   129703649.10506  24681763.320   101067841.41445
  21642579.520   113732562.71108  21642580.620    88622806.07448
  21595055.560   113482866.03008  21595059.860    88428266.59548
  20893794.740   109797703.20108  20893796.200    85556701.38449
  20954928.600   110118905.20809  20954929.320    85806953.08049
 15 01 22 00 42 30.0000000  0  5G12G21G25G29G31
  24697699.040   129787397.08406  24697699.960   101133099.61445
  21631494.660   113674311.37308  21631495.720    88577415.43148
  21605230.040   113536332.58208  21605234.180    88469928.83548
  20903329.980   109847811.11009  20903331.440    85595746.50849
  20954834.980   110118413.21309  20954835.720    85806569.70149
 15 01 22 00 43  0.0000000  0  5G12G21G25G29G31
  24713660.400   129871273.51106  24713661.280   101198457.85544
  21620484.340   113616451.94508  21620485.400    88532330.18348
  21615459.980   113590090.93008  21615464.060    88511818.44148
  20912903.860   109898122.12109  20912905.320    85634949.89349
  20954848.980   110118486.95209  20954849.740    85806627.15849
 15 01 22 00 43 30.0000000  0  5G12G21G25G29G31
  24729646.400   129955280.01706  24729647.360   101263917.45545
  21609549.420   113558988.71108  21609550.460    88487553.65348
  21625745.940   113644143.91408  21625750.020    88553937.64648
  20922516.640   109948637.76208  20922518.120    85674312.73548
  20954971.320   110119129.91809  20954972.100    85807128.16949
 15 01 22 00 44  0.0000000  0  5G12G21G25G29G31
  24745656.500   130039413.48406  24745657.560   101329475.96945
  21598689.520   113501919.68008  21598690.560    88443084.29548
  21636087.260   113698488.37508  21636091.420    88596283.97248
  20932167.420   109999353.01908  20932168.920    85713831.11149
  20955201.300   110120338.50309  20955202.080    85808069.92349
 15 01 22 00 44 30.0000000  0  4G21G25G29G31
  21587912.440   113445285.65808  21587913.480    88398953.90448
  21646491.540   113753163.73508  21646495.780    88638888.15348
  20941863.540   110050306.58708  20941865.080    85753535.18749
  20955546.540   110122152.56709  20955547.300    85809483.47449
 15 01 22 00 45  0.0000000  0  4G21G25G29G31
  21577204.200   113389013.29608  21577205.240    88355105.32948
  21656944.680   113808095.66608  21656948.920    88681692.24548
  20951590.500   110101422.07808  20951592.040    85793365.44049
  20955992.860   110124497.56109  20955993.560    85811310.73449
 15 01 22 00 45 30.0000000  0  4G21G25G29G31
  21566571.060   113333135.72808  21566572.140    88311564.38848
  21667452.640   113863315.43208  21667456.820    88724720.62848
  20961354.000   110152729.64508  20961355.540    85833345.35748
  20956546.220   110127405.17209  20956546.860    85813576.40149
 15 01 22 00 46  0.0000000  0  4G21G25G29G31
  21556011.020   113277642.18908  21556012.060    88268322.68948
  21678013.200   113918811.01308  21678017.200    88767963.93048
  20971151.420   110204215.75008  20971153.020    85873464.39748
  20957204.280   110130863.07209  20957204.880    85816270.86249
 15 01 22 00 46 30.0000000  0  4G21G25G29G31
  21545530.500   113222566.72408  21545531.520    88225406.75348
  21688632.520   113974615.60108  21688636.380    88811448.01648
  20980988.880   110255912.04608  20980990.500    85913747.21748
  20957973.400   110134904.67009  20957973.960    85819420.15349
 15 01 22 00 47  0.0000000  0  4G21G25G29G31
  21535128.360   113167903.16208  21535129.360    88182811.77748
  21699309.140   114030721.57808  21699313.000    88855166.95348
  20990864.640   110307809.40808  20990866.240    85954186.71548
  20958852.120   110139522.33309  20958852.680    85823018.33649
 15 01 22 00 47 30.0000000  0  4G21G25G29G31
  21524804.260   113113649.89408  21524805.260    88140536.52048
  21710042.440   114087125.58208  21710046.380    88899118.11948
  21000777.880   110359903.89308  21000779.500    85994779.81748
  20959839.760   110144712.70509  20959840.380    85827062.77849
 15 01 22 00 48  0.0000000  0  4G21G25G29G31
  21514559.000   113059810.87108  21514560.000    88098584.05548
  21720832.980   114143830.41808  21720836.940    88943303.70348
  21010728.840   110412196.29708  21010730.420    86035527.14048
  20960936.940   110150478.60409  20960937.600    85831555.68349
 15 01 22 00 48 30.0000000  0  4G21G25G29G31
  21504389.900   113006372.10808  21504390.900    88056943.48148
  21731677.940   114200821.12508  21731681.880    88987712.04448
  21020714.400   110464670.46608  21020715.920    86076416.10848
  20962140.780   110156805.10709  20962141.500    85836485.42049
 15 01 22 00 49  0.0000000  0  4G21G25G29G31
  21494298.140   112953339.57208  21494299.080    88015619.44148
  21742578.220   114258102.49408  21742582.180    89032346.86348
  21030735.180   110517329.85208  21030736.640    86117449.39248
  20963452.200   110163696.95709  20963452.960    85841855.68149
 15 01 22 00 49 30.0000000  0  4G21G25G29G31
  21484283.440   112900712.02908  21484284.360    87974610.97848
  21753533.320   114315671.84108  21753537.340    89077206.09048
  21040790.420   110570170.40308  21040791.840    86158623.84948
  20964870.660   110171151.18509  20964871.440    85847664.17049
 15 01 22 00 50  0.0000000  0  4G21G25G29G31
  21474344.340   112848481.91308  21474345.320    87933912.20448
  21764541.560   114373520.33008  21764545.640    89122282.82548
  21050878.060   110623181.45108  21050879.520    86199931.15548
  20966394.500   110179159.09209  20966395.280    85853904.08549
 15 01 22 00 50 30.0000000  0  4G21G25G29G31
  21464482.700   112796659.09208  21464483.760    87893530.80348
  21775604.660   114431656.87708  21775608.780    89167584.02048
  21060999.780   110676371.59108  21061001.280    86241378.01748
  20968025.480   110187729.67909  20968026.200    85860582.45749
 15 01 22 00 51  0.0000000  0  4G21G25G29G31
  21454702.320   112745263.13508  21454703.440    87853482.01948
  21786726.000   114490099.31408  21786730.140    89213123.57148
  21071158.720   110729757.18908  21071160.200    86282977.18048
  20969766.800   110196880.29609  20969767.520    85867712.80349
 15 01 22 00 51 30.0000000  0  4G21G25G29G31
  21445001.200   112694283.66808  21445002.360    87813757.77848
  21797903.400   114548836.40108  21797907.540    89258892.72748
  21081352.400   110783325.21808  21081353.820    86324718.49948
  20971616.340   110206599.63409  20971617.080    85875286.30149
 15 01 22 00 52  0.0000000  0  4G21G25G29G31
  21435380.460   112643726.35308  21435381.600    87774362.48448
  21809137.600   114607872.31308  21809141.760    89304894.73348
  21091581.360   110837078.78408  21091582.780    86366604.39148
  20973574.960   110216892.00709  20973575.680    85883306.32449
 15 01 22 00 52 30.0000000  0  4G21G25G29G31
  21425838.260   112593581.63108  21425839.320    87735288.69148
  21820426.620   114667196.33708  21820430.780    89351121.23948
  21101843.360   110891006.26308  21101844.820    86408625.80348
  20975640.500   110227746.50609  20975641.240    85891764.36749
 15 01 22 00 53  0.0000000  0  4G21G25G29G31
  21416376.400   112543859.02608  21416377.400    87696543.81648
  21831772.120   114726817.12408  21831776.240    89397578.99148
  21112139.780   110945114.58508  21112141.280    86450788.12848
  20977814.560   110239171.26609  20977815.300    85900666.77149
 15 01 22 00 53 30.0000000  0  4G21G25G29G31
  21406994.600   112494557.20808  21406995.560    87658126.83248
  21843173.500   114786731.82008  21843177.580    89444265.75248
  21122469.840   110999399.62708  21122471.400    86493088.15948
  20980096.560   110251163.27009  20980097.280    85910011.18449
 15 01 22 00 54  0.0000000  0  4G21G25G29G31
  21397692.560   112445674.57908  21397693.500    87620036.48448
  21854630.300   114846937.92808  21854634.300    89491179.59348
  21132832.960   111053858.28008  21132834.580    86535523.46648
  20982486.000   110263719.91509  20982486.700    85919795.58049
 15 01 22 00 54 30.0000000  0  4G21G25G29G31
  21388470.040   112397209.96208  21388471.020    87582271.86848
  21866142.000   114907432.51708  21866145.960    89538318.22348
  21143228.300   111108486.33608  21143230.020    86578090.77548
  20984982.420   110276838.59809  20984983.100    85930017.92349
 15 01 22 00 55  0.0000000  0  4G21G25G29G31
  21379328.980   112349173.29408  21379329.940    87544840.71248
  21877710.340   114968224.73008  21877714.340    89585688.76948
  21153657.400   111163291.55308  21153659.160    86620796.13448
  20987587.380   110290527.60309  20987588.040    85940684.67849
 15 01 22 00 55 30.0000000  0  4G21G25G29G31
  21370267.000   112301552.24408  21370267.920    87507733.41948
  21889332.880   115029301.71908  21889336.920    89633281.22148
  21164117.540   111218259.87308  21164119.300    86663628.59048
  20990298.340   110304773.82109  20990299.040    85951785.61849
 15 01 22 00 56  0.0000000  0  4G21G25G29G31
  21361285.400   112254353.73608  21361286.300    87470955.37348
  21901010.540   115090668.14408  21901014.560    89681099.21148
  21174609.340   111273394.48608  21174611.060    86706590.61948
  20993116.220   110319581.92709  20993116.960    85963324.40049
 15 01 22 00 56 30.0000000  0  4G21G25G29G31
  21352385.660   112207585.33908  21352386.520    87434512.48248
  21912744.580   115152330.96408  21912748.640    89729148.15847
  21185134.040   111328701.85808  21185135.700    86749687.27348
  20996042.260   110334958.47909  20996043.040    85975306.11949
 15 01 22 00 57  0.0000000  0  4G21G25G29G31
  21343566.720   112161241.53908  21343567.540    87398400.44248
  21924533.700   115214283.52108  21924537.840    89777422.86548
  21195690.080   111384174.18908  21195691.740    86792912.46448
  20999075.180   110350896.43409  20999075.980    85987725.29849
 15 01 22 00 57 30.0000000  0  4G21G25G29G31
  21334828.320   112115321.05808  21334829.120    87362618.26448
  21936377.520   115276523.62208  21936381.760    89825921.63348
  21206276.840   111439807.96408  21206278.500    86836263.45448
  21002214.500   110367393.35109  21002215.280    86000580.02549
 15 01 22 00 58  0.0000000  0  4G21G25G29G31
  21326171.160   112069827.73708  21326172.020    87327168.93848
  21948276.500   115339053.34208  21948280.760    89874646.07747
  21216894.500   111495604.01608  21216896.180    86879740.89648
  21005460.500   110384451.00509  21005461.260    86013871.69049
 15 01 22 00 58 30.0000000  0  4G21G25G29G31
  21317596.300   112024766.79908  21317597.220    87292056.53448
  21960231.500   115401877.25908  21960235.700    89923599.77148
  21227543.780   111551566.15508  21227545.440    86923347.75248
  21008813.920   110402073.29809  21008814.660    86027603.33849
 15 01 22 00 59  0.0000000  0  4G21G25G29G31
  21309103.680   111980137.82708  21309104.640    87257280.72448
  21972242.200   115464993.75908  21972246.280    89972781.45147
  21238224.240   111607691.90908  21238225.800    86967082.10248
  21012274.440   110420258.64609  21012275.200    86041773.73249
 15 01 22 00 59 30.0000000  0  4G21G25G29G31
  21300692.280   111935935.63708  21300693.280    87222837.47048
  21984307.420   115528396.51808  21984311.380    90022186.19047
  21248934.320   111663973.48608  21248935.820    87010937.87648
  21015840.840   110439000.38509  21015841.620    86056377.67949
 15 01 22 01 00  0.0000000  0  4G21G25G29G31
  21292363.440   111892167.23508  21292364.440    87188732.23448
  21996428.220   115592091.41108  21996432.120    90071818.56447
  21259674.960   111720415.75208  21259676.420    87054918.85448
  21019514.100   110458303.76809  21019514.920    86071419.26749
 15 01 22 01 00 30.0000000  0  4G21G25G29G31
  21284116.920   111848831.34608  21284117.900    87154964.02748
  22008604.160   115656076.18408  22008608.060    90121676.82047
  21270445.520   111777015.33508  21270446.920    87099022.42348
  21023293.780   110478166.19109  21023294.600    86086896.47449
 15 01 22 01 01  0.0000000  0  4G21G25G29G31
  21275953.080   111805929.72508  21275953.980    87121534.20948
  22020835.380   115720351.86008  22020839.340    90171761.75748
  21281246.120   111833772.89708  21281247.520    87143249.08548
  21027179.980   110498588.27809  21027180.820    86102809.78749
 15 01 22 01 01 30.0000000  0  4G21G25G29G31
  21267871.520   111763460.73508  21267872.360    87088441.50648
  22033121.260   115784915.09708  22033125.360    90222070.76747
  21292075.880   111890683.70708  21292077.260    87187595.16448
  21031171.980   110519566.20609  21031172.820    86119156.21849
 15 01 22 01 02  0.0000000  0  5G16G21G25G29G31
  24573946.600   129136961.66606  24573950.460   100626214.13145
  21259873.680   111721431.76108  21259874.460    87055691.67248
  22045463.160   115849772.28308  22045467.300    90272608.82747
  21302935.860   111947753.31608  21302937.200    87232064.98948
  21035270.860   110541105.86409  21035271.720    86135940.36549
 15 01 22 01 02 30.0000000  0  5G16G21G25G29G31
  24556641.880   129046025.04306  24556645.020   100555354.47245
  21251948.900   111679787.08608  21251949.680    87023241.29148
  22057850.320   115914867.00608  22057854.460    90323331.98047
  21313815.100   112004924.11108  21313816.400    87276613.65648
  21039465.860   110563150.65109  21039466.720    86153118.11749
 15 01 22 01 03  0.0000000  0  5G16G21G25G29G31
  24539342.560   128955116.26705  24539345.040   100484516.52944
  21244116.020   111638625.43908  21244116.820    86991167.29248
  22070301.300   115980296.97708  22070305.360    90374316.36547
  21324732.040   112062293.20708  21324733.360    87321316.84448
  21043775.400   110585797.42109  21043776.280    86170764.94049
 15 01 22 01 03 30.0000000  0  5G16G21G25G29G31
  24522039.060   128864185.83706  24522041.120   100413661.71445
  21236365.720   111597897.71108  21236366.540    86959431.41648
  22082806.440   116046011.66608  22082810.520    90425522.60747
  21335676.880   112119809.12108  21335678.260    87366134.43348
  21048189.840   110608995.46509  21048190.720    86188841.32249
 15 01 22 01 04  0.0000000  0  5G16G21G25G29G31
  24504732.180   128773237.63106  24504734.140   100342793.04945
  21228698.640   111557606.93408  21228699.440    86928036.02048
  22095366.120   116112013.34308  22095370.320    90476952.47347
  21346649.820   112177472.87408  21346651.300    87411067.22648
  21052709.500   110632746.34409  21052710.320    86207348.48849
 15 01 22 01 04 30.0000000  0  5G16G21G25G29G31
  24487422.560   128682274.97506  24487424.400   100271913.14745
  21221115.300   111517756.15308  21221116.100    86896983.48648
  22107980.680   116178303.72608  22107985.060    90528607.30347
  21357651.120   112235285.61108  21357652.700    87456116.11048
  21057334.600   110657051.22409  21057335.380    86226287.34249
 15 01 22 01 05  0.0000000  0  5G16G21G25G29G31
  24470109.960   128591296.78206  24470111.580   100201021.08544
  21213615.440   111478343.97208  21213616.220    86866272.71248
  22120649.880   116244881.12308  22120654.320    90580485.79747
  21368680.360   112293244.71908  21368681.940    87501279.04948
  21062064.720   110681908.06209  21062065.480    86245656.29449
 15 01 22 01 05 30.0000000  0  5G16G21G25G29G31
  24452794.580   128500304.04806  24452796.020   100130117.71744
  21206199.180   111439371.21108  21206199.940    86835904.34348
  22133373.580   116311744.72308  22133377.980    90632587.30147
  21379737.140   112351348.44008  21379738.700    87546554.67448
  21066899.520   110707315.05809  21066900.280    86265453.94749
 15 01 22 01 06  0.0000000  0  5G16G21G25G29G31
  24435476.520   128409297.39605  24435477.820   100059203.50745
  21198866.600   111400838.35008  21198867.360    86805878.75048
  22146151.720   116378894.02908  22146155.960    90684911.42747
  21390821.200   112409595.30008  21390822.720    87591941.83248
  21071838.880   110733271.41709  21071839.600    86285679.67349
 15 01 22 01 06 30.0000000  0  5G16G21G25G29G31
  24418156.100   128318278.21906  24418157.440    99988279.54645
  21191617.820   111362745.76508  21191618.580    86776196.23048
  22158984.240   116446328.83608  22158988.300    90737458.01747
  21401932.360   112467984.46708  21401933.840    87637439.88048
  21076882.620   110759776.23709  21076883.320    86306332.76949
 15 01 22 01 07  0.0000000  0  5G16G21G25G29G31
  24400834.000   128227250.38706  24400835.440    99917348.81344
  21184453.540   111325097.32708  21184454.340    86746859.79748
  22171871.580   116514051.89108  22171875.520    90790229.21747
  21413071.020   112526518.13408  21413072.440    87683050.52548
  21082031.140   110786831.84009  21082031.880    86327415.05149
 15 01 22 01 07 30.0000000  0  5G16G21G25G29G31
  24383509.920   128136212.19705  24383511.380    99846409.99144
  21177373.380   111287890.78008  21177374.200    86717867.69348
  22184813.040   116582059.63608  22184816.920    90843222.25547
  21424236.320   112585191.72208  21424237.680    87728770.20248
  21087283.640   110814433.99809  21087284.480    86348923.21849
 15 01 22 01 08  0.0000000  0  5G16G21G25G29G31
  24366184.420   128045166.21706  24366185.740    99775465.12245
  21170377.640   111251127.79708  21170378.480    86689221.22548
  22197808.800   116650353.31508  22197812.780    90896438.10447
  21435428.340   112644006.01908  21435429.680    87774599.51648
  21092640.260   110842583.41209  21092641.180    86370857.81249
 15 01 22 01 08 30.0000000  0  5G16G21G25G29G31
  24348857.420   127954112.64606  24348858.780    99704514.34145
  21163466.300   111214808.40808  21163467.140    86660920.41248
  22210858.760   116718931.87408  22210862.920    90949875.93947
  21446646.700   112702958.69608  21446648.020    87820536.66348
  21098100.620   110871278.09509  21098101.600    86393217.29749
 15 01 22 01 09  0.0000000  0  5G16G21G25G29G31
  24331528.900   127863048.48306  24331530.640    99633550.86944
  21156639.120   111178931.25608  21156639.940    86632964.20048
  22223962.420   116787792.68008  22223966.760    91003533.70547
  21457890.620   112762046.15508  21457892.020    87866578.83048
  21103664.200   110900514.98609  21103665.220    86415999.27849
 15 01 22 01 09 30.0000000  0  5G16G21G25G29G31
  24314199.020   127771979.27306  24314200.660    99562587.90845
  21149896.280   111143497.34508  21149897.060    86605353.37348
  22237119.960   116856935.87708  22237124.320    91057411.52347
  21469160.180   112821268.42008  21469161.660    87912726.04248
  21109330.840   110930293.37509  21109331.860    86439203.20349
 15 01 22 01 10  0.0000000  0  5G16G21G25G29G31
  24296868.220   127680905.05706  24296869.740    99491621.03745
  21143238.040   111108508.10808  21143238.800    86578089.04548
  22250331.420   116926362.08708  22250335.700    91111509.86547
  21480455.380   112880625.39708  21480456.940    87958978.22148
  21115100.560   110960613.29309  21115101.560    86462829.10349
 15 01 22 01 10 30.0000000  0  5G16G21G25G29G31
  24279537.360   127589831.31906  24279538.920    99420654.53645
  21136665.300   111073968.45708  21136666.080    86551175.04548
  22263597.440   116996075.04908  22263601.580    91165831.64147
  21491776.820   112940120.05208  21491778.400    88005337.69148
  21120973.940   110991477.85109  21120974.880    86486879.39949
 15 01 22 01 11  0.0000000  0  5G16G21G25G29G31
  24262206.060   127498755.29906  24262207.740    99349686.26345
  21130177.360   111039874.51208  21130178.180    86524608.33948
  22276917.180   117066070.55208  22276921.220    91220373.57547
  21503123.500   112999747.22408  21503125.100    88051800.41648
  21126949.980   111022881.97909  21126950.880    86511350.13549
 15 01 22 01 11 30.0000000  0  5G16G21G25G29G31
  24244874.800   127407679.28305  24244876.560    99278718.02344
  21123774.600   111006227.98408  21123775.420    86498390.29048
  22290290.700   117136349.10008  22290294.680    91275136.05847
  21514495.520   113059507.31108  21514497.100    88098366.71648
  21133028.620   111054825.33209  21133029.500    86536241.05349
 15 01 22 01 12  0.0000000  0  5G16G21G25G29G31
  24227543.420   127316602.71606  24227545.220    99207749.31145
