     2.11           OBSERVATION DATA    G                   RINEX VERSION / TYPE
SPIDER V4,0,0,3554                      2015 03 24 06:12    PGM / RUN BY / DATE 
CNAJ                                                        MARKER NAME         
CNAJ                                                        MARKER NUMBER       
                                                            OBSERVER / AGENCY   
496642              LEICA GRX1200+GNSS  8.10/4.007          REC # / TYPE / VERS 
10321018            LEIAR25         NONE                    ANT # / TYPE        
  5206098.7325   612081.0247  3621806.3029                  APPROX POSITION XYZ 
        0.0720        0.0000        0.0000                  ANTENNA: DELTA H/E/N
     1     1                                                WAVELENGTH FACT L1/2
     4    C1    L1    P2    L2                              # / TYPES OF OBSERV 
    30.000                                                  INTERVAL            
  2015    01    17    00    00    0.0000000     GPS         TIME OF FIRST OBS   
  2015    01    17    23    59   30.0000000     GPS         TIME OF LAST OBS    
    16                                                      LEAP SECONDS        
    30                                                      # OF SATELLITES     
   G 1   810   810   810   810                              PRN / # OF OBS      
   G 2   939   939   938   938                              PRN / # OF OBS      
   G 3   852   852   851   851                              PRN / # OF OBS      
   G 4   844   844   842   842                              PRN / # OF OBS      
   G 5   626   626   626   626                              PRN / # OF OBS      
   G 6   809   809   803   803                              PRN / # OF OBS      
   G 7   669   669   667   667                              PRN / # OF OBS      
   G 9   811   811   811   811                              PRN / # OF OBS      
   G10   761   761   761   761                              PRN / # OF OBS      
   G11   778   778   778   778                              PRN / # OF OBS      
   G12   837   837   837   837                              PRN / # OF OBS      
   G13   798   798   798   798                              PRN / # OF OBS      
   G14   949   948   948   948                              PRN / # OF OBS      
   G15   705   705   703   703                              PRN / # OF OBS      
   G16   664   664   663   663                              PRN / # OF OBS      
   G17   939   939   939   939                              PRN / # OF OBS      
   G18   898   897   893   893                              PRN / # OF OBS      
   G19   760   760   760   760                              PRN / # OF OBS      
   G20   846   844   845   844                              PRN / # OF OBS      
   G21   743   743   739   739                              PRN / # OF OBS      
   G22   656   656   655   655                              PRN / # OF OBS      
   G23   754   754   751   751                              PRN / # OF OBS      
   G24   836   836   836   836                              PRN / # OF OBS      
   G25   860   860   859   859                              PRN / # OF OBS      
   G27   798   798   798   798                              PRN / # OF OBS      
   G28   875   874   871   871                              PRN / # OF OBS      
   G29   774   773   769   769                              PRN / # OF OBS      
   G30   709   709   705   705                              PRN / # OF OBS      
   G31   847   845   845   844                              PRN / # OF OBS      
   G32   775   774   765   765                              PRN / # OF OBS      
BIT 2 OF LLI FLAGS DATA COLLECTED UNDER A/S CONDITION       COMMENT             
SNR is mapped to RINEX snr flag value [2-9]                 COMMENT             
Lx:     = 25dBHz -> 1; 26-27dBHz -> 2; 28-31dBHz -> 3       COMMENT             
       32-35dBHz -> 4; 36-38dBHz -> 5; 39-41dBHz -> 6       COMMENT             
       42-44dBHz -> 7; 45-48dBHz -> 8; >=49dBHz -> 9        COMMENT             
                                                            END OF HEADER       
 15 01 17 00 00  0.0000000  0  8G02G12G14G21G24G25G29G31
  24069582.420   126486533.92207  24069580.200    98560926.33145
  22985873.720   120791688.58108  22985870.600    94123457.42346
  23176200.160   121791761.61308  23176197.060    94902654.69044
  23362125.980   122768856.30707  23362125.520    95664015.28245
  24657368.460   129575406.88508  24657368.680   100967874.83544
  20829888.420   109461840.60009  20829888.320    85294985.40248
  20133757.560   105803688.74608  20133755.260    82444435.25048
  21793383.620   114525002.19009  21793379.040    89240267.53046
 15 01 17 00 00 30.0000000  0  8G02G12G14G21G24G25G29G31
  24082839.920   126556202.64907  24082837.580    98615213.64645
  22998085.760   120855862.70608  22998082.480    94173463.22546
  23189308.860   121860646.86508  23189305.600    94956331.51244
  23344749.680   122677543.26907  23344748.820    95592862.25844
  24678168.620   129684711.63908  24678168.740   101053047.25844
  20833377.440   109480174.37009  20833377.200    85309271.44848
  20136724.240   105819279.81308  20136722.520    82456584.14248
  21780994.020   114459894.04309  21780989.020    89189533.91246
 15 01 17 00 01  0.0000000  0  8G02G12G14G21G24G25G29G31
  24096161.400   126626207.91407  24096158.960    98669763.18345
  23010322.520   120920167.41608  23010319.060    94223570.75845
  23202467.500   121929795.22508  23202464.200    95010213.33144
  23327402.140   122586380.75807  23327400.840    95521826.53245
  24698983.740   129794094.67408  24698983.700   101138280.69544
  20836910.680   109498740.44709  20836910.360    85323738.50748
  20139765.460   105835262.32608  20139764.280    82469038.03748
  21768675.880   114395161.53809  21768670.260    89139092.98846
 15 01 17 00 01 30.0000000  0  8G02G12G14G21G24G25G29G31
  24109546.980   126696549.75607  24109544.540    98724575.00645
  23022584.820   120984605.04708  23022581.220    94273781.91045
  23215675.840   121999205.34707  23215672.600    95064299.14244
  23310084.140   122495373.31007  23310082.300    95450911.62144
  24719813.760   129903555.98308  24719813.360   101223575.16044
  20840488.500   109517541.28809  20840488.200    85338388.50948
  20142881.300   105851636.71908  20142880.540    82481797.29148
  21756430.020   114330808.80209  21756423.800    89088947.99246
 15 01 17 00 02  0.0000000  0  8G02G12G14G21G24G25G29G31
  24122996.240   126767225.44007  24122993.580    98779646.94545
  23034872.260   121049175.27608  23034868.720    94324096.32545
  23228933.260   122068873.97707  23228930.060    95118586.36244
  23292796.080   122404522.80907  23292794.020    95380119.03145
  24740658.180   130013093.36908  24740657.320   101308928.94743
  20844110.900   109536576.98409  20844110.720    85353221.51448
  20146071.360   105868400.60808  20146070.780    82494860.06148
  21744256.800   114266838.02109  21744250.120    89039100.63646
 15 01 17 00 02 30.0000000  0  8G02G12G14G21G24G25G29G31
  24136508.020   126838228.66307  24136504.920    98834974.12144
  23047184.160   121113873.63108  23047180.520    94374510.65145
  23242238.340   122138793.55607  23242235.320    95173069.16944
  23275537.380   122313827.03207  23275535.380    95309447.02445
  24761515.720   130122699.99008  24761514.600   101394336.71643
  20847777.240   109555843.60209  20847777.160    85368234.46348
  20149334.260   105885548.31708  20149333.960    82508221.90848
  21732155.780   114203247.06509  21732148.760    88989549.24646
 15 01 17 00 03  0.0000000  0  8G02G12G14G21G24G25G29G31
  24150082.860   126909562.74207  24150079.220    98890559.11645
  23059521.280   121178705.30008  23059517.740    94425028.80145
  23255591.540   122208966.24407  23255588.900    95227749.14044
  23258309.680   122223293.59708  23258307.640    95238901.48945
  24782387.080   130232379.09408  24782386.680   101479800.87743
  20851488.600   109575346.68809  20851488.500    85383431.66648
  20152670.720   105903083.07208  20152670.600    82521885.36448
  21720128.360   114140043.29809  21720121.060    88940299.55146
 15 01 17 00 03 30.0000000  0  7G02G12G14G21G25G29G31
  24163720.340   126981226.79407  24163716.260    98946401.18345
  23071884.080   121243672.07108  23071880.540    94475652.23644
  23268992.560   122279389.94407  23268990.500    95282624.75744
  23241113.620   122132926.29908  23241111.640    95168485.45045
  20855245.300   109595088.08809  20855245.180    85398814.56448
  20156080.800   105921005.19208  20156080.900    82535850.64448
  21708175.160   114077230.16109  21708167.780    88891354.23446
 15 01 17 00 04  0.0000000  0  7G02G12G14G21G25G29G31
  24177419.720   127053216.66707  24177415.240    99002497.16045
  23084272.080   121308771.50308  23084268.040    94526379.10143
  23282440.320   122350059.65307  23282438.700    95337692.00944
  23223949.280   122042725.37308  23223947.200    95098199.02245
  20859047.020   109615066.13009  20859046.920    85414381.85648
  20159563.900   105939310.38608  20159564.100    82550114.41548
  21696296.200   114014807.63909  21696289.120    88842713.31346
 15 01 17 00 04 30.0000000  0  7G02G12G14G21G25G29G31
  24191180.740   127125531.41807  24191176.120    99058846.29644
  23096685.560   121374005.24608  23096680.900    94577210.60943
  23295934.460   122420973.54006  23295933.580    95392949.60245
  23206817.180   121952694.29708  23206815.220    95028044.96245
  20862894.120   109635282.47309  20862893.960    85430134.84847
  20163120.180   105957998.69508  20163120.320    82564676.72448
  21684492.360   113952779.35209  21684485.780    88794379.57946
 15 01 17 00 05  0.0000000  0  7G02G12G14G21G25G29G31
  24205003.600   127198171.83407  24204998.980    99115449.18444
  23109125.220   121439376.17908  23109120.280    94628149.03044
  23309474.980   122492131.54706  23309474.760    95448397.36145
  23189718.300   121862838.48008  23189716.360    94958027.49145
  20866787.240   109655740.62009  20866786.960    85446076.25947
  20166749.940   105977071.32308  20166749.720    82579538.50648
  21672764.660   113891150.08809  21672758.760    88746356.77846
 15 01 17 00 05 30.0000000  0  7G02G12G14G21G25G29G31
  24218886.860   127271129.66207  24218882.220    99172299.42844
  23121589.700   121504878.36008  23121585.040    94679189.67344
  23323060.240   122563524.10507  23323060.660    95504027.86444
  23172651.960   121773153.80608  23172649.840    94888143.32645
  20870725.140   109676434.79509  20870724.760    85462201.58047
  20170451.540   105996520.43008  20170450.780    82594693.63848
  21661112.320   113829916.08709  21661107.260    88698641.97047
 15 01 17 00 06  0.0000000  0  7G02G12G14G21G25G29G31
  24232829.660   127344399.98807  24232825.140    99229393.16844
  23134078.520   121570509.09208  23134074.700    94730330.50745
  23336689.540   122635145.34606  23336689.980    95559836.64346
  23155618.080   121683640.06308  23155615.860    94818392.37544
  20874707.400   109697362.60609  20874706.780    85478508.95747
  20174224.020   106016341.47309  20174222.680    82610138.59448
  21649535.200   113769076.66309  21649530.900    88651234.62747
 15 01 17 00 06 30.0000000  0  7G02G12G14G21G25G29G31
  24246832.960   127417988.05707  24246828.800    99286734.49244
  23146593.200   121636274.96408  23146590.200    94781576.61445
  23350363.440   122706999.24607  23350363.360    95615826.66745
  23138618.460   121594306.32508  23138615.680    94748781.66044
  20878735.540   109718531.41509  20878734.780    85495004.11447
  20178068.260   106036539.76409  20178066.380    82625877.52648
  21638034.940   113708641.05409  21638031.220    88604141.94647
 15 01 17 00 07  0.0000000  0  7G02G12G14G21G25G29G31
  24260895.780   127491888.71207  24260891.980    99344319.38545
  23159133.020   121702174.17308  23159130.400    94832926.60845
  23364080.520   122779079.89808  23364079.960    95671993.39446
  23121653.080   121505152.53308  23121649.580    94679311.14544
  20882809.180   109739939.21309  20882808.380    85511685.49747
  20181983.420   106057111.26809  20181981.100    82641907.26948
  21626611.360   113648608.81909  21626608.060    88557363.58747
 15 01 17 00 07 30.0000000  0  7G02G12G14G21G25G29G31
  24275017.720   127566100.40407  24275014.360    99402146.63944
  23171698.420   121768206.93108  23171696.000    94884380.71945
  23377840.140   122851384.54307  23377838.920    95728334.67245
  23104722.380   121416181.28608  23104718.320    94609982.87944
  20886928.500   109761586.91609  20886927.780    85528553.82347
  20185969.220   106078054.73109  20185966.660    82658226.85748
  21615264.900   113588982.50309  21615261.880    88510901.53048
 15 01 17 00 08  0.0000000  0  7G02G12G14G21G25G29G31
  24289198.840   127640623.01607  24289195.680    99460216.16344
  23184289.400   121834374.74308  23184287.460    94935939.96745
  23391642.000   122923912.13008  23391640.420    95784849.65745
  23087827.260   121327396.98808  23087823.020    94540800.27344
  20891093.960   109783476.71909  20891093.280    85545610.79247
  20190025.700   106099370.32409  20190023.020    82674836.39648
  21603996.300   113529765.95009  21603993.460    88464758.75247
 15 01 17 00 08 30.0000000  0  7G02G12G14G21G25G29G31
  24303438.120   127715451.30507  24303434.980    99518523.89344
  23196906.060   121900675.69408  23196904.100    94987603.06645
  23405485.140   122996656.82908  23405483.420    95841533.84645
  23070967.540   121238799.10308  23070963.640    94471762.99544
  20895305.120   109805606.46209  20895304.380    85562854.76147
  20194151.980   106121053.49609  20194149.220    82691732.37648
  21592805.540   113470958.72609  21592802.840    88418934.96348
 15 01 17 00 09  0.0000000  0  7G02G12G14G21G25G29G31
  24317735.680   127790585.32207  24317732.240    99577069.85744
  23209548.520   121967112.04908  23209546.240    95039371.62445
  23419369.280   123069617.49808  23419367.500    95898386.30245
  23054144.180   121150391.99408  23054140.580    94402874.35045
  20899562.420   109827978.76409  20899561.680    85580287.72047
  20198348.240   106143105.07509  20198345.380    82708915.41548
  21581693.460   113412564.90409  21581690.840    88373433.28148
 15 01 17 00 09 30.0000000  0  7G02G12G14G21G25G29G31
  24332090.660   127866021.12808  24332087.100    99635851.01544
  23222216.560   122033681.37308  23222214.040    95091243.82245
  23433293.480   123142788.71708  23433291.520    95955402.84345
  23037357.220   121062175.94208  23037353.860    94334134.61544
  20903865.420   109850591.74909  20903865.040    85597908.22447
  20202613.760   106165520.97609  20202610.800    82726382.35248
  21570660.040   113354584.35309  21570657.480    88328253.64547
 15 01 17 00 10  0.0000000  0  7G02G12G14G21G25G29G31
  24346502.600   127941756.71707  24346499.040    99694865.76044
  23234909.680   122100383.79507  23234907.060    95143219.69245
  23447257.140   123216167.66408  23447255.080    96012581.26845
  23020606.980   120974153.35708  23020603.960    94265545.61645
  20908214.380   109873446.08509  20908214.300    85615716.79747
  20206948.280   106188299.56509  20206945.140    82744131.90848
  21559705.760   113297019.51409  21559703.160    88283397.94547
 15 01 17 00 10 30.0000000  0  7G02G12G14G21G25G29G31
  24360972.100   128017795.16507  24360968.580    99754116.49444
  23247629.140   122167224.62307  23247626.200    95195303.46444
  23461260.660   123289756.34307  23461258.300    96069923.08845
  23003894.900   120886331.79608  23003892.040    94197113.24745
  20912610.380   109896547.51809  20912610.540    85633717.89147
  20211352.520   106211444.40509  20211349.180    82762166.85448
  21548832.040   113239877.81709  21548829.300    88238871.95147
 15 01 17 00 11  0.0000000  0  7G02G12G14G21G25G29G31
  24375497.640   128094128.21307  24375494.020    99813596.75244
  23260373.720   122234198.26507  23260370.420    95247490.69444
  23475302.320   123363545.95107  23475299.680    96127421.48244
  22987220.500   120798707.86008  22987217.600    94128834.88245
  20917052.480   109919890.78709  20917052.800    85651907.44647
  20215825.080   106234948.36009  20215821.680    82780481.63348
  21538038.160   113183155.56809  21538035.120    88194672.81747
 15 01 17 00 11 30.0000000  0  7G02G12G14G21G25G29G31
  24390079.660   128170758.07507  24390076.020    99873308.28844
  23273144.460   122301309.20107  23273141.420    95299784.90144
  23489382.220   123437537.53906  23489379.320    96185077.28544
  22970584.840   120711287.96508  22970581.820    94060715.51244
  20921541.540   109943480.61809  20921541.900    85670289.12447
  20220366.300   106258813.35809  20220362.940    82799077.73348
  21527325.320   113126859.07709  21527321.920    88150805.43447
 15 01 17 00 12  0.0000000  0  7G02G12G14G21G25G29G31
  24404717.420   128247680.11807  24404713.800    99933247.52044
  23285940.640   122368554.69507  23285937.540    95352183.94644
  23503499.160   123511725.50805  23503496.200    96242886.06543
  22953987.920   120624071.87208  22953984.680    93992754.95744
  20926077.040   109967314.85709  20926077.440    85688861.25047
  20224975.600   106283036.00509  20224972.360    82817952.51948
  21516693.420   113070987.60109  21516689.420    88107269.22447
 15 01 17 00 12 30.0000000  0  7G02G12G14G21G25G29G31
  24419411.300   128324896.65507  24419407.460    99993416.21344
  23298763.420   122435939.25308  23298759.640    95404691.38644
  23517653.000   123586111.09705  23517651.140    96300848.90343
  22937431.160   120537066.39908  22937427.500    93924958.47544
  20930660.020   109991398.31509  20930660.320    85707627.57847
  20229653.460   106307618.68809  20229650.340    82837107.84448
  21506143.700   113015547.69709  21506138.820    88064069.29147
 15 01 17 00 13  0.0000000  0  7G02G12G14G21G25G29G31
  24434159.800   128402399.94207  24434155.640   100053808.37244
  23311611.740   122503457.46807  23311607.500    95457302.98344
  23531842.800   123660685.51504  23531841.760    96358958.75944
  22920914.020   120450268.28808  22920909.460    93857323.60544
  20935289.560   110015726.15209  20935289.680    85726584.32647
  20234398.560   106332554.28009  20234395.460    82856538.18048
  21495675.540   112960536.04109  21495669.620    88021203.05947
 15 01 17 00 13 30.0000000  0  7G02G12G14G21G25G29G31
  24448961.740   128480183.40507  24448956.980   100114418.86543
  23324484.760   122571105.70708  23324480.200    95510015.87744
  23546067.860   123735441.12205  23546068.040    96417209.98843
  22904436.160   120363675.77608  22904430.760    93789848.89844
  20939964.860   110040294.36209  20939964.760    85745728.38247
  20239209.580   106357836.25309  20239206.540    82876238.42748
  21485288.480   112905950.64509  21485281.680    87978668.97847
 15 01 17 00 14  0.0000000  0  7G02G12G14G21G25G29G31
  24463817.240   128558248.48607  24463811.460   100175248.75444
  23337383.440   122638886.88408  23337378.400    95562832.38244
  23560328.180   123810378.91106  23560328.500    96475603.02944
  22887998.600   120277294.37608  22887992.420    93722538.70644
  20944686.620   110065107.04709  20944686.380    85765062.92847
  20244086.900   106383466.82209  20244084.000    82896210.30048
  21474983.520   112851796.83209  21474976.160    87936471.17947
 15 01 17 00 14 30.0000000  0  7G02G12G14G21G25G29G31
  24478726.240   128636594.01007  24478719.340   100236297.18943
  23350307.560   122706802.73608  23350301.820    95615753.79743
  23574622.880   123885496.06905  23574623.020    96534135.86444
  22871601.900   120191127.27508  22871595.720    93655395.48044
  20949455.040   110090165.65309  20949454.640    85784589.09547
  20249030.340   106409445.71709  20249027.740    82916453.60248
  21464761.200   112798077.49409  21464753.760    87894611.93147
 15 01 17 00 15  0.0000000  0  7G02G12G14G21G25G29G31
  24493688.760   128715219.79607  24493680.980   100297563.99243
  23363257.640   122774854.70208  23363250.960    95668781.34644
  23588951.640   123960791.83606  23588951.800    96592807.90244
  22855246.560   120105178.80508  22855241.040    93588422.65644
  20954270.720   110115472.63409  20954270.040    85804308.81147
  20254039.920   106435772.58909  20254037.700    82936968.04548
  21454622.200   112744796.42709  21454615.100    87853094.20647
 15 01 17 00 15 30.0000000  0  7G02G12G14G21G25G29G31
  24508703.820   128794121.81007  24508695.240   100359046.07144
  23376233.200   122843041.43308  23376226.280    95721913.84344
  23603313.800   124036261.53106  23603313.300    96651615.42446
  22838932.880   120019449.66208  22838927.940    93521620.74545
  20959133.580   110141026.76309  20959132.280    85824221.13147
  20259115.120   106462444.32909  20259113.240    82957751.22548
  21444566.720   112691954.45509  21444560.060    87811918.63947
 15 01 17 00 16  0.0000000  0  7G02G12G14G21G25G29G31
  24523771.680   128873301.95407  24523762.880   100420744.86843
  23389234.960   122911366.59508  23389228.500    95775154.21043
  23617709.160   124111905.27106  23617707.820    96710558.56945
  22822661.960   119933945.75008  22822657.840    93454994.33445
  20964044.320   110166832.25309  20964042.460    85844329.30847
  20264256.440   106489463.01309  20264254.660    82978804.74948
  21434595.740   112639557.00809  21434589.740    87771089.45647
 15 01 17 00 16 30.0000000  0  7G02G12G14G21G25G29G31
  24538891.720   128952757.61707  24538883.060   100482658.37244
  23402263.080   122979829.77508  23402256.600    95828502.15944
  23632136.940   124187720.07206  23632134.980    96769635.08445
  22806434.340   119848669.27608  22806430.760    93388545.18545
  20969002.980   110192889.43809  20969000.760    85864633.59647
  20269463.380   106516826.34809  20269461.500    83000126.83048
  21424709.700   112587606.19809  21424704.380    87730608.31348
 15 01 17 00 17  0.0000000  0  7G02G12G14G21G25G29G31
  24554063.600   129032486.49006  24554055.600   100544784.73444
  23415317.380   123048431.48008  23415311.260    95881957.99745
  23646596.340   124263702.37006  23646594.020    96828842.01245
  22790250.340   119763622.07108  22790247.100    93322274.65645
  20974009.480   110219198.37709  20974007.020    85885134.07347
  20274735.520   106544532.23209  20274733.500    83021715.83748
  21414908.880   112536103.51109  21414904.180    87690476.35148
 15 01 17 00 17 30.0000000  0  7G02G12G14G21G25G29G31
  24569286.480   129112483.17807  24569279.180   100607119.80044
  23428397.580   123117168.52208  23428392.200    95935519.31744
  23661086.220   124339846.04706  23661083.680    96888174.74644
  22774109.960   119678803.55208  22774106.820    93256182.33645
  20979063.400   110245756.65909  20979060.940    85905828.83847
  20280072.200   106572576.68009  20280070.080    83043568.66048
  21405193.120   112485047.97709  21405189.000    87650692.82948
 15 01 17 00 18  0.0000000  0  7G02G12G14G21G25G29G31
  24584560.900   129192750.25307  24584554.220   100669665.50444
  23441504.320   123186045.59908  23441499.520    95989189.72845
  23675607.020   124416152.63807  23675604.380    96947634.34344
  22758014.340   119594220.43708  22758011.000    93190273.44745
  20984165.760   110272569.33109  20984163.440    85926721.84047
  20285473.920   106600962.27909  20285471.800    83065687.31148
  21395563.640   112434446.01609  21395560.000    87611262.73948
 15 01 17 00 18 30.0000000  0  7G02G12G14G21G25G29G31
  24599885.080   129273279.02107  24599878.820   100732415.19544
  23454636.540   123255056.49308  23454632.180    96042964.43945
  23690156.960   124492612.54806  23690154.160    97007213.52244
  22741962.860   119509868.83108  22741959.100    93124544.91645
  20989315.420   110299630.72809  20989313.340    85947808.63247
  20290939.120   106629681.11109  20290937.040    83088065.62448
  21386019.720   112384293.44009  21386016.400    87572182.82048
 15 01 17 00 19  0.0000000  0  7G02G12G14G21G25G29G31
  24615259.520   129354072.79707  24615253.800   100795371.37645
  23467795.240   123324206.33808  23467791.400    96096847.42145
  23704736.440   124569227.99907  23704733.340    97066913.84344
  22725956.800   119425756.20508  22725952.640    93059002.63944
  20994513.480   110326946.54709  20994511.700    85969093.68048
  20296468.340   106658736.56509  20296466.340    83110706.24148
  21376562.760   112334597.54409  21376559.660    87533458.75248
 15 01 17 00 19 30.0000000  0  7G02G12G14G21G25G29G31
  24630683.700   129435128.80007  24630678.720   100858531.88845
  23480980.180   123393494.91908  23480976.900    96150838.46345
  23719344.760   124645995.77207  23719341.600    97126732.89743
  22709996.460   119341884.24708  22709991.900    92993647.83344
  20999759.960   110354516.53609  20999758.520    85990576.77847
  20302060.960   106688126.17309  20302059.180    83133607.24148
  21367192.960   112285359.40409  21367189.900    87495091.38848
 15 01 17 00 20  0.0000000  0  7G02G12G14G21G25G29G31
  24646156.700   129516442.11607  24646152.540   100921892.92345
  23494191.220   123462919.59408  23494187.800    96204935.59445
  23733980.860   124722909.55107  23733977.480    97186665.71443
  22694081.740   119258252.54308  22694076.900    92928480.31744
  21005054.420   110382338.78809  21005053.320    86012256.45548
  20307716.360   106717846.16009  20307714.720    83156765.67648
  21357910.200   112236578.58909  21357907.140    87457080.38248
 15 01 17 00 20 30.0000000  0  7G02G12G14G21G25G29G31
  24661678.560   129598012.48707  24661675.240   100985454.23745
  23507428.660   123532482.80608  23507424.900    96259140.66445
  23748644.500   124799968.24507  23748641.280    97246711.43843
  22678213.600   119174865.48608  22678208.760    92863503.36245
  21010397.300   110410415.54409  21010396.480    86034134.42448
  20313434.660   106747896.33709  20313433.060    83180181.40048
  21348715.380   112188259.54109  21348712.220    87419429.18848
 15 01 17 00 21  0.0000000  0  7G02G12G14G21G25G29G31
  24677248.680   129679836.68707  24677246.100   101049213.35444
  23520692.360   123602182.93408  23520688.400    96313452.42645
  23763334.940   124877167.74307  23763332.080    97306866.98344
  22662392.260   119091724.00908  22662387.240    92798717.82344
  21015788.480   110438746.25709  21015787.860    86056210.29648
  20319215.360   106778273.82109  20319213.700    83203852.16548
  21339608.420   112140401.92009  21339605.140    87382137.53748
 15 01 17 00 21 30.0000000  0  7G02G12G14G21G25G29G31
  24692866.420   129761911.27806  24692864.760   101113167.55645
  23533982.120   123672018.86908  23533977.680    96367870.01045
  23778051.320   124954503.80106  23778049.300    97367128.80542
  22646617.960   119008829.18508  22646612.620    92734124.45344
  21021227.740   110467330.26009  21021227.300    86078483.52548
  20325057.940   106808975.79309  20325056.120    83227775.78048
  21330589.540   112093006.98109  21330586.100    87345206.42248
 15 01 17 00 22  0.0000000  0  7G02G12G14G21G25G29G31
  24708532.460   129844238.84206  24708531.700   101177318.89544
  23547298.560   123741995.20508  23547293.520    96422396.98745
  23792793.900   125031977.78805  23792792.720    97427498.24644
  22630892.000   118926188.17408  22630886.180    92669728.88544
  21026716.020   110496172.80409  21026715.800    86100958.22448
  20330962.900   106840005.57409  20330960.980    83251954.83048
  21321659.960   112046081.23009  21321656.440    87308640.89448
 15 01 17 00 22 30.0000000  0  7G02G12G14G21G25G29G31
  24724245.780   129926814.53007  24724245.640   101241663.56845
  23560641.380   123812110.01908  23560635.900    96477031.89445
  23807561.420   125109584.17505  23807560.000    97487970.68641
  22615214.080   118843800.14508  22615208.280    92605530.43844
  21032253.100   110525271.58309  21032253.040    86123632.58748
  20336929.300   106871358.52709  20336927.300    83276385.69448
  21312819.520   111999624.05309  21312816.080    87272440.49348
 15 01 17 00 23  0.0000000  0  7G02G12G14G21G25G29G31
  24740005.240   130009631.34907  24740005.140   101306196.12945
  23574009.580   123882358.48209  23574004.060    96531770.94645
  23822352.440   125187315.24906  23822351.500    97548540.35644
  22599583.820   118761662.70908  22599577.840    92541527.24944
  21037838.140   110554622.39309  21037838.240    86146503.33648
  20342955.900   106903028.14509  20342953.820    83301063.31248
  21304067.580   111953632.46009  21304064.440    87236602.89948
 15 01 17 00 23 30.0000000  0  7G02G12G14G21G25G29G31
  24755810.920   130092689.69107  24755810.320   101370916.92645
  23587403.460   123952742.84308  23587398.300    96586615.87845
  23837167.420   125265170.15505  23837166.080    97609206.51643
  22584002.040   118679780.69108  22583996.220    92477723.11545
  21043471.820   110584228.24609  21043472.060    86169572.82848
  20349042.820   106935015.07009  20349040.580    83325988.19148
  21295405.000   111908110.89209  21295402.220    87201131.56248
 15 01 17 00 24  0.0000000  0  7G02G12G14G21G25G29G31
  24771661.820   130175984.61207  24771660.440   101435822.05145
  23600822.720   124023261.01509  23600817.900    96641565.07045
  23852005.340   125343143.09707  23852003.000    97669964.57544
  22568468.680   118598153.62008  22568463.240    92414117.60044
  21049153.700   110614086.97409  21049154.000    86192839.34948
  20355189.340   106967315.25609  20355186.960    83351157.16948
  21286831.660   111863058.52109  21286829.080    87166025.82347
 15 01 17 00 24 30.0000000  0  7G02G12G14G21G25G29G31
  24787558.040   130259516.76407  24787555.740   101500912.03845
  23614267.780   124093915.61308  23614263.280    96696620.58745
  23866866.000   125421233.95907  23866863.100    97730814.61644
  22552984.780   118516786.63508  22552979.860    92350714.77544
  21054884.440   110644201.96409  21054884.740    86216305.56048
  20361395.720   106999930.21409  20361393.280    83376571.42648
  21278348.560   111818479.82709  21278345.920    87131289.18447
 15 01 17 00 25  0.0000000  0  7G02G12G14G21G25G29G31
  24803500.080   130343289.59407  24803496.860   101566189.55345
  23627739.700   124164711.70308  23627735.700    96751786.35145
  23881749.520   125499444.95407  23881746.520    97791758.23644
  22537551.920   118435687.19408  22537547.440    92287520.40944
  21060665.100   110674579.04009  21060665.320    86239975.99348
  20367662.520   107032862.84009  20367660.140    83402233.21148
  21269957.140   111774382.08609  21269954.120    87096927.30447
 15 01 17 00 25 30.0000000  0  6G12G14G21G25G29G31
  23641236.540   124235639.06208  23641233.220    96807054.40845
  23896653.080   125577761.62508  23896650.280    97852784.20145
  22522168.420   118354846.30008  22522164.260    92224527.50144
  21066493.700   110705207.66809  21066493.800    86263842.44048
  20373987.320   107066100.58808  20373985.140    83428132.74648
  21261655.500   111730756.19009  21261652.000    87062933.09547
 15 01 17 00 26  0.0000000  0  6G12G14G21G25G29G31
  23654762.220   124306718.76908  23654759.340    96862441.16044
  23911580.220   125656202.88608  23911577.640    97913907.23944
  22506838.760   118274287.61308  22506834.700    92161754.51845
  21072374.300   110736109.76509  21072374.300    86287921.98348
  20380373.940   107099663.52708  20380372.040    83454285.68048
  21253448.040   111687625.45809  21253444.020    87029324.73047
 15 01 17 00 26 30.0000000  0  6G12G14G21G25G29G31
  23668314.220   124377937.82108  23668311.860    96917936.49945
  23926527.860   125734752.30508  23926525.240    97975114.53144
  22491560.860   118194000.62908  22491556.620    92099193.25145
  21078304.520   110767272.65609  21078304.280    86312204.74348
  20386819.520   107133536.30108  20386817.780    83480680.05148
  21245332.480   111644978.30409  21245328.140    86996093.17347
 15 01 17 00 27  0.0000000  0  6G12G14G21G25G29G31
  23681892.000   124449291.47308  23681889.920    96973536.75744
  23941494.540   125813401.96708  23941491.740    98036399.97844
  22476334.100   118113982.16208  22476329.700    92036841.18845
  21084283.500   110798691.90809  21084282.900    86336687.27448
  20393322.780   107167712.23408  20393321.000    83507310.65148
  21237308.360   111602811.76009  21237303.940    86963236.12047
 15 01 17 00 27 30.0000000  0  6G12G14G21G25G29G31
  23695495.520   124520780.68108  23695493.540    97029242.60744
  23956479.860   125892149.70107  23956476.700    98097761.83043
  22461158.760   118034235.00508  22461154.240    91974700.56445
  21090311.460   110830368.82909  21090310.440    86361370.57448
  20399883.720   107202191.12408  20399881.800    83534177.32048
  21229376.160   111561128.27809  21229371.900    86930755.47647
 15 01 17 00 28  0.0000000  0  6G12G14G21G25G29G31
  23709125.860   124592411.05308  23709123.640    97085058.47144
  23971484.440   125970998.08708  23971480.440    98159202.11943
  22446036.600   117954767.90908  22446032.280    91912778.16545
  21096389.620   110862309.78809  21096388.240    86386259.62948
  20406503.020   107236976.99908  20406501.020    83561283.20948
  21221537.340   111519935.36108  21221533.280    86898657.09747
 15 01 17 00 28 30.0000000  0  6G12G14G21G25G29G31
  23722781.020   124664170.23308  23722777.760    97140974.73044
  23986505.360   126049931.81208  23986500.600    98220708.92443
  22430965.600   117875570.25208  22430961.620    91851065.74144
  21102515.700   110894503.01809  21102514.120    86411345.25748
  20413178.040   107272055.73008  20413176.120    83588617.28548
  21213790.000   111479222.98508  21213786.040    86866933.16047
 15 01 17 00 29  0.0000000  0  6G12G14G21G25G29G31
  23736463.000   124736069.32908  23736459.420    97196999.98944
  24001543.920   126128958.47807  24001538.240    98282288.10144
  22415948.260   117796654.95608  22415944.420    91789573.31545
  21108691.800   110926959.67009  21108690.220    86436636.14847
  20419910.420   107307436.08908  20419908.740    83616186.37848
  21206136.300   111439002.98008  21206132.440    86835592.89447
 15 01 17 00 29 30.0000000  0  6G12G14G21G25G29G31
  23750171.660   124808108.03808  23750167.920    97253134.01544
  24016599.440   126208074.96607  24016593.820    98343937.31643
  22400984.840   117718023.72907  22400981.420    91728302.25844
  21114918.140   110959679.79409  21114916.620    86462132.34047
  20426699.980   107343115.99908  20426698.420    83643988.89848
  21198576.500   111399276.67508  21198572.740    86804637.33247
 15 01 17 00 30  0.0000000  0  6G12G14G21G25G29G31
  23763907.060   124880286.57008  23763903.340    97309377.02344
  24031671.200   126287278.43207  24031666.040    98405654.25243
  22386075.860   117639679.03608  22386072.460    91667254.47344
  21121194.880   110992664.15409  21121193.340    86487834.43947
  20433546.460   107379094.09408  20433544.960    83672023.76848
  21191110.900   111360046.12708  21191107.440    86774068.06647
 15 01 17 00 30 30.0000000  0  6G12G14G21G25G29G31
  23777669.280   124952605.15408  23777665.740    97365729.17544
  24046758.680   126366565.72106  24046754.160    98467436.47944
  22371221.980   117561622.87508  22371218.460    91606431.49944
  21127522.180   111025913.34409  21127520.420    86513742.88547
  20440449.480   107415368.58008  20440447.840    83700289.59048
  21183739.940   111321313.11308  21183736.900    86743886.48847
 15 01 17 00 31  0.0000000  0  6G12G14G21G25G29G31
  23791458.740   125025067.44008  23791455.680    97422193.26145
  24061862.160   126445937.52507  24061858.660    98529284.53644
  22356424.580   117483861.94508  22356420.420    91545838.54244
  21133900.740   111059431.77609  21133898.700    86539861.12947
  20447409.400   107451942.17608  20447407.580    83728788.48848
  21176464.720   111283083.44508  21176462.260    86714097.13648
 15 01 17 00 31 30.0000000  0  6G12G14G21G25G29G31
  23805274.400   125097667.59408  23805272.000    97478764.78945
  24076980.160   126525384.63007  24076977.160    98591191.30344
  22341682.760   117406391.70508  22341678.240    91485472.10544
  21140329.360   111093213.70009  21140327.080    86566184.69447
  20454424.740   107488806.31808  20454422.600    83757513.79048
  21169284.400   111245352.36908  21169282.620    86684696.30448
 15 01 17 00 32  0.0000000  0  6G12G14G21G25G29G31
  23819116.540   125170406.99608  23819114.520    97535444.84145
  24092112.400   126604905.74008  24092110.080    98653155.69642
  22326997.140   117329215.63908  22326992.380    91425334.89944
  21146808.400   111127261.04109  21146805.940    86592715.08947
  20461495.580   107525961.41109  20461493.060    83786465.80848
  21162199.640   111208123.02008  21162198.420    86655686.43248
 15 01 17 00 32 30.0000000  0  6G12G14G21G25G29G31
  23832984.740   125243284.38008  23832983.200    97592232.39445
  24107257.960   126684496.43407  24107255.320    98715174.53341
  22312367.640   117252334.56508  22312362.980    91365427.56045
  21153337.660   111161573.05109  21153335.380    86619451.71747
  20468621.300   107563404.30609  20468618.300    83815642.09248
  21155210.660   111171395.61108  21155209.580    86627067.67048
 15 01 17 00 33  0.0000000  0  6G12G14G21G25G29G31
  23846879.200   125316300.96408  23846878.320    97649128.41545
  24122416.540   126764155.11808  24122412.180    98777246.17541
  22297794.960   117175752.09208  22297790.260    91305752.90645
  21159917.600   111196151.59709  21159915.640    86646396.03247
  20475801.720   107601134.81409  20475798.280    83845042.48848
  21148318.040   111135173.20608  21148316.800    86598842.43148
 15 01 17 00 33 30.0000000  0  6G12G14G21G25G29G31
  23860799.360   125389452.87608  23860798.900    97706129.88545
  24137586.680   126843874.12908  24137580.040    98839364.90441
  22283278.420   117099465.71708  22283273.940    91246308.98545
  21166547.520   111230992.40609  21166545.880    86673544.70847
  20483035.420   107639146.30909  20483031.600    83874661.83948
  21141521.120   111099452.71708  21141519.560    86571008.29348
 15 01 17 00 34  0.0000000  0  6G12G14G21G25G29G31
  23874745.180   125462740.07408  23874745.080    97763236.77345
  24152767.860   126923650.88008  24152761.360    98901528.75241
  22268818.480   117023477.85408  22268814.360    91187097.67845
  21173227.660   111266096.48709  21173226.260    86700898.53248
  20490322.140   107677437.57709  20490318.020    83904499.18048
  21134820.160   111064236.30508  21134818.200    86543566.94448
 15 01 17 00 34 30.0000000  0  6G12G14G21G25G29G31
  23888718.380   125536171.30108  23888718.380    97820455.90444
  24167961.140   127003491.42207  24167956.800    98963742.10042
  22254417.360   116947799.84708  22254413.660    91128127.82745
  21179959.740   111301473.34109  21179958.520    86728464.89748
  20497663.340   107716015.83509  20497658.980    83934560.15647
  21128217.060   111029534.41308  21128214.620    86516526.50548
 15 01 17 00 35  0.0000000  0  6G12G14G21G25G29G31
  23902717.260   125609737.15508  23902717.320    97877779.96445
  24183164.040   127083382.74907  24183161.500    99025995.09443
  22240073.460   116872423.33608  22240070.140    91069392.91445
  21186741.900   111337113.23109  21186740.780    86756236.23648
  20505057.020   107754869.74109  20505052.480    83964835.94248
  21121710.240   110995338.56008  21121707.400    86489880.40248
 15 01 17 00 35 30.0000000  0  6G12G14G21G25G29G31
  23916743.000   125683443.31308  23916743.120    97935213.31344
  24198376.980   127163327.71707  24198375.440    99088289.77443
  22225788.420   116797356.58908  22225785.520    91010899.37846
  21193575.380   111373022.82209  21193574.420    86784217.72348
  20512503.920   107794003.27109  20512499.420    83995329.58948
  21115301.080   110961656.25708  21115297.960    86463634.46248
 15 01 17 00 36  0.0000000  0  6G12G14G21G25G29G31
  23930795.400   125757288.66408  23930795.600    97992755.13745
  24213599.300   127243322.04207  24213598.740    99150622.96543
  22211562.500   116722600.18908  22211559.680    90952647.64745
  21200459.880   111409200.98009  21200459.200    86812408.48148
  20520003.560   107833413.82909  20519999.140    84026039.10947
  21108989.640   110928487.79808  21108986.300    86437788.90548
 15 01 17 00 36 30.0000000  0  6G12G14G21G25G29G31
  23944873.760   125831270.12808  23944873.840    98050403.00845
  24228829.900   127323360.05307  24228829.300    99212990.11944
  22197395.440   116648153.57008  22197392.720    90894637.33645
  21207395.120   111445645.53909  21207394.660    86840806.82848
  20527554.860   107873096.64708  20527550.720    84056960.77647
  21102775.580   110895831.52008  21102772.020    86412342.46748
 15 01 17 00 37  0.0000000  0  6G12G14G21G25G29G31
  23958978.840   125905392.57108  23958978.820    98108160.74445
  24244069.100   127403443.34607  24244068.380    99275392.61243
  22183288.580   116574023.35708  22183285.820    90836873.54845
  21214382.000   111482361.65509  21214381.720    86869416.78048
  20535158.120   107913054.45208  20535154.600    84088096.70047
  21096660.120   110863693.69708  21096656.340    86387300.00748
 15 01 17 00 37 30.0000000  0  6G12G14G21G25G29G31
  23973109.940   125979651.58508  23973109.680    98166024.91145
  24259315.620   127483564.47307  24259315.100    99337824.62243
  22169241.480   116500206.73308  22169238.620    90779354.09745
  21221419.660   111519345.20209  21221419.600    86898235.11448
  20542812.460   107953281.48008  20542809.660    84119442.41047
  21090642.760   110832071.43409  21090638.700    86362659.28148
 15 01 17 00 38  0.0000000  0  6G12G14G21G25G29G31
  23987267.720   126054050.64108  23987267.160    98223998.18245
  24274569.360   127563723.66707  24274568.540    99400286.30541
  22155255.160   116426708.99008  22155252.140    90722083.13845
  21228508.920   111556600.00809  21228508.980    86927264.81848
  20550518.540   107993779.26408  20550516.000    84150999.12447
  21084724.440   110800969.46209  21084720.120    86338423.98048
 15 01 17 00 38 30.0000000  0  6G12G14G21G25G29G31
  24001451.600   126128587.06508  24001450.900    98282078.50545
  24289829.420   127643915.82107  24289828.500    99462773.64041
  22141329.700   116353530.33208  22141326.480    90665060.82845
  21235649.440   111594124.22809  21235649.580    86956504.46148
  20558275.720   108034544.16608  20558273.080    84182763.98347
  21078904.980   110770387.00509  21078900.440    86314593.48948
 15 01 17 00 39  0.0000000  0  6G12G14G21G25G29G31
  24015662.500   126203265.48308  24015661.740    98340269.45445
  24305095.900   127724142.19907  24305095.060    99525287.66843
  22127466.380   116280677.19508  22127463.080    90608292.13045
  21242842.040   111631922.45809  21242842.220    86985957.60048
  20566084.180   108075578.30308  20566081.400    84214738.64147
  21073185.320   110740329.40309  21073180.600    86291171.96247
 15 01 17 00 39 30.0000000  0  6G12G14G21G25G29G31
  24029900.140   126278084.26908  24029899.240    98398569.80845
  24320367.940   127804398.46907  24320367.300    99587824.98943
  22113665.180   116208149.88608  22113661.820    90551777.33545
  21250086.740   111669993.86509  21250086.820    87015623.62448
  20573943.220   108116878.65108  20573940.440    84246920.72747
  21067565.380   110710796.95509  21067560.740    86268159.66947
 15 01 17 00 40  0.0000000  0  6G12G14G21G25G29G31
  24044163.640   126353039.15508  24044162.540    98456976.23145
  24335644.460   127884677.56207  24335644.120    99650380.10044
  22099925.540   116135945.99908  22099922.060    90495514.57445
  21257382.780   111708334.72209  21257382.720    87045499.61048
  20581851.920   108158439.58608  20581849.100    84279305.86147
  21062044.680   110681786.80009  21062040.240    86245554.34348
 15 01 17 00 40 30.0000000  0  6G12G14G21G25G29G31
  24058453.240   126428131.55208  24058452.080    98515489.76646
  24350925.080   127964977.67807  24350924.640    99712951.61344
  22086248.060   116064069.04808  22086244.460    90439506.56045
  21264730.540   111746946.60309  21264730.260    87075586.78448
  20589810.440   108200260.76908  20589807.360    84311893.79547
  21056623.720   110653301.39908  21056619.580    86223357.90648
 15 01 17 00 41  0.0000000  0  6G12G14G21G25G29G31
  24072769.300   126503363.04108  24072768.180    98574111.69245
  24366209.480   128045297.61107  24366208.840    99775538.51844
  22072633.340   115992522.40708  22072629.640    90383755.94545
  21272130.280   111785831.59709  21272129.860    87105886.78448
  20597818.800   108242342.27109  20597815.200    84344684.57847
  21051303.260   110625343.74309  21051299.320    86201572.72447
 15 01 17 00 41 30.0000000  0  6G12G14G21G25G29G31
  24087111.300   126578730.74408  24087110.100    98632839.75646
  24381496.540   128125631.29407  24381495.660    99838136.12143
  22059081.260   115921305.07608  22059077.320    90328261.93145
  21279581.440   111824987.18709  21279581.020    87136397.63748
  20605875.940   108284679.35909  20605871.680    84377674.54147
  21046082.980   110597912.25309  21046079.160    86180197.52947
 15 01 17 00 42  0.0000000  0  6G12G14G21G25G29G31
  24101479.980   126654238.61508  24101478.460    98691677.08045
  24396786.460   128205980.55206  24396785.660    99900745.89443
  22045593.100   115850423.49708  22045588.720    90273029.51445
  21287084.960   111864418.42509  21287084.600    87167123.26248
  20613982.080   108327274.73709  20613977.300    84410865.74347
  21040964.080   110571012.86709  21040960.180    86159236.94247
 15 01 17 00 42 30.0000000  0  6G12G14G21G25G29G31
  24115875.040   126729886.27507  24115873.180    98750623.32145
  24412078.320   128286341.36904  24412077.680    99963364.65544
  22032168.940   115779878.67408  22032164.160    90218059.52644
  21294640.780   111904124.55309  21294640.440    87198063.09248
  20622136.580   108370125.72908  20622131.480    84444256.12447
  21035946.560   110544645.53209  21035942.420    86138690.96047
 15 01 17 00 43  0.0000000  0  5G12G21G25G29G31
  24130298.660   126805685.64207  24130296.980    98809687.72045
  22018811.320   115709684.17508  22018806.360    90163362.52044
  21302251.240   111944117.74309  21302251.000    87229226.61548
  20630341.320   108413242.31208  20630336.380    84477853.46647
  21031032.780   110518823.37008  21031028.400    86118569.79147
 15 01 17 00 43 30.0000000  0  6G12G14G21G25G29G31
  24144744.520   126881599.93207  24144743.180    98868841.72046
  24442667.380   128447077.39705  24442660.480   100088608.38543
  22005513.660   115639805.43508  22005508.780    90108911.57445
  21309909.440   111984362.14509  21309909.280    87260585.87948
  20638589.360   108456587.13508  20638584.820    84511628.64847
  21026215.980   110493511.33308  21026211.480    86098846.12647
 15 01 17 00 44  0.0000000  0  6G12G14G21G25G29G31
  24159210.820   126957620.13407  24159209.840    98928078.24546
  24457954.480   128527409.02706  24457948.480   100151204.55341
  21992274.780   115570235.89408  21992270.080    90054701.55045
  21317613.760   112024849.37109  21317613.700    87292134.35948
  20646878.820   108500149.44708  20646874.880    84545573.31147
  21021494.740   110468701.94808  21021490.220    86079514.14247
 15 01 17 00 44 30.0000000  0  6G12G14G21G25G29G31
  24173711.760   127033822.67506  24173711.180    98987456.82745
  24473249.580   128607783.88807  24473245.400   100213834.32043
  21979109.740   115501053.78108  21979105.400    90000793.42845
  21325378.860   112065656.21909  21325378.900    87323931.89248
  20655223.960   108544004.04508  20655220.560    84579745.74447
  21016883.820   110444472.76108  21016879.460    86060634.25847
 15 01 17 00 45  0.0000000  0  6G12G14G21G25G29G31
  24188239.680   127110169.57805  24188239.800    99046947.83245
  24488544.780   128688160.46507  24488542.140   100276465.35843
  21966011.620   115432222.57208  21966007.560    89947158.71646
  21333197.500   112106744.61909  21333197.740    87355948.81748
  20663617.080   108588110.79808  20663614.200    84614114.65447
  21012376.160   110420786.45108  21012372.080    86042177.39247
 15 01 17 00 45 30.0000000  0  6G12G14G21G25G29G31
  24202792.840   127186646.08307  24202792.820    99106539.88744
  24503836.940   128768521.66507  24503835.340   100339084.47144
  21952978.000   115363729.56708  21952974.260    89893787.55646
  21341067.100   112148100.79709  21341067.520    87388174.40048
  20672055.100   108632453.90108  20672052.660    84648667.72847
  21007969.260   110397629.75908  21007965.600    86024133.21947
 15 01 17 00 46  0.0000000  0  6G12G14G21G25G29G31
  24217372.360   127263258.96608  24217371.820    99166238.32644
  24519126.700   128848871.11306  24519125.980   100401694.37144
  21940010.380   115295583.31808  21940006.880    89840686.59146
  21348989.040   112189731.80509  21348989.600    87420614.12848
  20680538.840   108677038.11108  20680536.920    84683408.65447
  21003664.660   110375010.73308  21003661.460    86006508.00247
 15 01 17 00 46 30.0000000  0  5G12G21G25G29G31
  24231978.320   127340011.26908  24231977.500    99226045.36145
  21927109.740   115227789.01708  21927106.240    89787859.87346
  21356964.080   112231641.19709  21356964.580    87453270.77948
  20689068.960   108721865.52908  20689067.380    84718339.09847
  20999463.200   110352933.75608  20999460.600    85989305.17347
 15 01 17 00 47  0.0000000  0  5G12G21G25G29G31
  24246609.920   127416900.07307  24246609.100    99285958.72045
  21914275.860   115160345.71108  21914272.260    89735306.65546
  21364991.700   112273826.37209  21364992.000    87486142.33448
  20697644.620   108766931.32608  20697643.200    84753455.30347
  20995364.660   110331397.11208  20995362.460    85972523.36547
 15 01 17 00 47 30.0000000  0  5G12G21G25G29G31
  24261270.340   127493946.07105  24261270.360    99345994.40144
  21901512.940   115093275.70908  21901509.160    89683044.33046
  21373075.940   112316308.52309  21373075.940    87519245.28848
  20706269.380   108812254.66908  20706268.080    84788772.18847
  20991373.140   110310422.32908  20991371.220    85956179.35947
 15 01 17 00 48  0.0000000  0  5G12G21G25G29G31
  24275952.600   127571103.50507  24275952.720    99406117.02545
  21888812.560   115026535.23708  21888808.680    89631038.77645
  21381208.160   112359042.42409  21381207.800    87552544.42748
  20714934.000   108857788.25608  20714932.980    84824252.89947
  20987480.200   110289964.82108  20987478.380    85940238.42947
 15 01 17 00 48 30.0000000  0  5G12G21G25G29G31
  24290659.980   127648389.26508  24290659.220    99466339.73444
  21876178.400   114960143.51008  21876174.440    89579304.98645
  21389391.660   112402045.73009  21389390.920    87586053.49548
  20723641.420   108903548.17808  20723640.900    84859909.96647
  20983689.340   110270042.95209  20983687.460    85924714.88547
 15 01 17 00 49  0.0000000  0  5G12G21G25G29G31
  24305394.120   127725814.56408  24305392.420    99526671.22244
  21863612.840   114894112.77308  21863608.780    89527852.47445
  21397628.460   112445329.29509  21397627.400    87619780.93648
  20732393.600   108949543.19908  20732393.480    84895750.20347
  20980002.760   110250668.43809  20980000.720    85909617.84048
 15 01 17 00 49 30.0000000  0  5G12G21G25G29G31
  24320154.700   127803379.40008  24320152.860    99587111.43144
  21851116.440   114828445.23508  21851112.200    89476682.96545
  21405918.660   112488893.92009  21405917.420    87653727.39547
  20741190.640   108995771.99008  20741190.520    84931772.63647
  20976420.660   110231842.59409  20976418.500    85894948.34948
 15 01 17 00 50  0.0000000  0  5G12G21G25G29G31
  24334942.000   127881086.48107  24334940.360    99647662.42945
  21838690.120   114763145.34708  21838685.720    89425799.92645
  21414262.780   112532742.54809  21414261.520    87687895.13848
  20750032.780   109042235.71808  20750032.220    84967978.13547
  20972943.620   110213569.09909  20972941.380    85880709.25648
 15 01 17 00 50 30.0000000  0  5G12G21G25G29G31
  24349756.760   127958941.49306  24349755.740    99708328.55746
  21826335.220   114698220.15408  21826330.700    89375208.87246
  21422662.140   112576881.46209  21422660.880    87722289.08747
  20758920.540   109088938.52408  20758919.440    85004369.94247
  20969572.940   110195854.74209  20969570.480    85866905.85948
 15 01 17 00 51  0.0000000  0  5G12G21G25G29G31
  24364595.660   128036921.83108  24364594.820    99769092.36746
  21814047.920   114633649.78008  21814043.380    89324894.29945
  21431112.540   112621288.88109  21431111.220    87756892.25347
  20767849.100   109135856.71108  20767847.640    85040929.56547
  20966304.580   110178678.22509  20966301.780    85853521.55848
 15 01 17 00 51 30.0000000  0  5G12G21G25G29G31
  24379458.780   128115026.50308  24379457.460    99829953.14045
  21801828.360   114569435.21208  21801824.000    89274856.98845
  21439613.820   112665964.26109  21439612.660    87791704.22647
  20776817.960   109182987.90008  20776816.440    85077655.15947
  20963138.620   110162039.85509  20963135.460    85840556.60348
 15 01 17 00 52  0.0000000  0  5G12G21G25G29G31
  24394348.260   128193268.79709  24394346.400    99890921.14144
  21789679.380   114505591.25008  21789675.100    89225108.45446
  21448168.520   112710920.94708  21448167.640    87826735.39247
  20785829.460   109230343.99308  20785828.040    85114555.99147
  20960077.620   110145953.29309  20960074.160    85828021.62648
 15 01 17 00 52 30.0000000  0  5G12G21G25G29G31
  24409264.060   128271649.84008  24409261.420    99951997.33543
  21777601.460   114442120.44308  21777597.100    89175650.69746
  21456777.020   112756160.34108  21456776.340    87861986.85647
  20794883.760   109277924.20408  20794882.180    85151631.47347
  20957121.960   110130420.55109  20957118.280    85815918.20148
 15 01 17 00 53  0.0000000  0  5G12G21G25G29G31
  24424206.060   128350168.52308  24424201.360   100013181.05841
  21765594.660   114379023.30908  21765590.040    89126484.09746
  21465439.360   112801681.92109  21465438.900    87897458.20647
  20803980.360   109325726.08208  20803978.360    85188879.69247
  20954271.640   110115441.64809  20954267.940    85804246.33448
 15 01 17 00 53 30.0000000  0  5G12G21G25G29G31
  24439174.080   128428822.61504  24439169.900   100074469.96744
  21753658.980   114316300.17508  21753654.260    89077608.92745
  21474155.340   112847484.51009  21474154.900    87933148.52147
  20813118.580   109373746.48808  20813115.760    85226298.19546
  20951526.560   110101015.89009  20951523.020    85793005.47848
 15 01 17 00 54  0.0000000  0  5G12G21G25G29G31
  24454160.320   128507479.02406  24454159.780   100135707.90145
  21741789.400   114253924.56408  21741784.360    89029004.56445
  21482919.620   112893540.15309  21482919.040    87969036.04247
  20822292.520   109421955.64808  20822288.660    85263863.78646
  20948881.560   110087115.91409  20948878.220    85782174.32748
 15 01 17 00 54 30.0000000  0  5G12G21G25G29G31
  24469191.500   128586465.21308  24469190.500   100197255.55246
  21730008.460   114192015.23608  21730003.180    88980763.53945
  21491754.400   112939965.89809  21491753.580    88005211.93747
  20831524.080   109470468.35408  20831519.440    85301665.91746
  20946359.020   110073859.12009  20946355.820    85771844.36048
 15 01 17 00 55  0.0000000  0  5G12G21G25G29G31
  24484235.880   128665521.17308  24484234.420   100258857.60546
  21718287.020   114130419.01808  21718281.660    88932766.49645
  21500630.260   112986607.76409  21500629.260    88041556.24447
  20840783.840   109519129.45708  20840779.000    85339583.64746
  20943929.620   110061092.13709  20943926.520    85761896.06448
 15 01 17 00 55 30.0000000  0  5G12G21G25G29G31
  24499306.940   128744718.25409  24499305.040   100320569.60546
  21706638.840   114069208.83808  21706633.520    88885070.28945
  21509560.880   113033537.59309  21509559.840    88078124.93147
  20850085.260   109568009.02708  20850080.740    85377671.61246
  20941607.060   110048887.20409  20941604.040    85752385.72348
 15 01 17 00 56  0.0000000  0  5G12G21G25G29G31
  24514403.260   128824048.54608  24514400.840   100382385.39844
  21695062.960   114008379.14608  21695057.660    88837670.54745
  21518544.780   113080747.96709  21518543.860    88114912.22647
  20859426.400   109617097.16508  20859422.420    85415922.09647
  20939390.020   110037237.17409  20939387.120    85743307.77148
 15 01 17 00 56 30.0000000  0  5G12G21G25G29G31
  24529525.200   128903512.85605  24529522.480   100444305.61744
  21683560.080   113947932.00008  21683554.700    88790568.88545
  21527582.160   113128240.19009  21527581.400    88151919.13847
  20868807.140   109666394.07508  20868803.900    85454335.26247
  20937278.940   110026143.98609  20937276.140    85734663.72448
 15 01 17 00 57  0.0000000  0  5G12G21G25G29G31
  24544664.480   128983084.19606  24544665.320   100506292.91841
  21672125.260   113887841.15508  21672119.640    88743744.83445
  21536667.820   113175986.18609  21536667.100    88189123.81147
  20878221.880   109715869.76108  20878219.240    85492887.72747
  20935268.480   110015579.84909  20935265.780    85726431.92748
 15 01 17 00 57 30.0000000  0  5G12G21G25G29G31
  24559830.300   129062779.99908  24559826.680   100568392.26242
  21660762.560   113828128.59708  21660756.760    88697215.57445
  21545805.700   113224006.63009  21545805.100    88226542.33647
  20887674.240   109765543.08308  20887672.080    85531594.20847
  20933362.660   110005565.76109  20933360.120    85718628.74448
 15 01 17 00 58  0.0000000  0  5G12G21G25G29G31
  24575045.720   129142735.93908  24575042.260   100630695.56944
  21649497.760   113768930.01608  21649491.760    88651086.80745
  21555021.500   113272436.02809  21555021.040    88264279.52547
  20897189.420   109815546.55908  20897187.700    85570557.94047
  20931587.280   109996236.69909  20931584.940    85711359.33948
 15 01 17 00 58 30.0000000  0  5G12G21G25G29G31
  24590269.700   129222737.15108  24590266.120   100693034.14744
  21638290.100   113710031.98508  21638284.000    88605192.22445
  21564274.440   113321060.11409  21564274.000    88302168.41747
  20906726.220   109865664.07108  20906725.040    85609610.51147
  20929901.820   109987379.04809  20929899.500    85704457.27348
 15 01 17 00 59  0.0000000  0  5G12G21G25G29G31
  24605519.200   129302873.00208  24605515.580   100755477.65045
  21627157.000   113651526.14408  21627151.220    88559603.24246
  21573581.540   113369968.62109  21573581.060    88340278.93048
  20916301.680   109915983.79708  20916300.780    85648820.67047
  20928323.240   109979082.05909  20928320.660    85697992.09548
 15 01 17 00 59 30.0000000  0  5G12G21G25G29G31
  24620794.600   129383145.33507  24620790.900   100818027.49345
  21616099.080   113593415.78509  21616093.540    88514322.44346
  21582943.260   113419163.96709  21582942.740    88378612.94948
  20925915.960   109966506.32608  20925915.140    85688188.86647
  20926852.000   109971348.95109  20926849.120    85691966.30748
 15 01 17 01 00  0.0000000  0  5G12G21G25G29G31
  24636096.780   129463562.87005  24636093.880   100880690.37145
  21605118.200   113535710.85308  21605112.820    88469357.58346
  21592361.260   113468655.13409  21592360.840    88417177.47747
  20935570.480   110017238.86108  20935569.440    85727720.71048
  20925489.760   109964189.13109  20925486.580    85686387.21848
 15 01 17 01 00 30.0000000  0  5G12G21G25G29G31
  24651425.660   129544123.60906  24651423.600   100943464.83843
  21594214.620   113478411.78008  21594209.340    88424708.96846
  21601835.240   113518440.56809  21601834.880    88455971.31148
  20945264.380   110068178.44208  20945263.040    85767413.88848
  20924236.140   109957601.17409  20924232.720    85681253.74547
 15 01 17 01 01  0.0000000  0  5G12G21G25G29G31
