     2.11           OBSERVATION DATA    G                   RINEX VERSION / TYPE
SPIDER V4,0,0,3554                      2015 04 16 00:49    PGM / RUN BY / DATE 
CABS                                                        MARKER NAME         
CABS                                                        MARKER NUMBER       
                                                            OBSERVER / AGENCY   
462287              LEICA GRX1200PRO    8.10/2.127          REC # / TYPE / VERS 
103298              LEIAT504                                ANT # / TYPE        
  5116912.3402   671231.6412  3737143.4301                  APPROX POSITION XYZ 
        0.0600        0.0000        0.0000                  ANTENNA: DELTA H/E/N
     1     1                                                WAVELENGTH FACT L1/2
     4    C1    L1    P2    L2                              # / TYPES OF OBSERV 
    30.000                                                  INTERVAL            
  2015    02    04    00    00    0.0000000     GPS         TIME OF FIRST OBS   
  2015    02    04    23    59   30.0000000     GPS         TIME OF LAST OBS    
    16                                                      LEAP SECONDS        
    30                                                      # OF SATELLITES     
   G 1   779   779   779   779                              PRN / # OF OBS      
   G 2   941   941   941   941                              PRN / # OF OBS      
   G 3   847   847   847   847                              PRN / # OF OBS      
   G 4   832   832   832   832                              PRN / # OF OBS      
   G 5   643   643   643   643                              PRN / # OF OBS      
   G 6   818   818   818   818                              PRN / # OF OBS      
   G 7   670   670   670   670                              PRN / # OF OBS      
   G 9   808   808   808   808                              PRN / # OF OBS      
   G10   753   753   753   753                              PRN / # OF OBS      
   G11   770   770   769   769                              PRN / # OF OBS      
   G12   816   816   816   816                              PRN / # OF OBS      
   G13   792   792   792   792                              PRN / # OF OBS      
   G14   941   941   941   941                              PRN / # OF OBS      
   G15   700   700   700   700                              PRN / # OF OBS      
   G16   658   658   658   658                              PRN / # OF OBS      
   G17   941   941   941   941                              PRN / # OF OBS      
   G18   894   894   894   894                              PRN / # OF OBS      
   G19   750   750   750   750                              PRN / # OF OBS      
   G20   811   811   811   811                              PRN / # OF OBS      
   G21   743   743   743   743                              PRN / # OF OBS      
   G22   657   657   657   657                              PRN / # OF OBS      
   G23   755   755   755   755                              PRN / # OF OBS      
   G24   817   817   817   817                              PRN / # OF OBS      
   G25   856   856   856   856                              PRN / # OF OBS      
   G27   791   791   791   791                              PRN / # OF OBS      
   G28   877   877   877   877                              PRN / # OF OBS      
   G29   771   771   771   771                              PRN / # OF OBS      
   G30   684   684   684   684                              PRN / # OF OBS      
   G31   871   871   870   870                              PRN / # OF OBS      
   G32   769   769   769   769                              PRN / # OF OBS      
BIT 2 OF LLI FLAGS DATA COLLECTED UNDER A/S CONDITION       COMMENT             
SNR is mapped to RINEX snr flag value [2-9]                 COMMENT             
Lx:     = 25dBHz -> 1; 26-27dBHz -> 2; 28-31dBHz -> 3       COMMENT             
       32-35dBHz -> 4; 36-38dBHz -> 5; 39-41dBHz -> 6       COMMENT             
       42-44dBHz -> 7; 45-48dBHz -> 8; >=49dBHz -> 9        COMMENT             
                                                            END OF HEADER       
 15 02 04 00 00  0.0000000  0  4G21G25G29G31
  21400892.600   112462506.82608  21400893.360    87633152.44648
  21812000.120   114622931.49408  21812004.360    89316628.03248
  21150144.460   111144958.22408  21150146.140    86606549.87548
  20981703.720   110259598.14409  20981704.340    85916571.81449
 15 02 04 00 00 30.0000000  0  4G21G25G29G31
  21391663.180   112414006.08008  21391663.980    87595359.67048
  21823333.340   114682487.49208  21823337.460    89363035.29048
  21160655.280   111200192.92208  21160657.020    86649589.90248
  20983913.060   110271208.25109  20983913.660    85925618.64749
 15 02 04 00 01  0.0000000  0  4G21G25G29G31
  21382513.720   112365925.49308  21382514.560    87557894.28848
  21834721.900   114742334.62408  21834725.960    89409669.40048
  21171198.060   111255595.42908  21171199.800    86692760.69048
  20986229.660   110283382.01409  20986230.220    85935104.68849
 15 02 04 00 01 30.0000000  0  4G21G25G29G31
  21373445.500   112318271.66808  21373446.320    87520761.44548
  21846166.900   114802478.82008  21846170.960    89456534.99447
  21181773.660   111311170.39308  21181775.380    86736065.86748
  20988654.580   110296124.97509  20988655.100    85945034.26249
 15 02 04 00 02  0.0000000  0  4G21G25G29G31
  21364457.020   112271036.80008  21364457.820    87483955.06448
  21857666.580   114862910.35408  21857670.640    89503624.48048
  21192380.020   111366906.93308  21192381.660    86779496.93848
  20991185.940   110309427.34409  20991186.440    85955399.73449
 15 02 04 00 02 30.0000000  0  4G21G25G29G31
  21355548.560   112224222.55508  21355549.360    87447476.44548
  21869221.100   114923630.00308  21869225.160    89550938.47847
  21203017.080   111422805.05808  21203018.700    86823053.91648
  20993823.840   110323289.47009  20993824.320    85966201.38149
 15 02 04 00 03  0.0000000  0  4G21G25G29G31
  21346722.200   112177839.67308  21346722.960    87411333.95348
  21880832.300   114984647.14208  21880836.340    89598484.28448
  21213686.360   111478872.53708  21213688.000    86866742.85248
  20996569.940   110337720.42809  20996570.480    85977446.27349
 15 02 04 00 03 30.0000000  0  4G21G25G29G31
  21337977.100   112131883.96808  21337977.840    87375524.32948
  21892499.160   115045956.81308  21892503.220    89646258.04148
  21224386.800   111535103.58408  21224388.420    86910559.23048
  20999423.300   110352715.05209  20999423.900    85989130.39549
 15 02 04 00 04  0.0000000  0  4G21G25G29G31
  21329312.580   112086351.80208  21329313.320    87340044.73248
  21904220.780   115107554.21008  21904224.860    89694256.01147
  21235117.240   111591492.14608  21235118.800    86954498.37148
  21002382.960   110368268.29109  21002383.620    86001249.79649
 15 02 04 00 04 30.0000000  0  4G21G25G29G31
  21320730.780   112041254.19408  21320731.500    87304903.74148
  21915998.960   115169448.97708  21916003.080    89742485.69048
  21245879.320   111648046.88008  21245880.780    86998566.99948
  21005450.740   110384389.54209  21005451.440    86013811.81249
 15 02 04 00 05  0.0000000  0  4G21G25G29G31
  21312230.360   111996584.40108  21312231.140    87270096.11048
  21927832.300   115231633.73208  21927836.440    89790941.33147
  21256671.440   111704759.35108  21256672.780    87042758.51948
  21008625.180   110401071.07109  21008625.860    86026810.39649
 15 02 04 00 05 30.0000000  0  4G21G25G29G31
  21303812.480   111952348.16408  21303813.280    87235626.31948
  21939721.640   115294112.91708  21939725.820    89839626.38747
  21267494.180   111761632.96108  21267495.440    87087075.60148
  21011906.960   110418316.75209  21011907.620    86040248.58149
 15 02 04 00 06  0.0000000  0  4G21G25G29G31
  21295476.080   111908540.17308  21295476.900    87201490.23048
  21951665.840   115356879.99908  21951669.980    89888535.78547
  21278346.080   111818659.92808  21278347.300    87131512.19848
  21015294.800   110436119.82209  21015295.420    86054121.08649
 15 02 04 00 06 30.0000000  0  4G21G25G29G31
  21287221.360   111865161.10108  21287222.120    87167688.36448
  21963664.900   115419935.31408  21963668.940    89937669.77247
  21289226.980   111875839.50308  21289228.200    87176067.71648
  21018788.720   110454480.41709  21018789.300    86068428.03949
 15 02 04 00 07  0.0000000  0  4G21G25G29G31
  21279050.380   111822221.96108  21279051.100    87134229.30248
  21975720.540   115483287.81908  21975724.500    89987035.34147
  21300138.460   111933179.79908  21300139.680    87220748.46448
  21022390.280   110473406.79209  21022390.840    86083175.84649
 15 02 04 00 07 30.0000000  0  4G21G25G29G31
  21270961.920   111779716.49708  21270962.560    87101108.18148
  21987831.420   115546930.69708  21987835.320    90036627.17347
  21311079.060   111990673.28708  21311080.300    87265548.58148
  21026098.140   110492891.93509  21026098.720    86098359.06449
 15 02 04 00 08  0.0000000  0  4G21G25G29G31
  21262955.420   111737641.94708  21262956.000    87068322.82548
  21999996.820   115610860.06708  22000000.740    90086442.24447
  21322047.820   112048314.88808  21322049.120    87310464.11448
  21029911.560   110512931.65309  21029912.120    86113974.42249
 15 02 04 00 08 30.0000000  0  4G21G25G29G31
  21255032.780   111696008.18808  21255033.340    87035880.93848
  22012218.320   115675084.67208  22012222.360    90136487.37647
  21333046.240   112106112.38808  21333047.600    87355501.13148
  21033832.080   110533534.17709  21033832.660    86130028.32749
 15 02 04 00 09  0.0000000  0  4G21G25G29G31
  21247192.140   111654805.64108  21247192.700    87003775.06348
  22024494.000   115739594.15508  22024498.160    90186754.49247
  21344072.100   112164054.27008  21344073.560    87400650.64748
  21037857.600   110554688.54909  21037858.260    86146512.24949
 15 02 04 00 09 30.0000000  0  4G21G25G29G31
  21239434.380   111614038.77808  21239435.000    86972008.68148
  22036824.560   115804391.80608  22036828.760    90237246.16447
  21355125.880   112222142.76508  21355127.460    87445914.40148
  21041988.680   110576397.47609  21041989.380    86163428.29849
 15 02 04 00 10  0.0000000  0  5G16G21G25G29G31
  24571105.240   129122026.96106  24571108.860   100614578.97044
  21231761.380   111573717.06208  21231762.000    86940589.15848
  22049211.600   115869486.05908  22049215.800    90287968.94047
  21366209.000   112280384.93508  21366210.580    87491297.91548
  21046226.900   110598669.23309  21046227.600    86180782.90849
 15 02 04 00 10 30.0000000  0  5G16G21G25G29G31
  24553774.420   129030953.90606  24553777.040   100543612.98944
  21224167.160   111533809.19008  21224167.780    86909492.11748
  22061649.000   115934844.55708  22061653.140    90338897.62347
  21377315.360   112338748.90408  21377316.880    87536776.33648
  21050565.920   110621470.93209  21050566.660    86198550.46349
 15 02 04 00 11  0.0000000  0  5G16G21G25G29G31
  24536444.740   128939886.36405  24536446.660   100472651.27644
  21216661.260   111494365.26408  21216661.880    86878756.60748
  22074146.060   116000516.50908  22074150.100    90390070.55247
  21388453.980   112397282.31108  21388455.440    87582386.77548
  21055015.020   110644850.96009  21055015.740    86216768.66349
 15 02 04 00 11 30.0000000  0  5G16G21G25G29G31
  24519111.400   128848799.31106  24519112.900   100401674.34745
  21209238.820   111455359.88708  21209239.440    86848362.82148
  22086697.720   116066475.61508  22086701.780    90441467.24648
  21399619.640   112455957.64908  21399620.960    87628107.80948
  21059569.140   110668782.79409  21059569.800    86235416.83749
 15 02 04 00 12  0.0000000  0  5G16G21G25G29G31
  24501775.020   128757696.09805  24501776.460   100330684.84144
  21201900.340   111416795.75908  21201900.960    86818312.85748
  22099304.280   116132723.60308  22099308.460    90493089.03648
  21410812.540   112514776.19108  21410813.760    87673940.43548
  21064228.480   110693267.70709  21064229.080    86254495.98249
 15 02 04 00 12 30.0000000  0  5G16G21G25G29G31
  24484435.620   128666577.14305  24484437.100   100259683.08144
  21194645.900   111378673.21208  21194646.480    86788606.98748
  22111965.600   116199259.84608  22111969.940    90544935.45147
  21422032.360   112573736.21508  21422033.460    87719883.30948
  21068992.740   110718304.05709  21068993.320    86274004.82049
 15 02 04 00 13  0.0000000  0  5G16G21G25G29G31
  24467093.280   128575442.66805  24467094.700   100188669.20444
  21187475.460   111340992.27208  21187476.040    86759245.23548
  22124681.560   116266083.17908  22124685.980    90597005.56847
  21433278.660   112632835.92008  21433279.760    87765935.01548
  21073861.680   110743890.49609  21073862.260    86293942.29949
 15 02 04 00 13 30.0000000  0  5G16G21G25G29G31
  24449747.980   128484292.52805  24449749.240   100117643.10244
  21180388.900   111303752.33508  21180389.520    86730227.11548
  22137451.940   116333191.95008  22137456.280    90649298.10347
  21444551.000   112692072.80608  21444552.180    87812093.61148
  21078834.920   110770024.87809  21078835.460    86314306.74449
 15 02 04 00 14  0.0000000  0  5G16G21G25G29G31
  24432400.540   128393131.21805  24432401.880   100046608.34845
  21173386.880   111266956.70508  21173387.560    86701555.21248
  22150277.220   116400589.03608  22150281.440    90701815.29447
  21455849.840   112751448.99208  21455851.100    87858360.77348
  21083912.800   110796709.14709  21083913.320    86335099.67049
 15 02 04 00 14 30.0000000  0  5G16G21G25G29G31
  24415050.620   128301957.00905  24415051.900    99975563.50044
  21166469.140   111230603.86508  21166469.840    86673228.33348
  22163156.920   116468271.72008  22163160.980    90754555.02347
  21467174.440   112810960.91808  21467175.860    87904733.70748
  21089094.660   110823940.00009  21089095.240    86356318.51749
 15 02 04 00 15  0.0000000  0  5G16G21G25G29G31
  24397698.600   128210771.36606  24397699.780    99904509.75844
  21159635.900   111194694.95908  21159636.600    86645247.38048
  22176090.940   116536239.98808  22176094.920    90807517.30347
  21478524.700   112870607.55408  21478526.260    87951211.59148
  21094380.380   110851716.75309  21094381.040    86377962.73049
 15 02 04 00 15 30.0000000  0  5G16G21G25G29G31
  24380345.260   128119578.69406  24380346.320    99833450.52945
  21152887.780   111159233.29708  21152888.460    86617614.92248
  22189079.820   116604496.74508  22189083.760    90860704.36147
  21489901.080   112930390.94808  21489902.700    87997796.04348
  21099770.420   110880041.88609  21099771.180    86400034.25849
 15 02 04 00 16  0.0000000  0  5G16G21G25G29G31
  24362990.660   128028379.44806  24362991.740    99762386.19144
  21146224.740   111124218.87208  21146225.400    86590330.96948
  22202123.220   116673040.67408  22202127.320    90914115.21147
  21501303.260   112990309.47208  21501304.860    88044485.79648
  21105264.440   110908913.35309  21105265.240    86422531.50749
 15 02 04 00 16 30.0000000  0  5G16G21G25G29G31
  24345634.600   127937172.53706  24345635.840    99691315.85945
  21139646.520   111089650.37108  21139647.220    86563394.48348
  22215220.840   116741869.60808  22215225.080    90967748.12847
  21512730.640   113050360.38308  21512732.200    88091278.71248
  21110861.960   110938328.58709  21110862.760    86445452.45949
 15 02 04 00 17  0.0000000  0  5G16G21G25G29G31
  24328277.160   127845958.20106  24328278.380    99620239.74945
  21133153.000   111055526.94008  21133153.720    86536804.80548
  22228372.420   116810981.95808  22228376.800    91021601.90347
  21524182.780   113110541.28108  21524184.280    88138172.91148
  21116562.420   110968284.87209  21116563.260    86468795.00849
 15 02 04 00 17 30.0000000  0  5G16G21G25G29G31
  24310918.760   127754739.09906  24310920.020    99549159.93945
  21126744.640   111021851.04408  21126745.380    86510563.85348
  22241578.300   116880379.15808  22241582.640    91075677.62747
  21535659.640   113170852.66108  21535661.180    88185168.78848
  21122366.060   110998783.03609  21122366.840    86492559.80749
 15 02 04 00 18  0.0000000  0  5G16G21G25G29G31
  24293559.320   127663514.54706  24293560.580    99478075.87745
  21120421.220   110988621.23208  21120421.940    86484670.50748
  22254837.980   116950058.85808  22254842.180    91129973.48247
  21547160.700   113231291.32008  21547162.240    88232263.83348
  21128272.260   111029820.04009  21128272.980    86516744.47749
 15 02 04 00 18 30.0000000  0  5G16G21G25G29G31
  24276199.600   127572288.85206  24276200.980    99406990.96145
  21114183.260   110955840.67508  21114184.000    86459127.22248
  22268151.840   117020023.45708  22268155.960    91184491.32347
  21558686.400   113291859.44508  21558687.900    88279459.76848
  21134281.320   111061397.66909  21134282.020    86541350.41549
 15 02 04 00 19  0.0000000  0  5G16G21G25G29G31
  24258839.900   127481063.13906  24258841.360    99335906.02145
  21108030.980   110923510.37308  21108031.760    86433934.78349
  22281519.880   117090273.14408  22281523.960    91239231.31947
  21570236.620   113352556.43208  21570238.100    88326756.11548
  21140393.140   111093515.40809  21140393.840    86566377.21949
 15 02 04 00 19 30.0000000  0  5G16G21G25G29G31
  24241480.040   127389836.65406  24241481.480    99264820.46444
  21101964.200   110891629.01008  21101964.940    86409092.17549
  22294941.720   117160805.48608  22294945.780    91294191.56547
  21581810.780   113413379.12708  21581812.280    88374150.40748
  21146607.140   111126170.07209  21146607.860    86591822.40649
 15 02 04 00 20  0.0000000  0  5G16G21G25G29G31
  24224120.500   127298612.12605  24224121.940    99193736.43246
  21095983.080   110860198.01508  21095983.800    86384600.50748
  22308417.460   117231621.27008  22308421.640    91349372.67247
  21593409.000   113474327.90608  21593410.460    88421642.96048
  21152923.260   111159361.53809  21152924.040    86617685.88049
 15 02 04 00 20 30.0000000  0  5G16G21G25G29G31
  24206761.020   127207387.82106  24206762.440    99122652.57945
  21090087.160   110829214.85208  21090087.900    86360457.78948
  22321946.540   117302717.23608  22321950.860    91404772.11047
  21605030.500   113535398.91208  21605031.920    88469230.75248
  21159340.720   111193085.64709  21159341.560    86643964.40449
 15 02 04 00 21  0.0000000  0  5G16G21G25G29G31
  24189401.900   127116165.58906  24189403.340    99051570.35145
  21084276.680   110798680.68108  21084277.400    86336664.94148
  22335529.120   117374093.70508  22335533.460    91460390.12647
  21616675.140   113596591.85508  21616676.540    88516913.56548
  21165859.500   111227342.03809  21165860.360    86670657.69649
 15 02 04 00 21 30.0000000  0  5G16G21G25G29G31
  24172043.340   127024945.76206  24172044.760    98980489.98945
  21078551.500   110768594.87208  21078552.260    86313221.45549
  22349164.880   117445749.29308  22349169.140    91516225.64947
  21628342.560   113657904.51908  21628343.960    88564689.66148
  21172479.160   111262128.49909  21172480.040    86697764.01949
 15 02 04 00 22  0.0000000  0  5G16G21G25G29G31
  24154686.260   126933733.18606  24154687.500    98909415.27144
  21072912.580   110738962.15308  21072913.380    86290131.02749
  22362854.340   117517687.29408  22362858.480    91572281.23047
  21640033.280   113719339.88308  21640034.780    88612561.35348
  21179200.220   111297447.69809  21179201.060    86725285.46649
 15 02 04 00 22 30.0000000  0  5G16G21G25G29G31
  24137330.560   126842527.69706  24137331.640    98838346.06145
  21067359.500   110709780.45508  21067360.300    86267392.05049
  22376597.020   117589905.49908  22376601.020    91628555.14847
  21651746.840   113780895.15608  21651748.420    88660526.49648
  21186022.020   111333296.37009  21186022.800    86753219.48449
 15 02 04 00 23  0.0000000  0  5G16G21G25G29G31
  24119976.520   126751331.13106  24119977.580    98767283.80144
  21061892.520   110681051.25208  21061893.300    86245005.66649
  22390393.080   117662404.41508  22390396.960    91685047.80247
  21663483.280   113842570.53808  21663484.880    88708585.23448
  21192944.540   111369674.31409  21192945.260    86781565.91749
 15 02 04 00 23 30.0000000  0  5G16G21G25G29G31
  24102624.260   126660144.20306  24102625.320    98696229.04245
  21056511.600   110652774.39008  21056512.380    86222971.74949
  22404242.320   117735183.02008  22404246.200    91741758.38247
  21675242.260   113904364.39508  21675243.840    88756736.27348
  21199967.380   111406579.63709  21199968.080    86810323.30649
 15 02 04 00 24  0.0000000  0  5G16G21G25G29G31
  24085273.900   126568967.36906  24085274.980    98625182.17545
  21051216.560   110624948.81708  21051217.320    86201289.49949
  22418144.460   117808239.65308  22418148.420    91798685.60447
  21687023.340   113966274.51708  21687024.940    88804977.92448
  21207090.040   111444009.66709  21207090.780    86839489.56249
 15 02 04 00 24 30.0000000  0  5G16G21G25G29G31
  24067925.420   126477800.66006  24067926.560    98554143.18944
  21046007.200   110597573.64808  21046007.960    86179958.20649
  22432099.340   117881572.80908  22432103.340    91855828.30247
  21698826.140   114028298.88908  21698827.780    88853308.59748
  21214312.080   111481962.11209  21214312.880    86869062.88949
 15 02 04 00 25  0.0000000  0  5G16G21G25G29G31
  24050579.380   126386646.53606  24050580.540    98483113.99745
  21040883.920   110570650.79008  21040884.680    86158979.36249
  22446107.040   117955183.19408  22446111.120    91913187.02747
  21710650.760   114090437.83908  21710652.400    88901728.55248
  21221633.540   111520436.79609  21221634.380    86899043.15449
 15 02 04 00 25 30.0000000  0  5G16G21G25G29G31
  24033236.140   126295507.25006  24033237.340    98412096.40044
  21035846.960   110544181.36808  21035847.700    86138353.85148
  22460167.580   118029071.27308  22460171.760    91970762.14847
  21722497.140   114152691.15408  21722498.800    88950237.62148
  21229054.300   111559433.22109  21229055.180    86929429.96949
 15 02 04 00 26  0.0000000  0  5G16G21G25G29G31
  24015898.920   126204399.48906  24015900.180    98341103.34445
  21030899.280   110518180.89208  21030899.920    86118093.74649
  22474283.700   118103251.67208  22474288.040    92028565.04447
  21734368.140   114215073.43808  21734369.780    88998847.18948
  21236577.020   111598965.36609  21236577.900    86960234.22948
 15 02 04 00 26 30.0000000  0  6G16G18G21G25G29G31
  23998561.580   126113291.17006  23998562.860    98270109.84345
  24492408.020   128708472.89805  24492411.860   100292327.15144
  21026034.600   110492616.59008  21026035.180    86098173.51749
  22488448.980   118177690.63408  22488453.420    92086569.41647
  21746257.240   114277550.63108  21746258.820    89047530.71248
  21244195.040   111638998.10809  21244195.880    86991428.55748
 15 02 04 00 27  0.0000000  0  6G16G18G21G25G29G31
  23981227.820   126022201.62306  23981229.120    98199130.97345
  24477330.620   128629241.24405  24477334.920   100230588.52843
  21021255.940   110467504.24408  21021256.480    86078605.46749
  22502666.620   118252405.25908  22502671.100    92144788.59047
  21758167.540   114340139.30708  21758169.060    89096301.10448
  21251911.460   111679547.80609  21251912.260    87023025.72048
 15 02 04 00 27 30.0000000  0  6G16G18G21G25G29G31
  23963898.180   125931134.01806  23963899.420    98128169.20744
  24462242.200   128549951.16905  24462246.600   100168804.35941
  21016564.160   110442848.58208  21016564.680    86059393.26949
  22516937.060   118327397.41407  22516941.480    92203224.03147
  21770099.300   114402840.86108  21770100.780    89145159.45048
  21259726.380   111720615.22309  21259727.120    87055026.29849
 15 02 04 00 28  0.0000000  0  6G16G18G21G25G29G31
  23946572.280   125840085.85706  23946573.460    98057222.59045
  24447142.260   128470601.41605  24447146.300   100106973.65941
  21011958.460   110418645.46808  21011959.000    86040533.70449
  22531259.480   118402662.68307  22531263.860    92261872.27647
  21782051.700   114465650.59008  21782053.060    89194102.07548
  21267638.800   111762195.13109  21267639.520    87087426.21749
 15 02 04 00 28 30.0000000  0  6G16G18G21G25G29G31
  23929250.520   125749059.35706  23929251.580    97986292.87045
  24432031.480   128391195.27605  24432035.620   100045099.01544
  21007438.800   110394894.60708  21007439.380    86022026.54849
  22545633.960   118478201.23208  22545638.300    92320733.46747
  21794024.600   114528568.13108  21794025.900    89243128.72948
  21275648.540   111804286.56509  21275649.260    87120224.73049
 15 02 04 00 29  0.0000000  0  6G16G18G21G25G29G31
  23911933.080   125658055.30107  23911933.940    97915380.61344
  24416910.520   128311734.29405  24416914.540    99983181.66244
  21003005.480   110371597.51108  21003006.060    86003872.97149
  22560060.300   118554011.76607  22560064.540    92379806.59847
  21806017.740   114591592.07108  21806019.020    89292238.29048
  21283755.200   111846887.45809  21283755.960    87153420.22448
 15 02 04 00 29 30.0000000  0  6G16G18G21G25G29G31
  23894620.400   125567076.32006  23894621.100    97844487.91245
  24401779.680   128232222.10505  24401783.540    99921224.37844
  20998658.420   110348753.77208  20998659.020    85986072.65949
  22574538.540   118630094.99507  22574542.760    92439092.21147
  21818031.180   114654723.02408  21818032.480    89341431.23348
  21291958.740   111889997.32809  21291959.500    87187012.32248
 15 02 04 00 30  0.0000000  0  6G16G18G21G25G29G31
  23877312.320   125476121.70406  23877312.920    97773614.19644
  24386639.660   128152659.72805  24386643.080    99859227.94144
  20994397.500   110326362.67308  20994398.120    85968625.06149
  22589068.100   118706448.29007  22589072.400    92498588.27047
  21830064.320   114717957.85208  21830065.680    89390705.12048
  21300258.500   111933612.79609  21300259.240    87220998.39448
 15 02 04 00 30 30.0000000  0  6G16G18G21G25G29G31
  23860010.060   125385198.03406  23860010.720    97702764.61845
  24371491.140   128073054.31705  24371494.360    99797198.03245
  20990223.560   110304428.73308  20990224.180    85951533.68549
  22603649.820   118783076.40007  22603654.340    92558298.47847
  21842117.960   114781300.89008  21842119.440    89440063.31148
  21308655.160   111977737.50009  21308655.880    87255381.26848
 15 02 04 00 31  0.0000000  0  6G16G18G21G25G29G31
  23842712.880   125294301.21006  23842713.660    97631935.93245
  24356334.120   127993403.28505  24356336.920    99735132.49744
  20986135.620   110282946.70508  20986136.220    85934794.45149
  22618282.640   118859973.17907  22618287.380    92618218.04647
  21854191.000   114844745.91608  21854192.580    89489500.98448
  21317147.320   112022364.13909  21317148.000    87290155.26048
 15 02 04 00 31 30.0000000  0  6G16G18G21G25G29G31
  23825421.540   125203434.95706  23825422.440    97561131.07044
  24341169.120   127913710.68805  24341171.880    99673034.65243
  20982134.140   110261918.82508  20982134.700    85918409.10749
  22632966.820   118937140.02807  22632971.680    92678348.04947
  21866283.820   114908294.29008  21866285.420    89539019.19748
  21325735.040   112067493.18009  21325735.780    87325320.74148
 15 02 04 00 32  0.0000000  0  6G16G18G21G25G29G31
  23808136.180   125112599.90106  23808137.120    97490350.49245
  24325996.720   127833979.22705  24325999.180    99610906.43745
  20978218.880   110241343.97608  20978219.420    85902376.76749
  22647702.220   119014575.77107  22647707.120    92738687.57947
  21878396.100   114971944.36508  21878397.600    89588616.64848
  21334417.920   112113122.09109  21334418.680    87360875.72648
 15 02 04 00 32 30.0000000  0  6G16G18G21G25G29G31
  23790857.260   125021798.59806  23790858.160    97419596.21144
  24310817.440   127754212.42105  24310819.800    99548750.75743
  20974390.280   110221224.52908  20974390.800    85886699.29049
  22662489.000   119092280.92207  22662493.780    92799237.01946
  21890527.880   115035696.67108  21890529.240    89638293.75548
  21343195.840   112159250.44509  21343196.640    87396819.88848
 15 02 04 00 33  0.0000000  0  6G16G18G21G25G29G31
  23773584.720   124931030.57707  23773585.640    97348867.89844
  24295631.560   127674410.57706  24295633.780    99486567.73943
  20970647.700   110201557.19608  20970648.220    85871374.09849
  22677326.720   119170252.78607  22677331.160    92859994.28546
  21902678.480   115099548.29208  21902679.800    89688048.24548
  21352068.120   112205874.53609  21352068.940    87433150.34248
 15 02 04 00 33 30.0000000  0  6G16G18G21G25G29G31
  23756319.020   124840298.87907  23756320.040    97278167.86845
  24280439.680   127594577.38606  24280441.820    99424360.26944
  20966991.460   110182343.61208  20966992.000    85856402.47849
  22692215.420   119248492.07707  22692219.480    92920959.93046
  21914848.020   115163499.43608  21914849.320    89737880.28648
  21361034.720   112252994.15309  21361035.560    87469866.91748
 15 02 04 00 34  0.0000000  0  6G16G18G21G25G29G31
  23739060.580   124749605.14706  23739061.760    97207497.43345
  24265242.460   127514716.72306  24265244.480    99362131.35143
  20963421.800   110163585.06408  20963422.340    85841785.43049
  22707155.000   119326999.01507  22707158.820    92982134.13647
  21927036.480   115227550.22008  21927037.780    89787789.96648
  21370095.420   112300608.29809  21370096.260    87506968.84048
 15 02 04 00 34 30.0000000  0  6G16G18G21G25G29G31
  23721809.480   124658949.70206  23721810.680    97136856.83545
  24250040.080   127434829.17406  24250042.020    99299881.53844
  20959938.460   110145279.85008  20959938.960    85827521.64049
  22722145.000   119405771.54207  22722148.820    93043515.31446
  21939243.560   115291699.09808  21939244.940    89837776.08848
  21379249.540   112348713.43608  21379250.400    87544453.35148
 15 02 04 00 35  0.0000000  0  6G16G18G21G25G29G31
  23704566.260   124568335.59406  23704567.500    97066248.43045
  24234833.260   127354918.70306  24234835.580    99237613.87844
  20956541.520   110127428.75208  20956542.000    85813611.70249
  22737185.500   119484810.08707  22737189.580    93105103.78046
  21951469.300   115355946.00508  21951470.760    89887838.60347
  21388497.020   112397309.30608  21388497.880    87582320.25848
 15 02 04 00 35 30.0000000  0  6G16G18G21G25G29G31
  23687330.640   124477761.77606  23687331.900    96995671.43545
  24219622.300   127274985.89906  24219624.740    99175328.74443
  20953230.660   110110029.96208  20953231.140    85800054.20049
  22752276.060   119564111.74907  22752280.420    93166897.27046
  21963713.060   115420287.54308  21963714.580    89937974.86048
  21397837.100   112446391.98608  21397837.980    87620566.50348
 15 02 04 00 36  0.0000000  0  6G16G18G21G25G29G31
  23670103.380   124387232.07906  23670104.640    96925128.82345
  24204407.940   127195035.13206  24204410.400    99113029.57844
  20950006.220   110093085.31108  20950006.700    85786850.58149
  22767417.060   119643678.12807  22767421.600    93228897.04647
  21975975.260   115484725.82108  21975976.780    89988186.50348
  21407269.840   112495961.59809  21407270.720    87659192.17048
 15 02 04 00 36 30.0000000  0  6G16G18G21G25G29G31
  23652884.620   124296747.18106  23652885.760    96854621.11644
  24189190.600   127115068.91105  24189193.480    99050718.39943
  20946868.080   110076594.21908  20946868.560    85774000.37149
  22782608.300   119723508.15207  22782612.860    93291102.23547
  21988255.560   115549259.40308  21988257.120    90038472.41348
  21416794.920   112546016.09208  21416795.760    87698195.66848
 15 02 04 00 37  0.0000000  0  6G16G18G21G25G29G31
  23635674.320   124206306.73606  23635675.320    96784148.04244
  24173970.500   127035087.85106  24173973.520    98988395.70244
  20943815.680   110060553.50708  20943816.140    85761501.10149
  22797849.200   119803598.87007  22797853.620    93353510.56946
  22000553.400   115613885.29108  22000555.020    90088830.23848
  21426411.520   112596551.32708  21426412.300    87737573.76948
 15 02 04 00 37 30.0000000  0  6G16G18G21G25G29G31
  23618473.220   124115914.38206  23618474.100    96713712.45645
  24158748.300   126955096.07506  24158751.240    98926064.56445
  20940849.620   110044966.45708  20940850.040    85749355.34049
  22813140.020   119883951.66307  22813144.200    93416123.10646
  22012869.140   115678604.75508  22012870.760    90139260.97047
  21436119.600   112647567.31409  21436120.320    87777326.47648
 15 02 04 00 38  0.0000000  0  6G16G18G21G25G29G31
  23601281.420   124025571.11806  23601282.260    96643315.11245
  24143524.540   126875095.58506  24143527.600    98863726.66843
  20937969.720   110029832.34608  20937970.120    85737562.54049
  22828480.320   119964565.22107  22828484.340    93478938.83546
  22025202.480   115743416.63708  22025204.060    90189763.72948
  21445918.720   112699061.92409  21445919.440    87817452.14448
 15 02 04 00 38 30.0000000  0  6G16G18G21G25G29G31
  23584099.280   123935278.53906  23584100.120    96572957.26045
  24128299.560   126795089.83005  24128302.800    98801384.67244
  20935175.840   110015150.45508  20935176.220    85726122.10849
  22843870.000   120045439.07907  22843873.980    93541957.39946
  22037553.320   115808320.37408  22037554.840    90240338.06447
  21455808.500   112751033.10008  21455809.240    87857949.16048
 15 02 04 00 39  0.0000000  0  6G16G18G21G25G29G31
  23566926.980   123845037.62506  23566927.860    96502639.69144
  24113074.120   126715080.16006  24113077.380    98739039.59644
  20932467.840   110000920.06008  20932468.240    85715033.49149
  22859308.800   120126571.69007  22859312.940    93605177.59046
  22049921.360   115873314.33408  22049922.800    90290982.70047
  21465788.520   112803478.33308  21465789.260    87898815.57248
 15 02 04 00 39 30.0000000  0  6G16G18G21G25G29G31
  23549764.860   123754850.23106  23549765.760    96432363.81044
  24097848.440   126635069.51206  24097851.780    98676693.80244
  20929845.780   109987141.47008  20929846.240    85704296.91549
  22874796.720   120207962.55707  22874801.060    93668599.02746
  22062306.500   115938398.50608  22062307.920    90341697.62247
  21475858.460   112856396.29908  21475859.240    87940050.34248
 15 02 04 00 40  0.0000000  0  6G16G18G21G25G29G31
  23532612.680   123664714.88706  23532613.660    96362128.47545
  24082622.780   126555057.52406  24082625.820    98614346.88544
  20927308.980   109973810.88008  20927309.500    85693909.43849
  22890333.220   120289608.09807  22890337.760    93732218.90946
  22074708.000   116003568.79608  22074709.380    90392479.66947
  21486017.300   112909781.59508  21486018.140    87981649.26548
 15 02 04 00 40 30.0000000  0  6G16G18G21G25G29G31
  23515471.840   123574638.83707  23515472.840    96291939.37045
  24067398.340   126475052.53405  24067401.300    98552005.47344
  20924858.640   109960934.47208  20924859.200    85683875.89149
  22905919.260   120371513.24107  22905923.920    93796041.08646
  22087126.900   116068830.51208  22087128.220    90443332.96447
  21496265.800   112963637.90208  21496266.680    88023615.20548
 15 02 04 00 41  0.0000000  0  6G16G18G21G25G29G31
  23498341.540   123484618.33506  23498342.460    96221793.52045
  24052175.040   126395052.19906  24052177.540    98489667.66544
  20922493.660   109948506.31608  20922494.220    85674191.62049
  22921553.640   120453671.85807  22921558.320    93860060.76946
  22099562.040   116134177.68408  22099563.380    90494252.83548
  21506602.560   113017958.07608  21506603.460    88065942.60148
 15 02 04 00 41 30.0000000  0  6G16G18G21G25G29G31
  23481222.980   123394659.68406  23481223.900    96151695.88445
  24036953.840   126315063.40706  24036955.900    98427338.85745
  20920214.860   109936530.74708  20920215.360    85664860.00849
  22937237.020   120536087.85907  22937241.680    93924281.01746
  22112014.140   116199613.94108  22112015.500    90545242.11947
  21517028.160   113072744.95308  21517029.060    88108633.66848
 15 02 04 00 42  0.0000000  0  7G16G18G21G25G27G29G31
  23464116.980   123304767.37106  23464117.960    96081649.95845
  24021736.020   126235091.87806  24021737.780    98365023.47444
  20918022.700   109925010.38208  20918023.120    85655883.11349
  22952969.720   120618763.23807  22952974.340    93988703.38446
  24625325.880   129406963.78905  24625328.840   100836613.92044
  22124483.600   116265141.76808  22124485.040    90596302.75047
  21527542.680   113127999.01008  21527543.540    88151688.76748
 15 02 04 00 42 30.0000000  0  7G16G18G21G25G27G29G31
  23447021.160   123214928.74006  23447022.260    96011645.82645
  24006519.000   126155125.49606  24006520.500    98302712.10844
  20915914.360   109913930.65508  20915914.740    85647249.55749
  22968748.920   120701682.93907  22968753.420    94053316.12046
  24610535.420   129329237.78105  24610538.760   100776048.27243
  22136967.720   116330746.24108  22136969.120    90647423.11647
  21538143.040   113183704.20208  21538143.900    88195095.40148
 15 02 04 00 43  0.0000000  0  7G16G18G21G25G27G29G31
  23429938.300   123125157.75707  23429939.460    95941694.41945
  23991305.820   126075179.34606  23991307.200    98240416.50544
  20913892.040   109903303.25208  20913892.460    85638968.46249
  22984576.760   120784858.41907  22984581.120    94118128.16446
  24595761.720   129251600.53605  24595765.120   100715551.77044
  22149468.560   116396438.57208  22149469.960    90698611.93747
  21548831.180   113239870.52808  21548832.020    88238861.36448
 15 02 04 00 43 30.0000000  0  7G16G18G21G25G27G29G31
  23412868.280   123035454.10207  23412869.400    95871795.47245
  23976096.500   125995254.41106  23976097.700    98178137.40044
  20911955.340   109893126.05608  20911955.820    85631038.19349
  23000452.700   120868286.94207  23000456.940    94183137.38046
  24581004.380   129174050.01505  24581007.980   100655122.83645
  22161985.700   116462216.40508  22161987.100    90749867.38247
  21559606.280   113296493.98208  21559607.120    88282983.52348
 15 02 04 00 44  0.0000000  0  7G16G18G21G25G27G29G31
  23395811.320   122945819.12007  23395812.420    95801950.05145
  23960891.500   125915353.05006  23960892.840    98115876.68344
  20910104.180   109883398.39408  20910104.680    85623458.20549
  23016376.600   120951967.55107  23016380.660    94248343.02546
  24566263.380   129096586.13605  24566267.240   100594761.41744
  22174518.960   116528078.85508  22174520.300    90801188.75347
  21570467.960   113353572.32708  21570468.780    88327460.14248
 15 02 04 00 44 30.0000000  0  6G16G18G21G25G29G31
  23378767.580   122856253.47507  23378768.640    95732158.66445
  23945691.120   125835476.72606  23945692.560    98053635.47544
  20908338.300   109874119.06008  20908338.840    85616227.55649
  23032348.160   121035898.19807  23032351.980    94313743.51446
  22187068.020   116594024.46908  22187069.320    90852574.93547
  21581415.560   113411102.42708  21581416.400    88372288.77748
 15 02 04 00 45  0.0000000  0  7G16G18G21G25G27G29G31
  23361737.260   122766758.49707  23361738.280    95662422.33944
  23930496.060   125755627.83606  23930497.500    97991415.62744
  20906657.580   109865287.26708  20906658.180    85609345.62649
  23048367.100   121120077.82807  23048370.760    94379338.01746
  24536829.980   128941909.97105  24536834.340   100474233.49745
  22199632.740   116660052.26608  22199633.960    90904025.14247
  21592448.660   113469081.69908  21592449.500    88417467.42248
 15 02 04 00 45 30.0000000  0  6G16G18G21G25G29G31
  23344720.640   122677335.45807  23344721.640    95592742.05745
  23915306.760   125675808.71106  23915308.240    97929218.98244
  20905061.940   109856902.28508  20905062.520    85602811.89049
  23064433.160   121204505.38507  23064436.860    94445125.70246
  22212212.800   116726160.90108  22212213.960    90955538.35447
  21603566.840   113527508.07608  21603567.720    88462994.46548
 15 02 04 00 46  0.0000000  0  7G16G18G21G25G27G29G31
  23327718.400   122587987.99507  23327719.340    95523120.67745
  23900123.980   125596023.18106  23900125.480    97867048.54145
  20903551.600   109848965.27108  20903552.140    85596627.22349
  23080546.540   121289181.58807  23080550.420    94511107.14146
  24507462.300   128787573.27105  24507467.220   100353992.41444
  22224808.420   116792351.55708  22224809.600    91007115.46847
  21614769.960   113586380.63808  21614770.820    88508869.18448
 15 02 04 00 46 30.0000000  0  7G16G18G21G25G27G29G31
  23310730.360   122498715.73307  23310731.280    95453557.89245
  23884948.000   125516272.89706  23884949.340    97804905.55344
  20902126.020   109841473.81308  20902126.540    85590789.72549
  23096706.700   121374103.72807  23096710.740    94577280.23446
  24492802.880   128710537.27005  24492807.680   100293964.40345
  22237419.280   116858622.11308  22237420.500    91058754.85847
  21626057.200   113645695.44808  21626058.080    88555088.51948
 15 02 04 00 47  0.0000000  0  7G16G18G21G25G27G29G31
  23293757.020   122409520.67607  23293757.940    95384055.26745
  23869779.220   125436560.54606  23869780.620    97742792.08844
  20900785.260   109834428.01108  20900785.760    85585299.49449
  23112913.540   121459271.27907  23112917.700    94643644.55146
  24478159.620   128633586.67205  24478164.360   100234002.93644
  22250045.180   116924971.96508  22250046.480    91110456.03947
  21637428.260   113705450.82108  21637429.120    88601651.13748
 15 02 04 00 47 30.0000000  0  7G16G18G21G25G27G29G31
  23276798.680   122320404.09307  23276799.660    95314613.80446
  23854618.180   125356888.24406  23854619.560    97680709.86544
  20899529.040   109827826.54908  20899529.540    85580155.48749
  23129166.780   121544682.78907  23129171.020    94710198.96046
  24463532.460   128556720.98905  24463537.260   100174107.67545
  22262686.040   116991400.38208  22262687.400    91162218.43647
  21648882.580   113765643.71108  21648883.420    88648554.68148
 15 02 04 00 48  0.0000000  0  7G16G18G21G25G27G29G31
  23259855.960   122231369.48807  23259857.000    95245236.20845
  23839465.500   125277260.51007  23839466.900    97618662.33344
  20898357.760   109821671.45208  20898358.260    85575359.30849
  23145466.620   121630339.24407  23145470.920    94776944.22946
  24448921.840   128479942.06005  24448926.620   100114279.96545
  22275342.100   117057908.47308  22275343.520    91214042.91347
  21660420.100   113826273.83808  21660420.920    88695798.92248
 15 02 04 00 48 30.0000000  0  7G16G18G21G25G27G29G31
  23242928.800   122142417.00807  23242929.960    95175922.60045
  23824321.440   125197678.33706  23824322.980    97556650.30944
  20897270.900   109815959.99608  20897271.400    85570908.82749
  23161812.580   121716238.20907  23161816.860    94843878.46346
  24434327.440   128403248.26505  24434332.200   100054518.62545
  22288012.880   117124493.90308  22288014.340    91265927.65347
  21672040.100   113887337.38908  21672040.880    88743380.90648
 15 02 04 00 49  0.0000000  0  7G16G18G21G25G27G29G31
  23226017.660   122053548.45207  23226018.860    95106674.39345
  23809186.640   125118144.51506  23809188.220    97494675.92944
  20896268.360   109810691.64908  20896268.860    85566803.63049
  23178204.440   121802378.76407  23178208.720    94911000.94746
  24419749.320   128326639.83205  24419753.840    99994823.81245
  22300698.260   117191156.10908  22300699.760    91317872.21347
  21683742.180   113948832.24208  21683742.960    88791298.95948
 15 02 04 00 49 30.0000000  0  7G16G18G21G25G27G29G31
  23209123.000   121964766.35107  23209124.140    95037493.56645
  23794061.620   125038662.48206  23794063.400    97432741.92544
  20895350.300   109805867.34608  20895350.820    85563044.44849
  23194642.260   121888760.83707  23194646.560    94978311.63146
  24405187.600   128250117.54505  24405191.980    99935196.10945
  22313398.360   117257895.53008  22313399.880    91369876.93647
  21695526.060   114010757.06808  21695526.880    88839552.05748
 15 02 04 00 50  0.0000000  0  7G16G18G21G25G27G29G31
  23192244.800   121876070.79607  23192245.880    94968380.16645
  23778946.700   124959233.32006  23778948.540    97370849.11844
  20894516.220   109801484.30208  20894516.780    85559629.09049
  23211125.640   121975381.70407  23211129.900    95045808.40446
  24390642.040   128173679.58605  24390646.240    99875634.14745
  22326112.680   117324709.53508  22326114.180    91421939.77947
  21707390.960   114073107.58608  21707391.820    88888136.87048
 15 02 04 00 50 30.0000000  0  7G16G18G21G25G27G29G31
  23175383.800   121787465.50107  23175384.780    94899337.09045
  23763842.680   124879861.28806  23763844.660    97309000.87645
  20893766.340   109797543.66608  20893766.920    85556558.47949
  23227654.680   122062242.24107  23227658.920    95113491.91945
  24376112.820   128097327.79905  24376116.820    99816139.27145
  22338841.540   117391599.74908  22338842.920    91474062.00347
  21719336.780   114135883.33008  21719337.700    88937053.02948
 15 02 04 00 51  0.0000000  0  7G16G18G21G25G27G29G31
  23158539.900   121698950.26707  23158540.820    94830364.20045
  23748749.900   124800547.59406  23748751.760    97247198.03745
  20893100.340   109794043.75008  20893100.920    85553831.29649
  23244229.000   122149340.19707  23244233.100    95181360.44845
  24361599.660   128021060.92005  24361603.500    99756710.63845
  22351584.480   117458564.00408  22351585.740    91526241.92547
  21731362.820   114199080.67808  21731363.780    88986297.70548
 15 02 04 00 51 30.0000000  0  7G16G18G21G25G27G29G31
  23141713.940   121610529.18207  23141714.760    94761464.65645
  23733669.140   124721297.02706  23733670.920    97185444.44645
  20892518.420   109790985.73908  20892519.000    85551448.44149
  23260848.660   122236676.40907  23260852.660    95249414.62646
  24347102.980   127944880.79105  24347106.700    99697349.55444
  22364341.680   117525603.42208  22364342.900    91578480.42447
  21743469.000   114262699.03908  21743469.960    89035870.44848
 15 02 04 00 52  0.0000000  0  7G16G18G21G25G27G29G31
  23124906.060   121522203.56307  23124906.880    94692639.51045
  23718600.760   124642111.76406  23718602.440    97123741.67144
  20892020.380   109788368.37208  20892020.920    85549408.93649
  23277513.360   122324249.44907  23277517.340    95317653.33746
  24332622.620   127868786.95005  24332626.460    99638055.72244
  22377113.060   117592717.63708  22377114.320    91630777.20347
  21755654.780   114326735.75808  21755655.700    89085769.17648
 15 02 04 00 52 30.0000000  0  7G16G18G21G25G27G29G31
  23108116.300   121433972.82007  23108117.020    94623888.28645
  23703544.760   124562992.25306  23703546.480    97062090.16745
  20891605.560   109786188.52508  20891606.120    85547710.35049
  23294222.520   122412056.10807  23294226.500    95386074.09946
  24318158.340   127792777.16905  24318162.300    99578827.38445
  22389898.040   117659903.31008  22389899.380    91683129.66147
  21767919.300   114391186.06508  21767920.140    89135990.18848
 15 02 04 00 53  0.0000000  0  7G16G18G21G25G27G29G31
  23091345.560   121345841.87407  23091346.220    94555214.83645
  23688502.200   124483943.85206  23688503.980    97000494.05145
  20891274.500   109784448.89308  20891275.060    85546354.78449
  23310976.420   122500098.20707  23310980.500    95454678.31446
  24303710.640   127716854.29705  24303714.780    99519666.80745
  22402697.100   117727162.90108  22402698.540    91735539.72447
  21780262.640   114456050.51808  21780263.440    89186533.90148
 15 02 04 00 53 30.0000000  0  7G16G18G21G25G27G29G31
  23074593.940   121257811.42707  23074594.580    94486619.68145
  23673473.320   124404968.43806  23673475.340    96938954.82745
  20891026.960   109783148.19808  20891027.540    85545341.26249
  23327774.700   122588374.21607  23327779.000    95523464.80346
  24289279.360   127641017.74505  24289283.660    99460573.47046
  22415510.020   117794495.47808  22415511.560    91788006.64547
  21792684.200   114521326.08508  21792685.000    89237397.96948
 15 02 04 00 54  0.0000000  0  7G16G18G21G25G27G29G31
  23057861.720   121169882.93107  23057862.360    94418103.97346
  23658458.840   124326068.47906  23658460.840    96877474.36844
  20890862.680   109782284.94008  20890863.220    85544668.60449
  23344617.180   122676882.41706  23344621.580    95592432.21146
  24274864.360   127565266.72205  24274868.900    99401546.72545
  22428336.640   117861899.73508  22428338.220    91840529.42347
  21805183.420   114587009.71708  21805184.240    89288580.01248
 15 02 04 00 54 30.0000000  0  7G16G18G21G25G27G29G31
  23041149.020   121082057.26307  23041149.780    94349668.39646
  23643459.140   124247245.80306  23643461.260    96816054.14844
  20890781.320   109781857.38508  20890781.820    85544335.44449
  23361503.440   122765621.13206  23361508.020    95661579.22945
  24260465.540   127489600.65105  24260470.200    99342586.18545
  22441176.600   117929374.19008  22441178.200    91893106.92147
  21817759.720   114653098.41408  21817760.580    89340077.69248
 15 02 04 00 55  0.0000000  0  7G16G18G21G25G27G29G31
  23024456.460   120994337.47507  23024457.360    94281315.33746
  23628474.840   124168503.78206  23628477.000    96754696.76244
  20890783.100   109781866.34808  20890783.480    85544342.42349
  23378433.580   122854590.36706  23378438.300    95730905.87946
  24246083.040   127414020.58205  24246087.680    99283692.66446
  22454030.100   117996919.79708  22454031.680    91945739.85947
  21830412.780   114719590.56708  21830413.660    89391889.75148
 15 02 04 00 55 30.0000000  0  7G16G18G21G25G27G29G31
  23007784.220   120906724.70207  23007785.280    94213045.66046
  23613506.360   124089844.71106  23613508.460    96693404.02245
  20890867.640   109782310.30108  20890867.980    85544688.36549
  23395407.400   122943788.30106  23395411.960    95800410.75645
  24231716.700   127338525.73805  24231721.320    99224865.55245
  22466896.860   118064535.27408  22466898.460    91998427.23647
  21843142.040   114786483.21508  21843142.920    89444013.88548
 15 02 04 00 56  0.0000000  0  7G16G18G21G25G27G29G31
  22991132.620   120819219.96107  22991133.780    94144860.15646
  23598554.180   124011270.66106  23598556.180    96632177.51544
  20891034.600   109783187.54308  20891034.920    85545371.91849
  23412424.480   123033213.11106  23412428.800    95870092.40845
  24217366.480   127263115.35205  24217371.060    99166104.25545
  22479776.560   118132218.70908  22479778.200    92051167.54247
  21855946.800   114853772.86408  21855947.680    89496447.36848
 15 02 04 00 56 30.0000000  0  7G16G18G21G25G27G29G31
  22974501.940   120731824.95307  22974503.140    94076760.16246
  23583618.720   123932784.06106  23583620.600    96571019.16944
  20891283.800   109784497.16608  20891284.160    85546392.40349
  23429484.640   123122863.81907  23429488.660    95939950.08845
  24203032.260   127187789.35505  24203036.780    99107408.73444
  22492669.320   118199970.37908  22492670.920    92103961.04147
  21868826.620   114921457.09808  21868827.540    89549188.31748
 15 02 04 00 57  0.0000000  0  7G16G18G21G25G27G29G31
  22957892.660   120644542.34007  22957893.860    94008747.75546
  23568700.700   123854388.49806  23568702.460    96509931.75145
  20891615.320   109786239.39408  20891615.700    85547750.00049
  23446587.680   123212740.04907  23446591.460    96009983.50845
  24188714.380   127112548.54305  24188718.800    99048779.55745
  22505575.160   118267790.24808  22505576.600    92156807.68647
  21881781.220   114989534.31908  21881782.180    89602235.49748
 15 02 04 00 57 30.0000000  0  7G16G18G21G25G27G29G31
  22941305.040   120557373.50107  22941306.180    93940823.99546
  23553800.360   123776085.94206  23553802.040    96448916.80545
  20892028.880   109788412.72208  20892029.280    85549443.49649
  23463733.340   123302840.26807  23463736.980    96080191.45946
  24174412.720   127037392.36806  24174416.920    98990216.34745
  22518493.860   118335677.53408  22518495.100    92209706.83747
  21894810.000   115058001.16208  21894811.000    89655586.27548
 15 02 04 00 58  0.0000000  0  7G16G18G21G25G27G29G31
  22924739.740   120470322.33907  22924740.840    93872991.93246
  23538918.580   123697881.05606  23538920.220    96387977.98244
  20892524.720   109791018.54708  20892525.140    85551474.02149
  23480921.680   123393165.45407  23480925.380    96150574.69845
  24160127.620   126962322.94406  24160131.620    98931720.72246
  22531425.600   118403633.39808  22531426.680    92262659.44247
  21907912.920   115126857.57408  21907913.940    89709240.61648
 15 02 04 00 58 30.0000000  0  7G16G18G21G25G27G29G31
  22908197.060   120383390.12307  22908198.120    93805252.55246
  23524055.780   123619775.76307  23524057.240    96327116.71545
  20893102.580   109794055.41608  20893103.020    85553840.41149
  23498152.360   123483713.76706  23498156.260    96221131.81545
  24145858.880   126887339.49706  24145862.680    98873292.09345
  22544370.140   118471656.72408  22544371.140    92315664.60947
  21921089.360   115196100.22308  21921090.400    89763195.91348
 15 02 04 00 59  0.0000000  0  7G16G18G21G25G27G29G31
  22891677.520   120296579.80907  22891678.620    93737608.16146
  23509212.600   123541774.03906  23509214.100    96266336.18844
  20893762.540   109797523.50508  20893763.000    85556542.82249
  23515425.360   123574485.27706  23515429.680    96291862.84145
  24131606.700   126812443.07906  24131610.360    98814931.30145
  22557327.600   118539748.34908  22557328.640    92368722.97547
  21934339.020   115265727.56408  21934340.060    89817450.97448
 15 02 04 00 59 30.0000000  0  7G16G18G21G25G27G29G31
  22875181.200   120209891.31207  22875182.260    93670058.68546
  23494389.220   123463876.84607  23494390.860    96205637.12745
  20894504.040   109801419.93508  20894504.480    85559579.00649
  23532740.240   123665477.18806  23532744.980    96362765.59246
  24117370.680   126737632.01305  24117374.400    98756636.97246
  22570297.520   118607905.92308  22570298.660    92421832.74047
  21947661.160   115335735.39108  21947662.080    89872002.51748
 15 02 04 01 00  0.0000000  0  7G16G18G21G25G27G29G31
  22858708.440   120123326.17707  22858709.400    93602605.32746
  23479586.120   123386086.40406  23479587.880    96145021.22745
  20895326.800   109805743.49008  20895327.220    85562948.00749
  23550096.900   123756687.74606  23550101.920    96433838.74446
  24103150.660   126662905.80305  24103154.500    98698408.79146
  22583279.920   118676128.97708  22583281.140    92474993.53947
  21961055.140   115406120.59308  21961055.920    89926848.11448
 15 02 04 01 00 30.0000000  0  7G16G18G21G25G27G29G31
  22842259.480   120036886.07007  22842260.400    93535249.40346
  23464803.700   123308405.06106  23464805.600    96084490.33345
  20896230.700   109810493.43508  20896231.120    85566649.26149
  23567495.100   123848115.72306  23567500.200    96505081.30146
  24088946.720   126588264.15405  24088950.720    98640246.50446
  22596274.620   118744416.50508  22596275.860    92528204.57147
  21974520.340   115476880.32608  21974521.020    89981985.55848
 15 02 04 01 01  0.0000000  0  7G16G18G21G25G27G29G31
  22825834.760   119950573.63907  22825835.720    93467992.97046
  23450042.720   123230836.44706  23450044.720    96024047.28845
  20897215.660   109815669.34308  20897216.100    85570682.43249
  23584934.700   123939760.65106  23584939.740    96576492.90245
  24074758.980   126513707.78105  24074763.160    98582150.62745
  22609281.620   118812768.69108  22609282.840    92581466.00047
  21988056.400   115548012.78808  21988057.080    90037413.43848
 15 02 04 01 01 30.0000000  0  7G16G18G21G25G27G29G31
  22809434.880   119864391.71407  22809435.900    93400838.23946
  23435303.760   123153383.80906  23435305.860    95963694.58045
  20898281.680   109821271.17608  20898282.140    85575047.49149
  23602415.700   124031622.52007  23602420.560    96648073.56145
  24060587.560   126439237.73505  24060591.980    98524122.05345
  22622301.000   118881186.13408  22622302.260    92634778.28547
  22001663.020   115619516.34508  22001663.780    90093130.48648
 15 02 04 01 02  0.0000000  0  7G16G18G21G25G27G29G31
  22793059.820   119778340.28007  22793060.860    93333785.19246
  23420586.920   123076047.56706  23420589.160    95903432.63746
  20899428.180   109827296.14008  20899428.660    85579742.26449
  23619937.320   124123697.97506  23619941.960    96719820.64946
  24046432.200   126364851.86805  24046436.720    98466159.05946
  22635332.380   118949666.53708  22635333.640    92688139.62446
  22015339.320   115691386.45908  22015340.280    90149133.16448
 15 02 04 01 02 30.0000000  0  7G16G18G21G25G27G29G31
  22776710.080   119692421.95507  22776711.120    93266835.86346
  23405893.160   122998831.74406  23405895.340    95843264.49045
  20900655.080   109833743.79008  20900655.620    85584766.40849
  23637499.340   124215986.56606  23637503.800    96791733.81245
  24032293.080   126290550.76106  24032297.620    98408262.11245
  22648375.820   119018210.07208  22648377.020    92741550.15447
  22029085.020   115763621.08908  22029086.160    90205419.88048
 15 02 04 01 03  0.0000000  0  7G16G18G21G25G27G29G31
  22760386.060   119606638.55907  22760387.080    93199991.66247
  23391223.000   122921738.95007  23391225.020    95783192.22245
  20901962.240   109840613.24108  20901962.820    85590119.22349
  23655101.520   124308487.03006  23655105.840    96863812.07345
  24018170.260   126216334.34706  24018174.720    98350431.15046
  22661431.160   119086816.08408  22661432.380    92795009.36047
  22042899.620   115836217.54908  22042900.860    90261988.54048
 15 02 04 01 03 30.0000000  0  7G16G18G21G25G27G29G31
  22744088.320   119520993.29707  22744089.260    93133255.10546
  23376576.960   122844772.73907  23376578.780    95723218.60245
  20903349.740   109847904.77308  20903350.360    85595800.94349
  23672743.960   124401199.65306  23672748.280    96936055.68144
  24004063.900   126142204.12306  24004068.200    98292667.37845
  22674498.580   119155485.62408  22674499.880    92848518.07847
  22056782.880   115909174.34208  22056784.100    90318837.97948
 15 02 04 01 04  0.0000000  0  7G16G18G21G25G27G29G31
  22727817.060   119435487.58507  22727818.040    93066627.27946
  23361955.580   122767935.59107  23361957.020    95663345.51045
  20904817.360   109855617.29208  20904818.000    85601810.69849
  23690426.340   124494122.66606  23690430.700    97008463.19445
  23989973.780   126068159.36506  23989977.940    98234970.20146
  22687577.860   119224217.58408  22687579.220    92902075.42947
  22070734.180   115982488.40608  22070735.280    90375965.81048
 15 02 04 01 04 30.0000000  0  7G16G18G21G25G27G29G31
  22711572.760   119350124.03707  22711573.920    93000110.24346
  23347359.160   122691230.36307  23347360.380    95603575.22644
  20906364.920   109863749.89508  20906365.560    85608147.79549
  23708148.720   124587255.39006  23708153.080    97081034.15144
  23975899.960   125994200.53406  23975904.080    98177339.92746
  22700669.020   119293012.24908  22700670.460    92955681.64347
  22084753.100   116056157.66808  22084754.020    90433370.41248
 15 02 04 01 05  0.0000000  0  7G16G18G21G25G27G29G31
  22695355.620   119264902.65707  22695356.800    92933704.00347
  23332787.960   122614658.22707  23332789.140    95543908.65145
  20907991.820   109872299.48108  20907992.500    85614809.81849
  23725910.540   124680594.80406  23725914.780    97153766.14044
  23961842.120   125920325.89005  23961846.180    98119775.29945
