     2.11           OBSERVATION DATA    G                   RINEX VERSION / TYPE
SPIDER V4,0,0,3554                      2015 04 16 03:32    PGM / RUN BY / DATE 
CABS                                                        MARKER NAME         
CABS                                                        MARKER NUMBER       
                                                            OBSERVER / AGENCY   
462287              LEICA GRX1200PRO    8.10/2.127          REC # / TYPE / VERS 
103298              LEIAT504                                ANT # / TYPE        
  5116912.3402   671231.6412  3737143.4301                  APPROX POSITION XYZ 
        0.0600        0.0000        0.0000                  ANTENNA: DELTA H/E/N
     1     1                                                WAVELENGTH FACT L1/2
     4    C1    L1    P2    L2                              # / TYPES OF OBSERV 
    30.000                                                  INTERVAL            
  2015    02    08    00    00    0.0000000     GPS         TIME OF FIRST OBS   
  2015    02    08    23    59   30.0000000     GPS         TIME OF LAST OBS    
    16                                                      LEAP SECONDS        
    30                                                      # OF SATELLITES     
   G 1   796   796   796   796                              PRN / # OF OBS      
   G 2   941   941   941   941                              PRN / # OF OBS      
   G 3   846   846   846   846                              PRN / # OF OBS      
   G 4   832   832   832   832                              PRN / # OF OBS      
   G 5   645   645   645   645                              PRN / # OF OBS      
   G 6   834   834   834   834                              PRN / # OF OBS      
   G 7   672   672   672   672                              PRN / # OF OBS      
   G 9   807   807   807   807                              PRN / # OF OBS      
   G10   751   751   751   751                              PRN / # OF OBS      
   G11   770   770   770   770                              PRN / # OF OBS      
   G12   829   829   829   829                              PRN / # OF OBS      
   G13   791   791   791   791                              PRN / # OF OBS      
   G14   942   942   942   942                              PRN / # OF OBS      
   G15   701   701   701   701                              PRN / # OF OBS      
   G16   666   666   666   666                              PRN / # OF OBS      
   G17   941   941   941   941                              PRN / # OF OBS      
   G18   898   898   898   898                              PRN / # OF OBS      
   G19   750   750   750   750                              PRN / # OF OBS      
   G20   802   802   802   802                              PRN / # OF OBS      
   G21   742   742   742   742                              PRN / # OF OBS      
   G22   657   657   657   657                              PRN / # OF OBS      
   G23   755   755   755   755                              PRN / # OF OBS      
   G24   818   818   818   818                              PRN / # OF OBS      
   G25   855   855   855   855                              PRN / # OF OBS      
   G27   793   793   793   793                              PRN / # OF OBS      
   G28   878   878   878   878                              PRN / # OF OBS      
   G29   782   782   782   782                              PRN / # OF OBS      
   G30   715   715   715   715                              PRN / # OF OBS      
   G31   870   870   870   870                              PRN / # OF OBS      
   G32   771   771   771   771                              PRN / # OF OBS      
BIT 2 OF LLI FLAGS DATA COLLECTED UNDER A/S CONDITION       COMMENT             
SNR is mapped to RINEX snr flag value [2-9]                 COMMENT             
Lx:     = 25dBHz -> 1; 26-27dBHz -> 2; 28-31dBHz -> 3       COMMENT             
       32-35dBHz -> 4; 36-38dBHz -> 5; 39-41dBHz -> 6       COMMENT             
       42-44dBHz -> 7; 45-48dBHz -> 8; >=49dBHz -> 9        COMMENT             
                                                            END OF HEADER       
 15 02 08 00 00  0.0000000  0  5G16G21G25G29G31
  24362659.580   128026642.18806  24362661.500    99761031.10544
  21139364.620   111088214.36708  21139365.680    86562300.71948
  22204164.220   116683895.76508  22204168.680    90922643.51747
  21522305.660   113100876.03808  21522307.440    88130749.75348
  21109111.120   110929150.75709  21109112.300    86438312.17449
 15 02 08 00 00 30.0000000  0  5G16G21G25G29G31
  24345295.120   127935390.84606  24345297.040    99689926.16544
  21132889.440   111054187.35008  21132890.520    86535786.17448
  22217277.760   116752808.05108  22217282.320    90976341.38247
  21533796.200   113161259.06308  21533797.980    88177801.45448
  21114744.860   110958756.36109  21114746.060    86461381.46349
 15 02 08 00 01  0.0000000  0  5G16G21G25G29G31
  24327928.760   127844129.49606  24327930.520    99618813.44144
  21126498.660   111020603.71108  21126499.740    86509617.12148
  22230444.840   116822001.49708  22230449.440    91030258.34547
  21545310.620   113221767.76608  21545312.420    88224951.08248
  21120481.060   110988900.18509  21120482.240    86484870.14949
 15 02 08 00 01 30.0000000  0  5G16G21G25G29G31
  24310561.760   127752865.00106  24310563.400    99547698.25445
  21120193.480   110987469.80108  21120194.560    86483798.50048
  22243666.500   116891481.50008  22243671.060    91084398.58547
  21556849.900   113282407.19208  21556851.680    88272202.57248
  21126320.620   111019587.10409  21126321.740    86508782.02149
 15 02 08 00 02  0.0000000  0  5G16G21G25G29G31
  24293194.100   127661597.32906  24293195.680    99476580.59445
  21113973.640   110954784.40208  21113974.720    86458329.37548
  22256942.340   116961246.11608  22256946.800    91138760.59847
  21568413.380   113343173.95508  21568415.160    88319553.28448
  21132263.040   111050814.45009  21132264.120    86533115.00649
 15 02 08 00 02 30.0000000  0  5G16G21G25G29G31
  24275826.180   127570328.39006  24275827.840    99405461.95744
  21107839.500   110922549.12408  21107840.540    86433210.99148
  22270272.440   117031296.07808  22270276.800    91193344.95847
  21580001.280   113404068.80708  21580003.060    88367003.80748
  21138308.240   111082582.01209  21138309.300    86557868.93849
 15 02 08 00 03  0.0000000  0  5G16G21G25G29G31
  24258457.940   127479057.98105  24258459.660    99334342.18345
  21101790.740   110890762.51808  21101791.740    86408442.22349
  22283656.420   117101629.61408  22283660.720    91248150.28847
  21591613.000   113465088.77308  21591614.780    88414551.83148
  21144455.760   111114887.30309  21144456.800    86583041.88249
 15 02 08 00 03 30.0000000  0  5G16G21G25G29G31
  24241089.820   127387788.19605  24241091.660    99263222.87945
  21095827.680   110859426.49208  21095828.700    86384024.55549
  22297094.380   117172247.05408  22297098.780    91303176.83647
  21603248.560   113526233.65408  21603250.280    88462197.18948
  21150705.500   111147729.90109  21150706.580    86608633.50849
 15 02 08 00 04  0.0000000  0  5G16G21G25G29G31
  24223721.740   127296518.94205  24223723.580    99192104.02745
  21089950.140   110828539.85808  21089951.160    86359957.06049
  22310585.960   117243146.29008  22310590.580    91358422.97147
  21614907.460   113587501.52108  21614909.180    88509938.37848
  21157056.920   111181106.88809  21157058.080    86634641.54049
 15 02 08 00 04 30.0000000  0  5G16G21G25G29G31
  24206353.800   127205250.20906  24206355.680    99120985.56045
  21084157.960   110798101.89108  21084158.980    86336239.17648
  22324131.040   117314326.28408  22324135.800    91413887.88847
  21626589.300   113648890.00508  21626591.020    88557773.55448
  21163509.680   111215016.51509  21163510.900    86661064.61649
 15 02 08 00 05  0.0000000  0  5G16G21G25G29G31
  24188986.220   127113983.24906  24188988.160    99049868.48344
  21078451.320   110768113.35908  21078452.340    86312871.50549
  22337729.620   117385786.71908  22337734.400    91469571.33147
  21638293.900   113710398.25108  21638295.680    88605702.04948
  21170063.640   111249457.73409  21170064.880    86687901.91749
 15 02 08 00 05 30.0000000  0  5G16G21G25G29G31
  24171619.540   127022720.63806  24171621.340    98978754.77545
  21072830.440   110738575.69008  21072831.500    86289855.15249
  22351381.720   117457528.25308  22351386.400    91525473.81847
  21650021.380   113772026.69808  21650023.240    88653724.20748
  21176718.740   111284430.38909  21176719.980    86715153.32649
 15 02 08 00 06  0.0000000  0  5G16G21G25G29G31
  24154254.160   126931464.39606  24154255.780    98907646.03345
  21067295.440   110709489.19208  21067296.520    86267190.36349
  22365087.240   117529550.81808  22365091.780    91581595.28647
  21661771.580   113833774.43408  21661773.480    88701839.31848
  21183474.800   111319933.42409  21183476.000    86742818.01949
 15 02 08 00 06 30.0000000  0  5G16G21G25G29G31
  24136890.260   126840216.02806  24136891.740    98836543.43144
  21061846.600   110680855.52608  21061847.740    86244878.43149
  22378846.280   117601854.74108  22378850.620    91637935.99046
  21673544.540   113895641.69008  21673546.440    88750047.56448
  21190331.700   111355966.48809  21190332.860    86770895.71349
 15 02 08 00 07  0.0000000  0  5G16G21G25G29G31
  24119527.940   126748975.76406  24119529.300    98765447.11144
  21056483.740   110652673.55408  21056484.860    86222918.46549
  22392658.440   117674438.38108  22392662.700    91694494.65747
  21685339.660   113957625.60908  21685341.580    88798346.70548
  21197288.940   111392526.93909  21197290.060    86799384.36549
 15 02 08 00 07 30.0000000  0  5G16G21G25G29G31
  24102167.440   126657745.58406  24102168.780    98694358.67445
  21051207.120   110624944.92308  21051208.240    86201311.75449
  22406523.900   117747302.17508  22406528.100    91751271.62347
  21697157.120   114019726.81708  21697159.020    88846737.24848
  21204346.460   111429614.50709  21204347.580    86828283.75749
 15 02 08 00 08  0.0000000  0  5G16G21G25G29G31
  24084808.840   126566525.53606  24084810.200    98623278.11744
  21046016.400   110597667.57408  21046017.500    86180056.68949
  22420442.320   117820444.15208  22420446.560    91808265.34547
  21708996.380   114081942.72408  21708998.300    88895217.16848
  21211503.680   111467226.17009  21211504.820    86857591.53649
 15 02 08 00 08 30.0000000  0  5G16G21G25G29G31
  24067452.360   126475317.10106  24067453.840    98552206.64044
  21040911.840   110570843.01408  21040912.920    86159154.44949
  22434413.720   117893864.09508  22434418.020    91865475.67147
  21720857.340   114144272.54208  21720859.260    88943785.84948
  21218760.440   111505360.92709  21218761.620    86887306.92549
 15 02 08 00 09  0.0000000  0  5G16G21G25G29G31
  24050098.280   126384121.29706  24050099.920    98481145.00144
  21035893.320   110544470.45808  21035894.340    86138604.42449
  22448437.920   117967561.15608  22448442.380    91922901.93847
  21732739.760   114206715.07808  21732741.700    88992442.37148
  21226116.460   111544017.29909  21226117.700    86917428.76149
 15 02 08 00 09 30.0000000  0  5G16G21G25G29G31
  24032747.160   126292940.85106  24032748.920    98410095.32745
  21030961.260   110518551.99808  21030962.200    86118408.23449
  22462515.040   118041536.41908  22462519.680    91980544.97447
  21744643.800   114269271.00208  21744645.720    89041187.23048
  21233571.740   111583195.05509  21233572.980    86947956.87448
 15 02 08 00 10  0.0000000  0  6G16G18G21G25G29G31
  24015400.000   126201780.79706  24015401.740    98339061.52945
  24501403.460   128755738.23205  24501407.720   100329163.46943
  21026116.280   110493091.12208  21026117.140    86098568.60749
  22476645.640   118115793.01908  22476650.440    92038407.23747
  21756569.880   114331942.65208  21756571.760    89090022.26648
  21241126.660   111622896.33209  21241127.900    86978892.91848
 15 02 08 00 10 30.0000000  0  6G16G18G21G25G29G31
  23998055.800   126110636.15306  23998057.460    98268039.74745
  24486321.040   128676482.82705  24486325.860   100267406.31643
  21021357.140   110468081.58608  21021358.000    86079080.66949
  22490828.300   118190323.45807  22490833.180    92096482.88547
  21768516.580   114394722.73008  21768518.420    89138941.78848
  21248779.680   111663112.92409  21248780.860    87010230.50849
 15 02 08 00 11  0.0000000  0  6G16G18G21G25G29G31
  23980714.200   126019505.35606  23980715.860    98197028.74345
  24471226.180   128597160.54705  24471231.120   100205597.12844
  21016683.540   110443521.57608  21016684.420    86059943.00749
  22505062.560   118265125.38808  22505067.480    92154770.09347
  21780483.440   114457608.57308  21780485.180    89187943.72748
  21256530.140   111703841.54609  21256531.280    87041967.08449
 15 02 08 00 11 30.0000000  0  6G16G18G21G25G29G31
  23963376.320   125928394.23706  23963378.020    98126033.08845
  24456120.060   128517778.06305  24456124.380   100143740.94444
  21012096.260   110419415.37508  21012097.200    86041158.96649
  22519349.160   118340202.44807  22519354.020    92213271.68047
  21792471.020   114520603.15508  21792472.660    89237030.39248
  21264378.520   111745084.83009  21264379.640    87074104.69849
 15 02 08 00 12  0.0000000  0  6G16G18G21G25G29G31
  23946042.500   125837304.55906  23946044.160    98055054.13644
  24441002.820   128438338.21205  24441006.800   100081840.09143
  21007595.360   110395763.29408  21007596.360    86022728.77749
  22533688.080   118415554.27008  22533692.880    92271987.37147
  21804479.140   114583705.76308  21804480.720    89286201.24148
  21272324.500   111786841.31009  21272325.660    87106642.20348
 15 02 08 00 12 30.0000000  0  6G16G18G21G25G29G31
  23928712.660   125746235.68206  23928714.180    97984091.39444
  24425874.980   128358841.57006  24425878.960   100019894.97343
  21003180.480   110372563.19508  21003181.500    86004650.78049
  22548078.900   118491178.24308  22548083.560    92330915.11547
  21816507.220   114646913.49808  21816508.820    89335454.00148
  21280367.500   111829107.48209  21280368.660    87139576.87649
 15 02 08 00 13  0.0000000  0  6G16G18G21G25G29G31
  23911387.560   125655191.19706  23911388.800    97913147.66044
  24410737.020   128279292.45605  24410740.940    99957908.92344
  20998852.100   110349817.55408  20998853.120    85986926.92149
  22562521.860   118567075.98407  22562526.440    92390056.19247
  21828555.460   114710227.56008  21828557.120    89384789.61848
  21288507.640   111871884.28009  21288508.840    87172909.43949
 15 02 08 00 13 30.0000000  0  6G16G18G21G25G29G31
  23894067.060   125564171.36306  23894068.240    97842223.13444
  24395589.640   128199692.64205  24395593.380    99895883.30844
  20994610.080   110327525.62008  20994611.060    85969556.59549
  22577016.600   118643246.09207  22577021.220    92449409.50047
  21840623.560   114773646.50608  21840625.340    89434206.96348
  21296744.440   111915168.89309  21296745.620    87206637.69548
 15 02 08 00 14  0.0000000  0  6G16G18G21G25G29G31
  23876751.820   125473179.22306  23876752.920    97771320.17044
  24380433.360   128120046.48405  24380437.300    99833821.69444
  20990454.760   110305689.33408  20990455.700    85952541.32149
  22591563.300   118719689.58407  22591568.060    92508975.83847
  21852711.780   114837171.20808  21852713.660    89483706.71548
  21305077.900   111958961.46609  21305079.060    87240761.76548
 15 02 08 00 14 30.0000000  0  6G16G18G21G25G29G31
  23859441.740   125382214.62206  23859442.900    97700438.67544
  24365268.380   128040354.39906  24365271.980    99771724.22644
  20986385.740   110284306.69008  20986386.660    85935879.53549
  22606161.460   118796403.95807  22606166.440    92568753.27047
  21864819.660   114900798.61308  21864821.540    89533286.49948
  21313507.320   112003258.25609  21313508.440    87275278.72948
 15 02 08 00 15  0.0000000  0  6G16G18G21G25G29G31
  23842136.920   125291277.46306  23842138.200    97629578.57245
  24350095.040   127960617.83605  24350098.340    99709592.08944
  20982402.840   110263376.43008  20982403.720    85919570.25049
  22620810.740   118873387.33807  22620815.920    92628740.31946
  21876946.720   114964526.52508  21876948.560    89582944.60048
  21322032.140   112048056.62509  21322033.240    87310186.53848
 15 02 08 00 15 30.0000000  0  6G16G18G21G25G29G31
  23824838.000   125200371.13206  23824839.240    97558742.47245
  24334914.140   127880841.25806  24334917.180    99647428.81543
  20978506.480   110242900.89108  20978507.320    85903615.29249
  22635511.540   118950641.38007  22635516.800    92688938.26847
  21889093.300   115028356.69008  21889095.020    89632682.36848
  21330652.520   112093357.08209  21330653.620    87345485.58348
 15 02 08 00 16  0.0000000  0  6G16G18G21G25G29G31
  23807545.180   125109496.83706  23807546.440    97487931.33444
  24319726.100   127801027.38206  24319728.700    99585236.37744
  20974696.760   110222880.63008  20974697.580    85888015.09549
  22650263.700   119028165.20307  22650268.940    92749346.42546
  21901259.080   115092287.86208  21901260.720    89682498.85848
  21339368.080   112139157.58808  21339369.180    87381174.27948
 15 02 08 00 16 30.0000000  0  6G16G18G21G25G29G31
  23790258.700   125018655.72106  23790259.940    97417146.05245
  24304531.100   127721177.77006  24304533.580    99523016.11744
  20970973.140   110203312.92508  20970973.960    85872767.54549
  22665067.040   119105957.45907  22665072.140    92809963.74346
  21913443.740   115156318.53308  21913445.360    89732392.87348
  21348178.320   112185455.68809  21348179.440    87417250.71348
 15 02 08 00 17  0.0000000  0  6G16G18G21G25G29G31
  23772978.600   124927847.99607  23772979.860    97346386.78344
  24289329.620   127641293.71905  24289331.860    99460769.01544
  20967335.540   110184197.46508  20967336.420    85857872.39249
  22679921.320   119184016.38407  22679926.100    92870788.84246
  21925646.960   115220446.77108  21925648.600    89782362.90448
  21357082.760   112232248.83409  21357083.900    87453712.88948
 15 02 08 00 17 30.0000000  0  6G16G18G21G25G29G31
  23755705.700   124837078.18907  23755706.960    97275657.06845
  24274122.400   127561380.78106  24274124.520    99398499.39244
  20963784.660   110165537.60708  20963785.560    85843332.25549
  22694826.880   119262344.40007  22694831.340    92931823.63646
  21937869.100   115284674.63408  21937870.780    89832410.57148
  21366081.660   112279538.13309  21366082.800    87490561.68248
 15 02 08 00 18  0.0000000  0  6G16G18G21G25G29G31
  23738440.060   124746346.49107  23738441.400    97204957.05645
  24258910.000   127481440.71906  24258912.200    99336208.61243
  20960320.380   110147332.69308  20960321.280    85829146.62049
  22709783.260   119340939.79307  22709787.540    92993066.77946
  21950109.920   115349000.73808  21950111.660    89882534.77948
  21375174.400   112327320.75709  21375175.580    87527794.88548
 15 02 08 00 18 30.0000000  0  6G16G18G21G25G29G31
  23721181.940   124655654.53706  23721183.480    97134288.02145
  24243692.780   127401476.20505  24243695.420    99273898.75344
  20956942.520   110129581.96608  20956943.420    85815314.89549
  22724790.320   119419802.00007  22724794.600    93054517.83046
  21962369.260   115413424.20408  21962371.060    89932734.87248
  21384360.720   112375595.26008  21384361.940    87565411.37148
 15 02 08 00 19  0.0000000  0  6G16G18G21G25G29G31
  23703931.120   124565000.66406  23703932.780    97063648.65245
  24228471.060   127321486.86106  24228473.900    99211569.58143
  20953650.540   110112282.49908  20953651.440    85801834.80349
  22739847.340   119498927.28207  22739851.840    93116173.88047
  21974646.480   115477941.35408  21974648.280    89983007.97448
  21393639.680   112424356.64308  21393640.920    87603407.24148
 15 02 08 00 19 30.0000000  0  6G16G18G21G25G29G31
  23686688.480   124474390.20806  23686690.220    96993043.10346
  24213245.620   127241478.43105  24213248.640    99149225.46844
  20950445.000   110095437.17808  20950445.880    85788708.59149
  22754954.920   119578318.51107  22754959.720    93178037.16947
  21986941.980   115542554.87908  21986943.840    90033356.16548
  21403011.540   112473606.44108  21403012.820    87641783.69348
 15 02 08 00 20  0.0000000  0  6G16G18G21G25G29G31
  23669453.920   124383822.30706  23669455.660    96922470.72545
  24198016.820   127161451.45406  24198020.060    99086866.96543
  20947325.660   110079044.89708  20947326.540    85775935.39949
  22770112.660   119657972.82007  22770117.620    93240105.43747
  21999255.180   115607261.40508  21999257.100    90083776.82348
  21412475.660   112523340.73209  21412476.920    87680537.67448
 15 02 08 00 20 30.0000000  0  6G16G18G21G25G29G31
  23652227.840   124293298.98506  23652229.440    96851933.07444
  24182785.060   127081408.93405  24182788.660    99024496.30944
  20944292.400   110063104.88408  20944293.280    85763514.61849
  22785320.500   119737889.80407  22785325.460    93302378.38947
  22011586.140   115672060.89008  22011588.060    90134269.91847
  21422031.760   112573558.19509  21422032.980    87719668.15048
 15 02 08 00 21  0.0000000  0  6G16G18G21G25G29G31
  23635010.760   124202823.11806  23635012.240    96781432.41044
  24167551.040   127001354.91905  24167554.500    98962116.64844
  20941345.400   110047618.05608  20941346.240    85751446.97049
  22800578.540   119818070.32907  22800583.320    93364856.69846
  22023934.920   115736954.08908  22023936.860    90184836.02047
  21431679.740   112624258.23609  21431680.880    87759174.65948
 15 02 08 00 21 30.0000000  0  6G16G18G21G25G29G31
  23617802.360   124112392.85706  23617803.840    96710967.28044
  24152314.820   126921288.93405  24152318.380    98899727.68944
  20938484.260   110032582.47408  20938485.040    85739730.94149
  22815885.940   119898510.39707  22815890.440    93427537.24446
  22036300.800   115801936.90908  22036302.680    90235471.97347
  21441418.540   112675435.59209  21441419.620    87799053.10248
 15 02 08 00 22  0.0000000  0  6G16G18G21G25G29G31
  23600603.680   124022013.38606  23600605.060    96640541.72444
  24137077.260   126841216.26905  24137081.040    98837333.58544
  20935709.400   110018000.62008  20935710.180    85728368.46849
  22831243.100   119979212.50207  22831247.400    93490421.96846
  22048684.260   115867011.91808  22048686.060    90286179.75647
  21451248.440   112727092.02108  21451249.560    87839304.85048
 15 02 08 00 22 30.0000000  0  6G16G18G21G25G29G31
  23583414.780   123931685.07006  23583416.180    96570156.02045
  24121838.820   126761139.27406  24121842.660    98774936.00645
  20933020.620   110003871.19108  20933021.400    85717358.53949
  22846649.640   120060175.15707  22846653.920    93553509.73346
  22061084.940   115932177.63908  22061086.720    90336958.22048
  21461168.940   112779224.53408  21461170.080    87879927.57648
 15 02 08 00 23  0.0000000  0  6G16G18G21G25G29G31
  23566235.420   123841406.88906  23566236.920    96499809.39444
  24106599.660   126681057.66705  24106603.560    98712534.87944
  20930417.340   109990191.33308  20930418.180    85706698.91349
  22862105.040   120141395.02807  22862109.480    93616797.93046
  22073502.200   115997430.65208  22073503.940    90387804.71147
  21471179.180   112831828.50908  21471180.320    87920917.67748
 15 02 08 00 23 30.0000000  0  6G16G18G21G25G29G31
  23549066.340   123751182.66306  23549067.880    96429504.82445
  24091360.620   126600975.98206  24091364.380    98650133.67444
  20927900.040   109976963.13908  20927900.900    85696391.23649
  22877609.660   120222873.38607  22877614.320    93680287.53946
  22085936.360   116062772.46008  22085938.040    90438720.38947
  21481279.160   112884904.26508  21481280.320    87962275.39948
 15 02 08 00 24  0.0000000  0  6G16G18G21G25G29G31
  23531907.760   123661013.77406  23531909.320    96359243.35646
  24076122.220   126520897.27906  24076125.740    98587734.77744
  20925468.580   109964186.07508  20925469.480    85686435.09249
  22893163.440   120304609.58007  22893168.260    93743978.06746
  22098387.260   116128202.37808  22098388.920    90489704.73147
  21491468.540   112938449.89708  21491469.740    88003999.25648
 15 02 08 00 24 30.0000000  0  6G16G18G21G25G29G31
  23514759.780   123570900.31806  23514761.240    96289025.08145
  24060884.740   126440822.35206  24060887.800    98525338.83744
  20923122.780   109951858.67408  20923123.640    85676829.33149
  22908765.900   120386601.00807  22908770.820    93807867.47146
  22110854.420   116193717.82808  22110856.140    90540755.71647
  21501746.580   112992461.54808  21501747.820    88046086.24348
 15 02 08 00 25  0.0000000  0  6G16G18G21G25G29G31
  23497623.020   123480846.05206  23497624.480    96218852.94645
  24045648.800   126360755.65906  24045651.500    98462949.31444
  20920862.720   109939981.68908  20920863.540    85667574.54449
  22924417.260   120468848.86907  22924422.200    93871956.69746
  22123338.060   116259320.14308  22123339.880    90591874.38947
  21512113.280   113046939.05808  21512114.560    88088536.23648
 15 02 08 00 25 30.0000000  0  6G16G18G21G25G29G31
  23480497.900   123390852.97806  23480499.320    96148728.46945
  24030415.120   126280700.82006  24030417.520    98400569.02844
  20918688.740   109928556.93708  20918689.480    85658672.15249
  22940117.440   120551353.42707  22940122.420    93936245.94946
  22135838.360   116325009.74108  22135840.200    90643061.09147
  21522568.520   113101881.63408  21522569.800    88131348.62348
 15 02 08 00 26  0.0000000  0  7G16G18G21G25G27G29G31
  23463385.100   123300924.88306  23463386.600    96078654.65445
  24015184.380   126200662.39406  24015186.540    98338201.52644
  20916600.920   109917585.12708  20916601.640    85650122.69849
  22955866.660   120634115.79007  22955871.660    94000736.08846
  24615899.380   129357420.96405  24615903.780   100798019.22644
  22148355.500   116390787.54608  22148357.300    90694316.50747
  21533112.200   113157288.86508  21533113.460    88174523.07248
 15 02 08 00 26 30.0000000  0  7G16G18G21G25G27G29G31
  23446282.760   123211051.49606  23446284.320    96008623.46745
  23999955.100   126120630.90206  23999956.980    98275839.38244
  20914597.100   109907054.80308  20914597.820    85641917.26149
  22971662.500   120717123.24807  22971667.440    94065417.20746
  24601119.720   129279752.84305  24601124.120   100737498.72744
  22160887.100   116456641.48308  22160888.940    90745631.24247
  21543741.720   113213147.15708  21543742.960    88218049.00348
 15 02 08 00 27  0.0000000  0  7G16G18G21G25G27G29G31
  23429193.820   123121248.38707  23429195.340    95938647.02945
  23984729.960   126040622.83506  23984731.700    98213495.53043
  20912679.640   109896978.68308  20912680.400    85634065.74949
  22987507.420   120800388.71507  22987512.280    94130299.35846
  24586357.200   129202175.59805  24586361.820   100677049.00545
  22173435.700   116522584.57408  22173437.500    90797015.44447
  21554459.280   113269468.18108  21554460.520    88261935.50148
 15 02 08 00 27 30.0000000  0  7G16G18G21G25G27G29G31
  23412117.580   123031511.77207  23412119.040    95868722.40845
  23969508.760   125960635.58006  23969510.400    98151167.85844
  20910847.500   109887351.03708  20910848.300    85626563.69649
  23003400.280   120883905.97707  23003404.980    94195377.70746
  24571610.780   129124683.90405  24571615.680   100616665.98045
  22186000.100   116588610.65208  22186001.820    90848464.31647
  21565263.500   113326244.50608  21565264.720    88306176.77948
 15 02 08 00 28  0.0000000  0  7G16G18G21G25G27G29G31
  23395054.540   122941844.73907  23395055.980    95798852.00545
  23954292.200   125880673.62806  23954293.940    98088859.91944
  20909101.040   109878173.80408  20909101.880    85619412.61149
  23019341.280   120967676.06107  23019345.720    94260653.08746
  24556880.900   129047279.49405  24556886.140   100556350.95944
  22198580.460   116654720.78808  22198582.100    90899978.68347
  21576154.080   113383474.82708  21576155.320    88350771.81848
 15 02 08 00 28 30.0000000  0  7G16G18G21G25G27G29G31
  23378004.440   122852245.84007  23378005.800    95729034.68444
  23939080.240   125800735.99906  23939082.060    98026570.92345
  20907439.560   109869442.91208  20907440.400    85612609.32749
  23035329.620   121051694.75007  23035333.800    94326122.17846
  24542167.200   128969959.22505  24542172.600   100496101.51045
  22211176.040   116720910.84508  22211177.620    90951555.33447
  21587130.180   113441154.62208  21587131.420    88395717.09948
 15 02 08 00 29  0.0000000  0  7G16G18G21G25G27G29G31
  23360967.800   122762717.78507  23360969.140    95659272.58345
  23923873.640   125720826.39306  23923875.520    97964303.75944
  20905862.980   109861158.15408  20905863.820    85606153.67949
  23051365.300   121135962.25307  23051369.380    94391785.14246
  24527470.260   128892724.06105  24527475.220   100435905.34845
  22223786.920   116787181.53208  22223788.500    91003194.80247
  21598191.540   113499282.61908  21598192.840    88441011.62748
 15 02 08 00 29 30.0000000  0  7G16G18G21G25G27G29G31
  23343945.140   122673263.11907  23343946.380    95589567.63645
  23908673.300   125640948.96305  23908675.080    97902061.68045
  20904371.680   109853321.32008  20904372.500    85600047.06349
  23067448.240   121220478.63607  23067452.420    94457642.03746
  24512789.060   128815574.97205  24512794.180   100375789.25045
  22236413.260   116853533.32608  22236414.840    91054897.48047
  21609338.020   113557857.80308  21609339.360    88486654.61248
 15 02 08 00 30  0.0000000  0  7G16G18G21G25G27G29G31
  23326936.940   122583884.36107  23326938.140    95519921.86145
  23893479.500   125561106.50006  23893481.460    97839846.89043
  20902965.540   109845931.85908  20902966.320    85594289.04949
  23083578.460   121305243.52507  23083582.860    94523692.58846
  24498124.300   128738512.51205  24498129.740   100315740.67345
  22249054.920   116919965.96308  22249056.540    91106663.16347
  21620569.200   113616877.93408  21620570.520    88532644.31648
 15 02 08 00 30 30.0000000  0  7G16G18G21G25G27G29G31
  23309942.680   122494579.22407  23309943.880    95450333.46145
  23878292.380   125481297.91106  23878294.260    97777658.41443
  20901643.760   109838985.90308  20901644.540    85588876.62649
  23099755.120   121390252.41807  23099759.700    94589933.27146
  24483475.560   128661533.11905  24483481.040   100255756.83645
  22261711.060   116986474.83708  22261712.780    91158488.24847
  21631884.000   113676337.54908  21631885.300    88578976.46948
 15 02 08 00 31  0.0000000  0  7G16G18G21G25G27G29G31
  23292963.300   122405352.36407  23292964.560    95380806.05045
  23863112.900   125401528.95306  23863114.720    97715500.88544
  20900406.840   109832486.08108  20900407.640    85583811.84149
  23115978.680   121475507.64307  23115983.360    94656365.90246
  24468843.280   128584639.98905  24468848.660   100195840.15546
  22274382.300   117053062.77408  22274384.120    91210374.93947
  21643282.600   113736237.62008  21643283.880    88625651.83548
 15 02 08 00 31 30.0000000  0  7G16G18G21G25G27G29G31
  23275999.360   122316206.26807  23276000.600    95311341.58645
  23847941.440   125321802.43206  23847943.360    97653376.38044
  20899254.740   109826431.93108  20899255.560    85579094.32649
  23132249.000   121561008.63107  23132253.740    94722990.03246
  24454227.380   128507833.47305  24454232.700   100135991.00645
  22287068.540   117119729.59908  22287070.420    91262323.09047
  21654764.660   113796576.26108  21654765.920    88672668.94148
 15 02 08 00 32  0.0000000  0  7G16G18G21G25G27G29G31
  23259050.600   122227139.72007  23259051.820    95241939.09146
  23832778.240   125242118.82106  23832780.200    97591285.25345
  20898186.920   109820820.63608  20898187.760    85574721.89449
  23148565.340   121646751.81607  23148570.100    94789802.87346
  24439627.580   128431110.88805  24439632.660   100076207.24545
  22299769.140   117186471.83108  22299771.100    91314330.00047
  21666329.260   113857348.55708  21666330.480    88720023.96148
 15 02 08 00 32 30.0000000  0  7G16G18G21G25G27G29G31
  23242117.760   122138157.02407  23242119.080    95172601.95545
  23817624.120   125162483.50406  23817626.180    97529231.82945
  20897203.720   109815653.97408  20897204.560    85570695.93249
  23164928.060   121732738.88107  23164932.780    94856805.76246
  24425044.200   128354474.95905  24425049.100   100016491.02246
  22312484.660   117253292.07408  22312486.620    91366397.69947
  21677976.460   113918554.83808  21677977.620    88767717.15048
 15 02 08 00 33  0.0000000  0  7G16G18G21G25G27G29G31
  23225201.060   122049259.57607  23225202.540    95103331.23245
  23802479.540   125082898.41406  23802481.580    97467217.49445
  20896304.920   109810930.77208  20896305.760    85567015.52349
  23181336.860   121818968.52207  23181341.620    94923997.64946
  24410477.180   128277925.24605  24410482.040    99956841.97545
  22325214.760   117320188.93108  22325216.680    91418525.08947
  21689705.720   113980192.50508  21689706.900    88815746.48148
 15 02 08 00 33 30.0000000  0  7G16G18G21G25G27G29G31
  23208300.620   121960447.36607  23208302.120    95034126.91545
  23787344.600   125003364.24306  23787346.840    97405242.89145
  20895490.220   109806649.48908  20895491.060    85563679.46749
  23197791.320   121905437.84407  23197796.060    94991376.30746
  24395926.300   128201459.81305  24395930.960    99897258.58744
  22337959.000   117387159.83008  22337960.800    91470710.17547
  21701516.220   114042257.12008  21701517.440    88864108.50648
 15 02 08 00 34  0.0000000  0  7G16G18G21G25G27G29G31
  23191417.000   121871723.40807  23191418.400    94964991.38945
  23772220.260   124923885.34006  23772222.580    97343311.30045
  20894759.760   109802810.80408  20894760.620    85560688.29449
  23214291.560   121992147.52207  23214296.240    95058942.26546
  24381391.720   128125080.28505  24381396.360    99837742.13944
  22350717.540   117454205.88008  22350719.200    91522953.82847
  21713407.860   114104747.99408  21713409.100    88912802.68148
 15 02 08 00 34 30.0000000  0  7G16G18G21G25G27G29G31
  23174550.360   121783088.53207  23174551.640    94895925.25445
  23757106.880   124844463.25107  23757109.180    97281424.03244
  20894113.100   109799412.57808  20894113.960    85558040.32749
  23230837.240   122079095.39707  23230841.840    95126693.82345
  24366873.280   128048785.51005  24366877.720    99778291.73646
  22363489.920   117521325.00608  22363491.560    91575254.41947
  21725379.960   114167661.85708  21725381.260    88961826.45848
 15 02 08 00 35  0.0000000  0  7G16G18G21G25G27G29G31
  23157701.420   121694546.77307  23157702.660    94826931.70345
  23742005.160   124765102.91106  23742007.480    97219584.86145
  20893550.540   109796456.17908  20893551.380    85555736.64849
  23247428.600   122166282.83307  23247433.060    95194632.07946
  24352371.280   127972577.76805  24352375.720    99718909.14645
  22376276.620   117588519.59908  22376278.260    91627613.82447
  21737432.540   114230998.50508  21737433.860    89011179.68148
 15 02 08 00 35 30.0000000  0  7G16G18G21G25G27G29G31
  23140869.880   121606096.31307  23140871.060    94758009.27245
  23726915.100   124685803.50406  23726917.280    97157793.18945
  20893071.320   109793937.75008  20893072.140    85553774.23649
  23264064.700   122253705.32207  23264069.060    95262753.47945
  24337885.280   127896453.53505  24337889.720    99659591.60245
  22389076.820   117655785.36508  22389078.580    91680028.68747
  21749564.440   114294752.11508  21749565.760    89060857.80048
 15 02 08 00 36  0.0000000  0  7G16G18G21G25G27G29G31
  23124056.560   121517741.89607  23124057.700    94689161.69545
  23711837.640   124606570.60906  23711839.700    97096053.31245
  20892675.920   109791859.95108  20892676.760    85552155.17849
  23280745.900   122341365.00307  23280750.280    95331059.69746
  24323415.740   127820415.94605  24323420.260    99600341.60745
  22401891.040   117723124.82608  22401892.940    91732500.97347
  21761775.860   114358923.48908  21761777.120    89110861.44748
 15 02 08 00 36 30.0000000  0  7G16G18G21G25G27G29G31
  23107261.880   121429485.37507  23107263.020    94620390.39245
  23696773.100   124527406.53206  23696775.160    97034367.07145
  20892364.180   109790221.78908  20892365.020    85550878.69649
  23297471.960   122429260.61307  23297476.380    95399549.77046
  24308962.660   127744464.74205  24308967.320    99541158.90445
  22414719.100   117790536.93408  22414721.100    91785029.87147
  21774066.260   114423509.88208  21774067.500    89161188.49148
 15 02 08 00 37  0.0000000  0  7G16G18G21G25G27G29G31
  23090486.100   121341328.10307  23090487.200    94551696.42745
  23681721.980   124448314.08906  23681724.180    96972736.64345
  20892135.900   109789022.29508  20892136.760    85549944.03049
  23314242.620   122517391.01007  23314247.200    95468222.78146
  24294525.960   127668599.77705  24294530.880    99482043.39345
  22427560.960   117858021.33708  22427563.020    91837615.10847
  21786435.200   114488508.86708  21786436.400    89211837.03248
 15 02 08 00 37 30.0000000  0  7G16G18G21G25G27G29G31
  23073729.400   121253271.03207  23073730.480    94483080.54345
  23666684.700   124369294.54906  23666687.160    96911163.03944
  20891990.800   109788259.75808  20891991.620    85549349.84749
  23331057.440   122605753.94306  23331062.200    95537076.98946
  24280105.460   127592819.75605  24280110.560    99422994.07846
  22440416.240   117925576.10808  22440418.360    91890255.16947
  21798881.960   114553916.64908  21798883.140    89262804.11848
 15 02 08 00 38  0.0000000  0  7G16G18G21G25G27G29G31
  23056992.180   121165316.27407  23056993.300    94414544.38645
  23651662.060   124290351.44606  23651664.640    96849648.95144
  20891928.900   109787934.36408  20891929.680    85549096.30149
  23347916.420   122694349.30606  23347921.340    95606112.30046
  24265701.280   127517125.61305  24265706.440    99364011.69045
  22453284.960   117993201.67008  22453287.120    91942950.39847
  21811406.200   114619731.81608  21811407.420    89314088.64048
 15 02 08 00 38 30.0000000  0  7G16G18G21G25G27G29G31
  23040274.680   121077465.34407  23040275.880    94346089.13346
  23636654.500   124211487.18906  23636657.140    96788196.30245
  20891949.940   109788044.66908  20891950.640    85549182.26049
  23364819.400   122783175.68506  23364824.500    95675327.62446
  24251313.320   127441517.00305  24251318.560    99305095.92745
  22466166.960   118060897.11308  22466169.080    91995700.07347
  21824007.440   114685951.50108  21824008.700    89365688.38448
 15 02 08 00 39  0.0000000  0  7G16G18G21G25G27G29G31
  23023577.080   120989719.08507  23023578.420    94277715.44346
  23621662.340   124132703.38006  23621665.020    96726806.35045
  20892053.560   109788589.04608  20892054.240    85549606.45449
  23381765.960   122872230.85306  23381771.160    95744721.24146
  24236941.440   127365992.70005  24236946.640    99246245.87845
  22479061.920   118128660.58308  22479064.060    92048502.75447
  21836684.960   114752572.13208  21836686.240    89417600.55148
 15 02 08 00 39 30.0000000  0  7G16G18G21G25G27G29G31
  23006899.840   120902079.98107  23006901.360    94209425.25746
  23606686.240   124054003.38806  23606688.800    96665481.74445
  20892239.760   109789567.37108  20892240.420    85550368.79349
  23398756.180   122961514.54206  23398761.200    95814292.93045
  24222585.720   127290553.39205  24222590.800    99187462.02245
  22491969.980   118196492.47008  22491972.080    92101358.74647
  21849438.400   114819592.01408  21849439.700    89469823.81348
 15 02 08 00 40  0.0000000  0  7G16G18G21G25G27G29G31
  22990243.680   120814551.19007  22990245.220    94141221.02546
  23591726.680   123975390.59306  23591729.180    96604225.05745
  20892508.580   109790979.98208  20892509.240    85551469.52949
  23415789.920   123051026.75106  23415794.660    95884042.66245
  24208246.340   127215200.18805  24208251.360    99128745.30545
  22504891.260   118264393.62708  22504893.180    92154268.71347
  21862267.520   114887009.57808  21862268.820    89522356.96248
 15 02 08 00 40 30.0000000  0  7G16G18G21G25G27G29G31
  22973608.360   120727131.78907  22973609.900    94073102.03146
  23576783.920   123896865.58006  23576786.240    96543036.75744
  20892859.440   109792823.75608  20892860.100    85552906.24249
  23432866.520   123140763.92506  23432870.980    95953967.72945
  24193922.960   127139930.60705  24193927.880    99070093.74745
  22517825.160   118332360.81608  22517826.840    92207230.13547
  21875171.340   114954819.97508  21875172.700    89575196.21048
 15 02 08 00 41  0.0000000  0  7G16G18G21G25G27G29G31
  22956994.440   120639824.78507  22956995.940    94005070.61546
  23561858.640   123818431.93506  23561860.920    96481919.67744
  20893292.360   109795098.72708  20893293.000    85554678.94949
  23449985.920   123230726.12007  23449990.140    96024068.12046
  24179615.840   127064745.71305  24179620.620    99011508.19245
  22530771.780   118400394.74308  22530773.260    92260243.56547
  21888149.660   115023021.67308  21888151.040    89628340.36948
 15 02 08 00 41 30.0000000  0  7G16G18G21G25G27G29G31
  22940402.660   120552634.25007  22940404.100    93937129.96446
  23546951.620   123740094.63506  23546953.900    96420877.66645
  20893807.580   109797806.34208  20893808.220    85556788.78349
  23467148.280   123320914.40207  23467152.460    96094344.68545
  24165325.240   126989647.66006  24165329.800    98952990.30544
  22543731.420   118468497.15508  22543732.740    92313310.36447
  21901202.440   115091614.61808  21901203.880    89681789.40348
 15 02 08 00 42  0.0000000  0  7G16G18G21G25G27G29G31
  22923833.060   120465560.60107  22923834.480    93869280.38246
  23532063.160   123661854.87606  23532065.380    96359911.65645
  20894404.740   109800944.47308  20894405.380    85559234.08649
  23484353.140   123411326.48907  23484357.360    96164795.64545
  24151050.960   126914635.16006  24151055.280    98894539.05245
  22556703.620   118536666.04208  22556704.920    92366428.94947
  21914328.940   115160594.95408  21914330.420    89735540.30048
 15 02 08 00 42 30.0000000  0  7G16G18G21G25G27G29G31
  22907286.260   120378606.70907  22907287.620    93801524.11446
  23517194.040   123583716.48206  23517196.220    96299024.61445
  20895083.840   109804513.32308  20895084.520    85562015.01849
  23501600.360   123501962.12506  23501604.880    96235420.80046
  24136793.000   126839709.10905  24136797.340    98836155.17245
  22569688.460   118604901.96308  22569689.880    92419599.78047
  21927528.820   115229960.79708  21927530.320    89789591.58648
 15 02 08 00 43  0.0000000  0  7G16G18G21G25G27G29G31
  22890762.340   120291773.49907  22890763.740    93733861.89546
  23502344.380   123505681.12606  23502346.620    96238217.87246
  20895844.520   109808510.95708  20895845.240    85565130.05749
  23518889.700   123592819.29406  23518894.620    96306218.55946
  24122551.340   126764868.50205  24122555.740    98777837.86946
  22582685.820   118673203.58008  22582687.300    92472821.79947
  21940801.460   115299708.85208  21940802.960    89843940.69948
 15 02 08 00 43 30.0000000  0  7G16G18G21G25G27G29G31
  22874261.900   120205063.34607  22874263.320    93666295.55646
  23487514.880   123427751.72206  23487517.200    96177493.69745
  20896686.740   109812936.83708  20896687.460    85568578.79949
  23536220.980   123683897.04706  23536226.300    96377188.20646
  24108325.860   126690113.65205  24108330.460    98719587.38545
  22595695.580   118741570.64308  22595697.180    92526094.81947
  21954146.460   115369836.73808  21954147.880    89898585.78948
 15 02 08 00 44  0.0000000  0  7G16G18G21G25G27G29G31
  22857785.300   120118478.09707  22857786.600    93598826.54646
  23472705.980   123349931.06606  23472708.380    96116854.25245
  20897610.300   109817790.07308  20897611.020    85572360.54749
  23553594.140   123775194.53306  23553599.740    96448329.07246
  24094116.700   126615444.63205  24094121.540    98661403.77645
  22608717.760   118810002.84508  22608719.420    92579418.59247
  21967563.240   115440341.95608  21967564.560    89953524.89548
 15 02 08 00 44 30.0000000  0  7G16G18G21G25G27G29G31
  22841332.460   120032017.83607  22841333.720    93531454.93146
  23457917.920   123272219.93006  23457920.420    96056300.14045
  20898614.680   109823067.93108  20898615.380    85576473.16649
  23571008.720   123866708.69506  23571014.400    96519638.78246
  24079923.480   126540859.60905  24079928.480    98603285.62445
  22621751.900   118878498.03908  22621753.640    92632791.45047
  21981050.980   115511220.17508  21981052.200    90008754.64548
 15 02 08 00 45  0.0000000  0  7G16G18G21G25G27G29G31
  22824903.780   119945684.48007  22824905.040    93464182.19346
  23443151.200   123194621.33806  23443153.880    95995833.73245
  20899699.680   109828769.68408  20899700.420    85580916.09249
  23588464.520   123958438.64706  23588470.140    96591116.62545
  24065746.240   126466358.69005  24065751.380    98545233.00745
  22634798.020   118947055.90108  22634799.760    92686213.14447
  21994609.220   115582468.98108  21994610.420    90064273.17748
 15 02 08 00 45 30.0000000  0  7G16G18G21G25G27G29G31
  22808499.960   119859481.92107  22808501.260    93397011.38546
  23428406.620   123117139.30906  23428409.420    95935458.15945
  20900865.540   109834896.41608  20900866.320    85585690.17449
  23605961.600   124050385.13307  23605967.040    96662763.20546
  24051585.380   126391943.82205  24051590.580    98487247.42446
  22647856.280   119015677.67808  22647858.020    92739684.63447
  22008237.760   115654087.71808  22008239.080    90120079.96548
 15 02 08 00 46  0.0000000  0  7G16G18G21G25G27G29G31
  22792120.920   119773409.74307  22792122.280    93329942.17546
  23413684.540   123039774.79806  23413687.280    95875174.15345
  20902111.580   109841444.53208  20902112.400    85590792.60249
  23623499.220   124142544.46606  23623504.400    96734575.64846
  24037440.520   126317612.43005  24037445.620    98429326.91846
  22660926.220   119084360.62908  22660927.940    92793203.79947
  22021935.620   115726070.97008  22021937.120    90176170.79648
 15 02 08 00 46 30.0000000  0  7G16G18G21G25G27G29G31
  22775767.580   119687472.37707  22775768.940    93262978.01046
  23398985.880   122962532.75006  23398988.540    95814985.59545
  20903438.220   109848416.31408  20903439.080    85596225.16349
  23641077.460   124234918.12906  23641082.420    96806555.10345
  24023312.160   126243367.16105  24023317.140    98371473.52145
  22674008.320   119153107.07708  22674010.040    92846772.43747
  22035702.920   115798419.22708  22035704.640    90232546.04348
 15 02 08 00 47  0.0000000  0  7G16G18G21G25G27G29G31
  22759439.920   119601669.90207  22759441.260    93196118.94547
  23384310.860   122885414.07107  23384313.260    95754893.15045
  20904844.920   109855808.54908  20904845.760    85601985.35249
  23658695.800   124327503.23006  23658700.560    96878699.33145
  24009199.920   126169206.20106  24009204.640    98313685.81745
  22687102.060   119221914.91608  22687103.820    92900388.91247
  22049538.880   115871127.89508  22049540.700    90289202.13648
 15 02 08 00 47 30.0000000  0  7G16G18G21G25G27G29G31
  22743138.680   119516006.25307  22743139.980    93129368.06246
  23369660.320   122808423.40107  23369662.360    95694900.44244
  20906331.760   109863621.97708  20906332.600    85608073.74249
  23676354.420   124420300.49306  23676359.120    96951008.85045
  23995104.100   126095131.47806  23995108.640    98255965.29545
  22700207.680   119290785.28308  22700209.460    92954054.11547
  22063443.380   115944196.18108  22063445.140    90346138.44448
 15 02 08 00 48  0.0000000  0  7G16G18G21G25G27G29G31
  22726864.180   119430483.59807  22726865.560    93062727.03546
  23355034.580   122731563.55906  23355036.440    95635009.68345
  20907898.520   109871855.48508  20907899.360    85614489.46749
  23694053.140   124513308.74606  23694057.760    97023482.80144
  23981024.560   126021142.93806  23981029.100    98198311.91446
  22713325.140   119359718.11908  22713327.000    93007767.98047
  22077415.860   116017621.45508  22077417.480    90403352.91848
 15 02 08 00 48 30.0000000  0  7G16G18G21G25G27G29G31
  22710616.420   119345101.71307  22710617.940    92996195.71447
  23340433.640   122654834.90707  23340435.260    95575221.13344
  20909544.800   109880506.68208  20909545.600    85621230.66649
  23711791.460   124606524.78806  23711796.020    97096118.64745
  23966961.100   125947238.53706  23966965.600    98140724.11445
  22726454.000   119428710.93807  22726455.960    93061528.60447
  22091455.380   116091399.12308  22091456.820    90460841.98648
 15 02 08 00 49  0.0000000  0  7G16G18G21G25G27G29G31
  22694396.060   119259863.34607  22694397.620    92929776.22947
  23325858.340   122578241.25707  23325859.800    95515537.79244
  20911270.520   109889575.37808  20911271.300    85628297.19049
  23729569.360   124699948.49006  23729573.940    97168916.32745
  23952913.860   125873419.37506  23952918.180    98083202.73246
  22739594.320   119497764.18008  22739596.360    93115336.29647
  22105561.560   116165527.26308  22105562.820    90518604.14948
 15 02 08 00 49 30.0000000  0  7G16G18G21G25G27G29G31
  22678203.380   119174770.13307  22678204.940    92863469.84047
  23311308.960   122501784.70006  23311310.480    95455961.25045
  20913075.320   109899059.69008  20913076.100    85635687.56549
  23747386.560   124793578.02206  23747391.040    97241874.37745
  23938882.720   125799684.77106  23938886.760    98025747.23445
  22752746.040   119566877.16407  22752748.120    93169190.55547
  22119733.820   116240002.94208  22119735.000    90576637.11948
 15 02 08 00 50  0.0000000  0  7G16G18G21G25G27G29G31
  22662038.900   119089825.07507  22662040.440    92797278.89647
  23296786.340   122425468.98407  23296788.060    95396494.48445
  20914959.160   109908959.39908  20914959.960    85643401.62849
  23765242.880   124887413.01806  23765247.340    97314992.54244
  23924867.780   125726035.58806  23924871.680    97968358.30745
  22765909.180   119636050.17307  22765911.300    93223091.57947
  22133971.800   116314824.08708  22133972.980    90634939.28748
 15 02 08 00 50 30.0000000  0  7G16G18G21G25G27G29G31
  22645902.900   119005029.60807  22645904.380    92731204.51247
  23282290.920   122349296.03307  23282292.760    95337138.95145
  20916921.800   109919273.36508  20916922.660    85651438.48949
  23783137.900   124981451.80706  23783142.520    97388269.49345
  23910868.960   125652471.23205  23910872.800    97911035.49646
  22779083.620   119705282.60907  22779085.820    93277038.91547
  22148274.980   116389987.64308  22148276.220    90693508.27148
 15 02 08 00 51  0.0000000  0  7G16G18G21G25G27G29G31
  22629795.720   118920385.86807  22629797.160    92665248.34647
  23267823.360   122273268.82107  23267825.360    95277897.00045
  20918963.140   109930000.74208  20918964.020    85659797.48849
  23801071.520   125075693.38206  23801076.280    97461704.44045
  23896886.260   125578992.03205  23896890.180    97853779.00246
  22792269.360   119774574.16107  22792271.580    93331032.30647
  22162642.900   116465491.09108  22162644.180    90752342.10848
 15 02 08 00 51 30.0000000  0  7G16G18G21G25G27G29G31
  22613717.740   118835895.86507  22613719.260    92599412.00847
  23253384.200   122197390.24407  23253386.300    95218770.86545
  20921082.960   109941140.52708  20921083.840    85668477.84649
  23819043.580   125170136.63506  23819048.460    97535296.56746
  23882919.680   125505598.04405  23882923.820    97796588.92146
  22805466.360   119843924.72207  22805468.580    93385071.67947
  22177075.040   116541332.12008  22177076.440    90811438.98948
 15 02 08 00 52  0.0000000  0  7G16G18G21G25G27G29G31
  22597669.280   118751560.56508  22597670.820    92533696.18447
  23238973.640   122121661.70207  23238975.720    95159761.64645
  20923280.820   109952690.33008  20923281.700    85677477.69749
  23837053.660   125264779.07806  23837058.560    97609043.91046
  23868969.120   125432288.02905  23868973.460    97739464.26846
  22818674.260   119913332.51607  22818676.440    93439155.64446
  22191570.520   116617506.22408  22191572.020    90870795.40948
 15 02 08 00 52 30.0000000  0  7G16G18G21G25G27G29G31
  22581650.860   118667382.79508  22581652.320    92468103.12747
  23224592.380   122046086.78507  23224594.400    95100872.12345
  20925556.580   109964649.61908  20925557.460    85686796.62349
  23855101.600   125359620.53106  23855106.440    97682946.30146
  23855034.780   125359063.00405  23855039.220    97682405.82646
  22831893.200   119982798.30507  22831895.360    93493284.80547
  22206129.040   116694011.98108  22206130.680    90930410.26748
 15 02 08 00 53  0.0000000  0  7G16G18G21G25G27G29G31
  22565662.860   118583365.29608  22565664.320    92402634.94747
  23210240.960   121970668.70207  23210242.960    95042104.81645
  20927910.280   109977018.40908  20927911.160    85696434.64349
  23873187.180   125454660.31006  23873192.020    97757003.23446
  23841116.700   125285923.49905  23841121.360    97625414.04346
  22845123.320   120052322.52907  22845125.360    93547459.50547
  22220750.240   116770847.29008  22220751.980    90990281.91748
 15 02 08 00 53 30.0000000  0  7G16G18G21G25G27G29G31
  22549705.600   118499509.18708  22549707.000    92337292.52947
  23195919.640   121895409.40807  23195921.680    94983461.22745
  20930341.560   109989794.69608  20930342.420    85706390.19149
  23891310.020   125549896.18006  23891314.880    97831212.97446
  23827214.820   125212868.52605  23827219.440    97568488.10447
  22858364.260   120121903.76307  22858366.220    93601678.62547
  22235433.480   116848008.38908  22235435.220    91050407.42448
 15 02 08 00 54  0.0000000  0  7G16G18G21G25G27G29G31
  22533779.640   118415817.86008  22533781.080    92272078.52247
  23181629.200   121820312.72007  23181631.360    94924944.35846
  20932850.360   110002978.37108  20932851.180    85716663.19149
  23909470.160   125645328.25706  23909474.880    97905575.61345
  23813329.320   125139899.54206  23813333.840    97511629.18046
  22871616.100   120191542.93607  22871618.180    93655942.89347
  22250178.460   116925493.72908  22250180.140    91110785.58748
 15 02 08 00 54 30.0000000  0  7G16G18G21G25G27G29G31
  22517885.380   118332293.03408  22517886.820    92206994.24647
  23167370.080   121745381.08807  23167372.280    94866556.09846
  20935436.360   110016567.99808  20935437.200    85727252.51949
  23927667.080   125740954.88906  23927671.900    97980089.84144
  23799460.080   125067015.97906  23799464.560    97454836.83646
  22884878.780   120261239.34607  22884881.040    93710251.75447
  22264984.600   117003300.18908  22264986.160    91171413.96747
 15 02 08 00 55  0.0000000  0  7G16G18G21G25G27G29G31
  22502022.860   118248934.85708  22502024.300    92142039.83347
  23153142.460   121670615.23707  23153144.740    94808297.02145
  20938099.020   110030560.38408  20938099.840    85738155.68349
  23945900.360   125836772.92206  23945905.320    98054753.21545
  23785606.800   124994216.08806  23785611.140    97398109.67846
  22898152.080   120330991.20807  22898154.440    93764603.84447
  22279850.960   117081423.23808  22279852.520    91232289.03548
 15 02 08 00 55 30.0000000  0  7G16G18G21G25G27G29G31
  22486192.760   118165747.02308  22486194.160    92077218.15447
  23138947.260   121596019.48507  23138949.520    94750170.49745
  20940838.520   110044956.53208  20940839.320    85749373.46349
  23964170.200   125932782.87006  23964175.240    98129566.14545
  23771769.720   124921501.58706  23771773.980    97341449.06445
  22911436.100   120400799.52007  22911438.540    93818999.91346
  22294777.380   117159861.91608  22294778.960    91293410.06248
 15 02 08 00 56  0.0000000  0  7G16G18G21G25G27G29G31
  22470395.280   118082730.72408  22470396.620    92012530.13947
  23124784.840   121521595.88907  23124787.000    94692178.11345
  20943654.420   110059754.31808  20943655.240    85760904.21249
  23982476.360   126028982.44206  23982481.160    98204526.84144
  23757948.640   124848871.55806  23757952.840    97284854.29146
  22924730.660   120470663.49507  22924733.280    93873439.35647
  22309763.200   117238612.52108  22309764.740    91354774.14247
 15 02 08 00 56 30.0000000  0  7G16G18G21G25G27G29G31
  22454630.780   117999888.04308  22454632.080    91947977.41147
  23110655.640   121447346.61207  23110657.640    94634321.55645
  20946546.500   110074952.49008  20946547.340    85772746.95149
  24000818.540   126125370.47606  24000823.160    98279634.37144
  23744143.560   124776326.00106  23744147.780    97228325.33145
  22938035.760   120540582.66707  22938038.540    93927921.79147
  22324807.800   117317672.26808  22324809.340    91416379.12248
 15 02 08 00 57  0.0000000  0  7G16G18G21G25G27G29G31
  22438899.680   117917220.78308  22438900.920    91883561.37747
  23096560.080   121373274.24907  23096562.040    94576602.86945
  20949514.440   110090549.26008  20949515.320    85784900.28449
  24019196.340   126221945.23506  24019200.960    98354887.40745
  23730354.460   124703864.50906  23730358.660    97171861.86345
  22951351.360   120610556.29407  22951354.100    93982446.68346
  22339910.620   117397038.00408  22339912.100    91478222.52747
 15 02 08 00 57 30.0000000  0  7G16G18G21G25G27G29G31
  22423202.600   117834732.05508  22423203.740    91819284.45647
  23082498.920   121299382.47807  23082500.820    94519024.89045
  20952558.240   110106544.62908  20952559.140    85797364.21849
  24037609.680   126318706.43406  24037614.140    98430285.72445
  23716581.560   124631488.16606  23716585.760    97115464.76545
  22964677.440   120680584.94207  22964680.100    94037014.43146
  22355071.300   117476707.80308  22355072.720    91540302.86247
 15 02 08 00 58  0.0000000  0  7G16G18G21G25G27G29G31
  22407539.820   117752423.43108  22407540.920    91755147.87847
  23068472.600   121225673.52507  23068474.520    94461589.36445
  20955677.580   110122936.78208  20955678.460    85810137.32949
  24056058.120   126415652.19006  24056062.560    98505827.85145
  23702824.800   124559196.32005  23702828.920    97059133.48845
  22978013.880   120750668.09707  22978016.400    94091624.66146
  22370289.240   117556678.41508  22370290.580    91602617.59947
 15 02 08 00 58 30.0000000  0  7G16G18G21G25G27G29G31
  22391911.940   117670298.18608  22391913.040    91691154.18847
  23054481.740   121152150.86007  23054483.740    94404298.99645
  20958872.420   110139725.69508  20958873.280    85823219.60549
  24074541.520   126512782.40906  24074546.120    98581513.68245
  23689084.420   124486990.22506  23689088.420    97002869.04245
  22991360.840   120820806.66407  22991363.220    94146278.06347
  22385564.100   117636948.22708  22385565.400    91665165.47047
 15 02 08 00 59  0.0000000  0  7G16G18G21G25G27G29G31
  22376319.120   117588357.17408  22376320.220    91627304.06447
  23040526.660   121078816.48207  23040528.820    94347155.34446
  20962142.280   110156908.78608  20962143.080    85836609.02649
  24093059.400   126610094.62006  24093064.260    98657341.36644
  23675360.140   124414868.82306  23675364.140    96946670.56545
  23004718.120   120890999.38907  23004720.460    94200973.66346
  22400895.120   117717513.27308  22400896.440    91727943.39947
 15 02 08 00 59 30.0000000  0  7G16G18G21G25G27G29G31
