     2.11           OBSERVATION DATA    G                   RINEX VERSION / TYPE
SPIDER V4,0,0,3554                      2015 04 15 03:58    PGM / RUN BY / DATE 
CABS                                                        MARKER NAME         
CABS                                                        MARKER NUMBER       
                                                            OBSERVER / AGENCY   
462287              LEICA GRX1200PRO    8.10/2.127          REC # / TYPE / VERS 
103298              LEIAT504                                ANT # / TYPE        
  5116912.3402   671231.6412  3737143.4301                  APPROX POSITION XYZ 
        0.0600        0.0000        0.0000                  ANTENNA: DELTA H/E/N
     1     1                                                WAVELENGTH FACT L1/2
     4    C1    L1    P2    L2                              # / TYPES OF OBSERV 
    30.000                                                  INTERVAL            
  2015    01    26    00    00    0.0000000     GPS         TIME OF FIRST OBS   
  2015    01    26    23    59   30.0000000     GPS         TIME OF LAST OBS    
    16                                                      LEAP SECONDS        
    30                                                      # OF SATELLITES     
   G 1   801   801   801   801                              PRN / # OF OBS      
   G 2   941   941   941   941                              PRN / # OF OBS      
   G 3   847   847   847   847                              PRN / # OF OBS      
   G 4   831   831   831   831                              PRN / # OF OBS      
   G 5   646   646   646   646                              PRN / # OF OBS      
   G 6   836   836   836   836                              PRN / # OF OBS      
   G 7   671   671   671   671                              PRN / # OF OBS      
   G 9   808   808   808   808                              PRN / # OF OBS      
   G10   752   752   752   752                              PRN / # OF OBS      
   G11   771   771   771   771                              PRN / # OF OBS      
   G12   836   836   836   836                              PRN / # OF OBS      
   G13   792   792   792   792                              PRN / # OF OBS      
   G14   950   950   950   950                              PRN / # OF OBS      
   G15   699   699   699   699                              PRN / # OF OBS      
   G16   659   659   659   659                              PRN / # OF OBS      
   G17   941   941   941   941                              PRN / # OF OBS      
   G18   900   900   900   900                              PRN / # OF OBS      
   G19   750   750   750   750                              PRN / # OF OBS      
   G20   825   825   825   825                              PRN / # OF OBS      
   G21   743   743   743   743                              PRN / # OF OBS      
   G22   657   657   656   656                              PRN / # OF OBS      
   G23   755   755   755   755                              PRN / # OF OBS      
   G24   816   816   816   816                              PRN / # OF OBS      
   G25   856   856   856   856                              PRN / # OF OBS      
   G27   794   794   793   793                              PRN / # OF OBS      
   G28   870   870   870   870                              PRN / # OF OBS      
   G29   785   785   785   785                              PRN / # OF OBS      
   G30   718   718   718   718                              PRN / # OF OBS      
   G31   869   869   869   869                              PRN / # OF OBS      
   G32   768   768   768   768                              PRN / # OF OBS      
BIT 2 OF LLI FLAGS DATA COLLECTED UNDER A/S CONDITION       COMMENT             
SNR is mapped to RINEX snr flag value [2-9]                 COMMENT             
Lx:     = 25dBHz -> 1; 26-27dBHz -> 2; 28-31dBHz -> 3       COMMENT             
       32-35dBHz -> 4; 36-38dBHz -> 5; 39-41dBHz -> 6       COMMENT             
       42-44dBHz -> 7; 45-48dBHz -> 8; >=49dBHz -> 9        COMMENT             
                                                            END OF HEADER       
 15 01 26 00 00  0.0000000  0  6G12G14G21G25G29G31
  23885509.720   125519370.90806  23885510.900    97807369.60245
  24386598.900   128152425.02705  24386600.760    99859025.88243
  22298609.860   117179998.68908  22298610.260    91309114.39947
  21142487.720   111104555.89808  21142491.540    86575016.22148
  20470241.960   107571959.24609  20470243.400    83822357.52949
  21105608.360   110910727.21509  21105608.720    86423945.27548
 15 01 26 00 00 30.0000000  0  6G12G14G21G25G29G31
  23900096.280   125596024.44506  23900097.660    97867099.61846
  24402071.280   128233732.97005  24402073.200    99922382.58744
  22284125.180   117103880.64008  22284125.580    91249801.63047
  21149801.860   111142992.77808  21149805.800    86604967.02448
  20477459.440   107609887.34609  20477460.900    83851911.89349
  21100096.080   110881759.95109  21100096.440    86401373.37549
 15 01 26 00 01  0.0000000  0  6G12G14G21G25G29G31
  23914709.640   125672818.50406  23914711.120    97926939.12246
  24417548.620   128315067.41605  24417550.620    99985759.97744
  22269698.460   117028067.59208  22269698.920    91190726.52347
  21157169.700   111181711.67908  21157173.760    86635137.58448
  20484730.680   107648097.94709  20484732.120    83881686.38549
  21094684.000   110853319.35509  21094684.380    86379211.86949
 15 01 26 00 01 30.0000000  0  6G12G14G21G25G29G31
  23929350.000   125749754.03606  23929351.460    97986888.88346
  24433030.560   128396426.84805  24433032.960   100049156.81245
  22255330.320   116952562.98408  22255330.900    91131891.75447
  21164591.680   111220714.40608  21164595.760    86665529.30948
  20492055.600   107686590.54809  20492057.000    83911680.62049
  21089372.640   110825407.98809  21089373.040    86357462.75049
 15 01 26 00 02  0.0000000  0  6G12G14G21G25G29G31
  23944017.280   125826830.69507  23944018.640    98046948.60145
  24448516.680   128477807.58505  24448519.180   100112570.23745
  22241021.000   116877367.97008  22241021.760    91073298.22447
  21172067.620   111260000.46008  21172071.700    86696141.80848
  20499433.620   107725362.30209  20499435.000    83941892.37649
  21084162.200   110798026.57909  21084162.540    86336126.58149
 15 01 26 00 02 30.0000000  0  6G12G14G21G25G29G31
  23958711.460   125904049.14206  23958712.740    98107118.82245
  24464006.560   128559207.51705  24464009.300   100175998.62044
  22226771.200   116802485.87708  22226772.180    91014948.53147
  21179597.840   111299571.60708  21179601.860    86726976.46248
  20506864.760   107764413.21709  20506866.120    83972321.65449
  21079053.080   110771177.67009  21079053.380    86315205.35349
 15 01 26 00 03  0.0000000  0  6G12G14G21G25G29G31
  23973432.520   125981409.40006  23973433.800    98167399.52446
  24479499.840   128640623.49805  24479502.420   100239439.51544
  22212581.380   116727918.32108  22212582.460    90956843.93847
  21187182.300   111339427.58508  21187186.180    86758033.05448
  20514348.660   107803741.32409  20514350.040    84002966.93149
  21074045.380   110744861.94509  21074045.680    86294699.58949
 15 01 26 00 03 30.0000000  0  6G12G14G21G25G29G31
  23988180.780   126058912.95106  23988182.220    98227791.88746
  24494996.040   128722054.28505  24494998.460   100302891.90444
  22198452.240   116653668.84808  22198453.260    90898987.21247
  21194821.340   111379570.41308  21194825.120    86789313.16948
  20521885.280   107843346.65809  20521886.700    84033828.22249
  21069139.700   110719082.46709  21069140.040    86274611.67849
 15 01 26 00 04  0.0000000  0  6G12G14G21G25G29G31
  24002956.000   126136557.61706  24002957.660    98288294.18946
  24510494.080   128803495.44205  24510496.440   100366352.38545
  22184383.780   116579737.72508  22184384.620    90841378.55247
  21202514.660   111419998.75908  21202518.380    86820815.76648
  20529473.980   107883225.45909  20529475.400    84064902.61249
  21064335.880   110693838.59009  21064336.320    86254941.12149
 15 01 26 00 04 30.0000000  0  6G12G14G21G25G29G31
  24017757.920   126214341.89706  24017759.620    98348905.33945
  24525993.020   128884942.17005  24525995.460   100429817.19544
  22170375.980   116506125.26708  22170376.580    90784018.20847
  21210262.020   111460711.20808  21210265.700    86852539.73648
  20537114.220   107923375.01809  20537115.620    84096187.98349
  21059633.840   110669129.53209  21059634.360    86235687.30549
 15 01 26 00 05  0.0000000  0  5G12G21G25G29G31
  24032586.780   126292267.84906  24032588.400    98409626.81945
  22156429.440   116432835.32608  22156429.960    90726909.16947
  21218063.900   111501710.22008  21218067.600    86884487.00248
  20544806.020   107963795.63209  20544807.400    84127684.56549
  21055034.260   110644958.75709  21055034.820    86216852.93549
 15 01 26 00 05 30.0000000  0  5G12G21G25G29G31
  24047442.320   126370332.94306  24047443.600    98470456.84245
  22142544.120   116359867.70308  22142544.660    90670051.28347
  21225919.900   111542993.83308  21225923.640    86916656.04148
  20552548.660   108004483.39009  20552550.020    84159389.31249
  21050536.980   110621325.31209  21050537.560    86198437.25949
 15 01 26 00 06  0.0000000  0  5G12G21G25G29G31
  24062324.860   126448541.04506  24062326.060    98531398.13145
  22128721.180   116287228.39608  22128721.860    90613449.22647
  21233830.920   111584566.50808  21233834.700    86949050.31748
  20560342.620   108045441.02609  20560343.980    84191304.35149
  21046142.960   110598234.37409  21046143.500    86180444.31449
 15 01 26 00 06 30.0000000  0  5G12G21G25G29G31
  24077233.380   126526884.49107  24077234.520    98592445.00046
  22114959.760   116214912.17608  22114960.540    90557098.91647
  21241795.620   111626421.06308  21241799.420    86981664.24848
  20568186.180   108086659.33809  20568187.560    84223422.51649
  21041850.980   110575679.56409  21041851.480    86162869.13249
 15 01 26 00 07  0.0000000  0  5G12G21G25G29G31
  24092169.200   126605372.46306  24092170.360    98653604.40846
  22101261.900   116142929.57608  22101262.700    90501008.58647
  21249815.760   111668567.00508  21249819.580    87014505.22748
  20576080.780   108128145.83609  20576082.200    84255749.65749
  21037663.020   110553671.41309  21037663.500    86145719.91949
 15 01 26 00 07 30.0000000  0  5G12G21G25G29G31
  24107131.960   126684002.17107  24107133.040    98714874.31045
  22087627.380   116071279.44508  22087628.120    90445177.32247
  21257890.800   111711001.75008  21257894.740    87047571.25248
  20584025.600   108169896.11509  20584027.020    84288282.33849
  21033578.700   110532207.97509  21033579.120    86128995.15849
 15 01 26 00 08  0.0000000  0  5G12G21G25G29G31
  24122121.100   126762770.46006  24122122.180    98776252.25345
  22074056.300   115999962.33108  22074056.940    90389605.54547
  21266020.460   111753723.25508  21266024.420    87080860.72248
  20592019.920   108211906.48509  20592021.360    84321017.69149
  21029597.720   110511287.90409  21029598.160    86112693.80249
 15 01 26 00 08 30.0000000  0  5G12G21G25G29G31
  24137136.880   126841679.52106  24137138.260    98837739.79045
  22060549.140   115928981.38708  22060549.740    90334295.72747
  21274205.040   111796733.63408  21274209.000    87114375.29248
  20600063.760   108254176.92109  20600065.140    84353955.68949
  21025720.660   110490914.07109  21025721.160    86096818.08249
 15 01 26 00 09  0.0000000  0  5G12G21G25G29G31
  24152179.580   126920729.57507  24152181.020    98899337.23645
  22047106.320   115858338.83108  22047106.900    90279249.57947
  21282444.740   111840033.75408  21282448.720    87148115.62248
  20608156.900   108296706.61909  20608158.240    84387095.71449
  21021947.840   110471088.06309  21021948.420    86081369.24449
 15 01 26 00 09 30.0000000  0  5G12G21G25G29G31
  24167247.660   126999912.06506  24167248.920    98961037.94045
  22033726.460   115788027.69908  22033727.200    90224461.68647
  21290737.980   111883615.07708  21290741.980    87182075.07848
  20616297.360   108339484.95909  20616298.680    84420429.47949
  21018277.840   110451801.99309  21018278.420    86066341.13449
 15 01 26 00 10  0.0000000  0  5G12G21G25G29G31
  24182342.820   127079238.27906  24182344.100    99022850.50046
  22020412.280   115718061.93108  22020413.180    90169942.91647
  21299087.020   111927489.55808  21299091.000    87216262.97448
  20624487.060   108382522.09709  20624488.380    84453964.91349
  21014713.060   110433068.78809  21014713.640    86051743.82549
 15 01 26 00 10 30.0000000  0  5G12G21G25G29G31
  24197464.660   127158704.10807  24197465.940    99084771.92746
  22007163.440   115648439.22008  22007164.420    90115691.44647
  21307491.120   111971653.64008  21307495.160    87250676.52548
  20632725.020   108425812.74309  20632726.340    84487697.88249
  21011252.940   110414885.45609  21011253.440    86037574.98749
 15 01 26 00 11  0.0000000  0  5G12G21G25G29G31
  24212612.160   127238303.99306  24212613.320    99146797.83045
  21993979.320   115579155.97008  21993980.300    90061704.49547
  21315949.340   112016102.08108  21315953.440    87285311.65748
  20641009.840   108469349.64209  20641011.160    84521622.73749
  21007896.540   110397247.30509  21007897.000    86023830.97349
 15 01 26 00 11 30.0000000  0  5G12G21G25G29G31
  24227787.180   127318049.72906  24227788.440    99208937.31846
  21980862.460   115510226.15608  21980863.380    90007992.95547
  21324464.060   112060847.26808  21324468.180    87320178.02648
  20649343.600   108513143.75209  20649344.920    84555748.01549
  21004646.360   110380167.29709  21004646.760    86010521.87649
 15 01 26 00 12  0.0000000  0  5G12G21G25G29G31
  24242988.220   127397932.47706  24242989.600    99271183.60145
  21967811.580   115441642.95908  21967812.440    89954551.50347
  21333033.700   112105881.02008  21333037.860    87355269.25148
  20657724.360   108557184.95609  20657725.680    84590065.83649
  21001501.000   110363638.12909  21001501.360    85997642.00349
 15 01 26 00 12 30.0000000  0  5G12G21G25G29G31
  24258216.100   127477956.50406  24258217.580    99333539.99145
  21954827.700   115373412.06708  21954828.540    89901384.58047
  21341659.060   112151207.62108  21341663.280    87390588.66048
  20666152.560   108601475.61209  20666153.920    84624578.02949
  20998461.300   110347664.49809  20998461.660    85985195.01349
 15 01 26 00 13  0.0000000  0  5G12G21G25G29G31
  24273469.580   127558114.71106  24273471.160    99396000.93845
  21941910.000   115305529.05808  21941910.820    89848488.72347
  21350338.980   112196820.65908  21350343.180    87426131.27948
  20674626.660   108646007.51009  20674628.040    84659278.20649
  20995526.220   110332240.60609  20995526.580    85973176.38849
 15 01 26 00 13 30.0000000  0  5G12G21G25G29G31
  24288748.860   127638407.46906  24288750.340    99458566.72045
  21929058.820   115237995.72008  21929059.620    89795865.34547
  21359073.500   112242720.66108  21359077.700    87461897.50448
  20683146.420   108690779.14109  20683147.800    84694165.18649
  20992695.980   110317367.63909  20992696.340    85961587.05949
 15 01 26 00 14  0.0000000  0  5G12G21G25G29G31
  24304054.700   127718839.13706  24304055.940    99521240.71444
  21916275.540   115170818.99608  21916276.240    89743519.84847
  21367863.660   112288912.87508  21367867.780    87497891.43548
  20691712.560   108735794.38709  20691713.920    84729242.00449
  20989971.700   110303051.60409  20989972.100    85950431.70249
 15 01 26 00 14 30.0000000  0  5G12G21G25G29G31
  24319386.640   127799407.96206  24319387.560    99584021.60845
  21903559.960   115103998.16508  21903560.640    89691451.66747
  21376709.040   112335395.26408  21376713.020    87534111.47048
  20700324.320   108781049.27609  20700325.620    84764505.55349
  20987353.080   110289290.81209  20987353.520    85939709.00649
 15 01 26 00 15  0.0000000  0  5G12G21G25G29G31
  24334744.700   127880114.47606  24334745.580    99646909.78845
  21890912.620   115037536.19908  21890913.320    89639663.13347
  21385609.840   112382169.28908  21385613.740    87570558.74848
  20708981.660   108826543.80709  20708982.920    84799955.83149
  20984840.540   110276087.25709  20984840.980    85929420.51949
 15 01 26 00 15 30.0000000  0  5G12G21G25G29G31
  24350128.740   127960958.24406  24350129.800    99709904.90545
  21878333.800   114971434.34808  21878334.540    89588155.20147
  21394566.100   112429234.85308  21394570.000    87607233.19948
  20717684.160   108872275.73709  20717685.420    84835591.09649
  20982434.140   110263441.38009  20982434.540    85919566.58149
 15 01 26 00 16  0.0000000  0  5G12G21G25G29G31
  24365538.920   128041939.49907  24365540.080    99773007.20745
  21865823.960   114905694.77108  21865824.720    89536929.55147
  21403577.980   112476592.66508  21403581.900    87644135.38248
  20726431.660   108918244.30709  20726432.980    84871410.75949
  20980134.080   110251354.39109  20980134.440    85910148.14649
 15 01 26 00 16 30.0000000  0  5G12G21G25G29G31
  24380974.660   128123054.69506  24380975.740    99836213.86945
  21853382.820   114840316.08408  21853383.600    89485985.11547
  21412644.820   112524239.41208  21412648.820    87681262.70748
  20735223.180   108964444.46708  20735224.580    84907410.88149
  20977939.860   110239823.56909  20977940.220    85901163.08149
 15 01 26 00 17  0.0000000  0  5G12G21G25G29G31
  24396436.380   128204306.47906  24396437.480    99899526.96245
  21841011.240   114775303.05308  21841012.040    89435325.61447
  21421767.280   112572178.45408  21421771.360    87718617.79948
  20744059.000   109010877.30808  20744060.460    84943592.30849
  20975852.200   110228852.86209  20975852.560    85892614.47749
 15 01 26 00 17 30.0000000  0  5G12G21G25G29G31
  24411924.380   128285696.74406  24411925.520    99962947.93845
  21828709.900   114710659.12508  21828710.700    89384953.71647
  21430945.820   112620411.98908  21430949.920    87756202.36148
  20752939.360   109057544.05208  20752940.840    84979956.00249
  20973871.560   110218444.80709  20973871.960    85884504.29649
 15 01 26 00 18  0.0000000  0  5G12G21G25G29G31
  24427438.040   128367221.69606  24427439.160   100026473.86045
  21816478.500   114646382.77908  21816479.280    89334868.25447
  21440179.880   112668936.96008  21440183.920    87794014.01548
  20761863.340   109104439.71809  20761864.800    85016498.07149
  20971997.480   110208596.65309  20971997.900    85876830.40549
 15 01 26 00 18 30.0000000  0  5G12G21G25G29G31
  24442977.280   128448880.67506  24442978.300   100090104.20744
  21804317.300   114582475.15708  21804318.000    89285070.11747
  21449469.360   112717753.08208  21449473.300    87832052.54148
  20770830.520   109151562.20409  20770831.900    85053216.88749
  20970229.960   110199308.43509  20970230.380    85869592.82949
 15 01 26 00 19  0.0000000  0  5G12G21G25G29G31
  24458541.780   128530671.92106  24458542.700   100153837.63045
  21792226.100   114518935.33608  21792226.700    89235558.57447
  21458813.800   112766858.08308  21458817.600    87870316.17048
  20779840.080   109198907.50709  20779841.400    85090109.32749
  20968568.740   110190578.58109  20968569.160    85862790.33749
 15 01 26 00 19 30.0000000  0  5G12G21G25G29G31
  24474132.440   128612600.74506  24474133.200   100217678.28145
  21780206.500   114455771.71208  21780206.980    89186340.16647
  21468214.520   112816258.64308  21468218.200    87908810.10048
  20788893.080   109246481.26109  20788894.380    85127179.77949
  20967015.140   110182414.14309  20967015.540    85856428.43549
 15 01 26 00 20  0.0000000  0  5G12G21G25G29G31
  24489748.580   128694663.96506  24489749.220   100281623.63544
  21768258.160   114392982.70108  21768258.600    89137413.66647
  21477670.880   112865951.84008  21477674.480    87947532.06048
  20797988.560   109294278.10809  20797989.820    85164424.06949
  20965568.660   110174812.67309  20965569.060    85850505.20649
 15 01 26 00 20 30.0000000  0  5G12G21G25G29G31
  24505390.280   128776862.25806  24505390.960   100345674.24944
  21756381.540   114330570.64908  21756382.040    89088780.90747
  21487183.020   112915938.58108  21487186.640    87986482.76148
  20807126.400   109342297.57109  20807127.600    85201841.82649
  20964229.480   110167775.09109  20964229.880    85845021.37549
 15 01 26 00 21  0.0000000  0  5G12G21G25G29G31
  24521056.960   128859191.16706  24521057.600   100409826.63144
  21744576.180   114268532.81708  21744576.700    89040439.75147
  21496750.200   112966214.91308  21496753.920    88025659.11048
  20816305.620   109390534.41409  20816306.760    85239428.97049
  20962996.920   110161297.91509  20962997.320    85839974.21949
 15 01 26 00 21 30.0000000  0  5G12G21G25G29G31
  24536749.140   128941654.12706  24536749.620   100474083.48145
  21732843.040   114206874.56908  21732843.600    88992394.36348
  21506373.220   113016784.69808  21506377.000    88065064.12648
  20825526.540   109438990.59909  20825527.680    85277187.03148
  20961871.760   110155385.50609  20961872.240    85835367.13749
 15 01 26 00 22  0.0000000  0  5G12G21G25G29G31
  24552467.280   129024254.13006  24552467.940   100538447.10845
  21721183.000   114145600.69508  21721183.620    88944648.48948
  21516052.760   113067651.46008  21516056.580    88104700.55848
  20834789.440   109487667.56509  20834790.600    85315117.13349
  20960854.740   110150041.45009  20960855.320    85831202.93849
 15 01 26 00 22 30.0000000  0  5G12G21G25G29G31
  24568210.000   129106983.20206  24568210.780   100602911.31844
  21709594.920   114084705.11308  21709595.640    88897197.39448
  21525787.380   113118807.34908  21525791.260    88144562.27348
  20844092.720   109536556.79109  20844093.940    85353212.62748
  20959944.520   110145258.30909  20959945.160    85827475.81149
 15 01 26 00 23  0.0000000  0  5G12G21G25G29G31
  24583978.180   129189845.63406  24583979.000   100667479.46345
  21698080.060   114024194.09708  21698080.800    88850045.95748
  21535578.080   113170257.41508  21535581.980    88184653.21548
  20853436.920   109585660.93809  20853438.180    85391475.59049
  20959142.100   110141041.47709  20959142.740    85824189.96449
 15 01 26 00 23 30.0000000  0  5G12G21G25G29G31
  24599771.200   129272838.43606  24599772.080   100732149.16045
  21686638.120   113964066.28508  21686638.840    88803193.13048
  21545424.200   113221998.85108  21545428.140    88224971.19748
  20862821.340   109634976.34809  20862822.600    85429903.18048
  20958447.020   110137388.46009  20958447.580    85821343.45349
 15 01 26 00 24  0.0000000  0  5G12G21G25G29G31
  24615589.240   129355962.57606  24615590.080   100796921.20744
  21675269.660   113904324.67508  21675270.340    88756641.23847
  21555326.020   113274033.30608  21555330.060    88265517.51148
  20872245.920   109684502.81408  20872247.180    85468495.22349
  20957859.560   110134301.09309  20957860.060    85818937.70449
 15 01 26 00 24 30.0000000  0  5G12G21G25G29G31
  24631432.520   129439219.78706  24631433.440   100861796.93544
  21663975.280   113844972.29708  21663975.920    88710392.64448
  21565283.880   113326362.53908  21565288.080    88306293.52748
  20881710.660   109734240.40009  20881711.920    85507251.77849
  20957380.100   110131781.35309  20957380.560    85816974.26449
 15 01 26 00 25  0.0000000  0  5G12G21G25G29G31
  24647300.880   129522609.02306  24647301.920   100926775.56144
  21652755.180   113786010.42608  21652755.840    88664448.33148
  21575297.800   113378986.37008  21575302.120    88347299.09348
  20891215.240   109784187.30009  20891216.500    85546171.43648
  20957008.600   110129829.07309  20957009.040    85815453.00149
 15 01 26 00 25 30.0000000  0  5G12G21G25G29G31
  24663193.980   129606127.67306  24663195.000   100991855.03245
  21641609.220   113727437.84008  21641609.860    88618807.34248
  21585367.340   113431902.20208  21585371.640    88388532.18848
  20900758.960   109834339.84009  20900760.240    85585251.32949
  20956744.680   110128442.13309  20956745.120    85814372.26049
 15 01 26 00 26  0.0000000  0  5G12G21G25G29G31
  24679111.720   129689775.38006  24679112.720   101057035.07045
  21630537.580   113669256.05308  21630538.240    88573470.88948
  21595492.580   113485110.06408  21595496.700    88429992.84048
  20910341.500   109884696.29909  20910342.800    85624490.12648
  20956588.360   110127620.63109  20956588.820    85813732.12349
 15 01 26 00 26 30.0000000  0  5G12G21G25G29G31
  24695054.540   129773554.59806  24695055.460   101122317.58745
  21619541.040   113611469.10808  21619541.720    88528442.10048
  21605673.980   113538612.93108  21605677.940    88471683.36348
  20919963.020   109935257.70908  20919964.340    85663888.62348
  20956540.180   110127367.57809  20956540.660    85813534.93249
 15 01 26 00 27  0.0000000  0  5G12G21G25G29G31
  24711021.900   129857462.81306  24711022.700   101187700.59845
  21608619.440   113554076.01708  21608620.160    88483720.21448
  21615911.060   113592408.62908  21615914.920    88513602.06848
  20929622.960   109986021.16308  20929624.320    85703444.55348
  20956599.840   110127681.25409  20956600.380    85813779.35349
 15 01 26 00 27 30.0000000  0  5G12G21G25G29G31
  24727013.700   129941500.23206  24727014.560   101253184.29045
  21597773.260   113497079.23008  21597774.020    88439307.13348
  21626203.900   113646497.96008  21626207.800    88555749.59348
  20939321.120   110036985.54208  20939322.540    85743157.04448
  20956767.460   110128562.27909  20956768.040    85814465.85849
 15 01 26 00 28  0.0000000  0  5G12G21G25G29G31
  24743029.920   130025666.42206  24743030.960   101318768.30645
  21587002.860   113440480.31908  21587003.620    88395204.09048
  21636552.580   113700881.08708  21636556.600    88598126.05348
  20949057.260   110088149.44308  20949058.720    85783025.01048
  20957043.160   110130011.07609  20957043.760    85815594.78949
 15 01 26 00 28 30.0000000  0  4G21G25G29G31
  21576297.680   113384223.93508  21576298.400    88351367.95448
  21646946.440   113755501.45008  21646950.500    88640687.37948
  20958820.360   110139454.88508  20958821.820    85823003.26548
  20957416.220   110131971.28309  20957416.780    85817122.21949
 15 01 26 00 29  0.0000000  0  4G21G25G29G31
  21565685.960   113328458.69208  21565686.660    88307914.52848
  21657413.440   113810506.17508  21657417.520    88683548.20348
  20968638.240   110191048.38908  20968639.720    85863205.98548
  20957914.600   110134589.96709  20957915.100    85819162.74349
 15 01 26 00 29 30.0000000  0  4G21G25G29G31
  21555142.000   113273049.62408  21555142.700    88264738.63148
  21667927.860   113865759.70908  21667931.860    88726602.89348
  20978484.700   110242792.04308  20978486.220    85903525.70048
  20958512.460   110137731.55909  20958512.920    85821610.73149
 15 01 26 00 30  0.0000000  0  4G21G25G29G31
  21544675.980   113218050.21208  21544676.660    88221881.94948
  21678499.440   113921313.45608  21678503.360    88769891.52347
  20988369.320   110294736.00608  20988370.840    85944001.50148
  20959219.620   110141447.54709  20959220.020    85824506.29649
 15 01 26 00 30 30.0000000  0  4G21G25G29G31
  21534289.460   113163468.62108  21534290.120    88179350.83548
  21689129.440   113977174.44308  21689133.280    88813419.55348
  20998293.180   110346886.20108  20998294.720    85984637.99948
  20960037.440   110145745.08109  20960037.820    85827855.01749
 15 01 26 00 31  0.0000000  0  4G21G25G29G31
  21523980.620   113109295.49808  21523981.300    88137138.01248
  21699815.880   114033332.35408  21699819.740    88857178.95348
  21008254.060   110399230.58208  21008255.540    86025425.81848
  20960963.900   110150613.67409  20960964.280    85831648.71849
 15 01 26 00 31 30.0000000  0  4G21G25G29G31
  21513749.240   113055529.36708  21513749.940    88095242.32848
  21710558.300   114089784.36208  21710562.200    88901167.52148
  21018251.160   110451765.29208  21018252.580    86066361.95648
  20961998.520   110156050.89609  20961998.940    85835885.51049
 15 01 26 00 32  0.0000000  0  4G21G25G29G31
  21503594.120   113002163.88808  21503594.820    88053658.83748
  21721355.220   114146522.65108  21721359.120    88945379.16548
  21028282.700   110504481.06508  21028284.060    86107439.17648
  20963139.780   110162048.62609  20963140.280    85840559.05649
 15 01 26 00 32 30.0000000  0  4G21G25G29G31
  21493516.000   112949203.00808  21493516.660    88012390.62548
  21732207.140   114203549.99908  21732211.060    88989816.04747
  21038348.920   110557379.23208  21038350.220    86148658.52248
  20964388.260   110168609.61909  20964388.800    85845671.51449
 15 01 26 00 33  0.0000000  0  4G21G25G29G31
  21483514.820   112896646.52608  21483515.460    87971437.52248
  21743113.780   114260864.83708  21743117.760    89034476.94147
  21048449.200   110610456.62208  21048450.520    86190017.52648
  20965743.660   110175732.42009  20965744.240    85851221.73649
 15 01 26 00 33 30.0000000  0  4G21G25G29G31
  21473591.240   112844497.83408  21473591.900    87930802.18648
  21754075.600   114318469.60308  21754079.660    89079363.76048
  21058583.900   110663715.02708  21058585.260    86231517.57348
  20967206.360   110183418.98209  20967206.940    85857211.25949
 15 01 26 00 34  0.0000000  0  4G21G25G29G31
  21463744.320   112792752.30208  21463745.080    87890481.00048
  21765091.560   114376358.48308  21765095.680    89124471.95948
  21068751.640   110717147.09808  21068753.060    86273152.95148
  20968775.340   110191663.72209  20968775.880    85863635.72249
 15 01 26 00 34 30.0000000  0  4G21G25G29G31
  21453976.980   112741424.95108  21453977.800    87850485.67048
  21776164.120   114434544.66308  21776168.280    89169811.83048
  21078954.660   110770764.41908  21078956.100    86314932.67648
  20970453.040   110200479.80109  20970453.520    85870505.38549
 15 01 26 00 35  0.0000000  0  4G21G25G29G31
  21444290.160   112690520.44508  21444291.000    87810819.82148
  21787294.020   114493032.09408  21787298.200    89215386.44148
  21089193.460   110824569.66108  21089194.880    86356858.82448
  20972240.160   110209871.06509  20972240.640    85877823.24949
 15 01 26 00 35 30.0000000  0  4G21G25G29G31
  21434681.480   112640026.48808  21434682.300    87771473.88748
  21798478.680   114551807.19308  21798482.840    89261185.21548
  21099465.240   110878548.50708  21099466.700    86398920.25248
  20974134.060   110219823.49509  20974134.540    85885578.38549
 15 01 26 00 36  0.0000000  0  4G21G25G29G31
  21425154.400   112589961.19008  21425155.160    87732461.96848
  21809721.260   114610886.80308  21809725.360    89307221.26948
  21109772.960   110932716.12808  21109774.440    86441128.78048
  20976137.960   110230353.92609  20976138.440    85893783.91049
 15 01 26 00 36 30.0000000  0  4G21G25G29G31
  21415705.820   112540308.54808  21415706.540    87693771.60048
  21821018.480   114670253.67508  21821022.500    89353481.16148
  21120113.060   110987053.99908  21120114.620    86483469.96848
  20978248.520   110241445.05209  20978249.020    85902426.33549
 15 01 26 00 37  0.0000000  0  4G21G25G29G31
  21406338.520   112491082.95208  21406339.220    87655413.99748
  21832372.860   114729921.09008  21832376.840    89399975.25048
  21130487.940   111041574.35108  21130489.540    86525953.35748
  20980468.260   110253109.96909  20980468.760    85911515.87749
 15 01 26 00 37 30.0000000  0  4G21G25G29G31
  21397051.140   112442277.27508  21397051.820    87617383.59748
  21843782.840   114789880.96308  21843786.780    89446697.21547
  21140895.740   111096267.73508  21140897.400    86568571.57648
  20982795.580   110265340.30009  20982796.100    85921045.99549
 15 01 26 00 38  0.0000000  0  4G21G25G29G31
  21387843.700   112393891.75708  21387844.400    87579680.60448
  21855248.220   114850132.27008  21855252.120    89493646.27747
  21151336.080   111151132.07908  21151337.800    86611323.00748
  20985230.220   110278134.47209  20985230.740    85931015.47349
 15 01 26 00 38 30.0000000  0  4G21G25G29G31
  21378717.300   112345932.15408  21378717.980    87542309.49148
  21866769.860   114910679.22508  21866773.740    89540825.71147
  21161809.600   111206170.44908  21161811.300    86654210.04848
  20987773.040   110291496.86809  20987773.540    85941427.72449
 15 01 26 00 39  0.0000000  0  4G21G25G29G31
  21369670.960   112298393.17708  21369671.580    87505266.14148
  21878346.580   114971515.53108  21878350.460    89588230.61447
  21172314.840   111261375.58108  21172316.500    86697227.02748
  20990422.760   110305421.12309  20990423.240    85952277.79049
 15 01 26 00 39 30.0000000  0  4G21G25G29G31
  21360705.120   112251277.33008  21360705.700    87468552.50048
  21889978.640   115032642.72608  21889982.540    89635862.18647
  21182851.880   111316747.65408  21182853.460    86740374.09048
  20993179.600   110319908.31009  20993180.080    85963566.50348
 15 01 26 00 40  0.0000000  0  4G21G25G29G31
  21351820.360   112204587.59408  21351820.920    87432170.89148
  21901666.420   115094062.59208  21901670.360    89683721.81447
  21193420.740   111372287.12808  21193422.260    86783651.60048
  20996043.760   110334959.73509  20996044.280    85975294.88349
 15 01 26 00 40 30.0000000  0  4G21G25G29G31
  21343015.180   112158316.04508  21343015.720    87396115.14748
  21913408.260   115155766.37808  21913412.240    89731802.68247
  21204019.540   111427984.16908  21204021.040    86827051.89048
  20999013.620   110350566.50709  20999014.180    85987456.00249
 15 01 26 00 41  0.0000000  0  4G21G25G29G31
  21334291.600   112112473.41708  21334292.120    87360393.62548
  21925205.780   115217763.15608  21925209.840    89780111.84347
  21214649.840   111483846.69408  21214651.360    86870581.12448
  21002090.860   110366737.46209  21002091.440    86000056.74049
 15 01 26 00 41 30.0000000  0  4G21G25G29G31
  21325649.580   112067059.59208  21325650.140    87325006.23348
  21937058.860   115280051.77908  21937062.980    89828648.42147
  21225311.300   111539873.13308  21225312.880    86914238.07948
  21005275.180   110383471.01909  21005275.740    86013095.87149
 15 01 26 00 42  0.0000000  0  4G21G25G29G31
  21317088.080   112022068.91608  21317088.700    87289948.56148
  21948966.340   115342625.88608  21948970.440    89877407.45747
  21236002.500   111596055.48208  21236004.020    86958016.52948
  21008565.260   110400760.49109  21008565.820    86026568.17848
 15 01 26 00 42 30.0000000  0  4G21G25G29G31
  21308609.480   111977513.83008  21308610.160    87255230.31048
  21960930.240   115405496.29208  21960934.220    89926397.36947
  21246725.260   111652403.64608  21246726.720    87001924.17948
  21011963.140   110418616.55209  21011963.700    86040481.98848
 15 01 26 00 43  0.0000000  0  4G21G25G29G31
  21300212.740   111933388.75508  21300213.480    87220847.14448
  21972949.340   115468656.60008  21972953.160    89975613.18947
  21257478.160   111708910.18008  21257479.540    87045955.23648
  21015467.500   110437032.00109  21015468.020    86054831.68548
 15 01 26 00 43 30.0000000  0  4G21G25G29G31
  21291898.100   111889695.08208  21291898.880    87186800.13048
  21985023.660   115532107.15908  21985027.380    90025055.17447
  21268261.000   111765574.29808  21268262.300    87090109.08448
  21019078.320   110456006.99109  21019078.820    86069617.38548
 15 01 26 00 44  0.0000000  0  4G21G25G29G31
  21283666.680   111846438.44708  21283667.440    87153093.66748
  21997154.080   115595852.63708  21997157.740    90074726.96847
  21279074.480   111822399.37908  21279075.740    87134388.35848
  21022796.420   110475545.78909  21022796.900    86084842.41248
 15 01 26 00 44 30.0000000  0  4G21G25G29G31
  21275518.300   111803617.78008  21275518.920    87119726.92648
  22009340.100   115659890.63008  22009343.800    90124626.69347
  21289918.020   111879382.62408  21289919.300    87178790.87648
  21026621.280   110495645.67409  21026621.780    86100504.65248
 15 01 26 00 45  0.0000000  0  4G21G25G29G31
  21267452.060   111761229.04008  21267452.580    87086696.74348
  22021580.820   115724216.39508  22021584.600    90174750.66147
  21300790.520   111936518.16308  21300791.780    87223312.06748
  21030551.940   110516301.40009  21030552.440    86116600.01349
 15 01 26 00 45 30.0000000  0  4G21G25G29G31
  21259468.020   111719272.31708  21259468.460    87054003.19448
  22033876.020   115788828.61908  22033879.940    90225097.84347
  21311691.560   111993803.67308  21311692.820    87267950.11648
  21034588.020   110537511.20409  21034588.560    86133127.12948
 15 01 26 00 46  0.0000000  0  5G16G21G25G29G31
  24572764.780   129130749.33906  24572766.040   100621372.28244
  21251566.940   111677752.10008  21251567.380    87021649.78948
  22046226.460   115853730.64108  22046230.400    90275670.84347
  21322621.620   112051241.56508  21322622.860    87312706.90948
  21038730.140   110559278.11009  21038730.680    86150088.35449
 15 01 26 00 46 30.0000000  0  5G16G21G25G29G31
  24555455.300   129039786.94806  24555456.440   100550492.51345
  21243742.440   111636634.53808  21243742.920    86989610.13248
  22058625.480   115918887.72808  22058629.400    90326442.59347
  21333573.780   112108795.81208  21333575.060    87357554.36648
  21042971.560   110581566.75209  21042972.100    86167456.11948
 15 01 26 00 47  0.0000000  0  5G16G21G25G29G31
  24538148.420   128948838.46505  24538149.640   100479623.58545
  21236007.360   111595986.88808  21236007.900    86957936.64348
  22071085.720   115984366.39508  22071089.600    90377464.92747
  21344560.560   112166532.35008  21344561.920    87402543.87148
  21047324.780   110604443.02509  21047325.320    86185281.78048
 15 01 26 00 47 30.0000000  0  5G16G21G25G29G31
  24520837.640   128857869.57005  24520838.840   100408738.74744
  21228355.200   111555774.60508  21228355.740    86926602.40948
  22083600.300   116050130.77008  22083604.220    90428709.89447
  21355575.000   112224413.99908  21355576.440    87447646.44848
  21051782.920   110627870.63009  21051783.440    86203537.05248
 15 01 26 00 48  0.0000000  0  5G16G21G25G29G31
  24503523.840   128766884.86605  24503524.980   100337841.61444
  21220786.740   111516001.94808  21220787.280    86895610.73848
  22096169.860   116116184.23508  22096173.880    90480180.11347
  21366617.740   112282444.04208  21366619.180    87492864.66148
  21056346.500   110651852.25009  21056346.960    86222224.02148
 15 01 26 00 48 30.0000000  0  5G16G21G25G29G31
  24486207.020   128675884.70206  24486208.080   100266932.42344
  21213301.980   111476669.03008  21213302.500    86864961.71748
  22108794.220   116182526.00808  22108798.400    90531874.99647
  21377688.320   112340620.42208  21377689.800    87538196.89348
  21061015.340   110676386.92009  21061015.740    86241341.93748
 15 01 26 00 49  0.0000000  0  5G16G21G25G29G31
  24468887.280   128584868.97205  24468888.280   100196011.10244
  21205900.900   111437775.94208  21205901.380    86834655.41748
  22121473.160   116249154.76808  22121477.420    90583793.50647
  21388786.380   112398940.98108  21388787.860    87583641.47948
  21065789.040   110701472.69909  21065789.400    86260889.29748
 15 01 26 00 49 30.0000000  0  5G16G21G25G29G31
  24451565.020   128493840.62205  24451566.100   100125079.95144
  21198583.840   111399324.60608  21198584.320    86804693.34548
  22134206.980   116316071.64908  22134211.180    90635936.53047
  21399911.960   112457405.88408  21399913.400    87629198.54148
  21070667.680   110727110.03309  21070668.020    86280866.43148
 15 01 26 00 50  0.0000000  0  5G16G21G25G29G31
  24434239.980   128402797.67905  24434241.100   100054137.43944
  21191350.400   111361312.63808  21191350.860    86775073.63448
  22146995.100   116383273.63608  22146999.160    90688301.70947
  21411064.280   112516011.14808  21411065.640    87674864.96748
  21075650.580   110753295.38109  21075650.920    86301270.59848
 15 01 26 00 50 30.0000000  0  5G16G21G25G29G31
  24416913.340   128311745.81105  24416914.480    99983187.96044
  21184201.520   111323745.09908  21184202.020    86745800.23348
  22159838.260   116450764.51608  22159842.120    90740892.00147
  21422243.920   112574759.98008  21422245.180    87720643.26948
  21080738.340   110780031.65309  21080738.680    86322104.05548
 15 01 26 00 51  0.0000000  0  5G16G21G25G29G31
  24399583.380   128220676.67705  24399584.600    99912225.02545
  21177135.560   111286613.21308  21177136.100    86716866.30248
  22172734.600   116518534.84408  22172738.340    90793700.04947
  21433448.900   112633642.39808  21433450.140    87766525.65648
  21085929.040   110807309.18109  21085929.480    86343359.26349
 15 01 26 00 51 30.0000000  0  5G16G21G25G29G31
  24382252.320   128129601.58905  24382253.680    99841257.47144
  21170154.760   111249928.98408  21170155.380    86688281.19548
  22185686.020   116586594.98408  22185689.780    90846733.92047
  21444681.060   112692667.61808  21444682.260    87812519.32248
  21091224.580   110835137.57409  21091225.100    86365043.72148
 15 01 26 00 52  0.0000000  0  5G16G21G25G29G31
  24364919.600   128038517.38105  24364920.780    99770282.79044
  21163258.300   111213687.86908  21163258.940    86660041.36448
  22198691.540   116654939.84108  22198695.460    90899989.65547
  21455939.260   112751829.90008  21455940.460    87858619.79248
  21096623.840   110863511.06809  21096624.420    86387152.93749
 15 01 26 00 52 30.0000000  0  5G16G21G25G29G31
  24347585.440   127947426.12306  24347586.140    99699296.03744
  21156446.020   111177888.97208  21156446.660    86632146.12248
  22211750.920   116723567.80108  22211755.040    90953465.98947
  21467223.000   112811126.63808  21467224.260    87904825.02348
  21102126.400   110892427.27109  21102127.020    86409685.04248
 15 01 26 00 53  0.0000000  0  5G16G21G25G29G31
  24330250.080   127856328.32805  24330251.120    99628310.75545
  21149718.760   111142537.01908  21149719.380    86604599.15448
  22224864.820   116792482.27808  22224869.100    91007165.58647
  21478532.920   112870561.17908  21478534.340    87951137.63848
  21107732.760   110921889.01309  21107733.420    86432642.23548
 15 01 26 00 53 30.0000000  0  5G16G21G25G29G31
  24312913.620   127765225.02506  24312914.740    99557321.19544
  21143076.100   111107629.85208  21143076.740    86577398.77148
  22238032.840   116861680.64108  22238037.140    91061086.39247
  21489868.360   112930129.50708  21489869.860    87997554.50748
  21113442.340   110951892.99309  21113442.980    86456021.95348
 15 01 26 00 54  0.0000000  0  5G16G21G25G29G31
  24295576.540   127674118.15805  24295577.740    99486328.87345
  21136518.400   111073169.20808  21136519.060    86550546.32548
  22251255.080   116931163.62308  22251259.280    91115228.97847
  21501229.360   112989831.79708  21501230.840    88044075.76048
  21119255.200   110982439.51509  21119255.800    86479824.43648
 15 01 26 00 54 30.0000000  0  5G16G21G25G29G31
  24278238.700   127583007.29105  24278239.960    99415333.42545
  21130045.500   111039154.08608  21130046.160    86524041.03948
  22264531.040   117000928.91708  22264535.080    91169591.54147
  21512615.240   113049664.83208  21512616.700    88090698.89848
  21125170.640   111013525.21309  21125171.220    86504047.05348
 15 01 26 00 55  0.0000000  0  5G16G21G25G29G31
  24260900.700   127491895.76705  24260901.940    99344337.48645
  21123657.900   111005587.11608  21123658.580    86497884.96748
  22277861.040   117070978.45608  22277864.980    91224175.57847
  21524026.420   113109630.66208  21524027.860    88137425.50048
  21131188.900   111045151.32209  21131189.480    86528690.76949
 15 01 26 00 55 30.0000000  0  5G16G21G25G29G31
  24243562.820   127400785.30205  24243564.160    99273342.34946
  21117355.800   110972469.32308  21117356.480    86472078.89248
  22291245.080   117141312.37608  22291249.000    91278981.22647
  21535462.620   113169728.35108  21535464.080    88184254.85448
  21137309.880   111077317.33109  21137310.480    86553755.19148
 15 01 26 00 56  0.0000000  0  5G16G21G25G29G31
  24226224.740   127309673.40005  24226226.060    99202346.09544
  21111138.480   110939797.17308  21111139.180    86446620.08248
  22304682.420   117211926.44808  22304686.420    91334005.17047
  21546922.940   113229952.93908  21546924.420    88231183.09648
  21143532.660   111110018.12909  21143533.280    86579236.32548
 15 01 26 00 56 30.0000000  0  5G16G21G25G29G31
  24208886.780   127218561.96805  24208888.060    99131350.21145
  21105006.180   110907571.64508  21105006.860    86421509.28348
  22318173.160   117282821.10408  22318177.300    91389247.76147
  21558407.400   113290304.25208  21558408.880    88278210.08748
  21149857.100   111143253.43809  21149857.760    86605133.96648
 15 01 26 00 57  0.0000000  0  5G16G21G25G29G31
  24191549.400   127127454.00405  24191550.700    99060356.98644
  21098959.420   110875795.67308  21098960.080    86396748.79348
  22331717.640   117353997.69508  22331721.840    91444710.04647
  21569916.140   113350783.23608  21569917.640    88325336.55748
  21156283.340   111177023.84409  21156284.060    86631448.56448
 15 01 26 00 57 30.0000000  0  5G16G21G25G29G31
  24174212.400   127036347.19206  24174213.680    98989364.70144
  21092997.520   110844465.66408  21092998.140    86372335.81648
  22345315.100   117425452.12308  22345319.240    91500388.83447
  21581448.320   113411385.09608  21581449.820    88372558.77648
  21162810.540   111211324.41409  21162811.240    86658176.28148
 15 01 26 00 58  0.0000000  0  5G16G21G25G29G31
  24156876.620   126945246.78206  24156877.880    98918377.36944
  21087121.300   110813585.98708  21087121.900    86348273.73848
  22358966.200   117497188.36008  22358970.200    91556287.20647
  21593004.480   113472112.97908  21593005.960    88419879.19248
  21169439.280   111246158.62309  21169439.960    86685319.81448
 15 01 26 00 58 30.0000000  0  5G16G21G25G29G31
  24139542.180   126854153.31706  24139543.380    98847395.45945
  21081330.860   110783157.02508  21081331.480    86324562.86548
  22372670.600   117569204.98508  22372674.400    91612404.05747
  21604584.280   113532965.28408  21604585.760    88467296.56048
  21176169.060   111281523.69209  21176169.720    86712877.00548
 15 01 26 00 59  0.0000000  0  5G16G21G25G29G31
  24122209.100   126763066.73106  24122210.080    98776418.91344
  21075625.980   110753177.60708  21075626.620    86301202.28848
  22386427.960   117641500.33408  22386431.540    91668738.09946
  21616187.260   113593939.48408  21616188.780    88514808.92048
  21182999.440   111317417.31309  21183000.040    86740846.05448
 15 01 26 00 59 30.0000000  0  5G16G21G25G29G31
  24104877.980   126671990.84706  24104878.880    98705450.68344
  21070007.180   110723650.42508  21070007.820    86278194.10448
  22400238.660   117714076.40108  22400242.140    91725290.87947
  21627813.740   113655037.33208  21627815.340    88562417.62148
  21189930.640   111353840.86009  21189931.180    86769228.03948
 15 01 26 01 00  0.0000000  0  5G16G21G25G29G31
  24087548.820   126580925.36006  24087549.720    98634490.57445
  21064474.100   110694573.92708  21064474.760    86255537.09548
  22414102.340   117786931.08108  22414105.860    91782060.74946
  21639463.260   113716256.21008  21639464.920    88610120.62548
  21196962.080   111390791.32209  21196962.640    86798020.60248
 15 01 26 01 00 30.0000000  0  5G16G21G25G29G31
  24070221.600   126489870.24706  24070222.540    98563538.55345
  21059026.720   110665947.87308  21059027.400    86233231.08948
  22428018.800   117860062.89208  22428022.440    91839046.57447
  21651135.460   113777594.19508  21651137.160    88657916.45248
  21204093.240   111428266.13809  21204093.860    86827221.75848
 15 01 26 01 01  0.0000000  0  5G16G21G25G29G31
  24052896.600   126398827.22706  24052897.740    98492595.92745
  21053665.140   110637772.73008  21053665.840    86211276.43648
  22441988.040   117933471.60208  22441991.820    91896248.16447
  21662830.180   113839050.18508  21662831.840    88705804.22848
  21211324.000   111466264.28309  21211324.680    86856830.70848
 15 01 26 01 01 30.0000000  0  5G16G21G25G29G31
  24035574.120   126307797.21706  24035575.320    98421663.46345
  21048389.300   110610048.04308  21048390.000    86189672.79048
  22456009.860   118007156.30408  22456013.800    91953664.81247
  21674547.180   113900623.12808  21674548.760    88753783.13448
  21218654.080   111504784.07409  21218654.760    86886846.12948
 15 01 26 01 02  0.0000000  0  5G16G21G25G29G31
  24018254.360   126216781.05406  24018255.500    98350741.79444
  21043199.160   110582773.83108  21043199.840    86168420.16348
  22470084.100   118081116.26708  22470088.160    92011295.94847
  21686286.180   113962311.95208  21686287.780    88801852.34048
  21226083.080   111543823.68509  21226083.740    86917266.59948
 15 01 26 01 02 30.0000000  0  6G16G18G21G25G29G31
  24000939.740   126125791.87806  24000940.780    98279841.16045
  24509512.880   128798367.99905  24509517.680   100362381.95744
  21038097.020   110555962.03608  21038097.660    86147527.86348
  22484212.700   118155362.33708  22484216.880    92069150.03147
  21698049.200   114024126.95008  21698050.800    88850019.85948
  21233612.900   111583393.08509  21233613.520    86948099.88848
 15 01 26 01 03  0.0000000  0  6G16G18G21G25G29G31
  23983628.360   126034819.88306  23983629.400    98208953.89744
  24494467.660   128719301.62905  24494471.040   100300771.98744
  21033080.940   110529602.27108  21033081.500    86126987.79948
  22498393.540   118229883.33108  22498397.760    92127218.34447
  21709833.960   114086056.53408  21709835.600    88898276.66948
  21241241.240   111623480.14609  21241241.840    86979336.55248
 15 01 26 01 03 30.0000000  0  6G16G18G21G25G29G31
  23966317.880   125943853.16406  23966319.060    98138070.76145
  24479407.400   128640158.48005  24479410.120   100239102.17943
  21028148.360   110503681.19108  21028148.840    86106789.55948
  22512624.000   118304665.31808  22512628.180    92185490.02047
  21721637.800   114148086.10608  21721639.480    88946611.38648
  21248965.300   111664070.13709  21248965.880    87010965.11548
 15 01 26 01 04  0.0000000  0  6G16G18G21G25G29G31
  23949012.360   125852912.30306  23949013.520    98067207.79145
  24464336.400   128560960.05805  24464339.300   100177389.33841
  21023302.940   110478218.11608  21023303.340    86086948.20648
  22526907.660   118379727.00407  22526911.800    92243979.64247
  21733464.280   114210234.44408  21733465.940    88995038.65248
  21256788.440   111705180.85509  21256789.000    87042999.43448
 15 01 26 01 04 30.0000000  0  6G16G18G21G25G29G31
  23931710.560   125761990.81206  23931711.600    97996359.90044
  24449254.040   128481701.17806  24449256.600   100115629.33943
  21018543.260   110453205.52908  21018543.600    86067457.88548
  22541243.000   118455060.15007  22541247.060    92302680.78446
  21745311.780   114272493.03508  21745313.380    89043551.82848
  21264708.860   111746802.89009  21264709.420    87075432.18948
 15 01 26 01 05  0.0000000  0  6G16G18G21G25G29G31
  23914413.400   125671093.59606  23914414.300    97925530.90744
  24434161.000   128402387.42905  24434163.520   100053826.61743
  21013869.940   110428647.15608  21013870.320    86048321.49548
  22555630.640   118530667.53008  22555634.520    92361595.60947
  21757180.680   114334864.12908  21757182.200    89092152.66248
  21272726.880   111788937.88809  21272727.460    87108264.65548
 15 01 26 01 05 30.0000000  0  6G16G18G21G25G29G31
  23897120.700   125580219.35606  23897121.440    97854719.84344
  24419057.620   128323018.81305  24419060.080    99991981.11844
  21009282.580   110404540.53808  21009283.020    86029537.12248
  22570069.920   118606546.03507  22570073.700    92420721.71347
  21769070.300   114397343.83908  21769071.680    89140838.13848
  21280841.760   111831581.89709  21280842.320    87141493.75148
 15 01 26 01 06  0.0000000  0  6G16G18G21G25G29G31
  23879833.180   125489372.47506  23879833.780    97783930.08143
  24403944.620   128243601.25705  24403947.120    99930097.52243
  21004781.820   110380889.23608  21004782.340    86011107.54548
  22584561.280   118682698.29907  22584565.040    92480061.13046
  21780981.120   114459935.07408  21780982.420    89189610.52148
  21289053.740   111874736.47109  21289054.380    87175120.69248
 15 01 26 01 06 30.0000000  0  6G16G18G21G25G29G31
  23862550.660   125398552.17806  23862551.260    97713161.05045
  24388822.420   128164134.66306  24388824.820    99868175.68644
  21000367.200   110357690.45108  21000367.760    85993030.58449
  22599104.060   118759121.10607  22599107.920    92539611.37546
  21792912.420   114522634.19808  21792913.720    89238466.95648
  21297362.160   111918397.61309  21297362.800    87209142.35348
 15 01 26 01 07  0.0000000  0  6G16G18G21G25G29G31
  23845273.220   125307758.85206  23845273.820    97642413.02445
  24373691.300   128084620.11705  24373693.780    99806216.52044
  20996038.600   110334943.58908  20996039.140    85975305.76548
  22613697.940   118835812.95907  22613701.940    92599371.26347
  21804863.900   114585439.34708  21804865.200    89287406.02348
  21305766.520   111962562.81009  21305767.120    87243556.78348
 15 01 26 01 07 30.0000000  0  6G16G18G21G25G29G31
  23828001.440   125216995.24806  23828002.080    97571688.13045
  24358552.060   128005062.51605  24358554.000    99744223.76343
  20991796.280   110312650.03408  20991796.800    85957934.17148
  22628343.160   118912774.90607  22628347.280    92659341.62346
  21816835.700   114648351.44108  21816837.040    89336428.41648
  21314266.760   112007231.81709  21314267.340    87278363.80048
 15 01 26 01 08  0.0000000  0  6G16G18G21G25G29G31
  23810735.340   125126261.36106  23810736.040    97500986.41144
  24343404.860   127925462.81505  24343406.420    99682198.18144
  20987640.000   110290808.54308  20987640.460    85940914.83448
  22643039.320   118990004.77807  22643043.600    92719520.75246
  21828827.280   114711367.97708  21828828.680    89385532.20248
  21322862.280   112052401.72209  21322862.880    87313561.12248
 15 01 26 01 08 30.0000000  0  6G16G18G21G25G29G31
  23793475.720   125035561.45706  23793476.440    97430311.15044
  24328250.420   127845825.92405  24328251.660    99620143.64144
  20983570.240   110269421.85208  20983570.660    85924249.89248
  22657786.920   119067504.80107  22657791.340    92779910.38246
  21840839.040   114774490.85808  21840840.520    89434718.84448
  21331553.280   112098073.38709  21331553.920    87349149.43548
 15 01 26 01 09  0.0000000  0  6G16G18G21G25G29G31
  23776222.180   124944893.14506  23776222.820    97359660.53045
  24313088.720   127766150.34506  24313089.680    99558058.92244
  20979586.300   110248486.38408  20979586.740    85907936.53948
  22672585.200   119145270.34807  22672589.580    92840506.90046
  21852870.140   114837715.26208  21852871.700    89483984.59748
  21340338.700   112144241.19909  21340339.380    87385124.34948
 15 01 26 01 09 30.0000000  0  6G16G18G21G25G29G31
  23758976.020   124854263.97807  23758976.680    97289040.42545
  24297921.140   127686444.93606  24297922.220    99495950.98742
  20975689.300   110228007.52108  20975689.740    85891978.99448
  22687435.220   119223306.93107  22687439.320    92901314.61946
  21864921.680   114901046.51908  21864923.220    89533333.61448
  21349219.440   112190909.82909  21349220.140    87421489.50948
 15 01 26 01 10  0.0000000  0  6G16G18G21G25G29G31
  23741736.220   124763668.33906  23741736.980    97218446.43445
  24282747.140   127606705.85106  24282748.260    99433816.77444
  20971878.100   110207979.63308  20971878.540    85876372.85549
  22702335.580   119301607.45607  22702339.340    92962328.01546
  21876992.280   114964477.61908  21876993.720    89582760.42748
  21358193.860   112238070.76109  21358194.580    87458238.28448
 15 01 26 01 10 30.0000000  0  6G16G18G21G25G29G31
  23724504.020   124673112.61406  23724504.920    97147883.56045
  24267567.960   127526939.87705  24267569.120    99371661.59745
  20968153.460   110188406.62008  20968153.900    85861121.15949
  22717286.800   119380175.68007  22717290.360    93023549.99646
  21889082.580   115028011.97308  21889083.880    89632267.69948
  21367262.520   112285726.73909  21367263.220    87495372.81448
 15 01 26 01 11  0.0000000  0  6G16G18G21G25G29G31
  23707279.480   124582597.12406  23707280.440    97077352.02645
  24252383.880   127447148.43806  24252385.180    99309486.60544
  20964515.200   110169287.46308  20964515.660    85846223.12548
  22732288.440   119459009.64407  22732292.080    93084979.06347
  21901192.080   115091647.74308  21901193.380    89681853.99548
  21376424.800   112333874.75309  21376425.500    87532890.73948
 15 01 26 01 11 30.0000000  0  6G16G18G21G25G29G31
  23690062.460   124492121.14706  23690063.440    97006851.28745
  24237195.060   127367332.02706  24237196.600    99247292.12044
  20960962.920   110150620.06408  20960963.380    85831677.10148
  22747340.000   119538106.57007  22747343.900    93146613.03147
  21913320.160   115155381.41308  21913321.520    89731516.58248
  21385679.900   112382510.74008  21385680.620    87570788.90648
 15 01 26 01 12  0.0000000  0  6G16G18G21G25G29G31
  23672853.520   124401688.00106  23672854.640    96936383.90145
  24222002.320   127287494.96406  24222004.080    99185081.56744
  20957496.900   110132405.84608  20957497.320    85817484.21048
  22762441.760   119617467.61307  22762446.000    93208452.81747
  21925467.120   115219214.32808  21925468.520    89781256.50248
  21395027.880   112431635.03508  21395028.640    87609067.57548
 15 01 26 01 12 30.0000000  0  6G16G18G21G25G29G31
  23655653.060   124311299.44106  23655654.140    96865951.27345
  24206806.240   127207640.25705  24206807.940    99122857.21043
  20954117.260   110114645.64708  20954117.680    85803645.09849
  22777593.840   119697092.49907  22777598.240    93270498.19147
  21937632.980   115283146.48308  21937634.420    89831073.74947
  21404468.480   112481245.83609  21404469.260    87647725.33848
 15 01 26 01 13  0.0000000  0  6G16G18G21G25G29G31
  23638461.020   124220955.05806  23638461.880    96795553.06744
  24191606.960   127127768.45306  24191608.460    99060619.54144
  20950823.500   110097336.70508  20950823.920    85790157.61349
  22792795.740   119776978.63207  22792800.140    93332747.12347
  21949817.140   115347174.83108  21949818.660    89880965.95848
  21414001.080   112531339.80008  21414001.820    87686759.59248
 15 01 26 01 13 30.0000000  0  6G16G18G21G25G29G31
  23621277.920   124130657.37106  23621278.680    96725191.23144
  24176405.020   127047883.09006  24176406.880    98998371.37444
  20947615.720   110080479.64708  20947616.140    85777022.25049
  22808047.500   119857126.21007  22808051.680    93395199.77347
  21962019.620   115411299.47508  21962021.240    89930933.20748
  21423625.420   112581915.68609  21423626.080    87726169.36148
 15 01 26 01 14  0.0000000  0  6G16G18G21G25G29G31
  23604104.120   124040408.73506  23604104.980    96654867.62645
  24161201.120   126967987.38105  24161203.140    98936115.07644
  20944494.240   110064076.06508  20944494.640    85764240.24149
  22823348.940   119937535.16507  22823352.900    93457856.09246
  21974240.480   115475520.57808  21974242.140    89980975.62348
  21433341.260   112632972.39109  21433341.880    87765953.79848
 15 01 26 01 14 30.0000000  0  6G16G18G21G25G29G31
  23586939.740   123950209.66606  23586940.700    96584582.66044
  24145995.680   126888083.51805  24145997.940    98873852.45044
  20941458.760   110048124.48308  20941459.140    85751810.44449
