     2.11           OBSERVATION DATA    G                   RINEX VERSION / TYPE
SPIDER V4,0,0,3554                      2015 04 15 04:40    PGM / RUN BY / DATE 
CABS                                                        MARKER NAME         
CABS                                                        MARKER NUMBER       
                                                            OBSERVER / AGENCY   
462287              LEICA GRX1200PRO    8.10/2.127          REC # / TYPE / VERS 
103298              LEIAT504                                ANT # / TYPE        
  5116912.3402   671231.6412  3737143.4301                  APPROX POSITION XYZ 
        0.0600        0.0000        0.0000                  ANTENNA: DELTA H/E/N
     1     1                                                WAVELENGTH FACT L1/2
     4    C1    L1    P2    L2                              # / TYPES OF OBSERV 
    30.000                                                  INTERVAL            
  2015    01    28    00    00    0.0000000     GPS         TIME OF FIRST OBS   
  2015    01    28    23    59   30.0000000     GPS         TIME OF LAST OBS    
    16                                                      LEAP SECONDS        
    30                                                      # OF SATELLITES     
   G 1   799   799   799   799                              PRN / # OF OBS      
   G 2   930   930   930   930                              PRN / # OF OBS      
   G 3   847   847   847   847                              PRN / # OF OBS      
   G 4   831   831   831   831                              PRN / # OF OBS      
   G 5   625   625   625   625                              PRN / # OF OBS      
   G 6   825   825   825   825                              PRN / # OF OBS      
   G 7   671   671   671   671                              PRN / # OF OBS      
   G 9   806   806   806   806                              PRN / # OF OBS      
   G10   742   742   742   742                              PRN / # OF OBS      
   G11   771   771   771   771                              PRN / # OF OBS      
   G12   802   802   802   802                              PRN / # OF OBS      
   G13   791   791   791   791                              PRN / # OF OBS      
   G14   939   939   939   939                              PRN / # OF OBS      
   G15   699   699   699   699                              PRN / # OF OBS      
   G16   658   658   658   658                              PRN / # OF OBS      
   G17   941   941   941   941                              PRN / # OF OBS      
   G18   898   898   898   898                              PRN / # OF OBS      
   G19   750   750   750   750                              PRN / # OF OBS      
   G20   822   822   822   822                              PRN / # OF OBS      
   G21   740   740   740   740                              PRN / # OF OBS      
   G22   657   657   657   657                              PRN / # OF OBS      
   G23   756   756   756   756                              PRN / # OF OBS      
   G24   818   818   818   818                              PRN / # OF OBS      
   G25   856   856   856   856                              PRN / # OF OBS      
   G27   793   793   793   793                              PRN / # OF OBS      
   G28   867   867   867   867                              PRN / # OF OBS      
   G29   758   758   758   758                              PRN / # OF OBS      
   G30   718   718   718   718                              PRN / # OF OBS      
   G31   871   871   871   871                              PRN / # OF OBS      
   G32   770   770   770   770                              PRN / # OF OBS      
BIT 2 OF LLI FLAGS DATA COLLECTED UNDER A/S CONDITION       COMMENT             
SNR is mapped to RINEX snr flag value [2-9]                 COMMENT             
Lx:     = 25dBHz -> 1; 26-27dBHz -> 2; 28-31dBHz -> 3       COMMENT             
       32-35dBHz -> 4; 36-38dBHz -> 5; 39-41dBHz -> 6       COMMENT             
       42-44dBHz -> 7; 45-48dBHz -> 8; >=49dBHz -> 9        COMMENT             
                                                            END OF HEADER       
 15 01 28 00 00  0.0000000  0  5G12G21G25G29G31
  24120725.100   126755388.87206  24120726.500    98770493.22945
  22065677.740   115955936.36908  22065678.380    90355298.45847
  21266086.080   111754108.86108  21266089.920    87081167.25548
  20598642.580   108246699.52009  20598643.900    84348130.15949
  21029445.000   110510490.23509  21029445.560    86112081.27749
 15 01 28 00 00 30.0000000  0  5G12G21G25G29G31
  24135742.220   126834304.82206  24135743.620    98831986.16745
  22052210.640   115885166.16608  22052211.260    90300152.86147
  21274273.980   111797136.79708  21274277.860    87114695.50648
  20606736.540   108289233.38109  20606737.800    84381273.42649
  21025590.140   110490233.09809  21025590.760    86096296.49049
 15 01 28 00 01  0.0000000  0  5G12G21G25G29G31
  24150786.600   126913363.74107  24150787.920    98893590.48645
  22038808.420   115814737.41008  22038809.140    90245273.32047
  21282517.360   111840456.29908  21282521.280    87148450.95248
  20614879.860   108332026.89509  20614881.100    84414619.01649
  21021839.900   110470525.68209  21021840.560    86080940.06149
 15 01 28 00 01 30.0000000  0  5G12G21G25G29G31
  24165856.620   126992556.13807  24165857.740    98955298.89645
  22025469.660   115744642.38408  22025470.540    90190653.83547
  21290814.460   111884058.21108  21290818.440    87182426.45748
  20623070.520   108375068.95909  20623071.740    84448158.28949
  21018192.700   110451359.51409  21018193.360    86066005.37649
 15 01 28 00 02  0.0000000  0  5G12G21G25G29G31
  24180953.640   127071891.93905  24180954.820    99017118.93845
  22012196.740   115674893.44408  22012197.800    90136304.03047
  21299167.380   111927953.14108  21299171.360    87216630.29348
  20631310.260   108418368.92709  20631311.480    84481898.53249
  21014650.720   110432745.98709  21014651.320    86051501.32149
 15 01 28 00 02 30.0000000  0  5G12G21G25G29G31
  24196077.880   127151370.45906  24196079.140    99079050.25245
  21998990.000   115605491.65408  21998991.120    90082224.73047
  21307575.980   111972140.66608  21307579.920    87251062.12148
  20639598.540   108461924.00709  20639599.760    84515837.55149
  21011214.000   110414685.64409  21011214.540    86037428.31849
 15 01 28 00 03  0.0000000  0  5G12G21G25G29G31
  24211227.520   127230981.89706  24211228.760    99141085.16246
  21985848.000   115536429.82008  21985849.080    90028410.33247
  21316038.580   112016612.00308  21316042.540    87285715.10448
  20647933.300   108505723.36609  20647934.520    84549966.92249
  21007880.960   110397170.16409  21007881.460    86023779.88649
 15 01 28 00 03 30.0000000  0  5G12G21G25G29G31
  24226404.540   127310738.14606  24226405.960    99203232.86145
  21972773.160   115467720.93608  21972774.180    89974870.96447
  21324557.400   112061378.63108  21324561.360    87320598.17448
  20656316.500   108549777.32409  20656317.720    84584294.68149
  21004653.880   110380211.53109  21004654.340    86010565.36349
 15 01 28 00 04  0.0000000  0  5G12G21G25G29G31
  24241607.780   127390632.77006  24241609.380    99265488.40145
  21959764.660   115399360.66508  21959765.620    89921603.23747
  21333131.320   112106434.87108  21333135.300    87355706.92148
  20664746.600   108594078.03509  20664747.860    84618814.71449
  21001531.800   110363804.74309  21001532.220    85997780.84649
 15 01 28 00 04 30.0000000  0  5G12G21G25G29G31
  24256837.440   127470666.14306  24256839.100    99327852.05145
  21946823.060   115331352.00308  21946823.980    89868609.49947
  21341760.580   112151781.91208  21341764.620    87391042.26748
  20673223.560   108638624.93709  20673224.860    84653526.58149
  20998515.020   110347951.51209  20998515.440    85985427.66949
 15 01 28 00 05  0.0000000  0  5G12G21G25G29G31
  24272092.900   127550834.38706  24272094.440    99390320.83945
  21933947.840   115263692.23908  21933948.720    89815887.61847
  21350444.440   112197415.72108  21350448.520    87426601.05948
  20681746.260   108683412.05909  20681747.580    84688425.63349
  20995602.980   110332648.66709  20995603.420    85973503.36249
 15 01 28 00 05 30.0000000  0  5G12G21G25G29G31
  24287374.520   127631139.42206  24287375.900    99452896.18545
  21921139.800   115196385.50808  21921140.600    89763440.82747
  21359183.340   112243338.79808  21359187.420    87462385.27048
  20690314.820   108728439.94909  20690316.100    84723512.29949
  20992796.220   110317899.09709  20992796.640    85962010.18049
 15 01 28 00 06  0.0000000  0  5G12G21G25G29G31
  24302682.380   127711581.74206  24302683.420    99515578.48345
  21908399.340   115129434.09708  21908400.100    89711270.91047
  21367977.540   112289552.16808  21367981.520    87498395.68148
  20698929.140   108773708.39809  20698930.360    84758786.41349
  20990095.040   110303704.47309  20990095.500    85950949.42749
 15 01 28 00 06 30.0000000  0  5G12G21G25G29G31
  24318016.700   127792162.93106  24318017.420    99578369.01245
  21895727.200   115062841.83008  21895727.980    89659380.84847
  21376827.400   112336058.07408  21376831.220    87534634.04248
  20707589.280   108819217.67509  20707590.480    84794248.18549
  20987499.980   110290067.56209  20987500.480    85940323.25349
 15 01 28 00 07  0.0000000  0  5G12G21G25G29G31
  24333376.940   127872881.28506  24333377.680    99641266.40044
  21883123.400   114996608.74808  21883124.220    89607770.67547
  21385732.560   112382854.93408  21385736.280    87571099.11648
  20716294.600   108864964.45409  20716295.800    84829895.02049
  20985010.960   110276987.61809  20985011.460    85930131.08149
 15 01 28 00 07 30.0000000  0  5G12G21G25G29G31
  24348763.320   127953737.09706  24348764.240    99704270.91946
  21870588.380   114930736.85508  21870589.220    89556441.93747
  21394693.160   112429943.31808  21394696.880    87607791.34948
  20725044.780   108910947.17808  20725046.040    84865725.70449
  20982628.040   110264465.19209  20982628.500    85920373.33449
 15 01 28 00 08  0.0000000  0  5G12G21G25G29G31
  24364175.640   128034729.48807  24364176.720    99767381.88345
  21858122.320   114865227.22308  21858123.140    89505395.47747
  21403709.200   112477323.11508  21403712.920    87644710.66748
  20733839.620   108957164.64208  20733840.940    84901739.31449
  20980351.320   110252500.78209  20980351.760    85911050.40749
 15 01 28 00 08 30.0000000  0  5G12G21G25G29G31
  24379613.840   128115857.75806  24379615.060    99830598.74045
  21845725.540   114800081.76708  21845726.400    89454632.79647
  21412780.660   112524993.96408  21412784.400    87681856.76948
  20742678.600   109003614.14308  20742679.980    84937933.72448
  20978180.820   110241094.65909  20978181.280    85902162.51149
 15 01 28 00 09  0.0000000  0  5G12G21G25G29G31
  24395077.900   128197121.87906  24395079.100    99893921.46045
  21833398.340   114735302.14908  21833399.220    89404155.17847
  21421907.600   112572956.56208  21421911.420    87719230.21248
  20751561.600   109050294.84608  20751563.020    84974308.29449
  20976116.800   110230248.17409  20976117.260    85893710.69849
 15 01 28 00 09 30.0000000  0  5G12G21G25G29G31
  24410568.340   128278525.01606  24410569.560    99957352.46245
  21821141.700   114670893.23908  21821142.560    89353966.43147
  21431090.780   112621214.31808  21431094.620    87756833.65648
  20760489.080   109097209.01508  20760490.500    85010864.79349
  20974159.980   110219965.05509  20974160.460    85885697.87049
 15 01 28 00 10  0.0000000  0  5G12G21G25G29G31
  24426084.260   128360061.78706  24426085.520   100020887.60145
  21808954.940   114606851.44908  21808955.760    89304063.74447
  21440329.160   112669762.04808  21440332.960    87794663.04448
  20769459.640   109144349.26308  20769461.000    85047597.45049
  20972309.440   110210240.63009  20972309.960    85878120.39249
 15 01 28 00 10 30.0000000  0  5G12G21G25G29G31
  24441625.600   128441731.45406  24441626.780   100084526.28344
  21796838.200   114543177.52408  21796838.960    89254447.71547
  21449622.640   112718599.38708  21449626.380    87832718.10948
  20778472.800   109191713.49208  20778474.080    85084504.63949
  20970565.260   110201074.93409  20970565.780    85870978.28549
 15 01 28 00 11  0.0000000  0  5G12G21G25G29G31
  24457192.700   128523536.31306  24457193.640   100148270.31645
  21784792.360   114479876.02308  21784793.040    89205121.88047
  21458971.800   112767729.12608  21458975.420    87871001.01448
  20787528.800   109239303.03008  20787530.060    85121587.39049
  20968927.980   110192470.90409  20968928.480    85864273.83849
 15 01 28 00 11 30.0000000  0  5G12G21G25G29G31
  24472785.640   128605477.16406  24472786.160   100212120.34445
  21772817.920   114416949.82508  21772818.560    89156088.48947
  21468376.900   112817152.94708  21468380.420    87909513.08148
  20796627.720   109287117.96708  20796628.940    85158845.78049
  20967398.000   110184430.70709  20967398.480    85858008.74249
 15 01 28 00 12  0.0000000  0  5G12G21G25G29G31
  24488404.340   128687554.06306  24488404.740   100276076.34744
  21760915.180   114354400.41408  21760915.800    89107348.70348
  21477837.900   112866870.69308  21477841.380    87948254.16748
  20805769.080   109335155.97309  20805770.260    85196277.99049
  20965975.420   110176954.75709  20965975.880    85852183.32049
 15 01 28 00 12 30.0000000  0  5G12G21G25G29G31
  24504048.520   128769765.49006  24504048.960   100340137.20344
  21749084.260   114292228.45208  21749084.920    89058903.02348
  21487354.620   112916881.64408  21487358.140    87987223.72548
  20814952.560   109383415.29109  20814953.700    85233882.65249
  20964660.080   110170042.43109  20964660.540    85846797.08349
 15 01 28 00 13  0.0000000  0  5G12G21G25G29G31
  24519717.580   128852107.00306  24519718.120   100404299.41844
  21737324.660   114230431.08808  21737325.320    89010749.23448
  21496926.300   112967181.70908  21496929.940    88026418.57248
  20824177.000   109431889.93508  20824178.120    85271655.10049
  20963451.320   110163690.20709  20963451.760    85841847.29449
 15 01 28 00 13 30.0000000  0  5G12G21G25G29G31
  24535412.400   128934583.79206  24535412.820   100468567.03745
  21725637.640   114169015.23608  21725638.320    88962892.73648
  21506554.080   113017776.46008  21506557.760    88065843.04548
  20833443.200   109480584.07408  20833444.300    85309598.58349
  20962350.160   110157903.85609  20962350.680    85837338.44149
 15 01 28 00 14  0.0000000  0  5G12G21G25G29G31
  24551132.840   129017195.47206  24551133.220   100532939.77645
  21714023.520   114107982.86808  21714024.280    88915335.06747
  21516237.960   113068665.98908  21516241.680    88105497.21248
  20842750.820   109529496.07008  20842751.960    85347711.83148
  20961356.760   110152683.75609  20961357.380    85833270.82749
 15 01 28 00 14 30.0000000  0  5G12G21G25G29G31
  24566878.300   129099938.78006  24566878.700   100597415.07545
  21702482.060   114047332.31208  21702482.880    88868074.90848
  21525977.440   113119847.34708  21525981.220    88145378.76948
  20852098.980   109578621.16408  20852100.180    85385991.12349
  20960470.600   110148027.25309  20960471.300    85829642.37749
 15 01 28 00 15  0.0000000  0  5G12G21G25G29G31
  24582649.160   129182815.41105  24582649.760   100661994.26045
  21691013.940   113987066.84808  21691014.740    88821114.81548
  21535772.960   113171322.71608  21535776.760    88185489.43648
  20861487.840   109627960.02509  20861489.080    85424436.98848
  20959692.260   110143936.97309  20959692.960    85826455.14149
 15 01 28 00 15 30.0000000  0  5G12G21G25G29G31
  24598445.160   129265824.29606  24598446.040   100726676.50244
  21679619.200   113927187.11408  21679619.980    88774455.29048
  21545624.280   113223091.61508  21545628.160    88225828.82148
  20870916.980   109677510.44508  20870918.200    85463047.70348
  20959021.620   110140412.53609  20959022.280    85823708.82349
 15 01 28 00 16  0.0000000  0  5G12G21G25G29G31
  24614266.020   129348963.88106  24614267.080   100791460.59645
  21668298.040   113867694.01108  21668298.800    88728097.04548
  21555531.220   113275152.85508  21555535.200    88266396.01948
  20880385.920   109727270.15809  20880387.160    85501821.50348
  20958458.460   110137452.96309  20958459.100    85821402.65649
 15 01 28 00 16 30.0000000  0  5G12G21G25G29G31
  24630111.860   129432234.54506  24630113.020   100856346.80944
  21657050.680   113808588.94608  21657051.460    88682041.15348
  21565493.740   113327506.60308  21565497.860    88307191.13948
  20889894.460   109777237.77009  20889895.680    85540757.30748
  20958002.920   110135058.96609  20958003.520    85819537.19849
 15 01 28 00 17  0.0000000  0  5G12G21G25G29G31
  24645983.040   129515638.93106  24645984.400   100921337.23244
  21645878.080   113749876.58408  21645878.860    88636291.26948
  21575512.620   113380156.36908  21575516.800    88348216.92348
  20899442.860   109827414.98309  20899444.120    85579856.43848
  20957655.660   110133234.05209  20957656.240    85818115.18349
 15 01 28 00 17 30.0000000  0  5G12G21G25G29G31
  24661878.600   129599170.64706  24661879.920   100986426.88344
  21634779.480   113691552.80808  21634780.240    88590844.17948
  21585586.840   113433096.71308  21585591.000    88389469.12548
  20909029.900   109877795.00509  20909031.140    85619113.59848
  20957415.640   110131972.75709  20957416.220    85817132.34349
 15 01 28 00 18  0.0000000  0  5G12G21G25G29G31
  24677799.040   129682832.18806  24677800.140   101051617.69645
  21623755.440   113633621.26308  21623756.220    88545702.72448
  21595716.840   113486329.82608  21595720.880    88430949.45848
  20918655.600   109928378.42608  20918656.860    85658529.24549
  20957283.380   110131277.65809  20957283.960    85816590.70349
 15 01 28 00 18 30.0000000  0  5G12G21G25G29G31
  24693744.620   129766625.72006  24693745.560   101116911.35445
  21612806.760   113576085.76608  21612807.540    88500869.87748
  21605903.120   113539858.37408  21605907.000    88472659.99248
  20928320.180   109979166.23908  20928321.460    85698104.16648
  20957259.340   110131151.46609  20957259.940    85816492.36649
 15 01 28 00 19  0.0000000  0  5G12G21G25G29G31
  24709714.800   129850548.44006  24709715.620   101182305.67245
  21601933.220   113518945.12508  21601934.000    88456344.71748
  21616145.100   113593679.95108  21616148.920    88514598.86748
  20938022.980   110030154.98908  20938024.300    85737835.65848
  20957343.160   110131592.05609  20957343.800    85816835.68149
 15 01 28 00 19 30.0000000  0  5G12G21G25G29G31
  24725709.280   129934599.46606  24725710.020   101247799.94245
  21591135.040   113462200.52108  21591135.840    88412128.15548
  21626442.680   113647794.12508  21626446.540    88556765.74848
  20947763.580   110081342.30108  20947764.940    85777721.87248
  20957534.760   110132598.93709  20957535.440    85817620.25549
 15 01 28 00 20  0.0000000  0  5G12G21G25G29G31
  24741728.360   130018780.30806  24741729.240   101313395.38445
  21580413.000   113405855.78408  21580413.820    88368223.17148
  21636796.320   113702203.38308  21636800.300    88599162.57248
  20957542.200   110132729.31708  20957543.560    85817763.70148
  20957834.660   110134174.89009  20957835.340    85818848.26649
 15 01 28 00 20 30.0000000  0  4G21G25G29G31
  21569787.300   113350017.34108  21569788.160    88324712.71248
  21647226.140   113757012.65908  21647230.140    88641871.09548
  20967378.540   110184419.95608  20967379.960    85858042.11948
  20958262.860   110136424.85009  20958263.520    85820601.47349
 15 01 28 00 21  0.0000000  0  4G21G25G29G31
  21559214.400   113294456.32108  21559215.280    88281418.42348
  21657688.360   113811992.14908  21657692.360    88684712.25048
  20977228.600   110236182.54608  20977230.040    85898376.59548
  20958775.640   110139119.26109  20958776.260    85822701.00749
 15 01 28 00 21 30.0000000  0  4G21G25G29G31
  21548718.340   113239299.00608  21548719.180    88238438.70748
  21668206.840   113867266.83508  21668210.740    88727783.42548
  20987115.880   110288140.49608  20987117.320    85938863.31048
  20959396.760   110142383.06109  20959397.340    85825244.22549
 15 01 28 00 22  0.0000000  0  4G21G25G29G31
  21538298.060   113184540.11208  21538298.880    88195769.44848
  21678780.240   113922830.07208  21678784.020    88771079.44448
  20997038.820   110340285.95008  20997040.280    85979496.12848
  20960124.920   110146209.31309  20960125.460    85828225.71049
 15 01 28 00 22 30.0000000  0  4G21G25G29G31
  21527960.560   113130216.31208  21527961.380    88153439.22048
  21689415.180   113978717.09308  21689418.920    88814627.76448
  21007003.980   110392652.96408  21007005.420    86020301.59648
  20960966.880   110150633.67709  20960967.380    85831673.26049
 15 01 28 00 23  0.0000000  0  4G21G25G29G31
  21517702.380   113076309.30208  21517703.200    88111433.77848
  21700108.000   114034908.36808  21700111.740    88858413.16548
  21017007.360   110445220.73108  21017008.740    86061263.49048
  20961918.840   110155636.36609  20961919.360    85835571.45149
 15 01 28 00 23 30.0000000  0  4G21G25G29G31
  21507519.220   113022796.62908  21507520.060    88069735.60848
  21710854.160   114091380.24808  21710858.020    88902417.22148
  21027044.060   110497963.63808  21027045.360    86102361.85948
  20962976.380   110161193.97109  20962976.940    85839902.04449
 15 01 28 00 24  0.0000000  0  4G21G25G29G31
  21497413.160   112969688.90208  21497413.960    88028352.97148
  21721655.520   114148142.09308  21721659.440    88946647.22248
  21037115.680   110550890.28008  21037116.960    86143603.39848
  20964141.300   110167315.87109  20964141.900    85844672.35049
 15 01 28 00 24 30.0000000  0  4G21G25G29G31
  21487383.560   112916983.07208  21487384.340    87987283.49948
  21732511.300   114205189.62308  21732515.200    88991099.84348
  21047221.060   110603994.38708  21047222.340    86184983.21948
  20965412.720   110173997.46009  20965413.360    85849878.77549
 15 01 28 00 25  0.0000000  0  4G21G25G29G31
  21477431.320   112864683.67408  21477432.080    87946530.72048
  21743422.060   114262526.11708  21743426.020    89035777.61648
  21057360.580   110657278.16808  21057361.920    86226503.04348
  20966791.280   110181242.00209  20966791.940    85855523.86849
 15 01 28 00 25 30.0000000  0  4G21G25G29G31
  21467557.380   112812795.98408  21467558.220    87906098.76448
  21754388.660   114320155.76008  21754392.640    89080683.82148
  21067534.980   110710745.20108  21067536.380    86268165.66248
  20968277.780   110189053.58309  20968278.460    85861610.80649
 15 01 28 00 26  0.0000000  0  4G21G25G29G31
  21457761.860   112761320.42108  21457762.760    87865987.94848
  21765410.860   114378077.52808  21765414.900    89125817.64848
  21077743.700   110764392.45508  21077745.100    86309968.71748
  20969872.040   110197431.29509  20969872.700    85868138.88949
 15 01 28 00 26 30.0000000  0  4G21G25G29G31
  21448045.300   112710259.67708  21448046.240    87826200.36548
  21776489.000   114436292.98208  21776493.080    89171180.32348
  21087986.800   110818220.40308  21087988.220    86351912.57148
  20971574.320   110206376.65809  20971574.960    85875109.29449
 15 01 28 00 27  0.0000000  0  4G21G25G29G31
  21438407.840   112659614.64808  21438408.800    87786736.71548
  21787623.000   114494801.99808  21787627.100    89216771.75248
  21098264.040   110872227.80308  21098265.460    86393996.25548
  20973384.520   110215889.26309  20973385.160    85882521.70349
 15 01 28 00 27 30.0000000  0  4G21G25G29G31
  21428849.840   112609386.97008  21428850.760    87747598.27848
  21798812.900   114553604.82008  21798817.000    89262592.12848
  21108575.160   110926413.27308  21108576.600    86436218.69948
  20975302.700   110225969.24009  20975303.340    85890376.22949
 15 01 28 00 28  0.0000000  0  4G21G25G29G31
  21419371.620   112559578.51108  21419372.480    87708786.50348
  21810058.820   114612702.05808  21810062.880    89308641.92048
  21118920.020   110980776.23908  21118921.540    86478579.44548
  20977328.920   110236617.02209  20977329.560    85898673.19649
 15 01 28 00 28 30.0000000  0  4G21G25G29G31
  21409974.980   112510198.78708  21409975.800    87670308.80248
  21821362.280   114672101.88708  21821366.320    89354927.49548
  21129300.000   111035323.57508  21129301.580    86521083.86148
  20979464.680   110247840.59509  20979465.360    85907418.83149
 15 01 28 00 29  0.0000000  0  4G21G25G29G31
  21400657.880   112461237.02808  21400658.680    87632156.79248
  21832721.040   114731792.54708  21832725.080    89401439.68748
  21139712.700   111090042.69108  21139714.340    86563722.13148
  20981707.760   110259628.20509  20981708.460    85916603.97749
 15 01 28 00 29 30.0000000  0  4G21G25G29G31
  21391420.780   112412695.68508  21391421.600    87594332.38148
  21844135.380   114791775.31408  21844139.360    89448179.48948
  21150158.080   111144933.44708  21150159.760    86606494.14348
  20984058.400   110271980.83109  20984059.080    85926229.39249
 15 01 28 00 30  0.0000000  0  4G21G25G29G31
  21382265.340   112364583.53108  21382266.140    87556842.40348
  21855606.700   114852057.65208  21855610.620    89495152.72748
  21160637.420   111200002.33508  21160639.060    86649404.96748
  20986517.900   110284905.41409  20986518.540    85936300.48649
 15 01 28 00 30 30.0000000  0  4G21G25G29G31
  21373190.120   112316892.93808  21373190.920    87519680.91548
  21867133.360   114912630.91108  21867137.280    89542352.65747
  21171148.740   111255239.34208  21171150.340    86692446.78448
  20989084.540   110298393.04909  20989085.160    85946810.32449
 15 01 28 00 31  0.0000000  0  4G21G25G29G31
  21364195.100   112269623.87308  21364195.900    87482847.88748
  21878715.180   114973494.08008  21878719.100    89589778.49748
  21181691.600   111310642.14608  21181693.160    86735617.80048
  20991758.120   110312442.71409  20991758.740    85957758.11049
 15 01 28 00 31 30.0000000  0  4G21G25G29G31
  21355281.140   112222780.65208  21355281.900    87446346.68648
  21890352.760   115034650.18908  21890356.740    89637432.59848
  21192266.360   111366212.64608  21192267.860    86778919.49048
  20994539.180   110327057.34409  20994539.840    85969146.12749
 15 01 28 00 32  0.0000000  0  4G21G25G29G31
  21346447.140   112176357.55408  21346447.840    87410172.85548
  21902044.820   115096092.43908  21902048.840    89685309.67648
  21202871.560   111421943.22208  21202873.020    86822345.91148
  20997426.420   110342229.93709  20997427.100    85980968.91649
 15 01 28 00 32 30.0000000  0  4G21G25G29G31
  21337694.040   112130359.79508  21337694.720    87374330.45648
  21913792.120   115157824.99908  21913796.180    89733412.96348
  21213507.760   111477836.71208  21213509.240    86865899.28048
  21000420.500   110357963.95009  21000421.220    85993229.18249
 15 01 28 00 33  0.0000000  0  4G21G25G29G31
  21329023.100   112084793.90508  21329023.800    87338824.57248
  21925595.540   115219852.81308  21925599.680    89781746.31848
  21224175.680   111533896.98608  21224177.200    86909582.60548
  21003522.320   110374263.99509  21003523.060    86005930.50549
 15 01 28 00 33 30.0000000  0  4G21G25G29G31
  21320433.640   112039656.17408  21320434.380    87303652.32148
  21937454.400   115282171.79208  21937458.600    89830306.54847
  21234874.420   111590119.16508  21234875.940    86953392.09348
  21006731.020   110391125.72209  21006731.760    86019069.51049
 15 01 28 00 34  0.0000000  0  4G21G25G29G31
  21311925.040   111994943.36608  21311925.820    87268811.17648
  21949367.800   115344776.96108  21949371.920    89879089.78447
  21245602.740   111646496.71008  21245604.220    86997322.64148
  21010045.620   110408544.08109  21010046.360    86032642.24449
 15 01 28 00 34 30.0000000  0  4G21G25G29G31
  21303498.440   111950661.47108  21303499.300    87234305.80948
  21961336.700   115407673.62608  21961340.700    89928100.16247
  21256361.500   111703034.04908  21256362.900    87041377.70948
  21013467.060   110426523.83309  21013467.800    86046652.43549
 15 01 28 00 35  0.0000000  0  4G21G25G29G31
  21295154.520   111906813.86508  21295155.400    87200138.84948
  21973361.420   115470863.63308  21973365.320    89977339.12547
  21267150.860   111759732.36108  21267152.200    87085558.20348
  21016995.640   110445066.50909  21016996.340    86061101.25749
 15 01 28 00 35 30.0000000  0  4G21G25G29G31
  21286893.360   111863400.96608  21286894.220    87166310.63048
  21985441.960   115534346.86608  21985445.760    90026806.56447
  21277970.500   111816590.03508  21277971.820    87129862.87648
  21020631.160   110464171.32509  21020631.840    86075988.12049
 15 01 28 00 36  0.0000000  0  4G21G25G29G31
  21278714.080   111820418.16308  21278714.860    87132817.55548
  21997577.160   115598117.56508  21997580.920    90076498.01047
  21288819.060   111873599.65808  21288820.380    87174285.95048
  21024372.540   110483832.46709  21024373.220    86091308.47649
 15 01 28 00 36 30.0000000  0  4G21G25G29G31
  21270617.760   111777871.37208  21270618.440    87099664.22348
  22009767.920   115662180.50408  22009771.720    90126417.18147
  21299697.540   111930766.65308  21299698.860    87218831.65548
  21028220.600   110504054.19309  21028221.280    86107065.65949
 15 01 28 00 37  0.0000000  0  4G21G25G29G31
  21262604.360   111735760.51108  21262604.980    87066850.57748
  22022014.000   115726534.30708  22022017.900    90176562.99748
  21310605.440   111988088.16208  21310606.760    87263497.76648
  21032174.960   110524834.67609  21032175.700    86123258.22949
 15 01 28 00 37 30.0000000  0  4G21G25G29G31
  21254673.280   111694082.44908  21254673.840    87034374.16748
  22034314.580   115791174.92708  22034318.620    90226932.30647
  21321541.640   112045558.50408  21321542.960    87308279.84448
  21036234.840   110546169.59509  21036235.620    86139882.83749
 15 01 28 00 38  0.0000000  0  5G16G21G25G29G31
  24572482.360   129129270.62206  24572482.640   100620211.55845
  21246825.280   111652841.15908  21246825.840    87002238.10548
  22046670.400   115856105.20708  22046674.440    90277527.32147
  21332506.600   112103179.94708  21332507.920    87353179.66448
  21040400.620   110568060.93809  21040401.440    86156941.02249
 15 01 28 00 38 30.0000000  0  5G16G21G25G29G31
  24555159.540   129038239.23006  24555160.700   100549278.02244
  21239046.020   111611961.24008  21239046.620    86970383.63248
  22059066.880   115921248.79508  22059070.900    90328288.54847
  21343485.600   112160875.43108  21343486.960    87398137.17748
  21044657.700   110590432.03909  21044658.540    86174373.04149
 15 01 28 00 39  0.0000000  0  5G16G21G25G29G31
  24537849.960   128947277.52206  24537851.460   100478398.83344
  21231366.920   111571607.61508  21231367.540    86938939.25848
  22071535.180   115986769.66208  22071539.100    90379343.76347
  21354509.620   112218807.49408  21354511.040    87443279.04448
  21049037.180   110613446.26409  21049038.000    86192306.19549
 15 01 28 00 39 30.0000000  0  5G16G21G25G29G31
  24520534.240   128856283.06506  24520535.780   100407494.08144
  21223768.420   111531677.24108  21223769.040    86907824.69148
  22084055.540   116052564.03008  22084059.420    90430612.09048
  21365558.840   112276871.62608  21365560.260    87488523.82348
  21053519.220   110636999.33309  21053519.980    86210659.22649
 15 01 28 00 40  0.0000000  0  5G16G21G25G29G31
  24503215.580   128765273.11306  24503217.100   100336577.28544
  21216253.700   111492187.12308  21216254.360    86877053.18548
  22096630.860   116118647.84108  22096634.880    90482105.95147
  21376636.080   112335083.08808  21376637.520    87533883.40648
  21058106.760   110661106.73009  21058107.420    86229444.20049
 15 01 28 00 40 30.0000000  0  5G16G21G25G29G31
  24485894.080   128674248.16306  24485895.600   100265648.78145
  21208822.980   111453138.35008  21208823.640    86846625.57648
  22109261.060   116185020.47308  22109265.260    90533824.87147
  21387741.100   112393440.38908  21387742.560    87579356.62348
  21062799.560   110685767.38709  21062800.180    86248660.28849
 15 01 28 00 41  0.0000000  0  5G16G21G25G29G31
  24468569.720   128583208.10205  24468571.160   100194708.50544
  21201475.940   111414529.44108  21201476.580    86816540.71648
  22121945.860   116251680.02508  22121950.140    90585767.38047
  21398873.460   112451940.78408  21398874.840    87624941.34448
  21067597.160   110710978.75009  21067597.740    86268305.49849
 15 01 28 00 41 30.0000000  0  5G16G21G25G29G31
  24451242.660   128492153.80105  24451243.960   100123757.15044
  21194212.800   111376361.35908  21194213.420    86786799.36448
  22134685.280   116318626.45008  22134689.540    90637933.41647
  21410032.840   112510583.15608  21410034.160    87670636.70048
  21072499.380   110736740.04009  21072499.940    86288379.21649
 15 01 28 00 42  0.0000000  0  5G16G21G25G29G31
  24433913.060   128401086.83405  24433914.460   100052795.91744
  21187033.700   111338635.00508  21187034.340    86757402.21548
  22147479.360   116385859.65508  22147483.460    90690322.91747
  21421219.120   112569366.85008  21421220.320    87716442.17348
  21077506.220   110763050.99409  21077506.760    86308881.25049
 15 01 28 00 42 30.0000000  0  5G16G21G25G29G31
  24416580.960   128310006.70406  24416582.440    99981824.41945
  21179938.420   111301349.15208  21179939.080    86728348.31348
  22160327.700   116453377.65908  22160331.640    90742934.33647
  21432431.600   112628288.65708  21432432.780    87762355.26348
  21082617.100   110789908.60009  21082617.620    86329809.24749
 15 01 28 00 43  0.0000000  0  5G16G21G25G29G31
  24399246.900   128218916.00105  24399248.300    99910844.69345
  21172927.580   111264506.89908  21172928.280    86699640.07748
  22173230.540   116521182.15208  22173234.360    90795768.99847
  21443670.620   112687350.15308  21443671.800    87808377.20848
  21087832.160   110817313.99409  21087832.760    86351164.09549
 15 01 28 00 43 30.0000000  0  5G16G21G25G29G31
  24381911.060   128127815.51206  24381912.380    99839857.33344
  21166001.060   111228107.87808  21166001.800    86671277.21748
  22186187.660   116589272.14308  22186191.460    90848826.12647
  21454935.780   112746549.22308  21454937.000    87854506.35448
  21093151.120   110845265.66709  21093151.840    86372944.61149
 15 01 28 00 44  0.0000000  0  5G16G21G25G29G31
  24364573.800   128036707.78006  24364575.180    99768864.31345
  21159159.340   111192154.27308  21159160.040    86643261.43448
  22199199.220   116657648.76508  22199203.160    90902106.60247
  21466227.100   112805885.92308  21466228.380    87900742.73348
  21098574.160   110873764.11009  21098574.940    86395151.18449
 15 01 28 00 44 30.0000000  0  5G16G21G25G29G31
  24347235.180   127945592.67006  24347236.660    99697865.56745
  21152402.200   111156645.18908  21152402.880    86615592.02448
  22212264.940   116726310.21008  22212269.060    90955609.01647
  21477544.240   112865358.33108  21477545.640    87947084.86348
  21104100.720   110902806.74709  21104101.580    86417781.80449
 15 01 28 00 45  0.0000000  0  5G16G21G25G29G31
  24329895.300   127854470.59106  24329896.860    99626861.36445
  21145729.640   111121580.77808  21145730.320    86588269.11948
  22225384.740   116795255.66508  22225389.000    91009332.73847
  21488886.900   112924964.65608  21488888.400    87993531.34448
  21109730.640   110932392.31509  21109731.520    86440835.48549
 15 01 28 00 45 30.0000000  0  5G16G21G25G29G31
  24312554.240   127763342.36706  24312555.820    99555852.41144
  21139141.520   111086960.35008  21139142.240    86561292.16748
  22238558.540   116864484.37808  22238562.820    91063277.18747
  21500254.800   112984703.02208  21500256.240    88040080.71648
  21115463.620   110962519.26609  21115464.500    86464311.02349
 15 01 28 00 46  0.0000000  0  5G16G21G25G29G31
  24295212.600   127672211.28106  24295214.160    99484841.23945
  21132638.640   111052787.86608  21132639.400    86534664.26248
  22251786.660   116933998.18708  22251790.840    91117443.78547
  21511648.140   113044575.12808  21511649.540    88086734.29748
  21121299.840   110993188.52009  21121300.660    86488209.13349
 15 01 28 00 46 30.0000000  0  5G16G21G25G29G31
  24277870.220   127581076.50406  24277871.800    99413827.15845
  21126220.680   111019061.46308  21126221.440    86508383.96048
  22265068.560   117003794.60108  22265072.600    91171830.58747
  21523066.280   113104577.65908  21523067.640    88133489.51248
  21127238.680   111024397.06609  21127239.460    86512527.46949
 15 01 28 00 47  0.0000000  0  5G16G21G25G29G31
  24260527.820   127489941.97606  24260529.560    99342813.29545
  21119888.280   110985784.55008  21119889.040    86482453.90948
  22278404.700   117073876.33008  22278408.640    91226439.69847
  21534509.520   113164712.44908  21534510.920    88180347.77748
  21133280.500   111056146.89209  21133281.280    86537267.58949
 15 01 28 00 47 30.0000000  0  5G16G21G25G29G31
  24243185.140   127398805.59105  24243186.820    99271797.98746
  21113640.740   110952953.59008  21113641.480    86456871.34848
  22291794.220   117144239.01108  22291798.140    91281267.75247
  21545976.960   113224974.40508  21545978.400    88227305.13748
  21139424.360   111088433.00809  21139425.140    86562425.59549
 15 01 28 00 48  0.0000000  0  5G16G21G25G29G31
  24225842.900   127307671.96405  24225844.540    99200784.81146
  21107478.880   110920572.89208  21107479.640    86431639.64848
  22305237.880   117214886.38108  22305241.900    91336317.63747
  21557469.340   113285367.37408  21557470.760    88274364.58648
  21145670.760   111121258.03009  21145671.580    86588003.53049
 15 01 28 00 48 30.0000000  0  5G16G21G25G29G31
  24208500.620   127216538.31205  24208502.320    99129771.62044
  21101402.120   110888639.14508  21101402.820    86406756.21148
  22318734.880   117285813.67608  22318739.000    91391585.64947
  21568985.600   113345885.69208  21568987.020    88321521.70348
  21152018.620   111154616.49309  21152019.500    86613997.12549
 15 01 28 00 49  0.0000000  0  5G16G21G25G29G31
  24191158.660   127125406.41906  24191160.420    99058759.79345
  21095410.520   110857152.86908  21095411.160    86382221.46348
  22332285.260   117357020.94308  22332289.380    91447071.82347
  21580525.520   113406528.32908  21580526.920    88368775.69148
  21158467.920   111188507.91209  21158468.840    86640406.01749
 15 01 28 00 49 30.0000000  0  5G16G21G25G29G31
  24173817.360   127034277.61406  24173819.060    98987750.38145
  21089504.300   110826115.41308  21089504.920    86358036.44248
  22345888.980   117428508.23408  22345893.040    91502776.20747
  21592089.040   113467294.88408  21592090.440    88416126.24348
  21165018.500   111222931.40809  21165019.420    86667229.51449
 15 01 28 00 50  0.0000000  0  5G16G21G25G29G31
  24156477.060   126943153.35206  24156478.540    98916744.47744
  21083683.420   110795526.37508  21083684.020    86334200.83448
  22359545.940   117500275.22308  22359549.860    91558698.53747
  21603676.020   113528184.72508  21603677.420    88463572.86648
  21171670.140   111257885.84609  21171671.020    86694466.72949
 15 01 28 00 50 30.0000000  0  5G16G21G25G29G31
  24139138.180   126852036.40006  24139139.520    98845744.28744
  21077948.360   110765388.44708  21077949.000    86310716.74248
  22373256.240   117572322.86808  22373259.980    91614839.55347
  21615286.460   113589198.01008  21615287.880    88511115.68148
  21178422.860   111293371.38309  21178423.700    86722117.78749
 15 01 28 00 51  0.0000000  0  5G16G21G25G29G31
  24121800.880   126760928.00306  24121802.160    98774750.74545
  21072299.180   110735701.78508  21072299.860    86287584.28448
  22387019.800   117644650.64308  22387023.340    91671198.85447
  21626920.220   113650334.13308  21626921.720    88558754.22148
  21185276.380   111329386.59209  21185277.140    86750181.57349
 15 01 28 00 51 30.0000000  0  5G16G21G25G29G31
  24104465.580   126669830.15806  24104466.720    98703765.46145
  21066736.000   110706467.11808  21066736.700    86264804.03349
  22400836.600   117717258.83008  22400840.100    91727776.65547
  21638577.180   113711592.18208  21638578.780    88606487.76348
  21192230.560   111365930.90509  21192231.280    86778657.65049
 15 01 28 00 52  0.0000000  0  5G16G21G25G29G31
  24087132.140   126578742.39706  24087133.260    98632788.02444
  21061258.600   110677683.27408  21061259.320    86242375.07249
  22414706.340   117790145.51808  22414709.940    91784571.46147
  21650257.040   113772970.43108  21650258.680    88654314.96548
  21199284.860   111403001.58309  21199285.620    86807543.88749
 15 01 28 00 52 30.0000000  0  5G16G21G25G29G31
  24069800.600   126487664.74806  24069801.780    98561818.44744
  21055866.860   110649349.56808  21055867.580    86220296.86548
  22428628.780   117863308.95108  22428632.540    91841581.91647
  21661959.340   113834466.26408  21661960.940    88702233.78648
  21206438.800   111440596.00209  21206439.600    86836838.23149
 15 01 28 00 53  0.0000000  0  5G16G21G25G29G31
  24052471.520   126396600.34606  24052472.800    98490859.19144
  21050561.160   110621468.07808  21050561.880    86198571.04248
  22442604.220   117936750.33208  22442608.140    91898808.96047
  21673684.220   113896080.67508  21673685.740    88750245.00048
  21213692.440   111478714.41309  21213693.300    86866540.88749
 15 01 28 00 53 30.0000000  0  5G16G21G25G29G31
  24035144.740   126305547.90706  24035146.040    98419909.27244
  21045341.060   110594036.38108  21045341.740    86177195.70348
  22456632.100   118010466.71308  22456636.120    91956250.28247
  21685430.940   113957809.99008  21685432.440    88798345.75548
  21221045.160   111517353.17809  21221046.040    86896649.01248
 15 01 28 00 54  0.0000000  0  5G16G21G25G29G31
  24017820.860   126214510.25306  24017822.120    98348970.85145
  21040206.900   110567056.21708  21040207.520    86156172.20748
  22470712.440   118084458.93708  22470716.580    92013906.55647
  21697199.520   114019654.36608  21697201.040    88846536.16848
  21228496.800   111556511.89209  21228497.720    86927162.28549
 15 01 28 00 54 30.0000000  0  6G16G18G21G25G29G31
  24000500.900   126123493.13906  24000502.200    98278048.45645
  24506145.060   128780659.24405  24506147.840   100348574.15443
  21035159.520   110540531.97708  21035160.080    86135503.97649
  22484846.020   118158731.11708  22484850.220    92071780.97047
  21708990.860   114081618.22608  21708992.340    88894819.69148
  21236048.020   111596193.74709  21236048.940    86958083.19348
 15 01 28 00 55  0.0000000  0  5G16G21G25G29G31
  23983185.680   126032501.25106  23983187.040    98207145.71645
  21030199.720   110514467.86008  21030200.200    86115194.27549
  22499033.300   118233285.78708  22499037.520    92129875.51447
  21720805.260   114143703.33508  21720806.760    88943197.68848
  21243699.220   111636400.78009  21243700.080    86989413.33849
 15 01 28 00 55 30.0000000  0  6G16G18G21G25G29G31
  23965872.400   125941519.63706  23965873.840    98136250.94344
  24476029.520   128622398.67005  24476031.980   100225251.95544
  21025324.320   110488847.45008  21025324.760    86095230.33149
  22513271.180   118308106.61508  22513275.340    92188177.45347
  21732639.540   114205892.71808  21732641.040    88991656.93948
  21251447.020   111677115.36909  21251447.800    87021138.97948
 15 01 28 00 56  0.0000000  0  6G16G18G21G25G29G31
  23948562.220   125850554.46106  23948563.680    98065369.02044
  24460952.900   128543168.28205  24460955.500   100163514.13843
  21020534.360   110463675.92708  21020534.800    86075616.16648
  22527560.420   118383197.36107  22527564.540    92246689.70747
  21744494.460   114268190.36508  21744495.880    89040200.55548
  21259291.880   111718340.21509  21259292.620    87053262.22648
 15 01 28 00 56 30.0000000  0  6G16G18G21G25G29G31
  23931256.360   125759611.36606  23931257.720    97994504.29244
  24445865.240   128463880.90305  24445867.300   100101731.82044
  21015830.620   110438957.57508  21015831.060    86056355.11449
  22541901.820   118458562.25807  22541905.900    92305415.58047
  21756370.680   114330600.05108  21756372.040    89088831.46648
  21267234.520   111760079.01209  21267235.260    87085785.95648
 15 01 28 00 57  0.0000000  0  6G16G18G21G25G29G31
  23913955.460   125668694.22306  23913956.720    97923659.80044
  24430767.180   128384540.65905  24430769.240   100039908.34144
  21011213.640   110414695.25808  21011214.120    86037449.41649
  22556295.740   118534202.78908  22556299.720    92364356.23947
  21768268.400   114393122.63508  21768269.680    89137550.35848
  21275275.000   111802331.97809  21275275.720    87118710.33848
 15 01 28 00 57 30.0000000  0  6G16G18G21G25G29G31
  23896658.680   125577798.69706  23896659.680    97852832.12344
  24415658.600   128305144.81106  24415660.800    99978041.61544
  21006682.360   110390883.34708  21006682.880    86018894.68549
  22570741.020   118610112.89907  22570744.900    92423506.95746
  21780186.400   114455751.71608  21780187.580    89186352.22748
  21283411.980   111845092.04909  21283412.700    87152029.86648
 15 01 28 00 58  0.0000000  0  6G16G18G21G25G29G31
  23879367.480   125486932.67806  23879368.300    97782027.45845
  24400540.760   128225701.81205  24400543.320    99916138.08842
  21002238.020   110367528.36408  21002238.560    86000696.00149
  22585238.700   118686298.52408  22585242.600    92482872.35747
  21792125.720   114518492.98508  21792126.880    89235241.51848
  21291646.360   111888364.08409  21291647.100    87185748.32748
 15 01 28 00 58 30.0000000  0  6G16G18G21G25G29G31
  23862080.500   125396089.16406  23862081.300    97711240.32844
  24385413.300   128146206.36305  24385415.860    99854193.65244
  20997879.140   110344622.25808  20997879.640    85982847.09949
  22599787.100   118762750.84507  22599791.060    92542445.58447
  21804084.540   114581336.75908  21804085.680    89284210.68248
  21299976.320   111932138.29909  21299977.060    87219858.09048
 15 01 28 00 59  0.0000000  0  6G16G18G21G25G29G31
  23844799.380   125305276.54606  23844800.240    97640477.26444
  24370277.580   128066667.49405  24370280.120    99792215.42344
  20993606.980   110322171.92108  20993607.440    85965353.34149
  22614387.340   118839476.16607  22614391.440    92602231.54447
  21816064.180   114644290.17108  21816065.380    89333265.27648
  21308402.840   111976419.92109  21308403.540    87254363.23648
 15 01 28 00 59 30.0000000  0  6G16G18G21G25G29G31
  23827523.520   125214491.58306  23827524.440    97569735.74144
  24355133.500   127987083.61805  24355135.460    99730202.08943
  20989420.680   110300173.00008  20989421.140    85948211.33348
  22629038.520   118916469.25407  22629042.700    92662226.16246
  21828063.540   114707347.55708  21828064.840    89382400.89348
  21316924.720   112021202.82609  21316925.420    87289258.99848
 15 01 28 01 00  0.0000000  0  6G16G18G21G25G29G31
  23810253.800   125123738.67106  23810254.680    97499019.19844
  24339981.760   127907459.82805  24339983.420    99668157.72444
  20985320.860   110278628.37408  20985321.280    85931423.31449
  22643741.020   118993732.37707  22643745.360    92722431.18747
  21840082.940   114770510.63408  21840084.360    89431618.86148
  21325542.220   112066488.27509  21325542.980    87324546.35548
 15 01 28 01 00 30.0000000  0  6G16G18G21G25G29G31
  23792990.220   125033017.96206  23792991.000    97428327.75045
  24324822.600   127827797.35805  24324823.940    99606083.14244
  20981307.200   110257536.63008  20981307.620    85914988.19349
  22658494.600   119071263.61707  22658499.000    92782845.12546
  21852122.060   114833777.11808  21852123.540    89480917.41448
  21334254.720   112112272.99509  21334255.540    87360222.75248
 15 01 28 01 01  0.0000000  0  6G16G18G21G25G29G31
  23775733.180   124942331.68106  23775734.020    97357663.12845
  24309656.600   127748099.60605  24309657.900    99543981.13744
  20977379.920   110236898.62108  20977380.320    85898906.63649
  22673299.400   119149063.18007  22673303.660    92843468.13246
  21864180.980   114897147.22508  21864182.420    89530296.71448
  21343062.100   112158556.22609  21343062.960    87396287.59748
 15 01 28 01 01 30.0000000  0  6G16G18G21G25G29G31
  23758483.000   124851681.50707  23758483.980    97287026.64545
  24294484.300   127668369.35106  24294485.340    99481853.79244
  20973539.020   110216714.54008  20973539.420    85883178.78849
  22688155.340   119227130.71307  22688159.320    92904299.95346
  21876259.520   114960620.01608  21876260.840    89579756.03048
  21351964.160   112205336.73009  21351965.020    87432739.92848
 15 01 28 01 02  0.0000000  0  6G16G18G21G25G29G31
  23741239.760   124761067.38806  23741240.780    97216418.27045
  24279306.020   127588607.85006  24279307.240    99419702.07843
  20969784.180   110196982.98008  20969784.620    85867803.55549
  22703061.920   119305464.01608  22703065.560    92965338.87046
  21888357.280   115024193.73208  21888358.480    89629293.98848
  21360960.180   112252610.90909  21360961.000    87469576.93948
 15 01 28 01 02 30.0000000  0  6G16G18G21G25G29G31
  23724003.960   124670492.70806  23724005.180    97145840.63445
  24264122.440   127508819.06206  24264123.760    99357529.03944
  20966115.960   110177706.25108  20966116.380    85852782.73849
  22718019.260   119384064.39607  22718022.760    93026585.89946
  21900474.280   115087868.92908  21900475.460    89678911.01047
  21370050.220   112300379.11809  21370051.020    87506798.91248
 15 01 28 01 03  0.0000000  0  6G16G18G21G25G29G31
  23706775.500   124579956.15906  23706776.780    97075292.70845
  24248933.800   127429003.09206  24248935.160    99295334.88444
  20962533.620   110158880.94008  20962534.060    85838113.66749
  22733026.600   119462928.30307  22733030.200    93088038.28846
  21912610.020   115151642.69708  21912611.240    89728604.84748
  21379233.360   112348636.80209  21379234.160    87544402.30148
 15 01 28 01 03 30.0000000  0  6G16G18G21G25G29G31
  23689555.040   124489462.13806  23689556.340    97004777.91845
  24233740.960   127349165.76105  24233742.720    99233124.05844
  20959037.780   110140510.06908  20959038.200    85823798.71149
  22748084.460   119542058.30107  22748088.340    93149698.02046
  21924764.860   115215517.00408  21924766.140    89778377.02048
  21388509.840   112397385.28108  21388510.660    87582388.11648
 15 01 28 01 04  0.0000000  0  6G16G18G21G25G29G31
  23672342.420   124399009.24906  23672343.700    96934295.17445
  24218544.060   127269306.23006  24218546.120    99170895.97144
  20955627.920   110122591.08208  20955628.300    85809835.86949
  22763192.220   119621450.60707  22763196.400    93211562.14946
  21936938.120   115279488.04808  21936939.420    89828224.57548
  21397878.760   112446619.75008  21397879.640    87620752.63148
 15 01 28 01 04 30.0000000  0  6G16G18G21G25G29G31
  23655138.340   124308601.75606  23655139.560    96863847.80944
  24203343.980   127189430.06906  24203345.860    99108654.85644
  20952304.500   110105126.28708  20952304.860    85796226.94649
  22778350.340   119701107.30407  22778354.740    93273632.29846
  21949130.160   115343557.73508  21949131.520    89878148.99648
  21407340.360   112496340.86509  21407341.260    87659496.34948
 15 01 28 01 05  0.0000000  0  6G16G18G21G25G29G31
  23637943.040   124218240.51706  23637944.080    96793436.47445
  24188140.980   127109539.00005  24188143.000    99046402.13244
  20949067.360   110088115.07708  20949067.760    85782971.45849
  22793558.660   119781027.05807  22793563.020    93335907.40546
  21961340.620   115407724.42708  21961342.080    89928149.00148
  21416894.200   112546546.45909  21416895.060    87698617.57748
 15 01 28 01 05 30.0000000  0  6G16G18G21G25G29G31
  23620756.420   124127924.58706  23620757.280    96723060.45645
  24172935.260   127029633.35805  24172937.700    98984138.12644
  20945915.960   110071554.34808  20945916.380    85770067.00049
  22808816.500   119861206.69007  22808820.660    93398385.02746
  21973569.100   115471985.43108  21973570.560    89978222.51147
  21426539.460   112597232.31209  21426540.260    87738113.03248
 15 01 28 01 06  0.0000000  0  6G16G18G21G25G29G31
  23603579.240   124037658.11006  23603580.060    96652722.96844
  24157727.720   126949718.45005  24157730.280    98921866.79444
  20942850.820   110055446.84708  20942851.220    85757515.70549
  22824124.100   119941648.08707  22824128.060    93461066.61346
  21985815.780   115536342.25308  21985817.280    90028370.67248
  21436276.180   112648398.77109  21436276.940    87777982.99248
 15 01 28 01 06 30.0000000  0  6G16G18G21G25G29G31
  23586411.400   123947440.80406  23586412.260    96582423.79945
  24142518.580   126869794.68605  24142521.420    98859588.65544
  20939871.680   110039791.26408  20939872.060    85745316.55749
  22839480.960   120022348.86507  22839484.800    93523950.31246
  21998080.200   115600792.43008  21998081.740    90078591.57747
  21446103.600   112700042.06208  21446104.340    87818224.50748
 15 01 28 01 07  0.0000000  0  6G16G18G21G25G29G31
  23569253.360   123857275.29406  23569254.360    96512164.99144
  24127308.440   126789866.12705  24127311.380    98797306.72144
  20936978.640   110024588.23008  20936979.000    85733470.04249
  22854887.040   120103309.19307  22854890.920    93587036.26346
  22010362.560   115665336.56808  22010364.100    90128885.69847
  21456021.620   112752161.58509  21456022.380    87858837.12148
 15 01 28 01 07 30.0000000  0  6G16G18G21G25G29G31
  23552105.460   123767162.81806  23552106.560    96441947.51444
  24112097.920   126709935.01205  24112100.820    98735022.79044
  20934171.500   110009836.83608  20934171.880    85721975.45949
  22870342.220   120184528.07507  22870346.280    93650323.69446
  22022662.560   115729973.20708  22022664.060    90179251.89647
  21466029.860   112804755.14708  21466030.620    87899819.10748
 15 01 28 01 08  0.0000000  0  6G16G18G21G25G29G31
  23534967.660   123677103.17906  23534968.780    96371771.18445
  24096887.100   126630002.03405  24096889.920    98672737.45344
  20931449.920   109995535.02608  20931450.320    85710831.19749
  22885846.180   120266003.06007  22885850.460    93713810.68246
  22034979.760   115794699.97908  22034981.120    90229688.33347
  21476127.560   112857818.95308  21476128.360    87941167.51948
 15 01 28 01 08 30.0000000  0  6G16G18G21G25G29G31
  23517840.220   123587097.65406  23517841.300    96301637.03345
  24081676.660   126550069.52306  24081679.320    98610452.43745
  20928813.780   109981682.37408  20928814.240    85700036.92549
  22901398.780   120347732.94207  22901403.220    93777496.29746
  22047313.920   115859515.91408  22047315.180    90280194.23947
  21486314.260   112911350.59108  21486315.120    87982880.47148
 15 01 28 01 09  0.0000000  0  6G16G18G21G25G29G31
  23500723.800   123497150.00506  23500724.900    96231547.97845
  24066467.180   126470141.97906  24066469.600    98548171.35043
  20926263.520   109968280.92208  20926264.000    85689594.24249
  22917000.360   120429719.30207  22917004.860    93841381.75546
  22059665.300   115924422.66808  22059666.520    90330770.91747
  21496590.060   112965350.39408  21496590.940    88024958.23048
 15 01 28 01 09 30.0000000  0  6G16G18G21G25G29G31
  23483618.600   123407261.60306  23483619.780    96161505.10145
  24051259.340   126390222.21506  24051261.220    98485896.26444
  20923799.000   109955329.92408  20923799.520    85679502.56349
  22932650.620   120511961.08807  22932655.060    93905466.25146
  22072033.700   115989418.93308  22072034.880    90381417.34947
  21506954.560   113019816.15708  21506955.440    88067399.07448
 15 01 28 01 10  0.0000000  0  6G16G18G21G25G29G31
  23466525.320   123317436.27606  23466526.660    96091511.37845
  24036053.700   126310315.17806  24036055.380    98423631.12544
  20921420.740   109942832.02008  20921421.260    85669763.93949
  22948349.740   120594459.74207  22948354.100    93969750.91346
  22084419.500   116054506.63608  22084420.640    90432135.03647
  21517407.760   113074747.92008  21517408.600    88110203.04348
 15 01 28 01 10 30.0000000  0  7G16G18G21G25G27G29G31
  23449444.360   123227675.28806  23449445.760    96021567.78045
  24020850.940   126230422.77906  24020852.360    98361377.37144
  20919128.580   109930786.17808  20919129.020    85660377.57749
  22964097.520   120677214.08907  22964101.760    94034234.79946
  24625324.740   129406954.70315  24625329.420   100836607.29954
  22096822.440   116119684.57508  22096823.600    90482923.03247
  21527949.200   113130143.52708  21527950.040    88153368.43748
 15 01 28 01 11  0.0000000  0  7G16G18G21G25G27G29G31
  23432375.080   123137975.57407  23432376.460    95951671.92446
  24005650.360   126150542.78506  24005651.480    98299133.30645
  20916921.560   109919187.64808  20916921.920    85651339.76049
  22979892.860   120760218.61907  22979896.960    94098913.65046
  24610535.160   129329234.76405  24610539.360   100776046.43945
  22109241.520   116184947.20508  22109242.720    90533777.02547
  21538577.600   113185995.99908  21538578.460    88196889.83148
 15 01 28 01 11 30.0000000  0  7G16G18G21G25G27G29G31
  23415317.640   123048338.03807  23415318.920    95881824.50745
  23990452.560   126070677.67006  23990453.580    98236900.80244
  20914799.360   109908035.15408  20914799.700    85642649.51249
  22995735.500   120843471.96507  22995739.420    94163786.36146
  24595761.360   129251597.32505  24595765.380   100715549.80345
  22121676.520   116250293.50308  22121677.740    90584696.21047
  21549292.440   113242302.69308  21549293.320    88240765.16648
 15 01 28 01 12  0.0000000  0  7G16G18G21G25G27G29G31
  23398274.200   122958774.18807  23398275.380    95812034.52745
  23975259.700   125990839.63506  23975260.620    98174689.38044
  20912763.600   109897337.28408  20912764.000    85634313.51749
  23011627.120   120926982.96307  23011630.880    94228859.84746
  24581004.900   129174052.09005  24581008.880   100655124.96745
  22134129.140   116315732.26808  22134130.320    90635687.45647
  21560095.220   113299071.59008  21560096.080    88285000.66148
 15 01 28 01 12 30.0000000  0  7G16G18G21G25G27G29G31
  23381243.640   122869278.21407  23381244.760    95742297.41345
  23960070.900   125911023.81506  23960071.960    98112495.28644
  20910813.060   109887087.38208  20910813.500    85626326.59149
  23027566.240   121010743.31007  23027569.720    94294127.64146
  24566263.900   129096595.54205  24566267.900   100594766.18744
  22146597.820   116381255.40808  22146598.980    90686744.44047
  21570984.000   113356292.39908  21570984.860    88329588.29048
 15 01 28 01 13  0.0000000  0  7G16G18G21G25G27G29G31
  23364225.600   122779847.90807  23364226.620    95672611.49145
  23944886.020   125831229.09906  23944887.160    98050317.64944
  20908946.940   109877281.26808  20908947.440    85618685.46349
  23043551.960   121094748.68307  23043555.320    94359586.35546
  24551539.520   129019205.33105  24551544.160   100534467.78844
  22159081.740   116446858.87908  22159082.920    90737864.00847
  21581957.700   113413959.62208  21581958.580    88374523.77548
 15 01 28 01 13 30.0000000  0  7G16G18G21G25G27G29G31
  23347222.200   122690494.45607  23347223.180    95602985.42845
  23929707.640   125751467.73506  23929708.880    97988165.96744
  20907167.120   109867928.58908  20907167.640    85611397.66449
  23059585.960   121179007.53807  23059589.340    94425242.59046
  24536831.800   128941916.75305  24536836.580   100474242.94644
