     2.11           OBSERVATION DATA    G                   RINEX VERSION / TYPE
SPIDER V4,0,0,3554                      2015 04 16 05:00    PGM / RUN BY / DATE 
CABS                                                        MARKER NAME         
CABS                                                        MARKER NUMBER       
                                                            OBSERVER / AGENCY   
462287              LEICA GRX1200PRO    8.10/2.127          REC # / TYPE / VERS 
103298              LEIAT504                                ANT # / TYPE        
  5116912.3402   671231.6412  3737143.4301                  APPROX POSITION XYZ 
        0.0600        0.0000        0.0000                  ANTENNA: DELTA H/E/N
     1     1                                                WAVELENGTH FACT L1/2
     4    C1    L1    P2    L2                              # / TYPES OF OBSERV 
    30.000                                                  INTERVAL            
  2015    02    12    00    00    0.0000000     GPS         TIME OF FIRST OBS   
  2015    02    12    23    59   30.0000000     GPS         TIME OF LAST OBS    
    16                                                      LEAP SECONDS        
    30                                                      # OF SATELLITES     
   G 1   800   800   800   800                              PRN / # OF OBS      
   G 2   927   927   927   927                              PRN / # OF OBS      
   G 3   846   846   846   846                              PRN / # OF OBS      
   G 4   831   831   831   831                              PRN / # OF OBS      
   G 5   604   604   604   604                              PRN / # OF OBS      
   G 6   799   799   799   799                              PRN / # OF OBS      
   G 7   672   672   672   672                              PRN / # OF OBS      
   G 9   807   807   807   807                              PRN / # OF OBS      
   G10   716   716   716   716                              PRN / # OF OBS      
   G11   769   769   769   769                              PRN / # OF OBS      
   G12   787   787   787   787                              PRN / # OF OBS      
   G13   792   792   792   792                              PRN / # OF OBS      
   G14   930   930   930   930                              PRN / # OF OBS      
   G15   700   700   700   700                              PRN / # OF OBS      
   G16   666   666   666   666                              PRN / # OF OBS      
   G17   930   930   930   930                              PRN / # OF OBS      
   G18   902   902   902   902                              PRN / # OF OBS      
   G19   750   750   750   750                              PRN / # OF OBS      
   G20   774   774   774   774                              PRN / # OF OBS      
   G21   740   740   740   740                              PRN / # OF OBS      
   G22   657   657   657   657                              PRN / # OF OBS      
   G23   754   754   754   754                              PRN / # OF OBS      
   G24   815   815   815   815                              PRN / # OF OBS      
   G25   855   855   855   855                              PRN / # OF OBS      
   G27   792   792   792   792                              PRN / # OF OBS      
   G28   827   827   827   827                              PRN / # OF OBS      
   G29   762   762   762   762                              PRN / # OF OBS      
   G30   718   718   718   718                              PRN / # OF OBS      
   G31   870   870   870   870                              PRN / # OF OBS      
   G32   769   769   769   769                              PRN / # OF OBS      
BIT 2 OF LLI FLAGS DATA COLLECTED UNDER A/S CONDITION       COMMENT             
SNR is mapped to RINEX snr flag value [2-9]                 COMMENT             
Lx:     = 25dBHz -> 1; 26-27dBHz -> 2; 28-31dBHz -> 3       COMMENT             
       32-35dBHz -> 4; 36-38dBHz -> 5; 39-41dBHz -> 6       COMMENT             
       42-44dBHz -> 7; 45-48dBHz -> 8; >=49dBHz -> 9        COMMENT             
                                                            END OF HEADER       
 15 02 12 00 00  0.0000000  0  6G16G18G21G25G29G31
  23807573.140   125109641.03506  23807574.380    97488041.90744
  24313252.300   127767007.38405  24313256.580    99558736.53342
  20970996.100   110203485.93408  20970996.920    85872923.75049
  22652734.180   119041083.92207  22652739.180    92759390.77846
  21925369.020   115218972.01608  21925370.440    89781182.58548
  21344995.100   112168713.17408  21344996.240    87404213.18748
 15 02 12 00 00 30.0000000  0  6G16G18G21G25G29G31
  23790275.440   125018741.06806  23790276.640    97417210.77945
  24298047.120   127687103.72605  24298050.940    99496474.29344
  20967383.680   110184502.68308  20967384.520    85858131.61549
  22667555.420   119118969.88307  22667560.220    92820081.10246
  21937606.560   115283280.84108  21937608.020    89831293.34148
  21353841.000   112215198.61909  21353842.160    87440435.59548
 15 02 12 00 01  0.0000000  0  6G16G18G21G25G29G31
  23772984.800   124927877.84006  23772986.000    97346408.26345
  24282835.880   127607169.88306  24282839.600    99434188.55442
  20963858.020   110165975.33008  20963858.860    85843694.72349
  22682428.180   119197125.58507  22682432.600    92880981.61246
  21949862.920   115347688.62408  21949864.460    89881481.20348
  21362781.520   112262181.18709  21362782.680    87477045.36648
 15 02 12 00 01 30.0000000  0  6G16G18G21G25G29G31
  23755700.680   124837048.91806  23755701.960    97275632.50145
  24267618.600   127527204.06605  24267622.300    99371877.84945
  20960418.260   110147899.26708  20960419.080    85829609.48749
  22697351.380   119275546.14807  22697355.440    92942088.52046
  21962137.080   115412189.98008  21962138.700    89931741.99448
  21371815.460   112309654.81009  21371816.660    87514037.78248
 15 02 12 00 02  0.0000000  0  6G16G18G21G25G29G31
  23738424.220   124746260.36906  23738425.560    97204888.19145
  24252396.420   127447214.27105  24252400.500    99309548.47044
  20957065.360   110130279.76108  20957066.200    85815880.00449
  22712325.760   119354236.36007  22712329.720    93003405.53546
  21974430.140   115476790.48308  21974431.780    89982080.04048
  21380943.600   112357623.43608  21380944.840    87551415.92048
 15 02 12 00 02 30.0000000  0  6G16G18G21G25G29G31
  23721154.920   124655509.47706  23721156.400    97134173.21845
  24237169.380   127367198.35006  24237173.800    99247198.71344
  20953798.560   110113112.53708  20953799.380    85802502.95749
  22727350.380   119433190.91607  22727354.420    93064928.55247
  21986740.880   115541483.99508  21986742.560    90032490.56348
  21390164.620   112406080.39408  21390165.920    87589174.57248
 15 02 12 00 03  0.0000000  0  6G16G18G21G25G29G31
  23703893.440   124564799.85606  23703895.020    97063490.41945
  24221938.360   127287161.19305  24221942.860    99184832.39644
  20950618.360   110096400.47408  20950619.180    85789480.57849
  22742425.500   119512411.51707  22742429.840    93126658.86946
  21999069.580   115606272.13708  21999071.360    90082974.81548
  21399478.680   112455026.24108  21399480.000    87627314.17948
 15 02 12 00 03 30.0000000  0  6G16G18G21G25G29G31
  23686639.820   124474131.80506  23686641.500    96992840.00245
  24206703.620   127207103.82806  24206708.160    99122450.34344
  20947524.100   110080139.93808  20947524.920    85776810.03749
  22757550.840   119591895.89607  22757555.480    93188594.73346
  22011416.020   115671153.19308  22011417.840    90133531.46648
  21408885.120   112504457.60308  21408886.460    87665832.10548
 15 02 12 00 04  0.0000000  0  6G16G18G21G25G29G31
  23669394.520   124383507.52306  23669396.240    96922223.70745
  24191465.660   127127029.39205  24191470.460    99060054.98245
  20944516.000   110064332.10308  20944516.800    85764492.24749
  22772726.380   119671643.89707  22772731.180    93250736.00847
  22023780.080   115736126.52808  22023781.860    90184160.02047
  21418383.780   112554373.44308  21418385.100    87704727.54948
 15 02 12 00 04 30.0000000  0  6G16G18G21G25G29G31
  23652157.660   124292927.77706  23652159.280    96851642.10545
  24176224.920   127046940.17906  24176229.680    98997648.07143
  20941594.080   110048976.93408  20941594.820    85752527.18349
  22787952.000   119751654.53707  22787956.760    93313081.93047
  22036161.400   115801190.61708  22036163.120    90234859.29047
  21427974.280   112604771.33309  21427975.500    87743998.61148
 15 02 12 00 05  0.0000000  0  6G16G18G21G25G29G31
  23634929.980   124202396.03806  23634931.460    96781097.90645
  24160982.000   126966840.49805  24160986.920    98935232.97745
  20938758.560   110034075.94708  20938759.240    85740916.03049
  22803227.940   119831929.03707  22803232.480    93375633.45647
  22048560.420   115866347.47408  22048562.060    90285630.84848
  21437656.480   112655651.24308  21437657.640    87783645.27848
 15 02 12 00 05 30.0000000  0  6G16G18G21G25G29G31
  23617710.880   124111909.05506  23617712.160    96710588.58845
  24145736.760   126886728.13705  24145741.920    98872808.04144
  20936008.280   110019623.26208  20936008.960    85729654.20849
  22818552.960   119912461.62307  22818557.200    93438386.09446
  22060975.960   115931591.19808  22060977.580    90336470.08548
  21447429.160   112707006.61808  21447430.280    87823662.43148
 15 02 12 00 06  0.0000000  0  6G16G18G21G25G29G31
  23600501.800   124021474.90206  23600503.020    96640120.43844
  24130490.660   126806611.99905  24130496.060    98810380.12545
  20933344.640   110005626.01008  20933345.340    85718747.26549
  22833928.000   119993258.11907  22833932.120    93501344.37446
  22073409.080   115996927.33308  22073410.640    90387381.33847
  21457293.080   112758841.67108  21457294.200    87864053.36948
 15 02 12 00 06 30.0000000  0  6G16G18G21G25G29G31
  23583301.920   123931089.09906  23583303.100    96569689.95845
  24115243.640   126726489.37005  24115249.060    98747947.16145
  20930766.560   109992078.54508  20930767.300    85708190.80849
  22849351.920   120074312.07507  22849356.060    93564503.27446
  22085858.560   116062349.75008  22085860.120    90438359.83547
  21467246.860   112811149.20908  21467248.020    87904812.47348
 15 02 12 00 07  0.0000000  0  6G16G18G21G25G29G31
  23566112.520   123840758.43106  23566113.800    96499302.43745
  24099996.560   126646367.41805  24100001.960    98685514.72944
  20928274.880   109978985.12208  20928275.680    85697988.14349
  22864825.580   120155627.75007  22864829.880    93627866.11946
  22098325.240   116127862.47708  22098326.780    90489408.70348
  21477291.080   112863931.90408  21477292.240    87945941.82948
 15 02 12 00 07 30.0000000  0  6G16G18G21G25G29G31
  23548932.760   123750478.54306  23548934.040    96428954.48545
  24084749.380   126566243.24806  24084754.580    98623080.54344
  20925868.420   109966339.31308  20925869.260    85688134.27449
  22880347.800   120237198.45507  22880352.320    93691427.68546
  22110807.760   116193458.72508  22110809.380    90540522.64848
  21487424.220   112917181.90908  21487425.420    87987435.32548
 15 02 12 00 08  0.0000000  0  6G16G18G21G25G29G31
  23531763.820   123660255.24606  23531765.140    96358650.63845
  24069503.060   126486123.28806  24069508.000    98560649.63744
  20923547.900   109954144.77408  20923548.720    85678632.04049
  22895919.300   120319027.55307  22895924.000    93755190.60846
  22123306.800   116259142.07808  22123308.580    90591704.47048
  21497646.680   112970901.40708  21497647.940    88029294.65648
 15 02 12 00 08 30.0000000  0  6G16G18G21G25G29G31
  23514605.340   123570086.40506  23514606.660    96288389.20945
  24054257.680   126406006.61006  24054261.920    98498221.26544
  20921312.760   109942398.66908  20921313.540    85669479.23549
  22911539.200   120401110.43707  22911544.000    93819151.26846
  22135821.620   116324908.05608  22135823.420    90642950.67847
  21507957.420   113025084.82408  21507958.740    88071515.48848
 15 02 12 00 09  0.0000000  0  6G16G18G21G25G29G31
  23497458.520   123479978.90307  23497459.820    96218175.58145
  24039014.320   126325901.35806  24039018.180    98435801.82244
  20919163.820   109931105.33508  20919164.500    85660679.24549
  22927208.420   120483452.08407  22927213.240    93883313.56846
  22148353.160   116390761.78008  22148354.960    90694265.25847
  21518357.080   113079735.46408  21518358.420    88114100.38048
 15 02 12 00 09 30.0000000  0  7G16G18G21G25G27G29G31
  23480324.280   123389937.91406  23480325.620    96148013.80446
  24023774.280   126245813.67406  24023777.720    98373396.06044
  20917101.660   109920268.35908  20917102.320    85652234.85649
  22942927.360   120566055.24607  22942932.180    93947679.65846
  24621113.240   129384821.52805  24621117.620   100819358.38544
  22160902.020   116456706.34808  22160903.800    90745650.61747
  21528846.000   113134855.04008  21528847.360    88157050.68848
 15 02 12 00 10  0.0000000  0  7G16G18G21G25G27G29G31
  23463199.160   123299945.00806  23463200.640    96077889.49946
  24008534.180   126165725.67806  24008537.180    98310990.03144
  20915122.300   109909866.78108  20915123.000    85644129.73449
  22958691.960   120648898.54407  22958696.800    94012232.84346
  24606329.080   129307132.48405  24606335.900   100758830.25344
  22173464.140   116522720.47708  22173465.860    90797090.17747
  21539419.880   113190420.91808  21539421.200    88200348.75348
 15 02 12 00 10 30.0000000  0  6G16G18G21G25G29G31
  23446087.400   123210022.39206  23446089.000    96007819.96345
  23993298.340   126085660.79806  23993301.120    98248602.01644
  20913229.680   109899921.27408  20913230.440    85636379.99749
  22974506.100   120732002.01907  22974510.860    94076988.77546
  22186043.240   116588823.99108  22186044.920    90848599.38947
  21550082.240   113246451.83508  21550083.540    88244009.19548
 15 02 12 00 11  0.0000000  0  7G16G18G21G25G27G29G31
  23428988.920   123120169.37306  23428990.540    95937804.65045
  23978066.880   126005619.59806  23978069.480    98186232.42143
  20911423.260   109890428.86208  20911424.060    85628983.31849
  22990369.160   120815362.60507  22990373.780    94141945.04446
  24576811.760   129152015.07805  24576817.100   100637957.96244
  22198638.860   116655014.02208  22198640.420    90900176.01147
  21560832.280   113302943.40808  21560833.560    88288028.58348
 15 02 12 00 11 30.0000000  0  7G16G18G21G25G27G29G31
  23411902.600   123030380.07407  23411904.220    95867838.98545
  23962838.780   125925597.08706  23962841.380    98123877.41744
  20909701.560   109881381.56708  20909702.380    85621933.48249
  23006279.560   120898972.00807  23006283.940    94207095.19646
  24562077.960   129074588.03205  24562083.360   100577625.33245
  22211249.440   116721282.79108  22211250.900    90951813.99547
  21571668.160   113359886.12608  21571669.420    88332399.51448
 15 02 12 00 12  0.0000000  0  7G16G18G21G25G27G29G31
  23394829.300   122940659.40807  23394830.860    95797926.78845
  23947615.280   125845599.08006  23947617.900    98061541.48044
  20908065.140   109872782.42108  20908065.980    85615232.86149
  23022237.780   120982832.64507  23022241.900    94272441.12046
  24547360.500   128997246.99205  24547366.080   100517359.66045
  22223875.440   116787632.77908  22223876.880    91003515.26647
  21582590.140   113417281.35308  21582591.400    88377123.04848
 15 02 12 00 12 30.0000000  0  7G16G18G21G25G27G29G31
  23377769.420   122851008.96507  23377770.860    95728069.33145
  23932396.920   125765627.83006  23932399.660    97999226.40444
  20906513.940   109864630.85208  20906514.760    85608880.99649
  23038243.640   121066943.20807  23038247.520    94337981.79446
  24532659.200   128919991.51005  24532665.040   100457160.68744
  22236516.740   116854062.95208  22236518.140    91055279.02747
  21593597.660   113475126.25608  21593598.940    88422196.98048
 15 02 12 00 13  0.0000000  0  7G16G18G21G25G27G29G31
  23360723.240   122761430.66107  23360724.560    95658268.06945
  23917184.300   125685686.81706  23917187.000    97936934.86544
  20905048.000   109856927.14908  20905048.780    85602878.11649
  23054297.020   121151303.76607  23054300.800    94403717.26846
  24517974.320   128842822.49905  24517980.200   100397029.08145
  22249173.260   116920573.37608  22249174.660    91107105.32947
  21604690.500   113533419.51608  21604691.800    88467620.27948
 15 02 12 00 13 30.0000000  0  7G16G18G21G25G27G29G31
  23343690.920   122671925.07907  23343692.080    95588523.46445
  23901977.660   125605777.21005  23901980.520    97874667.84843
  20903666.860   109849669.19908  20903667.640    85597222.57949
  23070397.440   121235912.13107  23070401.400    94469645.83546
  24503305.720   128765738.66905  24503311.620   100336963.85145
  22261844.600   116987162.23808  22261846.120    91158992.74647
  21615868.000   113592157.70608  21615869.320    88513390.27948
 15 02 12 00 14  0.0000000  0  7G16G18G21G25G27G29G31
  23326672.700   122582493.74007  23326673.780    95518836.71845
  23886777.700   125525902.17406  23886780.440    97812427.70344
  20902370.500   109842856.81508  20902371.280    85591914.23649
  23086544.820   121320767.17007  23086548.980    94535766.62446
  24488653.340   128688739.84005  24488659.240   100276964.84145
  22274530.740   117053828.82408  22274532.380    91210940.72547
  21627129.760   113651338.50508  21627131.060    88559505.17948
 15 02 12 00 14 30.0000000  0  7G16G18G21G25G27G29G31
  23309668.940   122493138.67707  23309670.000    95449209.41745
  23871584.840   125446063.87006  23871587.560    97750216.22344
  20901158.740   109836489.03408  20901159.520    85586952.33749
  23102739.000   121405868.13107  23102743.380    94602079.03146
  24474017.140   128611826.11105  24474022.960   100217032.18245
  22287231.580   117120572.53008  22287233.300    91262948.79147
  21638475.300   113710959.69108  21638476.600    88605963.22148
 15 02 12 00 15  0.0000000  0  7G16G18G21G25G27G29G31
  23292680.180   122403862.37507  23292681.260    95379643.49845
  23856399.700   125366265.96206  23856402.540    97688036.18244
  20900031.780   109830566.83708  20900032.540    85582337.65049
  23118980.000   121491215.15507  23118984.520    94668583.19046
  24459397.280   128534998.56705  24459403.060   100157166.63945
  22299947.180   117187393.49108  22299948.940    91315017.05847
  21649904.440   113771020.21408  21649905.720    88652763.61548
 15 02 12 00 15 30.0000000  0  7G16G18G21G25G27G29G31
  23275706.620   122314665.66007  23275707.760    95310139.58545
  23841222.580   125286510.10506  23841225.440    97625888.90644
  20898989.200   109825088.17408  20898989.960    85578068.57049
  23135267.460   121576806.37707  23135272.020    94735277.62246
  24444793.620   128458256.28905  24444799.360   100097367.57245
  22312677.320   117254290.64408  22312679.120    91367144.69347
  21661416.540   113831516.75008  21661417.820    88699903.74648
 15 02 12 00 16  0.0000000  0  7G16G18G21G25G27G29G31
  23258748.780   122225551.51507  23258750.040    95240700.01845
  23826054.100   125206800.23506  23826057.100    97563777.47444
  20898031.280   109820054.43608  20898032.060    85574146.18549
  23151601.400   121662642.06807  23151605.980    94802162.55446
  24430206.420   128381600.43005  24430212.100   100037635.84444
  22325422.040   117321264.30008  22325423.820    91419331.93147
  21673011.440   113892448.26108  21673012.680    88747382.82548
 15 02 12 00 16 30.0000000  0  7G16G18G21G25G27G29G31
  23241806.540   122136519.69707  23241807.980    95171324.60445
  23810894.800   125127137.57606  23810897.680    97501702.76144
  20897157.580   109815463.24308  20897158.380    85570568.64049
  23167981.320   121748719.61707  23167985.920    94869235.92646
  24415635.320   128305029.32105  24415640.940    99977970.13544
  22338180.960   117388312.46708  22338182.660    91471577.23447
  21684688.400   113953810.88108  21684689.600    88795197.83148
 15 02 12 00 17  0.0000000  0  7G16G18G21G25G27G29G31
  23224880.700   122047574.19707  23224882.240    95102016.41445
  23795745.200   125047526.37906  23795748.420    97439668.21045
  20896368.240   109811315.34108  20896369.080    85567336.51749
  23184407.360   121835039.92307  23184412.040    94936498.45946
  24401080.740   128228544.88105  24401086.260    99918371.96945
  22350954.300   117455436.33108  22350955.900    91523881.52447
  21696447.300   114015604.14208  21696448.520    88843348.40448
 15 02 12 00 17 30.0000000  0  7G16G18G21G25G27G29G31
  23207971.020   121958713.56707  23207972.580    95032774.40045
  23780605.480   124967966.56906  23780608.580    97377673.66544
  20895662.720   109807607.86608  20895663.600    85564447.58249
  23200878.980   121921599.35707  23200883.620    95003947.32546
  24386542.120   128152144.29805  24386547.480    99858839.14745
  22363741.300   117522632.19308  22363742.860    91576241.91847
  21708287.100   114077822.76608  21708288.380    88891830.43448
 15 02 12 00 18  0.0000000  0  7G16G18G21G25G27G29G31
  23191078.400   121869942.25007  23191079.840    94963601.94545
  23765476.500   124888463.46006  23765479.700    97315723.35145
  20895041.380   109804342.64708  20895042.260    85561903.25949
  23217396.500   122008399.64107  23217401.100    95071583.88845
  24372020.020   128075830.40805  24372025.280    99799373.89345
  22376542.500   117589902.98808  22376544.060    91628660.71147
  21720207.960   114140467.40508  21720209.300    88940644.42248
 15 02 12 00 18 30.0000000  0  7G16G18G21G25G27G29G31
  23174202.740   121781259.95307  23174203.980    94894498.87345
  23750358.540   124809017.56906  23750361.560    97253817.56345
  20894503.640   109801516.79608  20894504.520    85559701.30849
  23233959.340   122095437.63807  23233963.860    95139405.66946
  24357513.960   127999600.84505  24357519.060    99739974.32145
  22389357.260   117657245.31608  22389358.900    91681135.24247
  21732209.060   114203533.61408  21732210.460    88989786.90648
 15 02 12 00 19  0.0000000  0  7G16G18G21G25G27G29G31
  23157344.640   121692669.73207  23157345.720    94825467.53045
  23735252.360   124729633.10106  23735255.180    97191959.68845
  20894049.800   109799131.69608  20894050.660    85557842.79049
  23250567.540   122182713.65807  23250572.000    95207412.94745
  24343024.180   127923457.01005  24343029.180    99680641.54745
  22402185.780   117724659.88508  22402187.520    91733666.05747
  21744290.160   114267020.16808  21744291.560    89039256.93248
 15 02 12 00 19 30.0000000  0  7G16G18G21G25G27G29G31
  23140504.680   121604175.10607  23140505.720    94756510.70045
  23720158.420   124650314.13406  23720161.160    97130152.83445
  20893679.920   109797187.77708  20893680.760    85556328.05449
  23267221.200   122270228.47607  23267225.680    95275606.28546
  24328551.080   127847400.64805  24328555.940    99621376.93545
  22415028.360   117792148.04908  22415030.220    91786254.22847
  21756451.160   114330926.57808  21756452.500    89089054.11248
 15 02 12 00 20  0.0000000  0  7G16G18G21G25G27G29G31
  23123682.620   121515774.61307  23123683.640    94687627.21245
  23705076.760   124571060.02006  23705079.420    97068396.51445
  20893393.160   109795680.98008  20893394.020    85555153.92949
  23283919.500   122357977.87207  23283924.020    95343982.40846
  24314093.980   127771428.50505  24314099.100    99562177.92945
  22427884.220   117859706.23808  22427886.180    91838896.95747
  21768690.980   114395247.16908  21768692.260    89139174.03148
 15 02 12 00 20 30.0000000  0  7G16G18G21G25G27G29G31
  23106879.200   121427472.37807  23106880.260    94618820.27646
  23690008.280   124491875.91006  23690011.000    97006694.73845
  20893189.900   109794612.97008  20893190.780    85554321.71949
  23300662.640   122445963.00707  23300667.160    95412542.23746
  24299653.320   127695542.74805  24299658.680    99503046.25245
  22440753.760   117927335.83608  22440755.720    91891595.33847
  21781009.620   114459981.77808  21781010.860    89189616.55848
 15 02 12 00 21  0.0000000  0  7G16G18G21G25G27G29G31
  23090094.760   121339269.50907  23090095.820    94550090.76746
  23674953.400   124412764.11806  23674956.340    96945049.29845
  20893069.920   109793982.48908  20893070.780    85553830.44649
  23317450.260   122534182.44107  23317454.860    95481284.60746
  24285228.960   127619742.98405  24285234.680    99443981.58845
  22453636.700   117995036.05808  22453638.680    91944348.74647
  21793406.440   114525127.42308  21793407.680    89240379.38048
 15 02 12 00 21 30.0000000  0  7G16G18G21G25G27G29G31
  23073329.560   121251167.87007  23073330.680    94481440.14945
  23659912.800   124333727.19706  23659915.780    96883462.18945
  20893033.200   109793789.43708  20893034.020    85553680.01849
  23334282.180   122622635.28206  23334286.960    95550208.86646
  24270821.060   127544029.20005  24270826.880    99384983.89046
  22466532.960   118062806.40108  22466534.920    91997156.79147
  21805881.080   114590681.90908  21805882.340    89291460.77648
 15 02 12 00 22  0.0000000  0  7G16G18G21G25G27G29G31
  23056583.840   121163168.53507  23056585.000    94412869.25045
  23644886.800   124254766.69406  23644889.940    96821934.63344
  20893079.400   109794032.09408  20893080.180    85553869.10549
  23351158.100   122711319.51306  23351163.040    95619313.42146
  24256429.320   127468400.60005  24256435.180    99326052.57545
  22479442.240   118130645.35408  22479444.200    92050018.29947
  21818432.880   114656641.81408  21818434.200    89342858.08348
 15 02 12 00 22 30.0000000  0  7G16G18G21G25G27G29G31
  23039858.000   121075273.71607  23039859.240    94344379.79446
  23629876.040   124175885.86406  23629879.120    96760469.15544
  20893208.460   109794710.07508  20893209.180    85554397.40849
  23368077.940   122800234.71806  23368083.020    95688597.95346
  24242053.880   127392857.71305  24242059.640    99267188.05545
  22492364.640   118198552.96708  22492366.600    92102933.30347
  21831061.500   114723005.32408  21831062.800    89394569.89348
 15 02 12 00 23  0.0000000  0  7G16G18G21G25G27G29G31
  23023152.000   120987483.26207  23023153.400    94275971.66046
  23614880.700   124097085.62906  23614883.660    96699066.47444
  20893419.780   109795820.55908  20893420.500    85555262.72049
  23385041.300   122889378.05506  23385046.420    95758060.25545
  24227694.380   127317398.57005  24227700.000    99208388.79645
  22505299.760   118266527.02908  22505301.640    92155900.08747
  21843766.040   114789767.95108  21843767.340    89446592.70148
 15 02 12 00 23 30.0000000  0  7G16G18G21G25G27G29G31
  23006466.660   120899801.43707  23006468.200    94207648.18346
  23599901.700   124018371.03106  23599904.560    96637730.53444
  20893713.700   109797365.06108  20893714.420    85556466.23549
  23402048.440   122978750.69306  23402053.340    95827701.23945
  24213351.260   127242025.48805  24213356.700    99149656.59545
  22518247.960   118334569.25708  22518249.600    92208919.98447
  21856546.480   114856929.48508  21856547.780    89498926.34148
 15 02 12 00 24  0.0000000  0  7G16G18G21G25G27G29G31
  22989801.900   120812227.77107  22989803.540    94139408.96946
  23584939.100   123939742.22106  23584941.820    96576461.41544
  20894089.520   109799339.91108  20894090.240    85558005.08549
  23419098.540   123068348.95806  23419103.200    95897518.03845
  24199024.040   127166735.82805  24199029.240    99090989.35645
  22531208.520   118402676.59508  22531209.960    92261990.61947
  21869401.840   114924484.91308  21869403.160    89551566.92048
 15 02 12 00 24 30.0000000  0  7G16G18G21G25G27G29G31
  22973158.620   120724766.51007  22973160.240    94071257.34646
  23569993.900   123861204.32106  23569996.540    96515263.16445
  20894547.780   109801748.11008  20894548.500    85559881.60849
  23436191.960   123158174.52506  23436196.380    95967511.96846
  24184713.320   127091532.30605  24184718.240    99032389.32345
  22544181.920   118470851.30608  22544183.240    92315113.74547
  21882332.140   114992434.57108  21882333.540    89604514.68148
 15 02 12 00 25  0.0000000  0  7G16G18G21G25G27G29G31
  22956536.880   120637418.38807  22956538.440    94003193.88646
  23555066.340   123782759.01506  23555068.840    96454137.03745
  20895087.960   109804586.78808  20895088.680    85562093.56949
  23453328.220   123248225.10407  23453332.460    96037681.21845
  24170418.740   127016413.73105  24170423.580    98973855.43045
  22557167.720   118539091.62808  22557169.000    92368287.99747
  21895336.760   115060774.71508  21895338.240    89657766.71948
 15 02 12 00 25 30.0000000  0  7G16G18G21G25G27G29G31
  22939937.240   120550186.34407  22939938.700    93935220.87546
  23540157.180   123704410.33806  23540159.620    96393086.21445
  20895710.160   109807856.61608  20895710.900    85564641.48849
  23470507.280   123338500.98807  23470511.480    96108026.02146
  24156140.620   126941381.42005  24156145.360    98915388.76245
  22570166.100   118607398.52808  22570167.440    92421514.12947
  21908415.540   115129504.33808  21908417.060    89711322.25748
 15 02 12 00 26  0.0000000  0  7G16G18G21G25G27G29G31
  22923359.780   120463071.28807  22923361.220    93867339.02546
  23525266.720   123626159.87706  23525268.920    96332111.90744
  20896414.060   109811555.77208  20896414.840    85567523.95249
  23487728.700   123429000.10606  23487732.980    96178544.79645
  24141878.780   126866434.43005  24141883.500    98856988.58645
  22583176.860   118675770.56208  22583178.240    92474791.02347
  21921567.740   115198619.66108  21921569.280    89765178.33448
 15 02 12 00 26 30.0000000  0  7G16G18G21G25G27G29G31
  22906805.340   120376077.37407  22906806.800    93799551.56646
  23510395.740   123548012.14206  23510397.940    96271217.65645
  20897199.840   109815685.13708  20897200.640    85570741.64949
  23504992.640   123519723.32706  23504997.180    96249238.18746
  24127633.480   126791574.61605  24127638.260    98798656.32245
  22596200.220   118744208.88608  22596201.660    92528119.57047
  21934793.280   115268120.25008  21934794.840    89819334.61748
 15 02 12 00 27  0.0000000  0  7G16G18G21G25G27G29G31
  22890273.920   120289204.61407  22890275.420    93731858.51946
  23495544.380   123469968.25506  23495546.720    96210404.31745
  20898067.140   109820242.74708  20898067.920    85574293.03849
  23522298.560   123610667.79906  23522303.500    96320103.97445
  24113404.320   126716800.27505  24113409.300    98740390.67145
  22609235.840   118812711.83608  22609237.320    92581498.47647
  21948091.380   115338001.86708  21948092.900    89873787.80948
 15 02 12 00 27 30.0000000  0  7G16G18G21G25G27G29G31
  22873766.080   120202455.40607  22873767.520    93664261.74946
  23480713.380   123392031.61506  23480715.840    96149674.55445
  20899015.740   109825227.68708  20899016.520    85578177.41549
  23539646.480   123701832.98706  23539651.800    96391141.74446
  24099191.420   126642111.95305  24099196.620    98682192.03745
  22622283.740   118881279.26908  22622285.240    92634927.62847
  21961461.640   115408262.39308  21961463.020    89928536.24448
 15 02 12 00 28  0.0000000  0  7G16G18G21G25G27G29G31
  22857281.760   120115829.46707  22857283.040    93596761.01246
  23465902.680   123314202.10406  23465905.380    96089028.25945
  20900045.100   109830637.00808  20900045.880    85582392.47449
  23557035.860   123793215.45806  23557041.460    96462348.81745
  24084994.460   126567507.33105  24084999.780    98624058.62046
  22635343.420   118949908.43708  22635344.920    92688404.88947
  21974903.040   115478897.01408  21974904.300    89983576.18448
 15 02 12 00 28 30.0000000  0  7G16G18G21G25G27G29G31
  22840821.520   120029330.19307  22840822.700    93529358.99246
  23451113.280   123236484.51706  23451116.140    96028469.16545
  20901155.300   109836471.13208  20901156.100    85586938.54949
  23574466.880   123884815.73906  23574472.540    96533725.61946
  24070813.700   126492988.05105  24070819.160    98565991.68645
  22648415.080   119018600.74508  22648416.660    92741931.33447
  21988415.420   115549904.80608  21988416.620    90038906.90848
 15 02 12 00 29  0.0000000  0  7G16G18G21G25G27G29G31
  22824385.700   119942959.14207  22824386.780    93462056.88346
  23436345.500   123158880.86006  23436348.500    95967998.85445
  20902346.160   109842729.19708  20902346.980    85591814.96149
  23591939.200   123976632.21006  23591944.740    96605270.86145
  24056649.140   126418553.61905  24056654.720    98507990.87946
  22661498.560   119087354.90408  22661500.080    92795505.97947
  22001998.200   115621282.65708  22001999.420    90094525.98648
 15 02 12 00 29 30.0000000  0  7G16G18G21G25G27G29G31
  22807974.680   119856718.72607  22807975.780    93394856.56746
  23421600.120   123081394.61506  23421603.220    95907620.06045
  20903617.560   109849410.45908  20903618.380    85597021.14249
  23609452.540   124068664.25407  23609457.920    96676984.11146
  24042500.860   126344204.49405  24042506.400    98450056.52945
  22674593.880   119156171.34108  22674595.420    92849129.15447
  22015650.840   115693028.25608  22015652.200    90150431.62548
 15 02 12 00 30  0.0000000  0  7G16G18G21G25G27G29G31
  22791588.560   119770609.33907  22791589.740    93327758.37046
  23406877.420   123004026.65906  23406880.400    95847333.41145
  20904968.980   109856512.33708  20904969.820    85602555.07749
  23627006.360   124160909.18606  23627011.540    96748863.23846
  24028368.680   126269939.16106  24028374.060    98392187.51446
  22687700.740   119225048.33108  22687702.380    92902799.51247
  22029372.680   115765137.74508  22029374.280    90206620.82148
 15 02 12 00 30 30.0000000  0  7G16G18G21G25G27G29G31
  22775227.980   119684634.01107  22775229.180    93260764.61046
  23392178.040   122926780.62806  23392180.900    95787141.77045
  20906400.500   109864035.09708  20906401.340    85608416.97749
  23644600.560   124253366.94206  23644605.520    96820908.19445
  24014252.720   126195758.67805  24014257.880    98334384.59346
  22700819.220   119293986.27008  22700820.900    92956517.36547
  22043163.500   115837609.65008  22043165.340    90263092.41348
 15 02 12 00 31  0.0000000  0  7G16G18G21G25G27G29G31
  22758893.500   119598795.73107  22758894.680    93193877.64546
  23377502.780   122849660.66807  23377505.360    95727048.37645
  20907912.100   109871978.65008  20907912.920    85614606.76649
  23662235.140   124346037.48306  23662239.880    96893118.98445
  24000153.140   126121664.22606  24000158.120    98276648.69946
  22713949.380   119362985.89707  22713951.140    93010283.29047
  22057023.100   115910442.38708  22057025.000    90319845.17848
 15 02 12 00 31 30.0000000  0  7G16G18G21G25G27G29G31
  22742585.440   119513096.29007  22742586.580    93127098.86346
  23362852.000   122772668.97007  23362854.180    95667054.88445
  20909503.600   109880342.11008  20909504.400    85621123.74949
  23679909.780   124438919.42506  23679914.520    96965494.48145
  23986069.860   126047655.43806  23986074.640    98218979.56546
  22727091.120   119432046.35607  22727092.960    93064096.61147
  22070950.900   115983633.03908  22070952.740    90376876.83548
 15 02 12 00 32  0.0000000  0  7G16G18G21G25G27G29G31
  22726304.100   119427537.68107  22726305.300    93060429.82947
  23348226.040   122695808.27207  23348227.880    95607163.48945
  20911174.820   109889124.54108  20911175.620    85627967.20449
  23697624.540   124532011.54606  23697629.100    97038033.74845
  23972002.820   125973732.30506  23972007.520    98161377.18345
  22740244.380   119501167.55107  22740246.300    93117957.27047
  22084946.340   116057178.89708  22084948.020    90434185.27548
 15 02 12 00 32 30.0000000  0  7G16G18G21G25G27G29G31
  22710049.660   119342120.80507  22710051.040    92993871.24346
  23333625.040   122619079.52807  23333626.680    95547374.91445
  20912925.300   109898323.28608  20912926.080    85635135.06149
  23715378.840   124625311.37406  23715383.240    97110734.88945
  23957951.820   125899893.61305  23957956.420    98103840.57145
  22753408.940   119570347.88907  22753410.920    93171864.00647
  22099008.600   116131075.95208  22099010.060    90491767.36648
 15 02 12 00 33  0.0000000  0  7G16G18G21G25G27G29G31
  22693822.820   119256848.60307  22693824.280    92927425.39646
  23319049.960   122542487.71407  23319051.620    95487693.03744
  20914755.160   109907939.29408  20914755.940    85642628.06149
  23733172.840   124718819.23906  23733177.120    97183598.09844
  23943917.180   125826140.78006  23943921.620    98046370.89045
  22766584.940   119639588.28607  22766586.960    93225817.54647
  22113137.420   116205323.19008  22113138.720    90549622.32548
 15 02 12 00 33 30.0000000  0  7G16G18G21G25G27G29G31
  22677623.720   119171721.71607  22677625.180    92861092.77346
  23304501.020   122466033.73806  23304502.800    95428118.56345
  20916663.860   109917969.66508  20916664.660    85650443.94249
  23751006.000   124812532.39106  23751010.220    97256621.29345
  23929898.500   125752472.26105  23929902.920    97988966.90946
  22779772.000   119708886.95607  22779774.100    93279816.49147
  22127332.020   116279916.30308  22127333.240    90607746.80448
 15 02 12 00 34  0.0000000  0  7G16G18G21G25G27G29G31
  22661452.800   119086742.66607  22661454.200    92794875.34246
  23289978.880   122389720.48107  23289980.820    95368653.74745
  20918651.240   109928413.71608  20918652.080    85658582.17349
  23768878.080   124906450.02006  23768882.380    97329803.84145
  23915895.900   125678888.40605  23915900.320    97931628.92045
  22792970.180   119778243.88107  22792972.360    93333860.82647
  22141592.000   116354852.99908  22141593.220    90666139.01048
 15 02 12 00 34 30.0000000  0  7G16G18G21G25G27G29G31
  22645310.600   119001914.44907  22645311.920    92728775.44546
  23275484.260   122313551.68706  23275486.420    95309301.48945
  20920717.340   109939271.32708  20920718.220    85667042.65649
  23786788.920   125000571.81206  23786793.400    97403145.42545
  23901909.620   125605390.19805  23901914.040    97874357.63645
  22806179.560   119847659.58107  22806181.760    93387950.95947
  22155917.080   116430131.55008  22155918.360    90724797.59348
 15 02 12 00 35  0.0000000  0  7G16G18G21G25G27G29G31
  22629197.360   118917238.83507  22629198.720    92662794.44947
  23261017.760   122237529.94207  23261019.980    95250063.82945
  20922861.940   109950541.30408  20922862.800    85675824.46549
  23804738.360   125094896.57506  23804743.020    97476645.19145
  23887939.560   125531977.58305  23887944.040    97817153.04245
  22819400.140   119917134.06907  22819402.280    93442086.90347
  22170306.760   116505749.33208  22170308.100    90783720.52348
 15 02 12 00 35 30.0000000  0  7G16G18G21G25G27G29G31
  22613113.200   118832716.31707  22613114.640    92596932.76747
  23246579.540   122161656.45507  23246581.840    95190941.69745
  20925084.580   109962221.30908  20925085.400    85684925.77449
  23822725.980   125189421.60406  23822730.860    97550301.01745
  23873985.460   125458649.08705  23873990.080    97760014.00346
  22832631.580   119986665.34907  22832633.660    93496267.09447
  22184760.140   116581702.01008  22184761.600    90842904.40248
 15 02 12 00 36  0.0000000  0  7G16G18G21G25G27G29G31
  22597058.560   118748348.52507  22597060.020    92531191.63547
  23232170.060   122085933.50907  23232172.260    95131936.84145
  20927384.980   109974309.94308  20927385.780    85694345.49249
  23840751.520   125284145.23106  23840756.480    97624111.56846
  23860047.300   125385404.19705  23860052.060    97702940.11846
  22845873.640   120056252.27607  22845875.660    93550490.64347
  22199276.560   116657986.31208  22199278.140    90902346.68648
 15 02 12 00 36 30.0000000  0  7G16G18G21G25G27G29G31
  22581034.340   118664140.44908  22581035.780    92465574.96046
  23217790.200   122010366.11207  23217792.320    95073053.19845
  20929763.380   109986808.48808  20929764.160    85704084.62249
  23858815.120   125379068.82606  23858820.040    97698077.95345
  23846125.540   125312245.66705  23846130.520    97645933.51846
  22859126.740   120125897.44807  22859128.700    93604759.58647
  22213856.080   116734602.45908  22213857.800    90962047.55948
 15 02 12 00 37  0.0000000  0  7G16G18G21G25G27G29G31
  22565040.640   118580092.66508  22565041.960    92400083.18947
  23203440.360   121934956.36107  23203442.400    95014292.39845
  20932219.380   109999714.75208  20932220.140    85714141.45849
  23876916.200   125474190.18106  23876921.120    97772198.43245
  23832220.140   125239172.30205  23832225.160    97588993.27746
  22872390.660   120195599.77807  22872392.640    93659073.07446
  22228497.960   116811546.27808  22228499.760    91022003.76048
 15 02 12 00 37 30.0000000  0  7G16G18G21G25G27G29G31
  22549077.660   118496206.65508  22549078.940    92334717.46247
  23189120.760   121859706.21107  23189122.900    94955655.97345
  20934752.600   110013026.69008  20934753.300    85724514.40349
  23895054.480   125569507.20506  23895059.400    97846471.37245
  23818330.860   125166183.44606  23818335.860    97532118.88646
  22885665.100   120265357.79107  22885667.200    93713429.93647
  22243201.580   116888814.52508  22243203.400    91082212.75348
 15 02 12 00 38  0.0000000  0  7G16G18G21G25G27G29G31
  22533145.940   118412485.20108  22533147.260    92269479.97846
  23174832.060   121784619.08007  23174834.360    94897146.55945
  20937363.060   110026744.65008  20937363.740    85735203.72649
  23913229.920   125665019.51306  23913234.700    97920896.51645
  23804457.860   125093279.90006  23804462.740    97475310.97846
  22898950.220   120335172.03607  22898952.480    93767830.63247
  22257966.640   116966405.30208  22257968.380    91142673.06847
 15 02 12 00 38 30.0000000  0  7G16G18G21G25G27G29G31
  22517246.100   118328931.08508  22517247.440    92204372.88347
  23160574.900   121709697.86307  23160577.300    94838766.43945
  20940050.540   110040867.53208  20940051.220    85746208.57549
  23931442.100   125760726.24506  23931447.000    97995473.11944
  23790601.160   125020462.02706  23790605.880    97418569.81346
  22912246.180   120405042.97407  22912248.520    93822275.51147
  22272792.660   117044316.24308  22272794.300    91203382.86148
 15 02 12 00 39  0.0000000  0  7G16G18G21G25G27G29G31
  22501378.300   118245545.28108  22501379.640    92139396.93847
  23146349.660   121634944.23207  23146352.000    94780516.89945
  20942814.600   110055392.82008  20942815.260    85757526.98649
  23949690.800   125856625.23805  23949695.740    98070199.55144
  23776760.580   124947729.02006  23776765.180    97361894.79046
  22925552.640   120474969.26707  22925555.140    93876763.51547
  22287678.960   117122543.96708  22287680.580    91264339.50547
 15 02 12 00 39 30.0000000  0  7G16G18G21G25G27G29G31
  22485542.780   118162328.82008  22485544.060    92074552.95047
  23132156.660   121560360.14107  23132158.880    94722399.46545
  20945654.860   110070318.60308  20945655.540    85769157.47049
  23967975.780   125952714.06106  23967980.740    98145073.90744
  23762935.840   124875079.68406  23762940.340    97305284.97946
  22938869.320   120544949.59607  22938871.940    93931293.61346
  22302624.700   117201084.08208  22302626.320    91325539.56647
 15 02 12 00 40  0.0000000  0  7G16G18G21G25G27G29G31
  22469740.080   118079285.10008  22469741.340    92009843.56247
  23117996.720   121485949.78807  23117998.760    94664417.42545
  20948571.480   110085645.72608  20948572.180    85781100.68749
  23986297.100   126048993.05805  23986301.880    98220096.44344
  23749127.220   124802515.60306  23749131.720    97248741.59446
  22952196.640   120614984.98107  22952199.240    93985866.62847
  22317629.660   117279935.32208  22317631.260    91386982.06048
 15 02 12 00 40 30.0000000  0  7G16G18G21G25G27G29G31
  22453970.320   117996414.74808  22453971.580    91945269.27347
  23103870.020   121411713.81207  23103871.900    94606571.24546
  20951563.880   110101370.99908  20951564.620    85793354.15349
  24004654.200   126145459.12906  24004658.820    98295264.75145
  23735334.500   124730035.00006  23735339.040    97192263.24246
  22965534.100   120685073.43307  22965536.600    94040480.97546
  22332692.940   117359093.35108  22332694.540    91448663.62047
 15 02 12 00 41  0.0000000  0  7G16G18G21G25G27G29G31
  22438234.200   117913721.14008  22438235.440    91880832.70747
  23089777.360   121337656.51507  23089779.140    94548864.31345
  20954631.980   110117494.19908  20954632.780    85805917.69149
  24023047.040   126242112.40306  24023051.440    98370578.93345
  23721557.960   124657639.37006  23721562.440    97135851.10345
  22978881.880   120755216.10407  22978884.240    94095137.58646
  22347814.440   117438557.24308  22347816.000    91510583.50447
 15 02 12 00 41 30.0000000  0  7G16G18G21G25G27G29G31
  22422532.180   117831206.66508  22422533.380    91816535.72047
  23075719.220   121263780.49607  23075721.000    94491298.62145
  20957775.700   110134014.54908  20957776.500    85818790.69149
  24041475.320   126338951.97906  24041479.680    98446038.27345
  23707797.680   124585329.00906  23707802.100    97079505.41945
  22992240.000   120825413.42807  22992242.280    94149836.77246
  22362993.600   117518324.08908  22362995.080    91572739.45447
 15 02 12 00 42  0.0000000  0  7G16G18G21G25G27G29G31
  22406864.680   117748873.11308  22406865.780    91752379.71147
  23061696.100   121190088.29807  23061697.900    94433876.17445
  20960994.760   110150930.91508  20960995.560    85831972.27949
  24059938.620   126435976.12706  24059943.020    98521641.44644
  23694053.540   124513103.60206  23694057.860    97023225.91846
  23005608.400   120895664.45507  23005610.540    94204577.80246
  22378229.800   117598390.62408  22378231.180    91635128.93147
 15 02 12 00 42 30.0000000  0  7G16G18G21G25G27G29G31
  22391232.080   117666723.05608  22391233.180    91688366.68847
  23047708.540   121116583.17407  23047710.480    94376599.47745
  20964289.040   110168242.34508  20964289.800    85845461.70949
  24078436.680   126533183.82506  24078441.260    98597387.61545
  23680325.680   124440963.35005  23680329.960    96967012.76945
  23018987.080   120965969.38007  23018989.080    94259360.83846
  22393522.500   117678754.39708  22393523.860    91697750.01247
 15 02 12 00 43  0.0000000  0  7G16G18G21G25G27G29G31
  22375634.800   117584758.83308  22375635.940    91624498.47947
  23033757.120   121043267.93807  23033759.160    94319470.75645
  20967658.300   110185947.87608  20967659.040    85859258.23149
  24096969.340   126630574.00806  24096974.260    98673276.00745
  23666614.080   124368908.60805  23666618.380    96910866.25446
  23032375.920   121036328.02007  23032377.920    94314185.71746
  22408871.340   117759412.91108  22408872.700    91760600.76847
 15 02 12 00 43 30.0000000  0  7G16G18G21G25G27G29G31
  22360073.000   117502981.17508  22360074.200    91560775.64747
  23019842.000   120970143.66307  23019844.200    94262490.83445
  20971101.980   110204044.36508  20971102.680    85873359.39649
  24115536.060   126728144.07805  24115541.460    98749304.57245
  23652918.560   124296938.00206  23652922.920    96854785.30946
  23045774.840   121106739.03407  23045776.760    94369051.42847
  22424275.480   117840362.06408  22424276.940    91823678.00347
 15 02 12 00 44  0.0000000  0  7G16G18G21G25G27G29G31
  22344547.400   117421393.70608  22344548.660    91497201.01447
  23005964.160   120897214.94807  23005966.380    94205663.29346
  20974620.220   110222532.65208  20974620.900    85887765.85549
  24134136.940   126825894.49305  24134142.880    98825473.65145
  23639239.440   124225053.49406  23639243.840    96798771.45246
  23059183.960   121177203.92607  23059185.820    94423959.12047
  22439734.740   117921600.91808  22439736.300    91886980.97247
 15 02 12 00 44 30.0000000  0  7G16G18G21G25G27G29G31
  22329058.080   117339996.67808  22329059.280    91433774.76547
  22992123.700   120824482.34607  22992125.860    94148988.56846
  20978212.320   110241409.31508  20978213.020    85902474.94549
  24152771.560   126923821.72405  24152777.980    98901780.50045
  23625576.240   124153252.78306  23625580.720    96742822.87546
  23072602.740   121247720.18507  23072604.640    94478906.82846
  22455248.200   118003124.41708  22455249.820    91950505.74547
 15 02 12 00 45  0.0000000  0  7G16G18G21G25G27G29G31
  22313605.360   117258792.28308  22313606.540    91370498.62747
  22978320.900   120751948.33407  22978323.060    94092468.58446
  20981878.100   110260673.34708  20981878.840    85917485.88149
  24171439.860   127021924.38405  24171446.260    98978224.05845
  23611928.940   124081535.92206  23611933.520    96686939.66146
  23086031.340   121318287.84207  23086033.260    94533894.58546
  22470815.200   118084929.53108  22470816.920    92014249.95947
 15 02 12 00 45 30.0000000  0  7G16G18G21G25G27G29G31
  22298190.080   117177784.54508  22298191.240    91307375.73747
  22964556.780   120679617.48207  22964558.860    94036106.91046
  20985617.680   110280325.20708  20985618.460    85932799.01949
  24190141.840   127120203.09105  24190147.980    99054804.74945
  23598297.900   124009904.73806  23598302.600    96631123.18746
  23099469.960   121388908.59207  23099472.000    94588923.71546
  22486435.660   118167015.43108  22486437.380    92078212.96147
 15 02 12 00 46  0.0000000  0  7G16G18G21G25G27G29G31
  22282812.080   117096972.58608  22282813.280    91244405.40047
  22950831.180   120607489.71307  22950833.260    93979903.48646
  20989430.260   110300360.63608  20989431.100    85948411.05049
  24208876.680   127218653.39806  24208882.180    99131519.20844
  23584682.600   123938356.41606  23584687.380    96575371.27946
  23112918.060   121459578.81907  23112920.120    94643991.39546
  22502108.440   118249376.44108  22502110.140    92142390.34047
 15 02 12 00 46 30.0000000  0  7G16G18G21G25G27G29G31
  22267472.500   117016362.51008  22267473.700    91181592.36647
  22937145.300   120535571.02407  22937147.400    93923862.99045
  20993316.300   110320782.07208  20993317.180    85964323.86149
  24227644.600   127317277.94605  24227649.740    99208369.41044
  23571083.800   123866894.69206  23571088.620    96519686.86147
  23126376.380   121530302.50307  23126378.400    94699100.73546
  22517833.720   118332013.53408  22517835.380    92206782.84247
 15 02 12 00 47  0.0000000  0  7G16G18G21G25G27G29G31
  22252171.080   116935952.90008  22252172.260    91118935.53347
  22923499.140   120463860.78407  22923501.220    93867984.91846
  20997274.860   110341584.50308  20997275.760    85980533.55249
  24246444.680   127416071.61206  24246449.320    99285351.43844
  23557500.880   123795516.12306  23557505.640    96464067.23446
  23139844.160   121601075.88607  23139846.160    94754248.79746
  22533610.260   118414920.05808  22533611.920    92271385.29147
 15 02 12 00 47 30.0000000  0  7G16G18G21G25G27G29G31
  22236908.880   116855749.38708  22236909.960    91056439.29747
  22909893.900   120392365.40107  22909895.900    93812274.26345
  21001306.340   110362770.09708  21001307.240    85997041.81149
  24265277.360   127515036.68306  24265281.780    99362466.99645
  23543934.460   123724224.22006  23543939.020    96408515.13547
  23153322.000   121671902.21307  23153323.960    94809438.12246
  22549438.300   118498096.85408  22549439.900    92336198.33447
 15 02 12 00 48  0.0000000  0  7G16G18G21G25G27G29G31
  22221685.640   116775750.78208  22221686.640    90994102.72846
  22896329.380   120321083.96107  22896331.340    93756730.33546
  21005409.840   110384334.19608  21005410.720    86013845.00649
  24284141.660   127614168.25106  24284146.000    99439712.28944
  23530383.840   123653015.58406  23530388.340    96353027.93346
  23166809.280   121742778.04807  23166811.140    94864666.02346
  22565316.580   118581537.56308  22565318.180    92401217.03447
 15 02 12 00 48 30.0000000  0  8G16G18G21G22G25G27G29G31
  22206502.600   116695963.71508  22206503.600    90931931.00647
  22882807.060   120250023.56407  22882808.940    93701358.64146
  21009586.140   110406280.74008  21009587.000    86030946.21449
  24547875.240   128999955.00106  24547878.500   100519452.69745
  24303038.100   127713469.87605  24303042.680    99517090.06045
  23516850.040   123581895.00806  23516854.400    96297609.35445
  23180306.820   121813707.91307  23180308.600    94919936.02146
  22581245.400   118665243.98508  22581247.040    92466442.78247
 15 02 12 00 49  0.0000000  0  8G16G18G21G22G25G27G29G31
  22191357.820   116616377.54808  22191358.820    90869915.81347
  22869324.880   120179173.63607  22869326.660    93646150.93445
  21013832.380   110428594.86908  21013833.220    86048333.85149
  24529772.080   128904823.69806  24529774.900   100445325.20044
  24321964.140   127812926.74006  24321968.920    99594588.81745
  23503330.520   123510849.35106  23503334.680    96242249.15346
  23193811.860   121884677.82207  23193813.640    94975237.21846
  22597221.700   118749200.10808  22597223.420    92531863.10747
 15 02 12 00 49 30.0000000  0  8G16G18G21G22G25G27G29G31
  22176255.120   116537012.34708  22176256.120    90808072.81046
  22855886.720   120108555.07107  22855888.480    93591123.51046
  21018151.700   110451292.95908  21018152.500    86066020.67649
  24511656.420   128809627.73506  24511659.440   100371147.26645
  24340922.740   127912555.39705  24340927.820    99672221.43245
  23489828.560   123439896.35406  23489832.680    96186961.16046
  23207328.080   121955706.13407  23207329.800    95030583.94146
  22613248.420   118833420.94908  22613250.160    92597489.69347
 15 02 12 00 50  0.0000000  0  8G16G18G21G22G25G27G29G31
  22161193.360   116457862.25108  22161194.380    90746397.41646
  22842491.640   120038162.46507  22842493.380    93536272.16446
  21022542.120   110474364.74608  21022542.900    86083998.70049
  24493527.180   128714361.11306  24493530.660   100296914.23644
  24359912.320   128012346.27105  24359917.560    99749980.44545
  23476342.740   123369028.04906  23476346.800    96131739.13346
  23220853.860   122026784.36507  23220855.540    95085969.56246
  22629323.460   118917895.58308  22629325.240    92663314.05147
 15 02 12 00 50 30.0000000  0  8G16G18G21G22G25G27G29G31
  22146173.080   116378930.21308  22146174.140    90684891.93647
  22829140.080   119967998.91607  22829141.860    93481599.28846
  21027003.880   110497811.23708  21027004.620    86102268.69649
  24475385.240   128619028.17106  24475389.020   100222629.52045
  24378932.780   128112299.13705  24378938.160    99827865.66445
  23462873.300   123298245.55406  23462877.320    96076583.99946
  23234389.360   122097913.64207  23234391.160    95141394.94546
  22645446.520   119002622.19408  22645448.240    92729334.75047
 15 02 12 00 51  0.0000000  0  8G16G18G21G22G25G27G29G31
  22131194.460   116300217.32508  22131195.580    90623557.23047
  22815832.300   119898065.72407  22815834.160    93427105.91945
  21031536.380   110521629.56208  21031537.100    86120828.43549
  24457230.820   128523629.67106  24457234.800   100148293.60144
  24397983.600   128212411.16806  24397989.140    99905874.93245
  23449419.940   123227547.60706  23449423.960    96021494.73345
  23247934.300   122169092.52707  23247936.220    95196858.98946
  22661616.720   119087596.41708  22661618.280    92795548.39147
 15 02 12 00 51 30.0000000  0  8G16G18G21G22G25G27G29G31
  22116258.080   116221726.22908  22116259.180    90562395.33947
  22802568.920   119828366.18907  22802570.820    93372794.60146
  21036139.360   110545818.41108  21036140.060    86139676.89849
  24439064.440   128428168.32106  24439068.500   100073908.69244
  24417064.540   128312681.45905  24417070.060    99984007.52244
  23435982.740   123156934.65206  23435986.740    95966471.69645
  23261488.740   122240321.34607  23261490.700    95252361.94446
  22677833.520   119172815.82508  22677834.960    92861953.08547
 15 02 12 00 52  0.0000000  0  8G16G18G21G22G25G27G29G31
  22101364.440   116143460.09808  22101365.620    90501408.75647
  22789350.640   119758904.00007  22789352.520    93318668.23046
  21040812.780   110570377.39108  21040813.480    86158813.76749
  24420886.760   128332647.97206  24420891.300    99999477.81745
  24436175.500   128413109.55105  24436181.060   100062263.10545
  23422561.880   123086407.78806  23422565.880    95911515.73346
  23275052.700   122311600.49207  23275054.740    95307904.11946
  22694096.580   119258278.60108  22694097.940    92928547.41547
 15 02 12 00 52 30.0000000  0  8G16G18G21G22G25G27G29G31
  22086513.880   116065419.82808  22086515.060    90440598.17147
  22776177.560   119689679.78107  22776179.400    93264727.31146
  21045556.140   110595303.79008  21045556.800    86178236.93749
  24402698.140   128237069.30506  24402702.700    99925001.39745
  24455315.800   128513692.59606  24455321.560   100140639.36844
  23409157.120   123015965.58806  23409161.220    95856625.75446
  23288625.900   122382928.38707  23288628.120    95363484.27046
  22710405.040   119343980.40708  22710406.460    92995327.99847
 15 02 12 00 53  0.0000000  0  8G16G18G21G22G25G27G29G31
  22071706.620   115987607.10708  22071707.800    90379964.89047
  22763050.340   119620696.26507  22763052.100    93210973.95546
  21050368.960   110620595.34308  21050369.620    86197944.64749
  24384499.020   128141434.46505  24384503.520    99850481.20945
  24474485.320   128614428.49105  24474491.140   100219134.77244
  23395768.360   122945607.50706  23395772.560    95801801.30646
  23302208.220   122454304.63807  23302210.620    95419102.10446
  22726758.200   119429917.62608  22726759.820    93062292.03047
 15 02 12 00 53 30.0000000  0  8G16G18G21G22G25G27G29G31
  22056943.280   115910025.14208  22056944.500    90319511.41947
  22749969.620   119551956.98008  22749971.260    93157410.93345
  21055251.220   110646252.01308  21055251.900    86217936.85549
  24366290.040   128045747.37906  24366294.400    99775920.26545
  24493683.880   128715317.03805  24493689.720   100297749.13244
  23382395.840   122875334.72406  23382400.100    95747043.32246
  23315799.880   122525730.24706  23315802.360    95474758.39846
  22743155.820   119516088.27808  22743157.620    93129437.96347
 15 02 12 00 54  0.0000000  0  8G16G18G21G22G25G27G29G31
  22042224.060   115832675.10608  22042225.340    90259238.67447
  22736935.700   119483463.33707  22736937.200    93104039.30646
  21060202.480   110672271.42308  21060203.200    86238211.71849
  24348071.500   127950008.97806  24348075.520    99701319.19245
  24512911.080   128816355.54406  24512916.720   100376480.30344
  23369039.380   122805146.17406  23369043.620    95692350.96046
  23329400.700   122597203.92907  23329403.220    95530452.13746
  22759597.300   119602489.07508  22759599.220    93196763.22047
 15 02 12 00 54 30.0000000  0  8G16G18G21G22G25G27G29G31
  22027549.760   115755561.16808  22027551.060    90199149.90147
  22723949.380   119415219.62807  22723950.680    93050862.41845
  21065222.800   110698653.67708  21065223.580    86258769.32349
  24329843.920   127854223.48606  24329847.740    99626681.41044
  24532166.980   128917544.48406  24532172.300   100455328.72745
  23355699.300   122735043.75906  23355703.500    95637725.72046
  23343010.960   122668727.36106  23343013.640    95586184.65746
  22776082.420   119689118.42708  22776084.300    93264266.57047
 15 02 12 00 55  0.0000000  0  8G16G18G21G22G25G27G29G31
  22012920.500   115678683.88308  22012921.780    90139245.52947
  22711010.740   119347226.89207  22711012.000    92997881.09445
  21070311.640   110725395.86108  21070312.440    86279607.39049
