     2.11           OBSERVATION DATA    M                   RINEX VERSION / TYPE
SPIDER V4,0,0,3554                      2015 03 15 00:05    PGM / RUN BY / DATE 
CKHR                                                        MARKER NAME         
CKHR                                                        MARKER NUMBER       
                                                            OBSERVER / AGENCY   
496547              LEICA GRX1200+GNSS  8.10/4.007          REC # / TYPE / VERS 
10301042            LEIAR25         NONE                    ANT # / TYPE        
  5141838.0877   498328.5776  3730203.3049                  APPROX POSITION XYZ 
        0.0720        0.0000        0.0000                  ANTENNA: DELTA H/E/N
     1     1                                                WAVELENGTH FACT L1/2
     4    C1    L1    P2    L2                              # / TYPES OF OBSERV 
    30.000                                                  INTERVAL            
  2015    02    12    00    00    0.0000000     GPS         TIME OF FIRST OBS   
  2015    02    12    05    30   30.0000000     GPS         TIME OF LAST OBS    
    16                                                      LEAP SECONDS        
    24                                                      # OF SATELLITES     
   G 1   214   214   214   214                              PRN / # OF OBS      
   G 3    98    97    97    97                              PRN / # OF OBS      
   G 4   371   371   371   371                              PRN / # OF OBS      
   G11   278   278   278   278                              PRN / # OF OBS      
   G14   223   223   223   223                              PRN / # OF OBS      
   G16   616   616   616   616                              PRN / # OF OBS      
   G18   566   566   566   566                              PRN / # OF OBS      
   G19   482   482   482   482                              PRN / # OF OBS      
   G21   447   447   447   447                              PRN / # OF OBS      
   G22   566   566   566   566                              PRN / # OF OBS      
   G25   119   119   119   119                              PRN / # OF OBS      
   G27   655   654   654   654                              PRN / # OF OBS      
   G28    58    58    58    58                              PRN / # OF OBS      
   G29   184   184   184   184                              PRN / # OF OBS      
   G31   222   222   222   222                              PRN / # OF OBS      
   G32   268   268   268   268                              PRN / # OF OBS      
   R 5     3     3     2     2                              PRN / # OF OBS      
   R 9    30    30    28     8                              PRN / # OF OBS      
   R10    30    30    30    30                              PRN / # OF OBS      
   R11    30    30    30    30                              PRN / # OF OBS      
   R19     8     8     8     8                              PRN / # OF OBS      
   R20    30    30    30    30                              PRN / # OF OBS      
   R21    12    12    12    12                              PRN / # OF OBS      
   R22     5     5     5     3                              PRN / # OF OBS      
BIT 2 OF LLI FLAGS DATA COLLECTED UNDER A/S CONDITION       COMMENT             
SNR is mapped to RINEX snr flag value [2-9]                 COMMENT             
Lx:     = 25dBHz -> 1; 26-27dBHz -> 2; 28-31dBHz -> 3       COMMENT             
       32-35dBHz -> 4; 36-38dBHz -> 5; 39-41dBHz -> 6       COMMENT             
       42-44dBHz -> 7; 45-48dBHz -> 8; >=49dBHz -> 9        COMMENT             
                                                            END OF HEADER       
 15 02 12 00 00  0.0000000  0 11G16G18G21G25G29G31R09R10R11R19R20
  23699142.300   124539842.81508  23699138.780    97044021.60645
  24364611.900   128036920.87708  24364613.160    99769054.53244
  20980617.020   110253888.51109  20980613.320    85912105.03248
  22773863.400   119677453.42809  22773863.680    93255157.99547
  22046921.760   115857351.94609  22046918.880    90278442.41648
  21252250.340   111681326.07909  21252247.300    87024396.17948
  22422947.760   119737267.20108  22422950.680    93128985.24804
  19328752.500   103033123.66909  19328757.320    80136893.82207
  20711775.740   110677451.97608  20711777.960    86082469.78807
  23513460.480   125781153.12107  23513460.240    97829784.77306
  20053164.660   107233283.68108  20053166.780    83403673.08708
 15 02 12 00 00 30.0000000  0 12G16G18G21G25G29G31R09R10R11R19R20R21
  23682188.440   124450749.69009  23682184.740    96974598.37345
  24349763.160   127958893.23608  24349764.400    99708254.31144
  20977272.080   110236310.70309  20977268.320    85898408.03948
  22788619.220   119754995.39209  22788619.500    93315580.29847
  22059646.400   115924221.03709  22059643.780    90330548.18548
  21261014.520   111727380.72909  21261011.200    87060282.89348
  22446533.540   119863212.21708  22446536.320    93226942.17104
  19336704.740   103075513.73509  19336709.560    80169863.85307
  20696376.920   110595165.13408  20696379.020    86018468.91207
  23532609.720   125883589.15608  23532609.720    97909457.22606
  20063364.200   107287825.26707  20063366.340    83446094.31208
  20301482.600   108637333.05808  20301483.620    84495706.70508
 15 02 12 00 01  0.0000000  0 12G16G18G21G25G29G31R09R10R11R19R20R21
  23665240.400   124361687.29408  23665236.460    96905199.08345
  24334906.660   127880823.04408  24334907.920    99647420.85044
  20974013.700   110219187.67209  20974009.920    85885065.42148
  22803422.880   119832788.97409  22803423.020    93376198.63147
  22072386.800   115991172.88209  22072384.360    90382718.42948
  21269872.760   111773929.50209  21269869.160    87096554.65048
  22470165.960   119989406.28108  22470168.560    93325092.73804
  19344803.040   103118682.49009  19344807.920    80203439.52007
  20681083.620   110513442.35208  20681085.740    85954906.74107
  23551743.400   125985941.24708  23551743.380    97989064.38106
  20073617.540   107342654.45108  20073619.700    83488739.23608
  20294661.040   108600827.44509  20294661.780    84467313.45608
 15 02 12 00 01 30.0000000  0 11G16G18G21G25G29G31R09R10R11R19R20
  23648299.420   124272662.25308  23648295.700    96835829.00545
  24320043.200   127802717.52807  24320044.500    99586559.88045
  20970842.700   110202523.99209  20970838.940    85872080.74948
  22818275.260   119910838.53408  22818275.500    93437016.45647
  22085143.800   116058211.26009  22085141.340    90434956.10348
  21278825.520   111820975.61709  21278821.820    87133213.94848
  22493845.360   120115851.32408  22493847.800    93423438.59004
  19353048.060   103162633.73609  19353053.000    80237623.80407
  20665897.420   110432291.96508  20665899.700    85891789.78007
  23570862.160   126088213.02608  23570862.020    98068609.06205
  20083925.100   107397773.78908  20083927.300    83531609.83208
 15 02 12 00 02  0.0000000  0 11G16G18G21G25G29G31R09R10R11R19R20
  23631365.760   124183675.28708  23631362.200    96766488.52945
  24305173.780   127724579.27008  24305175.080    99525673.35844
  20967759.020   110186319.47708  20967755.280    85859453.87248
  22833176.140   119989143.45208  22833176.340    93498033.24347
  22097917.200   116125336.25809  22097914.640    90487261.28048
  21287872.520   111868517.59409  21287868.800    87170259.63048
  22517571.080   120242543.73308  22517573.600    93521976.75004
  19361439.660   103207366.25709  19361444.680    80272415.75007
  20650819.140   110351718.08508  20650821.420    85829121.20707
  23589965.760   126190402.90408  23589965.180    98148090.16604
  20094286.440   107453180.57808  20094288.660    83574703.99908
 15 02 12 00 02 30.0000000  0 11G16G18G21G25G29G31R09R10R11R19R20
  23614439.800   124094728.83308  23614436.060    96697179.60745
  24290298.580   127646411.31408  24290300.020    99464763.70245
  20964762.880   110170575.20509  20964759.160    85847185.60948
  22848125.620   120067703.85708  22848125.920    93559249.11647
  22110707.120   116192546.93709  22110704.160    90539633.24048
  21297013.620   111916554.18309  21297009.820    87207690.71648
  22541342.520   120369480.79108  22541345.160    93620705.22804
  19369977.800   103252879.35309  19369982.920    80307814.80607
  20635849.660   110271725.30108  20635851.860    85766904.58207
  23609053.800   126292510.48308  23609053.360    98227507.16106
  20104701.260   107508873.05007  20104703.460    83618020.35608
 15 02 12 00 03  0.0000000  0 12G16G18G21G25G29G31R09R10R11R19R20R21
  23597521.980   124005825.34908  23597518.260    96627904.19046
  24275418.600   127568217.55808  24275419.940    99403833.90044
  20961854.720   110155292.91308  20961850.960    85835277.34248
  22863123.780   120146520.40108  22863124.140    93620664.58847
  22123513.380   116259843.79909  22123510.460    90592072.32948
  21306248.620   111965084.85609  21306244.840    87245506.80648
  22565159.360   120496659.93508  22565162.300    93719621.82103
  19378662.540   103299173.30209  19378667.620    80343821.19007
  20620989.860   110192318.78908  20620991.960    85705143.96207
  23628126.340   126394535.70007  23628126.020    98306860.06807
  20115169.220   107564849.86708  20115171.400    83661557.87408
  20268156.560   108458998.24009  20268157.140    84357002.38308
 15 02 12 00 03 30.0000000  0 13G16G18G21G25G27G29G31R09R10R11R19R20
                                R21
  23580612.100   123916963.37708  23580608.240    96558661.08945
  24260533.480   127489997.28008  24260534.600    99342883.44045
  20959033.520   110140467.37508  20959029.700    85823724.98148
  22878170.060   120225589.21208  22878170.460    93682276.60047
  24625673.360                                                  
  22136335.260   116327223.43809  22136332.440    90644575.91348
  21315576.660   112014104.70209  21315573.000    87283704.06848
  22589020.540   120624075.62308  22589024.160                  
  19387492.760   103346242.85309  19387497.840    80380430.83207
  20606239.800   110113498.94108  20606241.900    85643839.63307
  23647182.480   126496474.10107  23647182.520    98386145.41007
  20125689.300   107621105.18708  20125691.400    83705312.00908
  20261725.240   108424584.06309  20261726.060    84330235.81808
 15 02 12 00 04  0.0000000  0 11G16G18G21G25G27G29G31R09R10R11R20
  23563710.740   123828146.52708  23563707.120    96489453.21646
  24245644.360   127411755.12808  24245645.060    99281915.88345
  20956299.720   110126101.17709  20956295.940    85812530.55048
  22893264.640   120304911.65509  22893264.960    93744086.27947
  24610800.280   129330635.81208  24610802.400   100777132.04945
  22149173.040   116394686.51209  22149170.240    90697144.54648
  21324997.860   112063614.13909  21324994.380    87322282.83448
  22612925.440   120751725.26207  22612929.440                  
  19396468.520   103394088.46209  19396473.600    80417644.06907
  20591600.560   110035271.56908  20591602.760    85582996.13507
  20136261.300   107677638.40608  20136263.400    83749282.28708
 15 02 12 00 04 30.0000000  0 11G16G18G21G25G27G29G31R09R10R11R20
  23546817.920   123739374.09908  23546814.480    96420279.85645
  24230751.220   127333491.90308  24230751.460    99220931.89245
  20953653.120   110112192.86709  20953649.260    85801692.91148
  22908407.200   120384485.39109  22908407.360    93806091.75347
  24595949.240   129252592.78608  24595951.800   100716319.45945
  22162026.060   116462230.07609  22162023.360    90749775.88748
  21334511.560   112113609.39809  21334508.180    87361240.15848
  22636873.280   120879603.80308  22636876.120                  
  19405589.280   103442707.10409  19405594.400    80455458.55807
  20577072.580   109957638.70808  20577074.880    85522615.02007
  20146884.480   107734445.46507  20146886.620    83793465.55308
 15 02 12 00 05  0.0000000  0 11G16G18G21G25G27G29G31R09R10R11R20
  23529934.360   123650650.98608  23529931.080    96351145.03046
  24215855.220   127255213.56008  24215855.080    99159936.11044
  20951094.280   110098745.54909  20951090.320    85791214.48848
  22923598.080   120464313.30808  22923598.280    93868295.30647
  24581117.620   129174651.34008  24581120.280   100655585.99246
  22174894.980   116529857.67909  22174892.600    90802472.68548
  21344118.060   112164092.06709  21344114.660    87400577.28448
  22660863.680   121007708.87808  22660867.020                  
  19414855.540   103492101.16409  19414860.640    80493876.13207
  20562657.180   109880607.62208  20562659.560    85462701.94907
  20157559.040   107791527.03808  20157561.160    83837862.32008
 15 02 12 00 05 30.0000000  0 12G16G18G21G25G27G29G31R09R10R11R20R21
  23513059.140   123561971.71308  23513056.000    96282044.31246
  24200955.400   127176915.50708  24200955.180    99098924.95745
  20948621.580   110085751.09409  20948617.520    85781088.94948
  22938835.820   120544387.45209  22938835.820    93930690.72147
  24566303.880   129096804.22808  24566306.460   100594926.04845
  22187778.420   116597561.05809  22187776.140    90855228.57148
  21353815.580   112215053.41209  21353812.220    87440287.41348
  22684895.580   121136034.64408  22684900.720                  
  19424265.460   103542261.12809  19424270.500    80532889.42407
  20548353.760   109804174.73108  20548356.140    85403254.14307
  20168283.120   107848873.49207  20168285.180    83882465.12308
  20236775.800   108291075.36709  20236776.480    84226394.02308
 15 02 12 00 06  0.0000000  0 12G16G18G21G25G27G29G31R09R10R11R20R21
  23496193.540   123473342.92008  23496190.340    96212982.93646
  24186053.220   127098605.45208  24186052.680    99037904.43044
  20946236.140   110073215.31209  20946232.040    85771320.81348
  22954121.140   120624712.41108  22954120.940    93993281.56547
  24551509.020   129019056.62408  24551511.580   100534343.67146
  22200677.220   116665344.42509  22200674.940    90908046.75348
  21363604.840   112266496.43309  21363601.500    87480372.86048
  22708968.720   121264580.94508                                
  19433819.800   103593191.08809  19433824.860    80572501.58907
  20534163.980   109728349.11908  20534166.420    85344278.66307
  20179057.260   107906487.69308  20179059.360    83927276.15608
  20230730.980   108258728.29809  20230731.660    84201235.20808
 15 02 12 00 06 30.0000000  0 11G16G18G21G25G27G29G31R09R10R11R20
  23479338.380   123384768.62508  23479335.160    96143964.02746
  24171149.800   127020289.03308  24171149.200    98976878.96244
  20943938.480   110061141.08008  20943934.460    85761912.32948
  22969454.600   120705290.30109  22969454.400    94056069.50646
  24536733.600   128941411.59608  24536735.580   100473841.15545
  22213591.760   116733210.12109  22213589.220    90960929.09148
  21373486.080   112318422.47109  21373482.760    87520834.68548
  22733082.640   121393344.87508  22733087.360                  
  19443518.700   103644892.10709  19443523.840    80612713.47607
  20520089.100   109653137.37208  20520091.580    85285780.65007
  20189881.520   107964369.65107  20189883.560    83972295.45408
 15 02 12 00 07  0.0000000  0 11G16G18G21G25G27G29G31R09R10R11R20
  23462492.800   123296244.12908  23462489.420    96074983.89845
  24156244.360   126941962.23308  24156244.160    98915845.42245
  20941727.260   110049521.31909  20941723.300    85752857.97848
  22984834.960   120786114.14908  22984835.040    94119049.08447
  24521976.420   128863862.80907  24521977.780   100413413.60445
  22226520.620   116801150.73809  22226517.840    91013869.81748
  21383457.660   112370822.87909  21383454.300    87561666.16348
  22757236.000   121522318.94308  22757241.320                  
  19453360.760   103697356.19009  19453365.860    80653518.87007
  20506128.680   109578536.86308  20506131.060    85227758.03807
  20200754.180   108022510.59407  20200756.260    84017516.19008
 15 02 12 00 07 30.0000000  0 11G16G18G21G25G27G29G31R09R10R11R20
  23445657.900   123207776.52908  23445654.540    96006048.14546
  24141338.520   126863633.52208  24141338.320    98854810.35845
  20939603.500   110038361.08708  20939599.560    85744161.70348
  23000262.940   120867188.75208  23000263.340    94182224.09147
  24507238.620   128786415.80208  24507240.100   100353065.46745
  22239464.560   116869170.94209  22239461.500    91066872.56148
  21393520.280   112423701.42609  21393516.760    87602870.19948
  22781429.340   121651506.50207  22781434.780                  
  19463346.720   103750586.77909  19463351.740    80694920.41407
  20492284.360   109504556.67308  20492286.640    85170217.88607
  20211675.820   108080913.61808  20211677.960    84062940.75808
 15 02 12 00 08  0.0000000  0 12G16G18G21G25G27G29G31R09R10R11R20R21
  23428833.060   123119361.59208  23428829.800    95937153.41046
  24126431.660   126785299.27008  24126431.560    98793770.98245
  20937565.980   110027654.02908  20937562.020    85735818.54948
  23015737.300   120948507.59408  23015737.680    94245589.39747
  24492519.200   128709064.86207  24492520.880   100292792.06246
  22252422.320   116937264.21309  22252419.440    91119932.20948
  21403672.380   112477050.26509  21403668.720    87644440.71348
  22805660.840   121780900.26808                                
  19473475.160   103804576.74109  19473480.120    80736912.59207
  20478555.760   109431194.80908  20478558.000    85113158.66107
  20222644.980   108139570.48807  20222647.100    84108562.77408
  20207319.520   108133448.75609  20207320.200    84103795.64908
 15 02 12 00 08 30.0000000  0 12G16G18G21G25G27G29G31R09R10R11R20R21
  23412019.380   123031005.06308  23412016.160    95868304.20345
  24111525.160   126706966.58208  24111525.100    98732732.77744
  20935615.660   110017405.27509  20935611.700    85727832.51948
  23031258.860   121030074.06309  23031259.240    94309147.67746
  24477818.780   128631814.00108  24477820.520   100232596.73846
  22265394.720   117005434.00709  22265391.780    91173051.54148
  21413914.420   112530871.92609  21413910.680    87686379.65148
  22829929.600   121910495.99107  22829932.700                  
  19483746.380   103859327.94209  19483751.340    80779496.85607
  20464944.280   109358458.74408  20464946.500    85056586.17007
  20233661.880   108198482.58208  20233663.960    84154383.28308
  20201657.060   108103148.64709  20201657.920    84080228.91908
 15 02 12 00 09  0.0000000  0 11G16G18G21G25G27G29G31R09R10R11R20
  23395216.320   122942704.24008  23395213.060    95799498.37746
  24096618.800   126628634.18508  24096618.860    98671694.80445
  20933751.580   110007609.68609  20933747.640    85720199.58748
  23046826.780   121111883.84008  23046827.060    94372895.49647
  24463136.940   128554659.79408  24463138.200   100172476.64846
  22278380.680   117073675.95009  22278378.040    91226227.04948
  21424245.140   112585160.25209  21424241.400    87728682.21648
  22854234.320   122040285.82908  22854236.180                  
  19494159.380   103914834.98809  19494164.420    80822668.97707
  20451450.020   109286348.55308  20451452.060    85000500.45507
  20244725.300   108257643.95207  20244727.440    84200397.67408
 15 02 12 00 09 30.0000000  0 11G16G18G21G25G27G29G31R09R10R11R20
  23378425.420   122854467.32808  23378422.120    95730742.35646
  24081714.380   126550311.06808  24081714.340    98610664.03945
  20931975.000   109998273.84508  20931971.100    85712924.92048
  23062442.140   121193942.64108  23062442.400    94436837.37547
  24448474.640   128477608.65108  24448475.860   100112436.93846
  22291381.520   117141996.03509  22291379.020    91279463.45948
  21434665.560   112639920.01609  21434661.780    87771352.14348
  22878576.100   122170273.49308  22878579.280                  
  19504715.100   103971102.61709  19504720.100    80866432.67807
  20438074.720   109214874.24608  20438076.640    84944909.32807
  20255836.160   108317058.63308  20255838.280    84246609.08708
 15 02 12 00 10  0.0000000  0 11G16G18G21G25G27G29G31R09R10R11R20
  23361646.040   122766291.07209  23361642.600    95662033.62445
  24066811.100   126471994.69908  24066810.860    98549638.55344
  20930284.820   109989392.13909  20930280.960    85706004.11848
  23078103.760   121276244.57609  23078103.900    94500968.71246
  24433830.980   128400655.56108  24433832.080   100052473.57545
  22304396.060   117210388.27309  22304393.580    91332756.10748
  21445174.260   112695143.98509  21445170.500    87814383.79648
  22902953.540   122300450.71108  22902956.940                  
  19515412.140   104028123.54809  19515417.140    80910782.28307
  20424817.980   109144034.27708  20424819.900    84889811.56907
  20266992.880   108376718.69107  20266995.020    84293011.35308
 15 02 12 00 10 30.0000000  0 12G16G18G21G25G27G29G31R09R10R11R20R21
  23344878.760   122678178.43408  23344875.340    95593374.42246
  24051909.920   126393689.31608  24051909.620    98488621.59045
  20928681.340   109980966.01309  20928677.540    85699438.30648
  23093811.720   121358790.44208  23093811.720    94565290.16247
  24419205.980   128323801.97407  24419207.620    99992587.88646
  22317424.420   117278853.23409  22317422.020    91386105.38948
  21455771.160   112750831.72509  21455767.500    87857776.81748
  22927366.500   122430815.74908  22927370.480                  
  19526250.360   104085897.42909  19526255.440    80955717.49907
  20411680.860   109073834.05708  20411682.860    84835211.39407
  20278195.340   108436623.66908  20278197.580    84339604.11008
  20179765.440   107986001.00309  20179765.600    83989112.35508
 15 02 12 00 11  0.0000000  0 12G16G18G21G25G27G29G31R09R10R11R20R21
  23328123.840   122590131.28708  23328120.440    95524766.29246
  24037011.420   126315398.11308  24037011.160    98427615.68444
  20927164.540   109972995.12309  20927160.700    85693227.23548
  23109566.020   121441580.01008  23109566.100    94629801.45447
  24404600.200   128247048.55208  24404601.860    99932780.07646
  22330466.660   117347390.61509  22330464.200    91439511.14048
  21466456.020   112806981.55309  21466452.440    87901529.91548
  22951814.300   122561365.72008  22951818.880    95325560.04904
  19537229.540   104144422.75909  19537234.720    81001237.17907
  20398664.140   109004277.07708  20398666.220    84781111.52307
  20289443.220   108496771.33308  20289445.460    84386385.62308
  20174480.740   107957723.28509  20174481.180    83967118.58908
 15 02 12 00 11 30.0000000  0 11G16G18G21G25G27G29G31R09R10R11R20
  23311381.300   122502149.05608  23311377.940    95456208.71746
  24022115.660   126237121.45708  24022115.340    98366621.10745
  20925733.900   109965476.88009  20925729.960    85687368.87848
  23125366.140   121524610.35308  23125366.380    94694500.39747
  24390012.960   128170393.03208  24390014.620    99873048.63946
  22343522.180   117415997.98609  22343519.700    91492971.39648
  21477228.040   112863589.39709  21477224.640    87945639.90548
  22976295.620   122692093.13707  22976301.540                  
  19548348.800   104203695.07909  19548354.040    81047337.85207
  20385768.280   108935365.41708  20385770.360    84727513.56107
  20300735.680   108557157.14108  20300737.920    84433352.35808
 15 02 12 00 12  0.0000000  0 11G16G18G21G25G27G29G31R09R10R11R20
  23294651.720   122414234.74008  23294648.340    95387704.07046
  24007223.440   126158863.28708  24007222.860    98305640.92445
  20924389.640   109958412.48608  20924385.640    85681864.15548
  23141212.260   121607882.13109  23141212.500    94759387.46646
  24375444.940   128093837.11508  24375446.320    99813394.72746
  22356591.180   117484675.91309  22356588.480    91546486.64848
  21488087.160   112920654.81509  21488083.980    87990106.43848
  23000810.720   122822999.31707  23000817.840                  
  19559608.080   104263713.68709  19559613.340    81094018.98307
  20372993.980   108867103.57308  20372996.020    84674421.01807
  20312072.540   108617780.04108  20312074.760    84480503.49808
 15 02 12 00 12 30.0000000  0 12G16G18G21G25G27G29G31R09R10R11R20R22
  23277935.920   122326392.67308  23277932.640    95319255.73946
  23992335.600   126080628.64208  23992335.080    98244679.08445
  20923132.220   109951804.13209  20923128.160    85676714.78048
  23157104.580   121691396.94208  23157104.800    94824463.93947
  24360896.040   128017382.91508  24360897.100    99753820.14546
  22369673.920   117553426.08609  22369671.240    91600058.20148
  21499033.380   112978177.84109  21499030.400    88034929.55748
  23025359.120   122954083.05208  23025363.720                  
  19571007.520   104324479.33809  19571012.700    81141281.13507
  20360342.320   108799497.56008  20360344.440    84621838.55307
  20323453.740   108678639.97507  20323455.900    84527838.99408
  23488902.000   125385354.45708  23488909.060                  
 15 02 12 00 13  0.0000000  0 13G16G18G21G25G27G29G31R09R10R11R20R21
                                R22
  23261232.820   122238617.06209  23261229.480    95250859.18346
  23977451.640   126002413.41708  23977450.960    98183732.32345
  20921960.160   109945644.45509  20921956.080    85671915.03448
  23173041.700   121775147.22508  23173042.140    94889723.84947
  24346365.360   127941023.93108  24346366.120    99694319.68745
  22382769.040   117622240.90209  22382766.540    91653680.09848
  21510065.040   113036149.53009  21510062.180    88080102.28348
  23049938.760   123085334.38007  23049945.340                  
  19582545.500   104385982.62209  19582550.480    81189117.01007
  20347812.740   108732543.79408  20347815.000    84569763.39807
  20334877.500   108739727.79608  20334879.640    84575351.75008
  20154090.080   107848609.17209  20154090.880    83882251.88708
  23472390.800   125297213.09108  23472397.900                  
 15 02 12 00 13 30.0000000  0 14G16G18G21G25G27G29G31R05R09R10R11R20
                                R21R22
  23244543.580   122150914.44308  23244540.200    95182519.49046
  23962572.660   125924224.71608  23962571.920    98122806.26045
  20920874.180   109939937.39209  20920870.080    85667467.97648
  23189024.380   121859137.00608  23189024.980    94955170.39146
  24331853.620   127864764.77508  24331854.240    99634897.06245
  22395877.200   117691124.54509  22395874.500    91707355.65048
  21521182.640   113094572.60709  21521179.800    88125626.73748
  23602952.300   126171304.64107                                
  23074549.260   123216751.38607  23074553.960                  
  19594222.380   104448226.22209  19594227.200    81237528.67907
  20335406.800   108666250.34308  20335409.140    84518201.83107
  20346344.260   108801045.87207  20346346.420    84623043.58508
  20149178.020   107822324.70009  20149179.000    83861808.42208
  23455922.900   125209306.13308  23455929.080    97385044.94806
 15 02 12 00 14  0.0000000  0 13G16G18G21G25G27G29G31R05R09R10R11R20
                                R22
  23227868.480   122063286.06408  23227865.080    95114237.65346
  23947699.400   125846065.59908  23947698.500    98061903.25845
  20919874.220   109934682.59509  20919870.120    85663373.34448
  23205052.480   121943364.95408  23205052.860    95020802.57046
  24317361.000   127788605.15608  24317361.740    99575552.00144
  22408998.380   117760076.02309  22408995.800    91761084.05248
  21532385.680   113153444.61509  21532382.800    88171501.01048
  23587466.840   126088526.49307  23587470.720    98068872.24906
  23099190.300   123348332.32408  23099194.760                  
  19606037.620   104511207.58009  19606042.360    81286514.16907
  20323125.100   108600620.57108  20323127.400    84467156.45907
  20357853.560   108862591.38207  20357855.700    84670912.30808
  23439498.660   125121633.88708  23439504.920    97316855.86606
 15 02 12 00 14 30.0000000  0 13G16G18G21G25G27G29G31R05R09R10R11R20
                                R22
  23211208.140   121975735.51808  23211204.680    95046016.46746
  23932832.440   125767939.76408  23932831.400    98001026.15245
  20918960.380   109929880.62509  20918956.300    85659631.54348
  23221126.100   122027832.03509  23221126.300    95086621.00146
  24302887.580   127712546.63208  24302888.260    99516285.73945
  22422132.400   117829096.28709  22422129.740    91814866.06847
  21543674.020   113212764.91609  21543671.080    88217724.59848
  23572040.700   126006067.67607  23572044.520    98004737.67005
  23123861.340   123480073.95207  23123866.820                  
  19617991.080   104574926.20809  19617995.940    81336073.07507
  20310968.560   108535659.43208  20310970.800    84416631.12607
  20369405.240   108924363.70807  20369407.440    84718957.44308
  23423118.860   125034198.47008  23423125.060    97248850.86707
 15 02 12 00 15  0.0000000  0  7G16G18G21G25G27G29G31
  23194562.260   121888260.94408  23194558.900    94977854.47946
  23917971.620   125689846.54208  23917970.780    97940174.48645
  20918132.100   109925528.22908  20918128.020    85656240.07448
  23237244.500   122112534.17009  23237244.900    95152622.63546
  24288432.820   127636586.18508  24288433.540    99457095.83746
  22435278.840   117898181.13509  22435276.280    91868698.40748
  21555046.660   113272528.28209  21555043.640    88264293.43148
 15 02 12 00 15 30.0000000  0  7G16G18G21G25G27G29G31
  23177931.800   121800867.18909  23177928.380    94909755.48146
  23903118.060   125611791.75308  23903117.220    97879352.78545
  20917389.740   109921627.40608  20917385.720    85653200.48748
  23253407.940   122197473.61809  23253408.540    95218809.19146
  24273997.260   127560726.80208  24273997.740    99397984.71846
  22448438.020   117967333.57909  22448435.560    91922583.40148
  21566503.740   113332735.50209  21566500.640    88311208.12948
 15 02 12 00 16  0.0000000  0  7G16G18G21G25G27G29G31
  23161316.500   121713553.07808  23161313.040    94841718.50246
  23888271.860   125533775.18408  23888270.780    97818560.82145
  20916732.820   109918175.50209  20916728.900    85650510.69448
  23269615.840   122282646.68909  23269616.360    95285177.80546
  24259580.200   127484965.65508  24259580.620    99338950.14446
  22461609.360   118036549.74009  22461606.960    91976518.06448
  21578044.300   113393381.53609  21578041.100    88358464.76248
 15 02 12 00 16 30.0000000  0  7G16G18G21G25G27G29G31
  23144717.080   121626322.13709  23144713.560    94773746.36646
  23873433.940   125455801.89308  23873432.440    97757802.57044
  20916161.640   109915173.96209  20916157.760    85648171.82848
  23285868.460   122368054.73108  23285868.960    95351729.48147
  24245182.200   127409304.94107  24245182.960    99279993.85546
  22474793.280   118105831.48109  22474790.920    92030503.79848
  21589668.300   113454466.38409  21589665.100    88406063.31648
 15 02 12 00 17  0.0000000  0  7G16G18G21G25G27G29G31
  23128133.300   121539173.37808  23128129.720    94705838.25046
  23858604.060   125377871.23808  23858602.520    97697077.57145
  20915675.340   109912618.54109  20915671.480    85646180.60348
  23302165.020   122453693.71408  23302165.400    95418461.11747
  24230802.640   127333741.50208  24230803.900    99221113.39946
  22487989.020   118175174.91409  22487986.460    92084537.64148
  21601374.760   113515984.69509  21601371.580    88453999.64948
 15 02 12 00 17 30.0000000  0  7G16G18G21G25G27G29G31
  23111565.940   121452111.10308  23111562.340    94637997.53146
  23843783.480   125299988.95108  23843781.680    97636390.20145
  20915274.540   109910512.28009  20915270.620    85644539.36948
  23318506.040   122539565.93308  23318506.080    95485374.52246
  24216442.320   127258278.54108  24216443.760    99162311.20346
  22501196.800   118244582.23009  22501194.140    92138621.25247
  21613163.880   113577937.11009  21613160.700    88502274.24148
 15 02 12 00 18  0.0000000  0  7G16G18G21G25G27G29G31
  23095015.500   121365138.26409  23095011.960    94570226.53046
  23828972.720   125222158.92208  23828971.120    97575743.58945
  20914959.300   109908855.52808  20914955.320    85643248.40848
  23334891.520   122625671.83808  23334891.760    95552469.99846
  24202101.540   127182917.40108  24202102.860    99103588.30545
  22514417.020   118314054.84709  22514414.320    92192755.74847
  21625035.540   113640322.87809  21625032.260    88550886.51648
 15 02 12 00 18 30.0000000  0  7G16G18G21G25G27G29G31
  23078481.160   121278250.00809  23078477.640    94502521.41346
  23814171.200   125144377.12408  23814169.840    97515134.54845
  20914728.160   109907640.89008  20914724.160    85642301.93648
  23351319.980   122712003.80208  23351320.540    95619741.61547
  24187778.820   127107651.16808  24187780.260    99044939.37346
  22527648.100   118383584.81009  22527645.440    92246934.90147
  21636988.080   113703133.13309  21636984.660    88599829.53748
 15 02 12 00 19  0.0000000  0  7G16G18G21G25G27G29G31
  23061964.660   121191455.49009  23061961.220    94434889.33246
  23799380.820   125066653.84108  23799379.580    97454571.12945
  20914582.620   109906875.90108  20914578.580    85641705.84348
  23367792.640   122798568.35208  23367793.020    95687194.48646
  24173475.660   127032487.37608  24173476.760    98986370.24446
  22540891.420   118453178.92409  22540888.700    92301164.05647
  21649022.500   113766372.82609  21649018.760    88649107.20148
 15 02 12 00 19 30.0000000  0  7G16G18G21G25G27G29G31
  23045465.140   121104750.18008  23045461.780    94367326.76546
  23784601.000   124988985.37108  23784599.680    97394050.38445
  20914521.240   109906553.05808  20914517.120    85641454.27948
  23384308.300   122885358.41008  23384308.660    95754823.06246
  24159190.820   126957419.89108  24159191.600    98927876.18046
  22554145.760   118522830.59309  22554142.760    92355438.08047
  21661137.040   113830033.59509  21661133.020    88698712.96648
 15 02 12 00 20  0.0000000  0  7G16G18G21G25G27G29G31
  23028984.260   121018142.41009  23028980.760    94299840.19746
  23769833.300   124911380.67008  23769831.700    97333579.32845
  20914545.060   109906678.07809  20914540.840    85641551.70348
  23400867.960   122972379.67408  23400868.560    95822631.80946
  24144925.420   126882455.17508  24144925.600    98869462.22446
  22567412.100   118592545.95309  22567409.220    92409761.72847
  21673332.440   113894119.61109  21673328.280    88748650.08748
 15 02 12 00 20 30.0000000  0  7G16G18G21G25G27G29G31
  23012521.080   120931627.65309  23012517.400    94232426.11946
  23755077.200   124833836.52308  23755075.440    97273155.46545
  20914652.760   109907244.07408  20914648.540    85641992.75048
  23417470.180   123059624.79808  23417470.980    95890615.00247
  24130678.340   126807586.90808  24130678.360    98811123.40746
  22580689.120   118662317.87409  22580686.420    92464129.43148
  21685607.100   113958622.20309  21685602.860    88798911.82248
 15 02 12 00 21  0.0000000  0  7G16G18G21G25G27G29G31
  22996076.760   120845212.30209  22996073.040    94165089.50246
  23740334.080   124756360.51608  23740331.860    97212784.65645
  20914845.100   109908255.17209  20914840.940    85642780.62248
  23434115.540   123147097.87708  23434116.600    95958775.77746
  24116450.560   126732820.04308  24116450.340    98752863.54545
  22593977.900   118732150.77909  22593975.340    92518544.66347
  21697961.400   114023543.82509  21697957.140    88849500.07148
 15 02 12 00 21 30.0000000  0  7G16G18G21G25G27G29G31
  22979650.780   120758893.24409  22979647.120    94097827.90146
  23725603.260   124678950.16508  23725601.200    97152465.05845
  20915121.220   109909706.26309  20915117.040    85643911.35148
  23450803.260   123234792.98208  23450804.200    96027109.62746
  24102241.060   126658149.62208  24102241.160    98694678.89246
  22607277.300   118802039.22709  22607274.700    92573003.18447
  21710393.940   114088877.33809  21710389.760    88900409.28348
 15 02 12 00 22  0.0000000  0  7G16G18G21G25G27G29G31
  22963244.460   120672677.61409  22963240.880    94030646.89846
  23710886.260   124601613.31608  23710884.180    97092202.69945
  20915481.960   109911601.84909  20915477.760    85645388.43148
  23467534.140   123322714.54908  23467534.940    96095619.91046
  24088051.000   126583580.91608  24088051.520    98636573.47445
  22620588.120   118871987.85409  22620585.560    92627508.57948
  21722905.180   114154625.59309  21722901.280    88951641.66148
 15 02 12 00 22 30.0000000  0  7G16G18G21G25G27G29G31
  22946857.300   120586563.05008  22946853.860    93963544.64346
  23696183.000   124524348.59308  23696181.160    97031996.56445
  20915926.320   109913936.91609  20915922.040    85647207.97448
  23484307.300   123410857.50108  23484308.220    96164302.71847
  24073879.480   126509109.78307  24073880.560    98578544.18147
  22633909.600   118941992.05709  22633907.100    92682057.30347
  21735493.920   114220782.20709  21735490.520    89003192.25548
 15 02 12 00 23  0.0000000  0  7G16G18G21G25G27G29G31
  22930490.480   120500555.39008  22930487.140    93896525.71246
  23681494.920   124447163.08108  23681492.960    96971852.12945
  20916454.900   109916714.73808  20916450.580    85649372.52548
  23501123.180   123499225.31808  23501124.340    96233160.68147
  24059727.460   126434740.65208  24059728.620    98520594.37145
  22647242.200   119012055.76109  22647239.820    92736652.36447
  21748160.680   114287348.88409  21748157.780    89055062.37448
 15 02 12 00 23 30.0000000  0  7G16G18G21G25G27G29G31
  22914142.760   120414647.66009  22914139.420    93829584.64246
  23666820.840   124370050.52508  23666818.920    96911764.52545
  20917065.860   109919925.62308  20917061.600    85651874.51548
  23517979.900   123587807.95308  23517981.080    96302186.07246
  24045593.360   126360464.53809  24045594.360    98462716.90245
  22660584.500   119082169.33709  22660581.880    92791286.32147
  21760903.360   114354314.22909  21760900.880    89107243.14748
 15 02 12 00 24  0.0000000  0  7G16G18G21G25G27G29G31
  22897816.300   120328851.53709  22897812.900    93762730.53446
  23652163.000   124293023.32608  23652161.020    96851743.47145
  20917760.840   109923578.15908  20917756.740    85654720.65348
  23534879.140   123676614.02208  23534879.800    96371385.61346
  24031478.740   126286291.02408  24031479.620    98404919.32846
  22673937.900   119152341.97508  22673935.260    92845966.28547
  21773723.400   114421685.52309  21773721.180    89159740.24548
 15 02 12 00 24 30.0000000  0  7G16G18G21G25G27G29G31
  22881510.620   120243164.61509  22881507.200    93695961.51146
  23637521.240   124216080.07208  23637519.240    96791787.79645
  20918539.180   109927668.72108  20918535.200    85657908.10448
  23551819.980   123765638.74808  23551820.460    96440755.51646
  24017382.760   126212216.08608  24017383.540    98347198.66846
  22687301.720   119222569.30209  22687299.220    92900688.84747
  21786619.720   114489456.56809  21786617.580    89212548.82648
 15 02 12 00 25  0.0000000  0  7G16G18G21G25G27G29G31
  22865226.620   120157591.58308  22865223.160    93629281.23447
  23622896.520   124139226.34008  23622894.320    96731901.89045
  20919401.080   109932198.37708  20919397.160    85661437.71948
  23568802.800   123854883.98008  23568803.280    96510297.20346
  24003305.860   126138242.47308  24003306.740    98289557.01746
  22700676.440   119292853.45509  22700673.660    92955455.73147
  21799592.460   114557627.63609  21799590.080    89265669.11548
 15 02 12 00 25 30.0000000  0  7G16G18G21G25G27G29G31
  22848963.580   120072128.90708  22848960.140    93562686.96447
  23608288.300   124062459.86208  23608285.980    96672083.95445
  20920345.560   109937161.51108  20920341.620    85665305.11448
  23585826.520   123944343.66208  23585826.880    96580005.96046
  23989247.340   126064365.41108  23989248.220    98231990.54546
  22714060.900   119363189.05109  22714058.340    93010262.66547
  21812640.140   114626191.43709  21812637.340    89319095.42948
 15 02 12 00 26  0.0000000  0  7G16G18G21G25G27G29G31
  22832722.660   119986782.37309  22832719.260    93496183.18746
  23593697.840   123985787.08908  23593695.480    96612339.04445
  20921373.140   109942561.12809  20921369.140    85669512.60048
  23602891.760   124034020.67708  23602892.240    96649884.12046
  23975208.020   125990588.64908  23975208.980    98174502.23245
  22727455.820   119433579.46809  22727453.300    93065112.31647
  21825762.840   114695149.10609  21825759.520    89372828.63848
 15 02 12 00 26 30.0000000  0  7G16G18G21G25G27G29G31
  22816504.160   119901553.70109  22816500.720    93429771.23547
  23579125.500   123909210.18208  23579123.180    96552668.82145
  20922483.520   109948395.73709  20922479.460    85674059.05848
  23619997.980   124123913.64408  23619998.520    96719930.54846
  23961187.720   125916911.69008  23961189.040    98117091.63847
  22740860.940   119504023.50009  22740858.200    93120003.77947
  21838959.900   114764497.90109  21838956.180    89426866.63648
 15 02 12 00 27  0.0000000  0  7G16G18G21G25G27G29G31
  22800308.680   119816445.73209  22800305.140    93363453.33947
  23564572.100   123832733.17208  23564569.820    96493076.45745
  20923676.800   109954666.28109  20923672.700    85678945.20148
  23637145.260   124214022.65508  23637145.980    96790145.35146
  23947186.580   125843335.73708  23947187.860    98059759.80846
  22754276.400   119574522.31809  22754273.780    93174937.88247
  21852230.980   114834236.51309  21852226.980    89481208.37648
 15 02 12 00 27 30.0000000  0  7G16G18G21G25G27G29G31
  22784135.240   119731453.31909  22784131.600    93297225.49746
  23550036.920   123756351.94908  23550034.920    96433558.73145
  20924951.400   109961364.33609  20924947.320    85684164.47548
  23654332.040   124304339.79608  23654332.500    96860522.31346
  23933203.300   125769853.79008  23933204.500    98002501.19946
  22767700.920   119645068.24209  22767698.420    93229908.70147
  21865574.260   114904355.38409  21865570.180    89535846.42948
 15 02 12 00 28  0.0000000  0  7G16G18G21G25G27G29G31
  22767985.220   119646584.29409  22767981.540    93231093.80346
  23535521.740   123680074.58408  23535519.900    96374121.90545
  20926308.340   109968495.12309  20926304.200    85689720.95448
  23671559.380   124394869.90508  23671559.440    96931065.24146
  23919239.120   125696471.76308  23919240.340    97945320.48746
  22781135.320   119715666.70909  22781132.680    93284920.48147
  21878990.400   114974857.96209  21878986.380    89590783.47848
 15 02 12 00 28 30.0000000  0  7G16G18G21G25G27G29G31
  22751858.400   119561837.28009  22751854.800    93165057.17347
  23521026.500   123603901.16308  23521024.400    96314766.06245
  20927746.780   109976054.38108  20927742.620    85695611.27948
  23688826.380   124485608.97808  23688826.580    97001770.92446
  23905293.480   125623186.56708  23905294.720    97888215.20146
  22794579.060   119786314.33609  22794576.300    93339970.56447
  21892478.340   115045738.66309  21892474.480    89646015.16348
 15 02 12 00 29  0.0000000  0  7G16G18G21G25G27G29G31
  22735755.600   119477216.46609  22735752.000    93099118.88546
  23506551.960   123527836.33009  23506549.760    96255494.87245
  20929267.040   109984043.85008  20929262.980    85701836.84448
  23706133.480   124576558.00108  23706133.520    97072640.26446
  23891366.760   125550000.39509  23891367.860    97831187.06246
  22808032.500   119857012.50909  22808029.620    93395060.01747
  21906038.040   115116997.03609  21906034.540    89701541.14348
 15 02 12 00 29 30.0000000  0  7G16G18G21G25G27G29G31
  22719677.280   119392724.08009  22719673.700    93033280.67846
  23492098.860   123451883.57008  23492096.420    96196310.99245
  20930869.020   109992462.70409  20930865.080    85708396.99748
  23723480.360   124667716.41008  23723480.540    97143672.72346
  23877458.880   125476913.56109  23877459.820    97774236.29746
  22821495.660   119927761.45109  22821492.520    93450189.07347
  21919669.120   115188630.74709  21919666.120    89757359.60948
 15 02 12 00 30  0.0000000  0  7G16G18G21G25G27G29G31
  22703624.140   119308364.22509  22703620.560    92967545.73746
  23477667.820   123376047.35008  23477665.180    96137217.91745
  20932553.020   110001312.08609  20932549.140    85715292.62448
  23740867.360   124759085.35408  23740867.940    97214869.24446
  23863570.180   125403928.17907  23863571.080    97717364.64447
  22834968.840   119998563.20909  22834965.820    93505359.25947
  21933371.640   115260639.75509  21933369.140    89813470.49948
 15 02 12 00 30 30.0000000  0  7G16G18G21G25G27G29G31
  22687596.020   119224136.01009  22687592.400    92901913.35747
  23463258.760   123300327.60408  23463256.140    96078215.59345
  20934318.320   110010588.38809  20934314.360    85722520.90748
  23758293.540   124850660.99708  23758294.240    97286226.85945
  23849700.160   125331041.59908  23849701.180    97660570.04646
  22848451.340   120069414.26909  22848448.660    93560567.85547
  21947144.720   115333018.74009  21947142.500    89869869.67848
 15 02 12 00 31  0.0000000  0  7G16G18G21G25G27G29G31
  22671593.280   119140041.44809  22671589.660    92836385.12947
  23448872.280   123224727.55208  23448869.640    96019306.55045
  20936164.720   110020290.64109  20936160.580    85730081.11348
  23775758.940   124942442.54308  23775759.960    97357744.84946
  23835849.020   125258254.07409  23835850.140    97603852.49646
  22861943.160   120140314.46709  22861940.440    93615814.76047
  21960987.940   115405765.30209  21960985.780    89926555.28648
 15 02 12 00 31 30.0000000  0  7G16G18G21G25G27G29G31
  22655615.920   119056079.98909  22655612.320    92770960.62446
  23434508.500   123149247.03208  23434505.920    95960490.63846
  20938091.520   110030415.64209  20938087.280    85737970.72048
  23793262.920   125034426.26108  23793264.060    97429420.46346
  23822016.260   125185562.88908  23822017.360    97547209.99846
  22875443.760   120211260.57008  22875441.200    93671097.42147
  21974900.280   115478874.23309  21974898.020    89983523.26448
 15 02 12 00 32  0.0000000  0  7G16G18G21G25G27G29G31
  22639665.100   118972257.81609  22639661.480    92705644.65647
  23420168.900   123073893.06308  23420166.420    95901773.31945
  20940099.340   110040966.68609  20940095.060    85746192.31348
  23810806.060   125126615.33808  23810806.560    97501256.09445
  23808202.660   125112972.28308  23808203.540    97490645.95546
  22888953.760   120282256.76308  22888951.500    93726419.07247
  21988882.020   115552347.13609  21988879.540    90040774.85448
 15 02 12 00 32 30.0000000  0  7G16G18G21G25G27G29G31
  22623740.300   118888572.50609  22623736.700    92640435.34247
  23405853.100   122998663.32809  23405850.600    95843152.82045
  20942187.120   110051937.83109  20942182.760    85754741.25948
  23828387.280   125219004.16908  23828387.540    97573247.34845
  23794407.340   125040477.71108  23794407.680    97434156.72447
  22902472.520   120353298.08209  22902470.120    93781775.90547
  22002931.740   115626176.80809  22002928.940    90098304.44248
 15 02 12 00 33  0.0000000  0  7G16G18G21G25G27G29G31
  22607842.600   118805029.57909  22607838.980    92575336.95747
  23391562.560   122923565.44509  23391559.880    95784635.04446
  20944355.480   110063332.64309  20944351.160    85763620.33948
  23846006.840   125311595.75808  23846006.960    97645396.61246
  23780631.060   124968083.16208  23780631.160    97377745.49946
  22916000.500   120424388.02908  22915997.580    93837170.68947
  22017049.660   115700364.85609  22017046.500    90156113.27348
 15 02 12 00 33 30.0000000  0  7G16G18G21G25G27G29G31
  22591972.060   118721629.55709  22591968.460    92510349.94147
  23377297.320   122848600.26708  23377294.340    95726220.69045
  20946603.860   110075148.16209  20946599.620    85772827.24348
  23863664.240   125404387.42408  23863664.660    97717701.74346
  23766873.700   124895787.24609  23766873.500    97321411.05146
  22929537.220   120495524.86909  22929534.480    93892601.95747
  22031234.960   115774907.02909  22031231.440    90214198.04748
 15 02 12 00 34  0.0000000  0  7G16G18G21G25G27G29G31
  22576128.740   118638372.71909  22576125.200    92445474.49747
  23363057.400   122773768.46008  23363054.460    95667910.26845
  20948931.760   110087381.47409  20948927.560    85782359.70548
  23881359.260   125497376.17008  23881360.080    97790160.43846
  23753134.820   124823587.97709  23753134.660    97265151.89746
  22943082.660   120566706.20309  22943080.240    93948067.90547
  22045486.820   115849798.79209  22045482.880    90272555.23448
 15 02 12 00 34 30.0000000  0  7G16G18G21G25G27G29G31
  22560313.480   118555263.01109  22560309.920    92380713.70647
  23348843.600   122699074.83908  23348840.880    95609707.51045
  20951339.280   110100033.47908  20951335.160    85792218.41648
  23899092.220   125590562.82608  23899093.460    97862773.37446
  23739414.660   124751487.28808  23739414.440    97208969.52746
  22956636.880   120637933.58108  22956634.460    94003569.76347
  22059805.000   115925039.52809  22059800.720    90331184.35048
 15 02 12 00 35  0.0000000  0  7G16G18G21G25G27G29G31
  22544526.880   118472303.69009  22544523.280    92316070.08347
  23334656.740   122624523.49008  23334654.340    95551615.64845
  20953826.540   110113104.54408  20953822.540    85802403.66848
  23916862.940   125683947.89408  23916864.240    97935540.89646
  23725713.280   124679486.59607  23725713.100    97152865.22347
  22970199.860   120709208.61308  22970197.540    94059108.71247
  22074189.260   116000628.22609  22074184.760    90390084.60448
 15 02 12 00 35 30.0000000  0  7G16G18G21G25G27G29G31
  22528768.900   118389494.64109  22528765.280    92251543.56247
  23320497.060   122550115.20108  23320494.660    95493635.19045
  20956393.020   110126591.73509  20956389.080    85812913.16748
  23934670.920   125777528.12308  23934671.440    98008460.54546
  23712030.500   124607584.03708  23712030.260    97096837.33146
  22983771.740   120780528.60409  22983769.260    94114682.73547
  22088638.620   116076559.98609  22088634.120    90449252.17848
 15 02 12 00 36  0.0000000  0  7G16G18G21G25G27G29G31
  22513040.020   118306838.65109  22513036.400    92187136.30347
  23306365.280   122475853.31008  23306363.160    95435768.85145
  20959038.680   110140494.83009  20959034.780    85823746.74948
  23952515.960   125871303.15608  23952516.440    98081531.89945
  23698366.480   124535780.29709  23698366.340    97040886.34246
  22997352.200   120851893.63508  22997349.540    94170291.82847
  22103152.760   116152832.80009  22103148.340    90508685.51148
 15 02 12 00 36 30.0000000  0  7G16G18G21G25G27G29G31
  22497340.360   118224336.46209  22497336.680    92122848.88947
  23292261.680   122401738.72809  23292259.320    95378017.28845
  20961762.940   110154810.98908  20961759.040    85834902.19848
  23970397.360   125965270.33208  23970397.960    98154752.99946
  23684721.020   124464073.77207  23684721.040    96985011.15847
  23010940.720   120923302.21309  23010938.100    94225934.80847
  22117730.900   116229442.81709  22117726.680    90568381.60048
 15 02 12 00 37  0.0000000  0  7G16G18G21G25G27G29G31
  22481670.500   118141991.06509  22481666.840    92058683.66547
  23278187.060   122327775.97709  23278184.560    95320384.02945
  20964565.860   110169540.34409  20964561.920    85846379.62348
  23988315.260   126059429.92608  23988315.940    98228124.03346
  23671094.260   124392465.71308  23671094.380    96929212.82347
  23024537.920   120994755.43509  23024535.060    94281612.63347
  22132372.780   116306388.26609  22132368.800    90628339.06148
 15 02 12 00 37 30.0000000  0  7G16G18G21G25G27G29G31
  22466030.840   118059804.16009  22466027.180    91994641.93447
  23264141.820   122253967.32308  23264139.040    95262870.85746
  20967447.140   110184681.19909  20967443.100    85858177.70348
  24006269.360   126153780.20208  24006269.460    98301643.69245
  23657486.280   124320955.90308  23657486.340    96873490.92346
  23038143.360   121066252.23408  23038140.480    94337324.41447
  22147077.960   116383666.25809  22147074.180    90688555.65448
 15 02 12 00 38  0.0000000  0  7G16G18G21G25G27G29G31
  22450421.040   117977774.06609  22450417.420    91930722.37747
  23250125.740   122180311.80509  23250123.040    95205477.01345
  20970405.860   110200229.43508  20970401.800    85870293.22048
  24024258.940   126248316.45908  24024259.360    98375308.21345
  23643896.400   124249540.57708  23643896.480    96817842.64947
  23051756.200   121137788.69308  23051753.420    94393067.09147
  22161845.280   116461270.52309  22161841.740    90749026.48148
 15 02 12 00 38 30.0000000  0  7G16G18G21G25G27G29G31
  22434842.700   117895909.58609  22434839.200    91866931.89647
  23236140.500   122106818.36808  23236137.680    95148209.45746
  20973443.040   110216190.08209  20973438.980    85882730.09148
  24042285.020   126343044.02508  24042285.400    98449121.88345
  23630325.720   124178226.12008  23630325.680    96762273.06846
  23065378.000   121209371.38309  23065375.320    94448845.79647
  22176675.380   116539204.85809  22176672.080    90809754.51048
 15 02 12 00 39  0.0000000  0  7G16G18G21G25G27G29G31
  22419295.460   117814208.74309  22419292.040    91803268.92047
  23222185.720   122033485.78008  23222183.060    95091067.24446
  20976557.580   110232557.63608  20976553.600    85895484.04048
  24060346.780   126437957.90308  24060347.260    98523080.71246
  23616773.620   124107009.00709  23616773.400    96706779.21446
  23079007.780   121280995.96108  23079005.000    94504657.14746
  22191567.080   116617462.98609  22191564.100    90870734.83748
 15 02 12 00 39 30.0000000  0  7G16G18G21G25G27G29G31
  22403780.380   117732676.80709  22403777.020    91739737.55247
  23208262.640   121960320.35008  23208260.300    95034055.26646
  20979750.020   110249334.52308  20979746.120    85908556.93948
  24078444.160   126533060.21908  24078444.580    98597186.29845
  23603240.620   124035892.18708  23603240.300    96651363.52847
  23092645.860   121352665.47408  23092643.400    94560503.46447
  22206520.440   116696044.85809  22206517.780    90931967.43148
 15 02 12 00 40  0.0000000  0  7G16G18G21G25G27G29G31
  22388296.500   117651308.54209  22388293.140    91676333.73347
  23194370.540   121887317.68109  23194368.240    94977170.10445
  20983018.860   110266512.94508  20983015.060    85921942.73048
  24096575.880   126628342.53108  24096576.320    98671432.19045
  23589725.200   123964868.50908  23589725.000    96596020.53646
  23106291.300   121424372.24909  23106289.080    94616378.84047
  22221533.640   116774940.66309  22221531.160    90993444.65748
 15 02 12 00 40 30.0000000  0  7G16G18G21G25G27G29G31
  22372845.960   117570115.13309  22372842.480    91613066.15047
  23180511.600   121814489.00608  23180509.200    94920420.53246
  20986365.600   110284100.29608  20986361.780    85935647.17148
  24114743.340   126723812.58308  24114744.080    98745824.37146
  23576229.260   123893947.07008  23576229.120    96540757.09646
  23119945.620   121496124.84508  23119943.240    94672289.95447
  22236607.900   116854156.69909  22236605.620    91055171.41248
 15 02 12 00 41  0.0000000  0  7G16G18G21G25G27G29G31
  22357428.060   117489093.35909  22357424.480    91549932.31047
  23166685.340   121741832.06109  23166682.640    94863804.79845
  20989788.880   110302089.84008  20989785.080    85949664.99648
  24132945.100   126819464.10808  24132945.620    98820357.97645
  23562751.780   123823122.58508  23562751.740    96485569.24847
  23133607.460   121567917.94708  23133604.820    94728232.62447
  22251741.880   116933685.55209  22251739.620    91117141.90848
 15 02 12 00 41 30.0000000  0  7G16G18G21G25G27G29G31
  22342043.340   117408245.67609  22342039.660    91486934.12847
  23152892.480   121669349.67709  23152889.720    94807325.06846
  20993288.560   110320480.88208  20993284.800    85963995.67948
  24151181.400   126915296.34908  24151181.860    98895032.33045
  23549292.820   123752395.54108  23549293.000    96430457.33546
  23147277.000   121639752.09509  23147274.380    94784207.21447
  22266934.920   117013524.47809  22266932.640    91179354.03248
 15 02 12 00 42  0.0000000  0  7G16G18G21G25G27G29G31
  22326692.540   117327576.29709  22326688.740    91424074.88047
  23139133.840   121597046.86309  23139130.980    94750985.25046
  20996864.920   110339274.76008  20996861.140    85978640.26548
  24169452.180   127011310.17708  24169453.160    98969848.17346
  23535852.720   123681768.09208  23535852.980    96375422.98946
  23160954.840   121711628.69709  23160952.060    94840214.94547
  22282186.820   117093672.74409  22282184.540    91241807.19048
 15 02 12 00 42 30.0000000  0  7G16G18G21G25G27G29G31
  22311375.740   117247085.62809  22311371.820    91361354.88447
  23125409.400   121524924.69608  23125406.520    94694786.21445
  21000517.360   110358468.40708  21000513.600    85993596.35548
  24187757.000   127107502.47108  24187757.720    99044803.17145
  23522431.180   123611238.27808  23522431.620    96320464.68647
  23174640.360   121783545.89108  23174637.260    94896254.30946
  22297496.680   117174125.79509  22297494.360    91304497.84848
 15 02 12 00 43  0.0000000  0  7G16G18G21G25G27G29G31
  22296092.640   117166772.46109  22296088.680    91298773.20447
  23111719.220   121452982.57208  23111716.520    94638727.46346
  21004244.980   110378057.28409  21004241.260    86008860.41848
  24206095.080   127203868.85708  24206095.880    99119893.77345
  23509027.640   123540802.86708  23509028.200    96265580.05647
  23188332.540   121855499.96208  23188329.500    94952322.36146
  22312863.440   117254877.71009  22312860.920    91367421.37948
 15 02 12 00 43 30.0000000  0  7G16G18G21G25G27G29G31
  22280844.700   117086644.57309  22280840.800    91236335.90147
  23098064.720   121381228.62908  23098062.180    94582815.37346
  21008048.580   110398045.39508  21008044.820    86024435.56748
  24224467.160   127300413.78808  24224468.220    99195123.50046
  23495643.260   123470467.80108  23495643.760    96210773.51846
  23202032.900   121927496.63909  23202029.720    95008423.67246
  22328287.660   117335931.49009  22328284.940    91430580.13848
 15 02 12 00 44  0.0000000  0  7G16G18G21G25G27G29G31
  22265632.120   117006702.54309  22265628.340    91174043.42047
  23084446.480   121309664.58109  23084444.020    94527051.20246
  21011927.760   110418430.53408  21011923.960    86040320.10148
  24242872.700   127397135.03608  24242873.400    99270490.65545
  23482277.760   123400231.73508  23482278.240    96156044.17547
  23215741.140   121999534.38908  23215738.280    95064556.99147
  22343768.600   117417283.27509  22343765.680    91493971.10048
 15 02 12 00 44 30.0000000  0  7G16G18G21G25G27G29G31
  22250455.160   116926947.32709  22250451.480    91111896.50147
  23070864.660   121238291.60909  23070862.120    94471435.93646
  21015882.000   110439210.01109  21015878.140    86056511.90348
  24261311.340   127494029.71108  24261312.320    99345992.89445
  23468930.880   123330093.31008  23468931.220    96101390.87547
  23229456.700   122071611.49108  23229454.620    95120720.89647
  22359305.420   117498928.75409  22359302.320    91557590.91948
 15 02 12 00 45  0.0000000  0  7G16G18G21G25G27G29G31
  22235313.640   116847378.04209  22235310.040    91049894.47947
  23057319.060   121167109.22108  23057316.520    94415969.19646
  21019910.500   110460379.77508  21019906.560    86073007.82748
  24279782.120   127591093.60808  24279783.180    99421627.02446
  23455602.060   123260049.39708  23455602.140    96046811.23147
  23243179.360   122143724.84508  23243177.640    95176913.09547
  22374896.980   117580861.90709  22374893.740    91621434.90348
 15 02 12 00 45 30.0000000  0  7G16G18G21G25G27G29G31
  22220209.100   116768003.21209  22220205.540    90988043.96447
  23043811.520   121096126.58809  23043808.680    94360658.08246
