     2.11           OBSERVATION DATA    G                   RINEX VERSION / TYPE
SPIDER V4,0,0,3554                      2015 03 12 00:00    PGM / RUN BY / DATE 
EECH                                                        MARKER NAME         
EECH                                                        MARKER NUMBER       
                                                            OBSERVER / AGENCY   
462240              LEICA GRX1200PRO    8.20/2.127          REC # / TYPE / VERS 
103299              LEIAT504                                ANT # / TYPE        
  5154282.7593   121017.3605  3742656.9418                  APPROX POSITION XYZ 
        0.0590        0.0000        0.0000                  ANTENNA: DELTA H/E/N
     1     1                                                WAVELENGTH FACT L1/2
     4    C1    L1    P2    L2                              # / TYPES OF OBSERV 
    30.000                                                  INTERVAL            
  2015    02    12    06    22   30.0000000     GPS         TIME OF FIRST OBS   
  2015    02    12    10    47    0.0000000     GPS         TIME OF LAST OBS    
    16                                                      LEAP SECONDS        
    19                                                      # OF SATELLITES     
   G 1   483   483   483   483                              PRN / # OF OBS      
   G 2    84    84    84    84                              PRN / # OF OBS      
   G 3   530   530   530   530                              PRN / # OF OBS      
   G 4   345   345   344   344                              PRN / # OF OBS      
   G 6   294   294   294   294                              PRN / # OF OBS      
   G 7   172   172   172   172                              PRN / # OF OBS      
   G 9   402   402   402   402                              PRN / # OF OBS      
   G10   234   234   234   234                              PRN / # OF OBS      
   G11   381   381   381   381                              PRN / # OF OBS      
   G14    73    73    73    73                              PRN / # OF OBS      
   G17   514   514   514   514                              PRN / # OF OBS      
   G19   169   169   169   169                              PRN / # OF OBS      
   G20   404   404   404   404                              PRN / # OF OBS      
   G23   530   530   530   530                              PRN / # OF OBS      
   G27    34    34    34    34                              PRN / # OF OBS      
   G28   162   162   162   162                              PRN / # OF OBS      
   G30    59    59    59    59                              PRN / # OF OBS      
   G31    58    58    55    55                              PRN / # OF OBS      
   G32   363   363   362   362                              PRN / # OF OBS      
BIT 2 OF LLI FLAGS DATA COLLECTED UNDER A/S CONDITION       COMMENT             
SNR is mapped to RINEX snr flag value [2-9]                 COMMENT             
Lx:     = 25dBHz -> 1; 26-27dBHz -> 2; 28-31dBHz -> 3       COMMENT             
       32-35dBHz -> 4; 36-38dBHz -> 5; 39-41dBHz -> 6       COMMENT             
       42-44dBHz -> 7; 45-48dBHz -> 8; >=49dBHz -> 9        COMMENT             
                                                            END OF HEADER       
 15 02 12 06 22 30.0000000  0 10G01G03G04G11G14G19G23G27G28G32
  20817006.000   109394129.03709  20817009.080    85242205.19149
  21197366.660   111392957.25309  21197369.140    86799736.84948
  20492220.360   107687385.40609  20492221.060    83912283.90149
  20127232.380   105769350.33909  20127231.480    82417712.75149
  23385222.800   122890176.96206  23385222.580    95758589.06245
  21946700.340   115330707.28108  21946698.060    89868098.70648
  24812434.480   130390222.75506  24812431.980   101602769.72344
  23992464.600   126081271.20407  23992466.500    98245186.71946
  23578388.700   123905274.81407  23578387.580    96549563.01145
  20223343.600   106274448.19709  20223343.920    82811285.01549
 15 02 12 06 23  0.0000000  0 10G01G03G04G11G14G19G23G27G28G32
  20811378.920   109364558.27709  20811381.920    85219163.03249
  21187266.960   111339882.96109  21187269.500    86758380.26548
  20496189.120   107708241.21309  20496189.840    83928535.15549
  20126309.860   105764502.54209  20126309.000    82413935.23349
  23394648.060   122939707.57706  23394648.080    95797184.30545
  21961972.460   115410962.90608  21961970.220    89930635.52348
  24792610.500   130286046.06506  24792607.860   101521593.11843
  24012905.340   126188687.75206  24012907.240    98328887.81047
  23577832.960   123902354.39907  23577831.980    96547287.34546
  20229124.100   106304824.65309  20229124.340    82834954.96949
 15 02 12 06 23 30.0000000  0 10G01G03G04G11G14G19G23G27G28G32
  20805790.740   109335192.00109  20805793.660    85196280.21049
  21177236.600   111287173.13709  21177239.200    86717307.67748
  20500210.100   107729371.40309  20500210.780    83945000.20949
  20125463.440   105760054.34909  20125462.520    82410469.09049
  23404164.400   122989716.39406  23404164.600    95836152.16944
  21977310.180   115491563.23908  21977308.040    89993440.93148
  24772779.540   130181833.33306  24772776.840   101440388.38343
  24033373.220   126296247.84706  24033375.460    98412700.76546
  23577371.360   123899929.41807  23577370.820    96545397.74546
  20234987.860   106335638.57109  20234988.020    82858965.79549
 15 02 12 06 24  0.0000000  0 10G01G03G04G11G14G19G23G27G28G32
  20800242.080   109306033.41509  20800244.960    85173559.22349
  21167276.140   111234830.54009  21167278.800    86676521.24648
  20504283.840   107750778.75409  20504284.480    83961681.24449
  20124693.680   105756008.91009  20124692.680    82407316.78449
  23413771.780   123040204.02906  23413772.080    95875493.13845
  21992713.680   115572508.91008  21992711.560    90056515.44548
  24752942.660   130077589.50706  24752939.860   101359159.34242
  24053868.300   126403951.96206  24053871.100    98496625.94446
  23577004.360   123898001.25907  23577004.140    96543895.27146
  20240934.960   106366890.54309  20240935.100    82883317.97749
 15 02 12 06 24 30.0000000  0 10G01G03G04G11G14G19G23G27G28G32
  20794732.460   109277080.28709  20794735.320    85150998.33849
  21157385.100   111182852.44009  21157387.720    86636018.82948
  20508409.720   107772460.70709  20508410.440    83978576.24349
  20124000.120   105752364.00409  20123999.060    82404476.57949
  23423469.480   123091166.07806  23423469.980    95915203.75445
  22008182.060   115653795.74808  22008180.040    90119855.80148
  24733099.780   129973314.42406  24733097.120   101277906.00643
  24074389.940   126511795.08506  24074393.140    98580659.44346
  23576731.200   123896566.73207  23576731.200    96542777.47445
  20246964.420   106398575.71109  20246964.600    82908007.70849
 15 02 12 06 25  0.0000000  0 10G01G03G04G11G14G19G23G27G28G32
  20789261.820   109248332.10109  20789264.720    85128597.14449
  21147563.180   111131237.78909  21147565.740    86595799.61648
  20512587.680   107794416.04009  20512588.360    83995684.27148
  20123382.720   105749119.27509  20123381.600    82401948.20249
  23433257.080   123142599.68806  23433257.640    95955281.83244
  22023714.780   115735420.87408  22023712.820    90183459.74648
  24713251.060   129869008.88506  24713248.760   101196628.97044
  24094937.640   126619773.95306  24094940.920    98664798.65546
  23576551.680   123895624.11507  23576551.660    96542042.97145
  20253075.680   106430691.03009  20253075.980    82933032.60949
 15 02 12 06 25 30.0000000  0 10G01G03G04G11G14G19G23G27G28G32
  20783831.060   109219793.27209  20783834.020    85106359.08949
  21137811.100   111079990.44709  21137813.680    86555866.62948
  20516818.500   107816648.75309  20516819.060    84013008.44448
  20122842.300   105746279.20709  20122841.180    82399735.14149
  23443134.920   123194507.38006  23443135.320    95995729.33845
  22039312.240   115817386.11108  22039310.240    90247328.72348
  24693397.580   129764679.01106  24693395.840   101115333.00244
  24115511.460   126727890.12006  24115514.740    98749044.86346
  23576466.400   123895176.32607  23576466.400    96541694.01445
  20259269.200   106463238.23609  20259269.540    82958394.05149
 15 02 12 06 26  0.0000000  0 10G01G03G04G11G14G19G23G27G28G32
  20778440.200   109191463.83809  20778443.180    85084284.19849
  21128128.860   111029109.97109  21128131.500    86516219.51149
  20521101.920   107839158.31409  20521102.460    84030548.33548
  20122378.920   105743844.19109  20122377.800    82397837.70649
  23453102.400   123246886.61806  23453102.900    96036544.30844
  22054974.020   115899689.36808  22054971.960    90311461.08248
  24673539.700   129660326.45806  24673538.280   101034019.26645
  24136110.860   126836140.93506  24136114.280    98833396.00846
  23576475.040   123895222.21807  23576475.220    96541729.76445
  20265544.480   106496214.71609  20265544.780    82984089.99749
 15 02 12 06 26 30.0000000  0 10G01G03G04G11G14G19G23G27G28G32
  20773088.980   109163342.44609  20773091.840    85062371.40649
  21118516.120   110978594.35309  21118518.680    86476856.69249
  20525437.660   107861942.78409  20525438.160    84048302.43448
  20121992.340   105741812.68709  20121991.280    82396254.69749
  23463159.080   123299733.76106  23463159.340    96077723.81645
  22070699.480   115982327.01608  22070697.380    90375854.01548
  24653677.440   129555951.33305  24653676.320   100952687.89744
  24156735.180   126944522.13106  24156738.740    98917848.75546
  23576577.120   123895758.99907  23576577.460    96542148.03545
  20271900.720   106529616.48109  20271900.960    83010117.33249
 15 02 12 06 27  0.0000000  0 10G01G03G04G11G14G19G23G27G28G32
  20767777.400   109135429.54709  20767780.140    85040621.08349
  21108972.760   110928443.56109  21108975.300    86437778.15649
  20529825.820   107885002.40809  20529826.260    84066270.94848
  20121682.620   105740185.21809  20121681.660    82394986.51949
  23473304.440   123353047.02906  23473304.440    96119266.54644
  22086488.240   116065297.21008  22086486.200    90440506.06848
  24633811.340   129451556.25405  24633810.680   100871341.04944
  24177383.940   127053031.44607  24177387.540    99002401.35545
  23576772.780   123896785.96707  23576772.800    96542948.25745
  20278337.440   106563441.36009  20278337.680    83036474.37049
 15 02 12 06 27 30.0000000  0 10G01G03G04G11G14G19G23G27G28G32
  20762506.220   109107728.93609  20762508.840    85019036.18149
  21099499.320   110878660.73609  21099501.880    86398986.34949
  20534266.920   107908340.25409  20534267.420    84084456.25448
  20121450.540   105738965.66909  20121449.640    82394036.20149
  23483538.540   123406827.77406  23483538.760    96161173.60045
  22102340.500   116148601.14908  22102338.540    90505418.17748
  24613942.520   129347146.73105  24613942.180   100789983.00244
  24198057.460   127161669.89007  24198060.840    99087054.52245
  23577062.140   123898305.50507  23577061.900    96544132.31145
  20284854.800   106597690.45209  20284855.080    83063161.96049
 15 02 12 06 28  0.0000000  0 10G01G03G04G11G14G19G23G27G28G32
  20757275.060   109080238.91309  20757277.680    84997615.36849
  21090095.460   110829243.59209  21090098.000    86360479.48549
  20538760.540   107931954.16309  20538761.020    84102856.67249
  20121295.760   105738152.36309  20121294.900    82393402.43749
  23493860.940   123461071.98906  23493861.140    96203441.76545
  22118255.480   116232234.91208  22118253.640    90570587.29648
  24594071.080   129242722.31105  24594070.840   100708613.27944
  24218754.700   127270432.88106  24218757.820    99171804.76846
  23577444.400   123900314.22607  23577444.280    96545697.52245
  20291452.000   106632359.33509  20291452.340    83090176.66449
 15 02 12 06 28 30.0000000  0 10G01G03G04G11G14G19G23G27G28G32
  20752084.000   109052959.84509  20752086.700    84976358.93349
  21080761.260   110780191.86909  21080763.700    86322257.36749
  20543306.660   107955843.89109  20543307.040    84121472.01848
  20121218.420   105737746.02009  20121217.540    82393085.79249
  23504271.080   123515777.57306  23504271.500    96246069.40044
  22134232.840   116316196.62408  22134231.160    90636011.95948
  24574197.460   129138285.06306  24574197.040   100627233.54243
  24239475.080   127379317.95107  24239478.140    99256650.12645
  23577919.760   123902811.44507  23577919.620    96547643.38645
  20298128.660   106667445.63609  20298129.000    83117516.61849
 15 02 12 06 29  0.0000000  0 10G01G03G04G11G14G19G23G27G28G32
  20746933.360   109025893.09909  20746936.160    84955267.95049
  21071496.740   110731506.28009  21071499.120    86284320.54948
  20547905.400   107980010.29809  20547905.780    84140302.95848
  20121218.660   105737747.75909  20121217.860    82393087.12549
  23514768.900   123570943.57706  23514769.620    96289055.81344
  22150272.480   116400485.49608  22150270.900    90701691.55048
  24554322.240   129033838.30106  24554321.260   100545846.38444
  24260218.420   127488323.69306  24260221.520    99341589.49945
  23578488.000   123905796.90507  23578487.740    96549969.71645
  20304884.520   106702948.02509  20304884.920    83145180.79849
 15 02 12 06 29 30.0000000  0 10G01G03G04G11G14G19G23G27G28G32
  20741823.320   108999039.57609  20741826.140    84934343.11849
  21062301.860   110683187.10409  21062304.260    86246669.23949
  20552556.860   108004453.69909  20552557.280    84159349.73348
  20121296.820   105738158.60609  20121296.080    82393407.24949
  23525354.120   123626568.61907  23525355.020    96332399.96245
  22166374.040   116485099.58308  22166372.520    90767624.55748
  24534445.720   128929384.56506  24534444.040   100464453.81043
  24280984.180   127597448.12806  24280987.460    99426621.40346
  23579149.000   123909270.11007  23579148.460    96552676.11244
  20311719.220   106738864.86209  20311719.740    83173167.92249
 15 02 12 06 30  0.0000000  0 10G01G03G04G11G14G19G23G27G28G32
  20736754.540   108972403.05809  20736757.380    84913587.36749
  21053177.360   110635237.38009  21053179.700    86209305.81649
  20557261.660   108029177.44309  20557262.020    84178614.96148
  20121453.500   105738982.07509  20121452.780    82394048.88949
  23536026.860   123682653.83706  23536027.740    96376102.65745
  22182537.760   116570040.48908  22182536.220    90833812.22948
  24514568.920   128824929.20306  24514566.600   100383060.00144
  24301772.540   127706692.16206  24301776.040    99511746.47345
  23579903.020   123913233.31107  23579902.360    96555764.30045
  20318632.940   106775196.94009  20318633.560    83201478.61249
 15 02 12 06 30 30.0000000  0 11G01G03G04G11G14G17G19G23G27G28G32
  20731726.860   108945982.42909  20731729.760    84892999.84349
  21044122.820   110587655.37309  21044125.140    86172228.92749
  20562019.500   108054179.87709  20562019.840    84198097.33748
  20121688.560   105740217.35809  20121687.820    82395011.42649
  23546786.480   123739195.68806  23546787.140    96420161.14044
  24998474.800   131367874.16206  24998474.180   102364567.15145
  22198762.960   116655304.55708  22198761.460    90900251.70648
  24494691.840   128720473.05006  24494689.100   100301665.55744
  24322582.800   127816051.92606  24322586.540    99596961.71445
  23580749.640   123917683.62107  23580749.240    96559232.05445
  20325625.060   106811940.53409  20325625.660    83230109.96149
 15 02 12 06 31  0.0000000  0 11G01G03G04G11G14G17G19G23G27G28G32
  20726739.540   108919773.87009  20726742.540    84872577.56949
  21035137.320   110540436.52509  21035139.760    86135435.01149
  20566829.460   108079456.50009  20566829.840    84217793.37648
  20122001.300   105741860.46009  20122000.480    82396291.74549
  23557631.860   123796187.72406  23557632.240    96464570.46244
  24978873.480   131264869.03506  24978873.140   102284303.47245
  22215048.520   116740885.56808  22215047.020    90966938.15948
  24474814.020   128616013.71506  24474811.220   100220268.59944
  24343413.880   127925520.65506  24343417.920    99682261.87045
  23581688.120   123922615.81907  23581688.020    96563075.30245
  20332694.280   106849089.08209  20332694.800    83259056.85949
 15 02 12 06 31 30.0000000  0 11G01G03G04G11G14G17G19G23G27G28G32
  20721793.640   108893783.27609  20721796.680    84852325.14849
  21026221.940   110493586.02809  21026224.540    86098928.12149
  20571692.680   108105012.88609  20571693.080    84237707.41248
  20122392.760   105743917.13709  20122391.880    82397894.32649
  23568563.640   123853633.57806  23568563.920    96509333.40445
  24959286.780   131161940.70406  24959286.660   102204099.60945
  22231395.100   116826787.09008  22231393.640    91033874.34848
  24454936.920   128511558.58706  24454934.120   100138874.91744
  24364266.360   128035101.37406  24364270.640    99767649.27046
  23582719.180   123928034.61507  23582719.340    96567297.71845
  20339841.100   106886645.66709  20339841.600    83288321.71249
 15 02 12 06 32  0.0000000  0 11G01G03G04G11G14G17G19G23G27G28G32
  20716889.160   108868010.13609  20716892.120    84832242.16349
  21017376.380   110447102.63309  21017379.180    86062707.28549
  20576608.960   108130847.79409  20576609.280    84257838.47448
  20122862.820   105746386.98209  20122861.920    82399818.85249
  23579581.080   123911529.98806  23579581.580    96554447.42245
  24939714.900   131059090.44306  24939715.180   102123956.59045
  22247802.080   116913005.80508  22247800.540    91101057.70848
  24435060.760   128407109.07106  24435058.420   100057485.63644
  24385139.500   128144790.73306  24385143.980    99853121.33446
  23583842.540   123933937.53607  23583842.600    96571897.38646
  20347064.820   106924606.89509  20347065.420    83317901.86949
 15 02 12 06 32 30.0000000  0 11G01G03G04G11G14G17G19G23G27G28G32
  20712026.380   108842456.13609  20712029.340    84812329.92549
  21008600.840   110400987.28709  21008603.760    86026773.25049
  20581578.440   108156962.38809  20581578.820    84278187.46848
  20123411.800   105749271.53209  20123410.820    82402066.52849
  23590684.000   123969876.28706  23590684.700    96599911.98244
  24920158.500   130956321.28206  24920159.020   102043876.74345
  22264269.340   116999541.28808  22264267.740    91168487.89348
  24415186.160   128302668.47506  24415184.460    99976103.25644
  24406033.380   128254587.56806  24406037.880    99938677.11945
  23585058.120   123940324.25307  23585058.020    96576874.04545
  20354365.380   106962971.84309  20354366.080    83347796.61449
 15 02 12 06 33  0.0000000  0 11G01G03G04G11G14G17G19G23G27G28G32
  20707205.080   108817119.95509  20707208.060    84792587.42849
  20999895.020   110355237.89709  20999897.860    85991124.37249
  20586600.780   108183354.66809  20586601.220    84298752.84848
  20124039.380   105752569.37909  20124038.400    82404636.25749
  23601871.740   124028668.61206  23601872.440    96645724.09045
  24900617.620   130853633.33106  24900618.160   101963860.19245
  22280796.000   117086389.27608  22280794.460    91236161.59448
  24395313.300   128198237.29706  24395312.200    99894728.28744
  24426947.080   128364487.63006  24426951.400   100024313.33846
  23586365.260   123947192.37207  23586365.140    96582225.82245
  20361742.040   107001736.32209  20361742.700    83378002.67649
 15 02 12 06 33 30.0000000  0 11G01G03G04G11G14G17G19G23G27G28G32
  20702425.400   108792001.99409  20702428.320    84773014.96249
  20991258.820   110309854.08109  20991261.500    85955760.34549
  20591675.980   108210024.60709  20591676.460    84319534.58648
  20124745.680   105756280.87709  20124744.740    82407528.31149
  23613144.040   124087904.66706  23613144.720    96691881.98545
  24881092.620   130751028.52106  24881093.140   101883908.40045
  22297381.680   117173547.83808  22297380.260    91304077.30448
  24375442.700   128093817.43507  24375441.900    99813362.15945
  24447879.940   128474488.46006  24447884.160   100110028.08545
  23587763.580   123954540.37507  23587763.400    96587951.51245
  20369194.320   107040897.91309  20369194.820    83408518.17549
 15 02 12 06 34  0.0000000  0 11G01G03G04G11G14G17G19G23G27G28G32
  20697687.900   108767105.58509  20697690.760    84753615.14749
  20982692.700   110264838.37609  20982695.220    85920683.17249
  20596804.420   108236974.92209  20596805.040    84340534.79448
  20125531.200   105760408.85909  20125530.260    82410744.89449
  23624500.840   124147585.11506  23624501.740    96738386.15444
  24861584.420   130648511.83606  24861584.900   101804025.29844
  22314026.700   117261018.07708  22314025.340    91372235.88148
  24355575.380   127989413.94807  24355574.620    99732008.80744
  24468831.900   128584590.43206  24468836.080   100195821.66545
  23589253.320   123962369.75507  23589252.960    96594052.30345
  20376722.240   107080457.15809  20376722.640    83439343.53649
 15 02 12 06 34 30.0000000  0 11G01G03G04G11G14G17G19G23G27G28G32
  20692992.020   108742428.43809  20692994.940    84734386.17649
  20974196.000   110220187.69809  20974198.500    85885890.42449
  20601985.680   108264202.60309  20601986.420    84361751.13149
  20126395.580   105764951.33609  20126394.680    82414284.46149
  23635941.180   124207705.03806  23635942.260    96785232.78645
  24842092.900   130546082.59006  24842093.140   101724210.31144
  22330730.180   117348794.80808  22330728.720    91440633.28448
  24335711.160   127885026.18207  24335710.220    99650667.66845
  24489802.160   128694788.43106  24489806.200   100281690.03945
  23590834.120   123970676.69207  23590833.420    96600525.20645
  20384324.860   107120408.98309  20384325.220    83470474.80449
 15 02 12 06 35  0.0000000  0 11G01G03G04G11G14G17G19G23G27G28G32
  20688338.360   108717973.39009  20688341.300    84715330.27449
  20965769.160   110175904.05509  20965771.680    85851383.67949
  20607220.220   108291709.95009  20607220.940    84383185.38648
  20127339.360   105769911.17209  20127338.580    82418149.24449
  23647465.360   124268264.83406  23647466.580    96832422.14944
  24822618.820   130443744.87806  24822618.780   101644466.64045
  22347492.140   117436878.64308  22347490.600    91509269.98448
  24315850.880   127780658.60207  24315849.620    99569342.24845
  24510790.660   128805082.30806  24510794.180   100367633.08944
  23592505.920   123979462.23907  23592505.280    96607371.07245
  20392002.180   107160753.30409  20392002.560    83501911.90849
 15 02 12 06 35 30.0000000  0 11G01G03G04G11G14G17G19G23G27G28G32
  20683727.000   108693740.35809  20683729.940    84696447.37049
  20957411.940   110131986.53909  20957414.520    85817162.23349
  20612507.860   108319496.44709  20612508.500    84404837.17348
  20128362.580   105775288.00109  20128361.860    82422338.94849
  23659072.860   124329261.85406  23659074.040    96879952.18844
  24803162.540   130341500.46506  24803162.260   101564795.67445
  22364312.000   117525266.74008  22364310.320    91578143.77448
  24295994.740   127676312.74707  24295993.260    99488033.75745
  24531796.700   128915469.17805  24531800.080   100453648.62944
  23594268.160   123988724.53606  23594267.860    96614588.41645
  20399753.640   107201487.26409  20399754.040    83533652.63049
 15 02 12 06 36  0.0000000  0 11G01G03G04G11G14G17G19G23G27G28G32
  20679158.420   108669732.53709  20679161.400    84677739.95649
  20949124.820   110088437.47609  20949127.420    85783227.89149
  20617849.020   108347564.41909  20617849.640    84426708.28548
  20129465.740   105781084.84909  20129464.980    82426855.94449
  23670763.620   124390696.22706  23670764.840    96927823.06344
  24783724.720   130239353.33006  24783724.400   101485200.49645
  22381189.760   117613959.80708  22381188.080    91647255.19148
  24276143.620   127571993.62207  24276142.000    99406746.10945
  24552820.340   129025949.22305  24552823.960   100539736.83745
  23596121.320   123998464.82807  23596121.280    96622178.23645
  20407579.300   107242611.15409  20407579.700    83565697.19349
 15 02 12 06 36 30.0000000  0 11G01G03G04G11G14G17G19G23G27G28G32
  20674632.400   108645948.45909  20674635.380    84659206.88649
  20940907.420   110045254.50909  20940909.980    85749578.82349
  20623243.400   108375911.88809  20623244.000    84448797.18748
  20130648.440   105787299.80309  20130647.680    82431698.73549
  23682536.760   124452564.29006  23682538.140    96976031.86845
  24764305.520   130137304.54806  24764305.280   101405681.97945
  22398124.660   117702953.64308  22398123.060    91716600.97648
  24256297.420   127467701.14507  24256295.780    99325479.20444
  24573861.100   129136518.12605  24573864.880   100625894.18345
  23598065.300   124008679.98907  23598065.000    96630138.09345
  20415478.320   107284120.66309  20415478.720    83598042.23349
 15 02 12 06 37  0.0000000  0 11G01G03G04G11G14G17G19G23G27G28G32
  20670149.100   108622388.59609  20670152.080    84640848.53049
  20932759.600   110002437.29209  20932762.040    85716214.74849
  20628690.960   108404538.73009  20628691.600    84471103.77748
  20131910.820   105793933.38409  20131910.020    82436867.73249
  23694391.960   124514863.64006  23694393.060    97024576.70544
  24744905.300   130035355.69607  24744905.220   101326241.33744
  22415116.360   117792246.23908  22415114.960    91786179.55748
  24236456.660   127363437.75207  24236455.100    99244234.94945
  24594918.340   129247173.34205  24594922.440   100712118.84745
  23600099.660   124019368.66307  23600099.220    96638466.92045
  20423450.320   107326013.41209  20423450.680    83630685.89849
 15 02 12 06 37 30.0000000  0 11G01G03G04G11G14G17G19G23G27G28G32
  20665709.040   108599055.86009  20665712.080    84622667.15549
  20924681.680   109959987.78309  20924684.100    85683137.20449
  20634192.120   108433447.24509  20634192.740    84493629.84148
  20133253.420   105800988.54509  20133252.560    82442365.22449
  23706329.120   124577594.18806  23706329.840    97073457.57044
  24725524.900   129933511.36906  24725525.040   101246882.15245
  22432165.000   117881837.90708  22432163.820    91855991.18048
  24216622.280   127259207.91207  24216620.900    99163016.84145
  24615991.980   129357914.91705  24615996.320   100798410.72945
  23602224.100   124030531.62207  23602223.820    96647165.31145
  20431495.320   107368289.47109  20431495.580    83663628.25549
 15 02 12 06 38  0.0000000  0 11G01G03G04G11G14G17G19G23G27G28G32
  20661312.100   108575949.99709  20661315.240    84604662.56449
  20916673.520   109917904.83609  20916675.980    85650345.28949
  20639746.740   108462636.61609  20639747.340    84516374.77048
  20134676.140   105808464.57209  20134675.240    82448190.67049
  23718347.760   124640753.25906  23718348.300    97122672.35844
  24706164.480   129831772.29806  24706164.800   101167604.96045
  22449270.100   117971725.74608  22449268.960    91926033.59548
  24196794.520   127155013.11606  24196793.480    99081826.04145
  24637081.340   129468739.62105  24637085.780   100884767.46344
  23604438.320   124042166.89307  23604438.180    96656231.73245
  20439612.560   107410945.62409  20439612.840    83696866.78949
 15 02 12 06 38 30.0000000  0 11G01G03G04G11G14G17G19G23G27G28G32
  20656958.180   108553069.95109  20656961.320    84586833.93449
  20908734.780   109876186.51009  20908737.300    85617837.48849
  20645354.480   108492105.22809  20645355.040    84539337.28948
  20136178.700   105816360.42809  20136177.820    82454343.25549
  23730447.300   124704337.01306  23730447.900    97172218.04445
  24686824.280   129730139.50506  24686824.760   101088410.58444
  22466430.960   118061906.06108  22466429.760    91996303.91848
  24176973.620   127050853.81406  24176972.920    99000662.84545
  24658185.680   129579643.48404  24658190.260   100971185.83344
  23606742.060   124054271.48907  23606741.640    96665663.83344
  20447801.320   107453978.01909  20447801.700    83730398.49949
 15 02 12 06 39  0.0000000  0 11G01G03G04G11G14G17G19G23G27G28G32
  20652647.960   108530419.32409  20652650.960    84569184.07149
  20900865.900   109834835.41309  20900868.520    85585615.84349
  20651015.800   108521855.80209  20651016.420    84562519.50148
  20137761.640   105824678.92109  20137760.820    82460825.16649
  23742627.800   124768346.13506  23742628.640    97222095.17845
  24667505.240   129628618.16606  24667505.900   101009303.03945
  22483647.680   118152379.77908  22483646.380    92066802.85948
  24157160.560   126946735.25506  24157160.020    98919531.47145
  24679305.160   129690627.16404  24679310.200   101057666.39343
  23609135.100   124066846.84207  23609134.520    96675462.78045
  20456061.780   107497387.26609  20456062.240    83764223.85749
 15 02 12 06 39 30.0000000  0 10G01G03G04G11G14G17G19G23G28G32
  20648380.500   108507993.42109  20648383.380    84551709.31249
  20893065.740   109793845.93709  20893068.540    85553675.98349
  20656729.840   108551883.14609  20656730.420    84585917.38848
  20139424.120   105833415.38509  20139423.360    82467632.76449
  23754887.840   124832773.15406  23754888.920    97272297.96645
  24648206.680   129527204.88806  24648207.540   100930279.72045
  22500918.760   118243139.61508  22500917.440    92137524.73948
  24137354.780   126842654.39107  24137354.220    98838429.48745
  23611615.920   124079886.40506  23611615.880    96685623.45946
  20464392.540   107541165.77109  20464393.000    83798336.94349
 15 02 12 06 40  0.0000000  0 10G01G03G04G11G14G17G19G23G28G32
  20644157.520   108485801.30309  20644160.380    84534416.72749
  20885335.980   109753226.13109  20885338.840    85522024.17249
  20662498.180   108582195.77509  20662498.760    84609537.57348
  20141167.840   105842578.72709  20141167.120    82474772.99449
  23767228.760   124897624.60806  23767229.960    97322831.48144
  24628930.720   129425910.60606  24628931.760   100851349.10145
  22518245.400   118334191.81708  22518244.060    92208474.43247
  24117558.300   126738622.06707  24117557.720    98757365.29545
  23614186.660   124093397.41707  23614187.000    96696151.49945
  20472794.760   107585319.74809  20472795.220    83832742.60949
 15 02 12 06 40 30.0000000  0 10G01G03G04G11G14G17G19G23G28G32
  20639978.140   108463838.40609  20639981.000    84517302.75649
  20877675.680   109712970.51309  20877678.420    85490656.14349
  20668319.720   108612788.26109  20668320.320    84633375.82548
  20142991.880   105852163.98309  20142991.200    82482241.99649
  23779649.060   124962892.85806  23779650.260    97373689.75145
  24609676.700   129324732.19706  24609677.940   100772508.79445
  22535626.200   118425529.31508  22535624.880    92279646.43648
  24097770.540   126634635.41407  24097769.840    98676336.69845
  23616846.340   124107373.08707  23616846.300    96707041.61545
  20481266.980   107629841.66209  20481267.500    83867434.97549
 15 02 12 06 41  0.0000000  0 10G01G03G04G11G14G17G19G23G28G32
  20635842.760   108442106.57209  20635845.620    84500368.82649
  20870084.840   109673079.89109  20870087.480    85459572.52549
  20674194.780   108643661.94409  20674195.540    84657433.19548
  20144896.520   105862172.92909  20144895.880    82490041.13949
  23792148.340   125028576.86606  23792149.660    97424872.01045
  24590445.400   129223672.57306  24590446.640   100693761.03545
  22553061.140   118517151.20008  22553059.900    92351040.03748
  24077992.120   126530697.74407  24077991.180    98595346.27545
  23619594.340   124121813.34307  23619594.000    96718293.73945
  20489809.080   107674730.49009  20489809.620    83902413.25049
 15 02 12 06 41 30.0000000  0 10G01G03G04G11G14G17G19G23G28G32
  20631751.840   108420608.33709  20631754.740    84483616.92449
  20862563.700   109633555.81209  20862566.320    85428774.52449
  20680123.780   108674818.64909  20680124.540    84681711.10048
  20146882.180   105872607.65309  20146881.600    82498172.05849
  23804726.820   125094676.70406  23804728.040    97476378.27345
  24571237.760   129122736.38006  24571238.900   100615109.46646
  22570550.320   118609057.43008  22570549.100    92422655.21248
  24058223.700   126426813.26307  24058222.560    98514397.28845
  23622430.640   124136718.54507  23622430.400    96729908.13245
  20498420.920   107719985.72009  20498421.460    83937677.03749
 15 02 12 06 42  0.0000000  0 10G01G03G04G11G14G17G19G23G28G32
  20627704.720   108399340.38109  20627707.720    84467044.46249
  20855111.460   109594393.90309  20855114.060    85398258.73049
  20686105.880   108706254.38709  20686106.600    84706206.43649
  20148948.180   105883464.40909  20148947.600    82506631.83649
  23817383.360   125161185.79906  23817384.080    97528203.42644
  24552053.520   129021921.73806  24552054.360   100536552.60446
  22588092.520   118701241.64808  22588091.160    92494487.00347
  24038465.040   126322980.45207  24038463.680    98433488.56744
  23625354.720   124152083.21707  23625354.560    96741880.53546
  20507101.300   107765601.12009  20507101.800    83973221.47449
 15 02 12 06 42 30.0000000  0 10G01G03G04G11G14G17G19G23G28G32
  20623702.140   108378306.43709  20623705.140    84450654.34549
  20847728.720   109555596.92009  20847731.240    85368027.29649
  20692141.600   108737972.28109  20692142.420    84730921.63948
  20151095.200   105894746.88909  20151094.560    82515423.34149
  23830118.040   125228105.12306  23830118.340    97580348.26244
  24532893.460   128921233.52906  24532893.880   100458094.26245
  22605687.820   118793704.61508  22605686.340    92566536.00247
  24018717.020   126219204.48407  24018715.700    98352624.12345
  23628366.780   124167909.09607  23628366.520    96754212.33546
  20515850.400   107811577.63609  20515850.860    84009047.29549
 15 02 12 06 43  0.0000000  0 10G01G03G04G11G14G17G19G23G28G32
  20619744.540   108357508.74609  20619747.500    84434448.32649
  20840415.580   109517166.02309  20840418.120    85338081.13249
  20698231.320   108769973.82309  20698232.160    84755857.85848
  20153323.620   105906456.85509  20153322.880    82524547.96049
  23842930.700   125295434.06706  23842930.740    97632812.28645
  24513758.380   128820676.58606  24513758.240   100379738.18245
  22623336.260   118886446.59208  22623334.760    92638802.40248
  23998980.580   126115489.25407  23998979.500    98271807.01445
  23631466.160   124184196.28206  23631466.040    96766903.65545
  20524668.040   107857914.45209  20524668.500    84045153.87749
 15 02 12 06 43 30.0000000  0 10G01G03G04G11G14G17G19G23G28G32
  20615831.440   108336945.02709  20615834.360    84418424.61849
  20833171.400   109479097.87609  20833174.020    85308417.62749
  20704374.560   108802256.09509  20704375.280    84781012.82848
  20155632.820   105918591.39709  20155632.060    82534003.41249
  23855820.080   125363167.42506  23855820.220    97685591.42344
  24494647.980   128720249.57206  24494647.360   100301483.36845
  22641036.760   118979462.43108  22641035.320    92711282.20648
  23979255.560   126011834.17107  23979254.720    98191036.77845
  23634652.420   124200940.30707  23634651.920    96779950.89845
  20533553.200   107904606.27009  20533553.680    84081537.07449
 15 02 12 06 44  0.0000000  0 10G01G03G04G11G14G17G19G23G28G32
  20611963.620   108316619.58809  20611966.580    84402586.58549
  20825996.840   109441395.72109  20825999.520    85279039.30849
  20710571.820   108834822.68509  20710572.520    84806389.34248
  20158023.560   105931154.66009  20158022.800    82543792.93349
  23868786.700   125431306.74306  23868786.840    97738686.86944
  24475563.320   128619958.19206  24475562.380   100223334.21845
  22658789.560   119072753.41208  22658788.260    92783976.40048
  23959543.200   125908245.24907  23959542.540    98110318.12345
  23637926.220   124218143.44807  23637925.460    96793355.88245
  20542506.220   107951654.55809  20542506.700    84118198.03949
 15 02 12 06 44 30.0000000  0 10G01G03G04G11G14G17G19G23G28G32
  20608140.660   108296530.12109  20608143.700    84386932.42449
  20818891.360   109404056.15109  20818893.980    85249943.51249
  20716822.600   108867670.67909  20716823.320    84831985.14148
  20160495.380   105944144.09909  20160494.620    82553914.53449
  23881829.420   125499846.71506  23881829.560    97792094.56144
  24456504.180   128519801.94506  24456503.220   100145290.38145
  22676593.760   119166314.63108  22676592.580    92856881.17648
  23939843.280   125804721.87007  23939842.660    98029650.50645
  23641286.240   124235800.75107  23641285.700    96807114.77445
  20551526.040   107999053.94809  20551526.460    84155132.60049
 15 02 12 06 45  0.0000000  0 10G01G03G04G11G14G17G19G23G28G32
  20604363.720   108276682.35409  20604366.820    84371466.60549
  20811855.820   109367083.81009  20811858.380    85221133.88049
  20723127.880   108900804.99709  20723128.640    84857804.04148
  20163049.300   105957564.91509  20163048.500    82564372.27949
  23894948.580   125568789.91906  23894949.120    97845816.44444
  24437472.200   128419788.53106  24437471.220   100067357.81644
  22694449.900   119260148.77808  22694448.720    92929998.61648
  23920157.280   125701271.23907  23920156.480    97949039.61544
  23644733.040   124253915.94107  23644733.080    96821230.48445
  20560613.180   108046807.22509  20560613.560    84192342.91749
 15 02 12 06 45 30.0000000  0 10G01G03G04G11G14G17G19G23G28G32
  20600631.760   108257070.63209  20600634.880    84356184.71349
  20804888.840   109330471.90509  20804891.460    85192605.10849
  20729486.360   108934219.37109  20729487.260    84883841.17248
  20165684.160   105971411.03809  20165683.340    82575161.43549
  23908143.000   125638127.94406  23908143.760    97899845.96844
  24418466.520   128319913.47906  24418465.660    99989533.07745
  22712356.340   119354247.55108  22712355.220    93003322.25148
  23900484.440   125597889.28607  23900483.420    97868482.22845
  23648265.800   124272481.18307  23648265.980    96835696.87345
  20569765.960   108094905.65809  20569766.380    84229822.18149
 15 02 12 06 46  0.0000000  0 10G01G03G04G11G14G17G19G23G28G32
  20596945.020   108237696.49109  20596948.100    84341087.94749
  20797990.520   109294220.88809  20797993.220    85164357.54449
  20735898.340   108967914.64809  20735899.260    84910097.18748
  20168400.120   105985683.46709  20168399.360    82586282.77749
  23921412.280   125707858.96706  23921413.160    97954181.74644
  24399487.860   128220179.63407  24399487.160    99911818.36545
  22730312.940   119448609.88108  22730311.820    93076851.25848
  23880825.300   125494579.28307  23880824.020    97787980.89845
  23651884.500   124291495.75907  23651884.140    96850513.38144
  20578984.240   108143348.03309  20578984.720    84267569.44749
 15 02 12 06 46 30.0000000  0 10G01G03G04G11G14G17G19G23G28G32
  20593304.240   108218563.79509  20593307.260    84326179.32249
  20791161.420   109258333.45509  20791164.080    85136393.29249
  20742364.360   109001893.87509  20742365.260    84936574.46448
  20171197.900   106000385.89809  20171197.180    82597739.17849
  23934756.840   125777984.15506  23934757.500    98008824.61243
  24380537.260   128120592.99707  24380536.720    99834218.36945
  22748319.860   119543236.61908  22748318.680    93150586.30047
  23861180.920   125391346.55207  23861179.260    97707539.78344
  23655588.620   124310961.02506  23655587.920    96865681.08244
  20588268.160   108192135.04709  20588268.700    84305585.26949
 15 02 12 06 47  0.0000000  0 10G01G03G04G11G14G17G19G23G28G32
  20589709.480   108199672.69909  20589712.460    84311458.95349
  20784401.320   109222808.62709  20784403.920    85108711.58749
  20748884.280   109036156.47809  20748885.200    84963272.54948
  20174077.440   106015517.87709  20174076.720    82609530.29649
  23948176.120   125848500.99506  23948176.640    98063772.71344
  24361615.020   128021154.98207  24361614.520    99756734.17946
  22766376.640   119638125.13908  22766375.360    93224525.32547
  23841551.580   125288193.04607  23841549.620    97627160.40545
  23659377.760   124330875.13406  23659377.260    96881198.52544
  20597617.160   108241263.94809  20597617.740    84343867.49549
 15 02 12 06 47 30.0000000  0 10G01G03G04G11G14G17G19G23G28G32
  20586160.540   108181022.78109  20586163.560    84296926.52249
  20777709.800   109187644.78609  20777712.500    85081311.17749
  20755457.960   109070701.32109  20755458.920    84990190.56348
  20177038.560   106031078.60809  20177037.840    82621655.50649
  23961669.000   125919405.82706  23961669.860    98119023.15244
  24342721.180   127921866.60807  24342720.840    99679366.60745
  22784482.640   119733272.11508  22784481.220    93298665.75847
  23821937.660   125185120.09508  23821935.360    97546843.78745
  23663252.060   124351234.75507  23663251.540    96897063.13944
  20607030.520   108290731.27309  20607031.120    84382413.43049
 15 02 12 06 48  0.0000000  0 10G01G03G04G11G14G17G19G23G28G32
  20582658.380   108162619.00809  20582661.440    84282585.88749
  20771087.680   109152845.76509  20771090.520    85054195.04149
  20762086.300   109105532.78609  20762087.200    85017331.92248
  20180082.120   106047072.52609  20180081.400    82634118.25849
  23975235.900   125990700.79605  23975237.240    98174577.56144
  24323857.100   127822734.44907  24323856.920    99602120.75045
  22802638.140   119828679.69408  22802636.700    93373009.24247
  23802340.260   125082134.16607  23802337.660    97466594.98945
  23667211.960   124372042.83007  23667211.220    96913277.17944
  20616508.580   108340539.00909  20616509.220    84421224.62049
 15 02 12 06 48 30.0000000  0 10G01G03G04G11G14G17G19G23G28G32
  20579202.780   108144459.67609  20579205.740    84268435.72449
  20764534.540   109118408.68209  20764537.400    85027360.92349
  20768768.680   109140648.41509  20768769.580    85044694.70548
  20183207.720   106063497.40509  20183207.040    82646916.83449
  23988875.980   126062380.46305  23988877.480    98230431.74843
  24305022.680   127723758.95407  24305022.800    99524996.97845
  22820842.320   119924343.44208  22820840.880    93447552.35247
  23782759.340   124979235.19607  23782756.680    97386413.94845
  23671256.000   124393295.44106  23671255.500    96929837.61244
  20626050.540   108390682.45009  20626051.200    84460297.39449
 15 02 12 06 49  0.0000000  0 10G01G03G04G11G14G17G19G23G28G32
  20575794.080   108126546.56609  20575796.960    84254477.42149
  20758050.500   109084334.06509  20758053.220    85000809.25149
  20775505.280   109176049.30309  20775506.260    85072279.76548
  20186415.540   106080354.62809  20186414.980    82660052.29649
  24002589.080   126134444.05406  24002590.620    98286585.08543
  24286218.600   127624943.37206  24286219.120    99447997.78246
  22839095.080   120020262.23808  22839093.640    93522294.20447
  23763195.300   124876426.37607  23763193.020    97306303.15545
  23675384.260   124414991.65906  23675384.180    96946743.69145
  20635656.200   108441160.37409  20635656.840    84499630.80049
 15 02 12 06 49 30.0000000  0 10G01G03G04G11G14G17G19G23G28G32
  20572431.800   108108877.31009  20572434.680    84240709.13749
  20751634.700   109050618.41209  20751637.300    84974537.29549
  20782295.500   109211732.16109  20782296.480    85100084.54248
  20189705.060   106097641.19609  20189704.520    82673522.30849
  24016374.380   126206886.27406  24016375.920    98343033.44944
  24267444.620   127526286.67606  24267445.680    99371122.41046
  22857395.400   120116430.80608  22857394.000    93597230.67747
  23743648.220   124773707.19107  23743646.540    97226262.19545
  23679596.600   124437127.16407  23679596.640    96963992.08745
  20645324.540   108491967.49909  20645325.200    84539220.73149
 15 02 12 06 50  0.0000000  0 10G01G03G04G11G14G17G19G23G28G32
  20569116.360   108091454.20609  20569119.260    84227132.66049
  20745287.300   109017262.73109  20745289.920    84948545.83749
  20789139.740   109247698.67209  20789140.680    85128110.35048
  20193076.640   106115358.81909  20193076.100    82687328.20749
  24030231.660   126279706.11505  24030233.180    98399776.07244
  24248701.600   127427792.75306  24248703.140    99294373.86146
  22875743.120   120212848.65708  22875741.840    93672361.39047
  23724118.940   124671081.47407  23724117.900    97146294.08145
  23683892.900   124459701.37007  23683892.820    96981582.34045
  20655055.380   108543103.01209  20655056.080    84579066.55249
 15 02 12 06 50 30.0000000  0 10G01G03G04G11G14G17G19G23G28G32
  20565848.080   108074279.03409  20565851.040    84213749.37449
  20739008.500   108984267.56109  20739011.220    84922835.30349
  20796038.180   109283949.71709  20796038.940    85156357.87948
  20196530.500   106133509.01009  20196530.040    82701471.17649
  24044160.580   126352902.15105  24044162.140    98456811.83643
  24229990.320   127329465.17406  24229992.120    99217754.92646
  22894138.100   120309514.62508  22894136.960    93747685.43947
  23704608.080   124568552.57107  23704607.640    97066401.41545
  23688272.300   124482713.55607  23688272.120    96999513.88545
  20664848.480   108594565.67409  20664849.200    84619167.29349
 15 02 12 06 51  0.0000000  0 10G01G03G04G11G14G17G19G23G28G32
  20562626.760   108057351.03609  20562629.820    84200558.69349
  20732798.020   108951630.96709  20732800.760    84897404.17249
  20802990.480   109320484.02409  20802991.200    85184826.12348
  20200066.440   106152090.30309  20200065.960    82715950.06949
  24058160.500   126426470.84505  24058162.080    98514137.98044
  24211311.000   127231304.90906  24211312.820    99141266.37046
  22912579.540   120406425.17508  22912578.520    93823200.06347
  23685115.920   124466121.36807  23685115.980    96986584.84045
  23692734.260   124506160.71007  23692733.920    97017784.34644
  20674703.100   108646351.70209  20674703.800    84659520.00849
 15 02 12 06 51 30.0000000  0 10G01G03G04G11G14G17G19G23G28G32
  20559452.920   108040672.72509  20559456.080    84187562.58349
  20726656.020   108919354.16809  20726658.780    84872253.39949
  20809996.880   109357303.02509  20809997.720    85213516.21148
  20203684.760   106171104.34609  20203684.260    82730766.17149
  24072231.100   126500411.50605  24072232.420    98571753.96744
  24192664.360   127133315.95207  24192666.140    99064911.31545
  22931067.400   120503579.86608  22931066.440    93898904.92347
  23665643.160   124363792.01107  23665643.660    96906847.66745
  23697279.160   124530042.61507  23697278.280    97036393.59245
  20684619.120   108698460.66509  20684619.800    84700124.35849
 15 02 12 06 52  0.0000000  0 10G01G03G04G11G14G17G19G23G28G32
  20556326.960   108024245.88409  20556330.240    84174762.41449
  20720582.560   108887437.65309  20720585.300    84847383.36749
  20817057.700   109394408.05809  20817058.700    85242429.16448
  20207385.700   106190552.74809  20207385.200    82745920.73849
  24086371.980   126574722.67105  24086373.200    98629658.68545
  24174051.140   127035501.71407  24174052.580    98988692.39945
  22949601.520   120600977.47108  22949600.540    93974799.07647
  23646190.500   124261567.90907  23646191.140    96827192.48946
  23701906.380   124554358.68406  23701905.360    97055341.14145
  20694596.320   108750891.27109  20694597.000    84740979.33849
 15 02 12 06 52 30.0000000  0 10G01G03G04G11G14G17G19G23G28G32
  20553248.760   108008069.55009  20553252.040    84162157.44749
  20714577.260   108855879.21509  20714579.880    84822792.35649
  20824172.660   109431797.29409  20824173.760    85271563.58448
  20211168.980   106210433.79609  20211168.480    82761412.42049
  24100582.720   126649400.50105  24100583.800    98687849.08343
  24155471.360   126937862.69007  24155472.340    98912610.00046
  22968181.060   120698614.28808  22968180.260    94050879.61147
  23626757.920   124159449.59207  23626758.580    96747619.76245
  23706615.080   124579105.35806  23706614.600    97074624.20245
  20704633.980   108803639.58509  20704634.640    84782081.87849
 15 02 12 06 53  0.0000000  0 10G01G03G04G11G14G17G19G23G28G32
  20550218.120   107992143.09009  20550221.380    84149747.18649
  20708639.680   108824676.92209  20708642.280    84798478.86049
  20831341.440   109469469.25909  20831342.500    85300918.31148
  20215034.340   106230746.19209  20215033.820    82777240.22349
  24114862.660   126724441.08605  24114863.300    98746322.13144
  24136925.240   126840400.07007  24136925.660    98836665.06845
  22986805.620   120796486.73808  22986804.780    94127143.78047
  23607345.800   124057438.37607  23607346.420    96668130.48745
  23711405.260   124604279.56607  23711405.240    97094240.39645
  20714731.460   108856701.92709  20714732.020    84823429.11949
 15 02 12 06 53 30.0000000  0 10G01G03G04G11G14G17G19G23G28G32
  20547235.500   107976468.91709  20547238.660    84137533.51049
  20702770.000   108793831.90009  20702772.720    84774443.75449
  20838564.380   109507425.59109  20838565.360    85330494.62148
  20218982.160   106251491.74509  20218981.580    82793405.55449
  24129211.460   126799843.79005  24129212.040    98805077.34243
  24118413.380   126743117.99407  24118413.360    98760860.81946
  23005475.040   120894594.04308  23005474.080    94203590.94347
  23587954.820   123955537.95207  23587955.160    96588727.54245
  23716277.160   124629880.85607  23716277.060    97114189.42545
  20724888.600   108910077.73509  20724889.040    84865020.61249
 15 02 12 06 54  0.0000000  0 10G01G03G04G11G14G17G19G23G28G32
  20544301.540   107961050.55409  20544304.620    84125519.16249
  20696968.720   108763346.32209  20696971.540    84750688.73849
  20845841.920   109545669.04409  20845842.880    85360294.65248
  20223013.020   106272673.74709  20223012.420    82809910.97349
  24143629.120   126875608.82805  24143629.980    98864114.97343
  24099936.640   126646021.46007  24099936.360    98685201.15345
  23024189.300   120992937.10308  23024188.280    94280221.80847
  23568585.880   123853753.29007  23568586.000    96509414.80546
  23721230.580   124655910.25306  23721230.160    97134472.00844
  20735105.460   108963767.37409  20735105.860    84906856.65349
 15 02 12 06 54 30.0000000  0 10G01G03G04G11G14G17G19G23G28G32
  20541415.840   107945885.92409  20541418.980    84113702.53549
  20691235.160   108733216.81309  20691238.080    84727211.17749
  20853173.560   109584196.71209  20853174.520    85390316.16148
  20227126.300   106294289.03009  20227125.720    82826754.01049
  24158114.800   126951730.96505  24158116.120    98923430.78444
  24081494.940   126549109.68607  24081494.540    98609685.46446
  23042947.480   121091510.77508  23042946.340    94357032.38647
  23549239.000   123752084.10307  23549238.880    96430192.04346
  23726264.460   124682363.13206  23726264.140    97155084.58445
  20745381.040   109017765.86609  20745381.540    84948933.36249
 15 02 12 06 55  0.0000000  0 10G01G03G04G11G14G17G19G23G28G32
  20538578.660   107930976.33209  20538581.840    84102084.63849
  20685569.400   108703443.36609  20685572.380    84704011.06349
  20860559.440   109623009.20309  20860560.360    85420559.61348
  20231322.140   106316338.17909  20231321.580    82843935.12849
  24172668.220   127028208.49805  24172669.780    98983023.56242
  24063089.020   126452386.18907  24063088.400    98534316.46145
  23061749.160   121190313.30608  23061748.000    94434021.29347
  23529914.740   123650533.43107  23529914.420    96351061.63945
  23731378.420   124709238.00306  23731378.380    97176025.97745
  20755715.000   109072071.46309  20755715.660    84991249.37349
 15 02 12 06 55 30.0000000  0 10G01G03G04G11G14G17G19G23G28G32
  20535790.420   107916323.95309  20535793.600    84090667.17249
  20679971.660   108674026.78109  20679974.580    84681089.02649
  20867999.700   109662107.78609  20868000.680    85451025.99348
  20235600.840   106338822.72609  20235600.220    82861455.51749
  24187288.940   127105040.15905  24187290.540    99042892.27644
  24044719.560   126355854.59507  24044718.860    98459097.01446
  23080594.140   121289343.97608  23080593.100    94511187.95547
  23510613.780   123549104.93208  23510613.340    96272026.43745
  23736572.880   124736534.38907  23736572.880    97197295.81645
  20766107.280   109126683.29009  20766108.040    85033804.00149
 15 02 12 06 56  0.0000000  0 10G01G03G04G11G14G17G19G23G28G32
  20533051.080   107901928.89009  20533054.300    84079450.21049
  20674441.660   108644965.82309  20674444.420    84658444.10349
  20875494.260   109701491.91509  20875495.380    85481714.87149
  20239962.260   106361742.41309  20239961.720    82879314.97949
  24201976.520   127182223.25304  24201977.740    99103034.80444
  24026386.900   126259516.38207  24026386.320    98384028.24046
  23099481.940   121388600.16108  23099480.980    94588530.35147
  23491336.420   123447800.20808  23491335.820    96193087.66645
  23741847.400   124764249.83007  23741847.160    97218892.20445
  20776557.280   109181598.37909  20776558.060    85076594.93748
 15 02 12 06 56 30.0000000  0  9G01G03G04G11G17G19G23G28G32
  20530361.040   107887792.57709  20530364.280    84068434.86449
  20668979.360   108616260.53109  20668981.980    84636076.32449
  20883043.280   109741162.04409  20883044.440    85512626.60248
  20244406.560   106385097.40909  20244406.080    82897513.63649
  24008091.680   126163374.96107  24008091.200    98309112.79645
  23118412.300   121488080.05008  23118411.480    94666047.05147
  23472083.140   123346622.54308  23472082.480    96114247.91545
  23747201.260   124792382.98007  23747200.800    97240814.08845
  20787064.740   109236815.23309  20787065.480    85119621.01048
 15 02 12 06 57  0.0000000  0 10G01G03G04G11G14G17G19G23G28G32
  20527720.540   107873916.20309  20527723.740    84057622.07349
  20663584.620   108587910.75709  20663587.220    84613985.56949
  20890646.780   109781118.74609  20890647.960    85543761.64148
  20248933.820   106408888.48909  20248933.400    82916052.10349
  24231550.980   127337653.04004  24231551.540    99224149.64245
  23989834.400   126067432.99307  23989834.160    98234352.78246
  23137384.860   121587781.54408  23137384.220    94743736.43747
  23452854.460   123245574.51408  23452853.720    96035509.17145
  23752633.920   124820932.07107  23752633.440    97263060.06645
  20797629.300   109292332.03409  20797629.960    85162880.81248
 15 02 12 06 57 30.0000000  0  9G01G03G04G11G17G19G23G28G32
  20525129.500   107860299.52909  20525132.580    84047011.64949
  20658257.240   108559914.84709  20658259.800    84592170.55249
  20898304.560   109821360.73009  20898305.740    85575118.98448
  20253543.940   106433114.93109  20253543.540    82934929.81949
  23971615.380   125971691.87507  23971615.480    98159749.26846
  23156399.120   121687701.96308  23156398.620    94821596.40447
  23433650.620   123144657.38308  23433649.780    95956872.43746
  23758145.100   124849894.38807  23758144.700    97285628.04545
  20808250.320   109348145.41109  20808250.900    85206371.71248
 15 02 12 06 58  0.0000000  0 10G01G03G04G11G14G17G19G23G28G32
  20522588.020   107846943.73009  20522591.000    84036604.50449
  20652997.180   108532272.61709  20652999.740    84570631.12149
  20906016.740   109861888.60109  20906017.920    85606699.08948
  20258237.060   106457777.39509  20258236.720    82954147.28749
  24261386.840   127494446.28504  24261388.540    99346326.88143
  23953435.300   125876154.88907  23953435.660    98085304.81446
  23175454.780   121787839.81208  23175454.280    94899625.80647
  23414472.140   123043873.95108  23414471.280    95878339.89146
  23763734.780   124879268.59107  23763734.420    97308516.95944
  20818927.460   109404253.52009  20818928.000    85250092.27949
 15 02 12 06 58 30.0000000  0 10G01G03G04G11G14G17G19G23G28G32
  20520095.980   107833847.66409  20520098.920    84026399.73949
  20647803.880   108504981.48109  20647806.540    84549365.27849
  20913782.900   109902700.11609  20913784.180    85638500.21848
  20263012.740   106482873.44509  20263012.420    82973702.61649
  24276401.740   127573349.65004  24276403.760    99407809.91344
  23935294.140   125780822.07107  23935294.780    98011019.44246
  23194550.900   121888190.37708  23194550.420    94977820.96147
  23395319.120   122943224.78808  23395318.280    95799911.95946
  23769402.000   124909050.55006  23769401.800    97331723.64645
  20829659.860   109460652.19209  20829660.440    85294039.25848
 15 02 12 06 59  0.0000000  0  9G01G03G04G11G17G19G23G28G32
  20517654.060   107821015.04909  20517657.000    84016400.27449
  20642677.700   108478043.79109  20642680.580    84528374.85649
  20921603.620   109943798.24009  20921604.980    85670524.66948
  20267871.480   106508406.08309  20267871.200    82993598.13949
  23917192.980   125685698.87707  23917193.780    97936897.41646
  23213687.680   121988754.32408  23213687.180    95056182.37747
  23376192.600   122842715.06907  23376191.820    95721592.68346
  23775146.960   124939241.08706  23775147.080    97355248.70644
  20840447.640   109517342.20309  20840448.320    85338213.24848
 15 02 12 06 59 30.0000000  0  9G01G03G04G11G17G19G23G28G32
  20515261.820   107808443.83509  20515264.780    84006604.48849
  20637618.140   108451456.02609  20637621.140    84507657.09449
  20929478.460   109985180.31209  20929479.800    85702770.39448
  20272812.720   106534372.36209  20272812.460    83013831.56849
  23899131.720   125590784.86707  23899132.420    97862938.40046
  23232864.160   122089526.81807  23232863.580    95134706.28747
  23357092.600   122742344.31208  23357091.760    95643381.69846
  23780968.940   124969835.26707  23780969.080    97379088.23545
  20851289.820   109574318.40409  20851290.640    85382610.24248
 15 02 12 07 00  0.0000000  0  9G01G03G04G11G17G19G23G28G32
  20512920.240   107796138.98509  20512923.360    83997016.25849
  20632625.980   108425221.76709  20632628.900    84487214.79049
  20937408.080   110026850.21109  20937409.380    85735240.39848
  20277837.300   106560776.64809  20277837.040    83034406.29149
  23881111.480   125496086.46607  23881112.040    97789147.40546
  23252080.620   122190509.86307  23252079.960    95213394.26246
  23338020.300   122642118.97508  23338019.400    95565284.03446
  23786868.360   125000835.15007  23786868.460    97403243.91445
  20862186.860   109631582.77809  20862187.740    85427231.78348
 15 02 12 07 00 30.0000000  0  9G01G03G04G11G17G19G23G28G32
  20510629.320   107784100.32709  20510632.600    83987635.45149
  20627700.800   108399339.36709  20627703.560    84467046.66149
  20945392.260   110068806.87109  20945393.500    85767933.84248
  20282945.060   106587617.96809  20282944.820    83055321.57149
  23863132.500   125401605.37407  23863132.760    97715525.75546
  23271336.540   122291699.84408  23271335.820    95292243.49247
  23318975.980   122542040.51108  23318975.060    95487300.82646
  23792844.360   125032237.79907  23792844.240    97427713.46845
  20873138.140   109689132.11109  20873139.000    85472075.37648
 15 02 12 07 01  0.0000000  0  9G01G03G04G11G17G19G23G28G32
  20508389.260   107772328.81109  20508392.580    83978462.80249
  20622842.360   108373808.28709  20622845.080    84447152.28749
  20953431.060   110111050.61409  20953432.300    85800850.99348
  20288136.020   106614896.53409  20288135.780    83076577.55049
  23845195.300   125307344.39707  23845195.160    97642075.59846
  23290631.520   122393094.97508  23290630.840    95371252.59047
  23299960.060   122442111.50508  23299959.180    95409434.05646
  23798896.500   125064041.30507  23798896.120    97452495.32744
  20884143.260   109746964.32309  20884144.100    85517139.38848
 15 02 12 07 01 30.0000000  0 10G01G03G04G11G14G17G19G23G28G32
  20506200.580   107760827.55909  20506203.940    83969500.75349
  20618051.060   108348630.27709  20618053.820    84427533.04049
  20961524.920   110153583.67809  20961526.180    85833993.58748
