     2.11           OBSERVATION DATA    G                   RINEX VERSION / TYPE
SPIDER V4,0,0,3554                      2015 03 12 02:02    PGM / RUN BY / DATE 
EMHD                                                        MARKER NAME         
EMHD                                                        MARKER NUMBER       
                                                            OBSERVER / AGENCY   
462397              LEICA GRX1200PRO    8.20/2.127          REC # / TYPE / VERS 
103297              LEIAT504                                ANT # / TYPE        
  5146535.6892   265261.6083  3747697.6292                  APPROX POSITION XYZ 
        0.0470        0.0000        0.0000                  ANTENNA: DELTA H/E/N
     1     1                                                WAVELENGTH FACT L1/2
     4    C1    L1    P2    L2                              # / TYPES OF OBSERV 
    30.000                                                  INTERVAL            
  2015    02    12    00    00    0.0000000     GPS         TIME OF FIRST OBS   
  2015    02    12    23    59   30.0000000     GPS         TIME OF LAST OBS    
    16                                                      LEAP SECONDS        
    30                                                      # OF SATELLITES     
   G 1   804   804   803   803                              PRN / # OF OBS      
   G 2   922   922   922   922                              PRN / # OF OBS      
   G 3   822   822   822   822                              PRN / # OF OBS      
   G 4   832   832   832   832                              PRN / # OF OBS      
   G 5   663   663   663   663                              PRN / # OF OBS      
   G 6   760   760   760   760                              PRN / # OF OBS      
   G 7   647   647   647   647                              PRN / # OF OBS      
   G 9   765   765   765   765                              PRN / # OF OBS      
   G10   748   748   748   748                              PRN / # OF OBS      
   G11   775   775   775   775                              PRN / # OF OBS      
   G12   813   813   813   813                              PRN / # OF OBS      
   G13   792   792   792   792                              PRN / # OF OBS      
   G14   884   884   884   884                              PRN / # OF OBS      
   G15   717   717   717   717                              PRN / # OF OBS      
   G16   669   669   669   669                              PRN / # OF OBS      
   G17   933   933   933   933                              PRN / # OF OBS      
   G18   883   883   881   881                              PRN / # OF OBS      
   G19   766   766   766   766                              PRN / # OF OBS      
   G20   790   790   790   790                              PRN / # OF OBS      
   G21   670   670   670   670                              PRN / # OF OBS      
   G22   757   757   757   757                              PRN / # OF OBS      
   G23   733   733   733   733                              PRN / # OF OBS      
   G24   796   796   796   796                              PRN / # OF OBS      
   G25   833   833   833   833                              PRN / # OF OBS      
   G27   799   799   799   799                              PRN / # OF OBS      
   G28   865   865   864   864                              PRN / # OF OBS      
   G29   743   743   743   743                              PRN / # OF OBS      
   G30   673   673   673   673                              PRN / # OF OBS      
   G31   808   808   808   808                              PRN / # OF OBS      
   G32   744   744   744   744                              PRN / # OF OBS      
BIT 2 OF LLI FLAGS DATA COLLECTED UNDER A/S CONDITION       COMMENT             
SNR is mapped to RINEX snr flag value [2-9]                 COMMENT             
Lx:     = 25dBHz -> 1; 26-27dBHz -> 2; 28-31dBHz -> 3       COMMENT             
       32-35dBHz -> 4; 36-38dBHz -> 5; 39-41dBHz -> 6       COMMENT             
       42-44dBHz -> 7; 45-48dBHz -> 8; >=49dBHz -> 9        COMMENT             
                                                            END OF HEADER       
 15 02 12 00 00  0.0000000  0  5G16G21G25G29G31
  23517915.720   123587483.43105  23517913.920    96301934.08144
  21020328.260   110462573.73907  21020326.460    86074728.61549
  22964794.380   120680802.21605  22964796.940    94036993.51547
  22182998.540   116572438.17306  22182997.140    90835660.79647
  21160905.620   111201305.66807  21160904.020    86650358.10948
 15 02 12 00 00 30.0000000  0  5G16G21G25G29G31
  23501406.180   123500725.07405  23501404.360    96234330.18844
  21017079.140   110445499.58707  21017077.320    86061424.08348
  22979653.980   120758889.70005  22979656.700    94097840.85546
  22196395.620   116642840.55606  22196394.300    90890519.76747
  21169808.720   111248091.55908  21169807.080    86686814.62648
 15 02 12 00 01  0.0000000  0  5G16G21G25G29G31
  23484904.400   123414006.79405  23484902.420    96166757.50244
  21013918.140   110428888.41007  21013916.280    86048480.31948
  22994558.520   120837212.83505  22994561.040    94158871.84347
  22209807.680   116713321.49907  22209806.420    90945439.95747
  21178806.480   111295374.92808  21178804.840    86723658.79248
 15 02 12 00 01 30.0000000  0  6G16G21G25G27G29G31
  23468413.420   123327346.03005  23468411.500    96099229.67345
  21010848.140   110412755.67407  21010846.320    86035909.36449
  23009510.780   120915786.91305  23009513.100    94220098.35446
  24461177.000   128544353.06404  24461179.680   100164444.41945
  22223237.500   116783895.49507  22223236.240    91000432.66447
  21187901.540   111343169.88307  21187899.960    86760901.59748
 15 02 12 00 02  0.0000000  0  6G16G21G25G27G29G31
  23451928.180   123240715.52205  23451926.200    96031725.35345
  21007863.920   110397073.40307  21007862.100    86023689.42549
  23024505.300   120994583.55605  23024507.520    94281498.31346
  24446187.180   128465582.53904  24446189.060   100103056.58745
  22236679.700   116854534.69906  22236678.480    91055476.18747
  21197088.380   111391447.18208  21197086.820    86798520.25748
 15 02 12 00 02 30.0000000  0  6G16G21G25G27G29G31
  23435453.140   123154138.26405  23435451.080    95964262.55846
  21004969.560   110381863.28907  21004967.700    86011837.39449
  23039546.180   121073623.56905  23039548.280    94343087.92846
  24431220.200   128386931.24804  24431222.860   100041770.02845
  22250138.020   116925258.66906  22250136.840    91110585.77447
  21206370.740   111440226.17108  21206369.140    86836529.84148
 15 02 12 00 03  0.0000000  0  6G16G21G25G27G29G31
  23418987.440   123067610.60505  23418985.520    95896838.44546
  21002164.260   110367121.15407  21002162.340    86000350.02049
  23054632.360   121152901.57605  23054634.360    94404862.97146
  24416275.700   128308397.47804  24416278.540    99980575.00645
  22263611.340   116996061.79806  22263610.260    91165757.03147
  21215747.360   111489500.38907  21215745.740    86874925.31348
 15 02 12 00 03 30.0000000  0  6G16G21G25G27G29G31
  23402530.860   122981130.70605  23402529.120    95829451.51045
  20999446.920   110352841.45907  20999444.960    85989222.99449
  23069763.100   121232413.49905  23069765.080    94466820.28646
  24401352.800   128229977.87104  24401355.760    99919468.95246
  22277099.000   117066940.21106  22277097.960    91220986.95547
  21225217.220   111539264.62107  21225215.600    86913702.61948
 15 02 12 00 04  0.0000000  0  5G16G21G25G29G31
  23386083.660   122894700.00605  23386081.800    95762102.91445
  20996817.660   110339024.76207  20996815.720    85978456.74749
  23084938.140   121312158.58905  23084940.120    94528959.29846
  22290600.780   117137892.50706  22290599.740    91276274.43847
  21234779.980   111589517.26907  21234778.380    86952860.50848
 15 02 12 00 04 30.0000000  0  5G16G21G25G29G31
  23369647.300   122808326.72605  23369645.380    95694799.06045
  20994277.980   110325678.70607  20994276.040    85968057.23149
  23100158.740   121392143.71005  23100160.760    94591285.34446
  22304117.760   117208924.51906  22304116.720    91331624.04747
  21244436.680   111640263.60707  21244435.100    86992403.08848
 15 02 12 00 05  0.0000000  0  6G16G21G25G27G29G31
  23353220.760   122722004.46105  23353218.800    95627534.98345
  20991826.320   110312795.12507  20991824.360    85958018.08349
  23115423.380   121472360.43405  23115425.400    94653791.84946
  24356718.100   127995415.58504  24356719.900    99736695.88244
  22317648.460   117280028.41806  22317647.400    91387029.65847
  21254185.520   111691493.98407  21254183.940    87032322.84048
 15 02 12 00 05 30.0000000  0  7G16G18G21G25G27G29G31
  23336803.960   122635733.32605  23336802.060    95560310.72945
  24333771.160   127874832.83404  24333775.080    99642730.99946
  20989462.260   110300371.72207  20989460.280    85948337.52149
  23130731.840   121552806.67405  23130733.740    94716477.19746
  24341883.300   127917458.20804  24341885.260    99675949.99344
  22331192.360   117351201.70906  22331191.260    91442489.35548
  21264025.900   111743205.51407  21264024.320    87072617.52248
 15 02 12 00 06  0.0000000  0  7G16G18G21G25G27G29G31
  23320399.460   122549527.96205  23320397.560    95493137.75244
  24319235.980   127798450.08204  24319239.300    99583212.58544
  20987188.380   110288422.30707  20987186.420    85939026.30149
  23146086.460   121633494.99605  23146088.320    94779351.17246
  24327071.120   127839619.65304  24327072.800    99615294.13746
  22344751.740   117422456.41906  22344750.620    91498012.48547
  21273959.900   111795409.14707  21273958.360    87113295.65548
 15 02 12 00 06 30.0000000  0  7G16G18G21G25G27G29G31
  23304005.040   122463374.41105  23304002.980    95426005.12646
  24304695.560   127722036.91304  24304699.580    99523683.82844
  20985001.840   110276932.00407  20984999.900    85930072.82248
  23161484.140   121714409.84305  23161486.160    94842401.67646
  24312281.280   127761898.89504  24312283.540    99554732.64044
  22358323.600   117493776.98506  22358322.500    91553586.93247
  21283984.480   111848088.51207  21283982.940    87154344.48948
 15 02 12 00 07  0.0000000  0  6G16G21G25G27G29G31
  23287622.500   122377283.43805  23287620.520    95358921.27545
  20982904.280   110265909.29907  20982902.340    85921483.70849
  23176926.320   121795559.76905  23176928.640    94905635.34246
  24297514.200   127684298.48004  24297516.820    99494264.91945
  22371909.460   117565171.43506  22371908.480    91609218.95447
  21294100.960   111901250.53007  21294099.360    87195769.41548
 15 02 12 00 07 30.0000000  0  6G16G18G21G25G29G31
  23271251.240   122291251.77806  23271249.240    95291883.65544
  24275604.300   127569163.38304  24275606.280    99404557.51243
  20980894.680   110255348.95907  20980892.740    85913254.87948
  23192412.260   121876939.32505  23192414.640    94969047.95445
  22385508.220   117636634.00306  22385507.380    91664904.05647
  21304308.000   111954888.62407  21304306.400    87237565.31448
 15 02 12 00 08  0.0000000  0  6G16G21G25G27G29G31
  23254891.680   122205281.68405  23254889.620    95224893.99246
  20978973.180   110245251.35507  20978971.180    85905386.62749
  23207942.020   121958548.74805  23207944.380    95032639.70046
  24268045.840   127529443.93304  24268049.960    99373604.05544
  22399119.940   117708164.76206  22399119.180    91720642.28647
  21314605.420   112009001.75507  21314603.840    87279731.36648
 15 02 12 00 08 30.0000000  0  7G16G18G21G25G27G29G31
  23238544.280   122119376.06405  23238542.420    95157954.58446
  24246503.660   127416234.45203  24246506.160    99285386.16243
  20977140.180   110235618.78307  20977138.140    85897880.73749
  23223515.680   122040388.62405  23223518.020    95096410.99546
  24253345.300   127452193.15404  24253349.220    99313408.76345
  22412744.780   117779764.19506  22412744.060    91776434.04547
  21324993.140   112063589.58207  21324991.580    87322267.31248
 15 02 12 00 09  0.0000000  0  7G16G18G21G25G27G29G31
  23222209.440   122033536.66705  23222207.840    95091066.77345
  24231949.740   127339756.04504  24231952.080    99225792.27044
  20975395.500   110226450.71707  20975393.500    85890736.79349
  23239133.220   122122459.15405  23239135.500    95160362.05146
  24238667.360   127375061.06504  24238671.380    99253305.94945
  22426382.720   117851432.33506  22426382.020    91832279.32647
  21335470.820   112118650.52707  21335469.360    87365171.92248
 15 02 12 00 09 30.0000000  0  6G16G18G21G25G29G31
  23205885.520   121947753.83405  23205883.920    95024223.05045
  24217393.560   127263262.49504  24217395.600    99166186.96644
  20973737.120   110217736.02607  20973735.140    85883946.13649
  23254792.320   122204748.47405  23254794.580    95224483.56045
  22440031.600   117923157.34906  22440030.840    91888168.95247
  21346036.180   112174171.71407  21346034.700    87408435.16048
 15 02 12 00 10  0.0000000  0  7G16G18G21G25G27G29G31
  23189576.420   121862048.77405  23189574.660    94957439.89946
  24202836.340   127186762.91504  24202840.360    99106586.41243
  20972168.620   110209493.71407  20972166.640    85877523.56649
  23270496.620   122287275.29005  23270498.960    95288790.12345
  24209378.060   127221137.99704  24209380.380    99133367.86845
  22453694.840   117994957.71906  22453694.060    91944117.27647
  21356692.460   112230170.47007  21356690.960    87452070.53048
 15 02 12 00 10 30.0000000  0  7G16G18G21G25G27G29G31
  23173279.980   121776410.29105  23173278.240    94890708.65846
  24188282.220   127110271.47004  24188283.360    99046982.95744
  20970687.600   110201711.12407  20970685.620    85871459.22349
  23286243.720   122370026.37905  23286246.040    95353271.46645
  24194766.680   127144355.03904  24194769.360    99073537.04945
  22467369.840   118066819.83506  22467369.080    92000113.69547
  21367436.840   112286632.28407  21367435.340    87496066.72848
 15 02 12 00 11  0.0000000  0  7G16G18G21G25G27G29G31
  23156996.420   121690839.87605  23156994.580    94824030.41945
  24173727.100   127033778.84604  24173727.640    98987378.45443
  20969293.900   110194387.70207  20969292.040    85865752.66849
  23302033.460   122453001.21805  23302035.700    95417927.15945
  24180177.100   127067686.75204  24180179.860    99013795.66645
  22481056.440   118138742.99606  22481055.640    92056157.69247
  21378268.960   112343555.27507  21378267.420    87540422.28548
 15 02 12 00 11 30.0000000  0  7G16G18G21G25G27G29G31
  23140727.180   121605344.88505  23140725.400    94757410.96645
  24159172.200   126957293.89304  24159173.580    98927780.21744
  20967988.660   110187528.83707  20967986.880    85860408.10949
  23317866.600   122536204.94605  23317868.920    95482761.20846
  24165610.500   126991139.20704  24165613.240    98954148.32046
  22494755.640   118210732.66206  22494754.900    92112253.49747
  21389189.580   112400943.34707  21389188.000    87585140.24148
 15 02 12 00 12  0.0000000  0  7G16G18G21G25G27G29G31
  23124472.000   121519924.04705  23124470.440    94690849.30046
  24144618.100   126880815.55404  24144620.480    98868186.87443
  20966771.340   110181131.59307  20966769.540    85855423.24449
  23333742.680   122619634.19405  23333744.980    95547770.97946
  24151066.340   126914709.67704  24151068.900    98894592.91645
  22508466.820   118282785.10506  22508466.040    92168398.24547
  21400197.780   112458791.94907  21400196.240    87630217.05548
 15 02 12 00 12 30.0000000  0  7G16G18G21G25G27G29G31
  23108231.320   121434578.78405  23108229.720    94624346.51545
  24130066.060   126804346.60604  24130068.520    98808601.04344
  20965641.780   110175195.41607  20965639.900    85850797.65949
  23349661.440   122703287.74005  23349663.600    95612955.51146
  24136544.480   126838397.73304  24136546.840    98835129.14844
  22522189.680   118354899.13206  22522188.900    92224590.96947
  21411293.120   112517098.33907  21411291.600    87675650.58548
 15 02 12 00 13  0.0000000  0  7G16G18G21G25G27G29G31
  23092005.040   121349309.26505  23092003.480    94557902.75246
  24115516.420   126727888.37604  24115518.900    98749023.41943
  20964599.700   110169719.04407  20964597.760    85846530.36049
  23365622.600   122787164.16005  23365624.800    95678313.73646
  24122045.060   126762202.78504  24122047.540    98775756.54945
  22535923.840   118427073.09806  22535923.100    92280830.40847
  21422474.980   112575859.69907  21422473.580    87721438.63748
 15 02 12 00 13 30.0000000  0  7G16G18G21G25G27G29G31
  23075793.920   121264118.87606  23075792.400    94491520.65745
  24100969.080   126651444.72004  24100971.400    98689456.92946
  20963645.300   110164703.34607  20963643.300    85842622.03549
  23381626.440   122871264.40005  23381628.700    95743846.35946
  24107568.080   126686126.43304  24107570.880    98716476.34045
  22549669.640   118499307.94806  22549668.880    92337117.27847
  21433743.400   112635075.63207  21433741.980    87767580.90548
 15 02 12 00 14  0.0000000  0  7G16G18G21G25G27G29G31
  23059597.660   121179007.22005  23059596.160    94425199.91146
  24086425.560   126575018.15404  24086427.900    98629903.97444
  20962778.200   110160146.45007  20962776.140    85839071.21549
  23397672.280   122955585.73205  23397674.660    95809551.26345
  24093113.320   126610166.89704  24093116.220    98657287.20245
  22563426.620   118571601.13206  22563425.820    92393449.61547
  21445097.600   112694742.24007  21445096.180    87814074.34148
 15 02 12 00 14 30.0000000  0  6G16G18G21G25G29G31
  23043416.340   121093974.09305  23043414.880    94358940.35046
  24071885.300   126498608.69804  24071887.260    98570364.69945
  20961997.800   110156045.21507  20961995.700    85835875.44549
  23413759.440   123040125.41105  23413762.160    95875426.31145
  22577194.180   118643949.67806  22577193.240    92449825.08947
  21456536.720   112754855.15307  21456535.320    87860915.54748
 15 02 12 00 15  0.0000000  0  7G16G18G21G25G27G29G31
  23027251.700   121009029.23605  23027250.480    94292749.57346
  24057350.120   126422226.57104  24057352.680    98510846.59744
  20961305.680   110152408.13207  20961303.600    85833041.36049
  23429889.720   123124891.13805  23429892.460    95941477.51245
  24064270.900   126458595.46004  24064274.080    98539179.69946
  22590973.680   118716361.06606  22590972.520    92506249.54346
  21468062.040   112815420.93207  21468060.680    87908109.63848
 15 02 12 00 15 30.0000000  0  7G16G18G21G25G27G29G31
  23011102.600   120924166.05705  23011101.520    94226622.42846
  24042818.900   126345866.31004  24042821.580    98451345.62144
  20960700.100   110149225.90007  20960698.020    85830561.70449
  23446061.460   123209873.93705  23446064.180    96007697.79746
  24049883.560   126382988.92404  24049886.540    98480265.56046
  22604763.560   118788826.78106  22604762.200    92562716.32147
  21479671.520   112876428.98507  21479670.200    87955648.36548
 15 02 12 00 16  0.0000000  0  7G16G18G21G25G27G29G31
  22994969.960   120839388.12005  22994968.740    94160561.70046
  24028292.520   126269532.74204  24028294.460    98391865.41243
  20960181.500   110146500.69707  20960179.400    85828438.17549
  23462274.780   123295074.93305  23462277.340    96074088.13346
  24035518.320   126307499.45404  24035521.060    98421442.67444
  22618563.880   118861347.81506  22618562.500    92619226.20847
  21491365.200   112937879.20807  21491363.820    88003531.63448
 15 02 12 00 16 30.0000000  0  7G16G18G21G25G27G29G31
  22978854.280   120754699.30006  22978852.920    94094570.43346
  24013772.000   126193230.90704  24013773.500    98332409.97745
  20959750.200   110144234.41307  20959748.120    85826672.24549
  23478529.860   123380495.95805  23478532.380    96140649.93946
  24021175.800   126232129.54404  24021178.600    98362712.95046
  22632375.180   118933926.21406  22632373.740    92675780.77647
  21503143.040   112999771.99107  21503141.600    88051759.75448
 15 02 12 00 17  0.0000000  0  7G16G18G21G25G27G29G31
  22962755.500   120670098.84906  22962753.920    94028648.03046
  23999258.160   126116959.67604  23999259.740    98272977.75945
  20959405.540   110142423.21007  20959403.480    85825260.92449
  23494826.120   123466133.42405  23494828.720    96207380.39645
  24006855.480   126156876.58704  24006858.340    98304074.37047
  22646196.600   119006558.40506  22646195.280    92732377.23547
  21515004.160   113062102.42907  21515002.680    88100328.90448
 15 02 12 00 17 30.0000000  0  7G16G18G21G25G27G29G31
  22946673.820   120585588.53306  22946671.940    93962795.84245
  23984750.820   126040723.74704  23984752.580    98213573.36645
  20959147.580   110141067.63707  20959145.580    85824204.63549
  23511163.620   123551987.27405  23511166.320    96274279.45146
  23992557.580   126081741.18304  23992560.580    98245527.40545
  22660028.200   119079244.00406  22660026.960    92789015.34847
  21526948.200   113124868.66207  21526946.720    88149237.63348
 15 02 12 00 18  0.0000000  0  7G16G18G21G25G27G29G31
  22930609.340   120501169.07406  22930607.380    93897014.44546
  23970250.480   125964524.31104  23970251.980    98154197.36745
  20958975.940   110140165.99307  20958974.000    85823502.06049
  23527542.040   123638055.81105  23527544.520    96341345.81145
  23978282.100   126006722.58004  23978285.040    98187071.41445
  22673869.740   119151982.19706  22673868.680    92845694.42347
  21538974.640   113188067.92807  21538973.220    88198483.79648
 15 02 12 00 18 30.0000000  0  7G16G18G21G25G27G29G31
  22914562.940   120416845.15306  22914561.060    93831307.51046
  23955758.160   125888367.65904  23955759.460    98094855.00745
  20958891.120   110139720.50307  20958889.200    85823154.92949
  23543961.660   123724341.05804  23543963.720    96408581.04145
  23964029.360   125931823.53704  23964032.140    98128708.59946
  22687721.580   119224774.48906  22687720.740    92902415.65447
  21551083.600   113251700.91107  21551082.180    88248067.92248
 15 02 12 00 19  0.0000000  0  7G16G18G21G25G27G29G31
  22898534.500   120332615.42405  22898532.680    93765673.95145
  23941273.840   125812253.06404  23941275.240    98035545.38845
  20958892.580   110139728.32807  20958890.600    85823161.03749
  23560421.720   123810839.33604  23560423.600    96475982.26246
  23949798.800   125857041.20504  23949801.480    98070436.73445
  22701583.160   119297617.27806  22701582.320    92959176.24147
  21563274.000   113315762.24707  21563272.680    88297985.82048
 15 02 12 00 19 30.0000000  0  7G16G18G21G25G27G29G31
  22882524.700   120248483.17306  22882522.920    93700116.39246
  23926798.240   125736184.45204  23926799.400    97976271.54144
  20958980.380   110140189.89607  20958978.420    85823520.70249
  23576922.640   123897551.49905  23576924.300    96543550.15245
  23935590.720   125782377.40104  23935593.260    98012257.22446
  22715454.620   119370511.73806  22715453.680    93015977.10447
  21575545.840   113380251.54907  21575544.580    88348237.20348
 15 02 12 00 20  0.0000000  0  7G16G18G21G25G27G29G31
  22866533.860   120164450.44506  22866532.100    93634636.36246
  23912331.900   125660164.52004  23912332.720    97917035.52144
  20959154.460   110141104.74807  20959152.520    85824233.57649
  23593464.160   123984477.08005  23593465.860    96611284.32645
  23921405.060   125707832.41404  23921407.540    97954170.30945
  22729335.920   119443457.72906  22729334.780    93072818.14846
  21587898.800   113445166.77807  21587897.540    88398820.47448
 15 02 12 00 20 30.0000000  0  7G16G18G21G25G27G29G31
  22850561.940   120080517.37606  22850560.160    93569233.99545
  23897875.240   125584194.75304  23897875.500    97857838.37845
  20959414.380   110142470.78907  20959412.480    85825298.02949
  23610045.860   124071613.60804  23610047.640    96679182.88146
  23907241.760   125633404.57404  23907244.180    97896174.65146
  22743226.400   119516452.72606  22743225.160    93129697.37246
  21600332.120   113510504.07407  21600330.840    88449732.63248
 15 02 12 00 21  0.0000000  0  7G16G18G21G25G27G29G31
  22834609.580   119996687.82006  22834607.920    93503912.28846
  23883429.100   125508280.65804  23883429.420    97798684.80345
  20959760.520   110144289.69907  20959758.600    85826715.36849
  23626667.740   124158962.70004  23626669.720    96747247.07146
  23893101.400   125559096.46204  23893103.680    97838272.28646
  22757126.540   119589498.65906  22757125.240    93186616.29246
  21612845.740   113576263.45207  21612844.460    88500973.68348
 15 02 12 00 21 30.0000000  0  7G16G18G21G25G27G29G31
  22818676.800   119912961.29506  22818675.360    93438670.85546
  23868993.620   125432422.23504  23868993.860    97739574.47143
  20960192.400   110146559.09307  20960190.420    85828483.73249
  23643329.420   124246521.28404  23643331.580    96815474.51045
  23878983.280   125484905.79204  23878985.620    97780461.45044
  22771035.740   119662592.71905  22771034.520    93243572.69046
  21625438.820   113642440.54507  21625437.580    88552540.22448
 15 02 12 00 22  0.0000000  0  7G16G18G21G25G27G29G31
  22802763.860   119829339.17206  22802762.700    93373510.77746
  23854569.280   125356622.56204  23854569.480    97680510.48741
  20960709.740   110149277.80407  20960707.740    85830602.21649
  23660030.800   124334288.12704  23660033.100    96883864.18745
  23864887.560   125410832.21604  23864889.700    97722741.86245
  22784953.840   119735733.70305  22784952.900    93300565.63446
  21638110.880   113709032.50407  21638109.580    88604430.03848
 15 02 12 00 22 30.0000000  0  7G16G18G21G25G27G29G31
  22786871.140   119745822.29406  22786869.980    93308432.69646
  23840156.280   125280883.07404  23840156.900    97621493.56043
  20961312.220   110152444.16807  20961310.280    85833069.51249
  23676771.760   124422261.58004  23676774.040    96952414.89144
  23850814.060   125336875.11904  23850815.800    97665113.03146
  22798880.660   119808920.28205  22798879.960    93357594.08247
  21650861.320   113776036.33407  21650859.960    88656640.79148
 15 02 12 00 23  0.0000000  0  7G16G18G21G25G27G29G31
  22770999.660   119662416.69606  22770998.340    93243441.33146
  23825755.620   125205209.78804  23825756.540    97562527.79145
  20962000.640   110156061.80807  20961998.740    85835888.45749
  23693552.760   124510445.41604  23693554.840    97021129.53545
  23836763.480   125263038.87804  23836765.100    97607578.38246
  22812817.100   119882156.49506  22812816.440    93414661.23047
  21663690.440   113843454.07807  21663689.140    88709174.06748
 15 02 12 00 23 30.0000000  0  7G16G18G21G25G27G29G31
  22755149.240   119579122.15806  22755147.780    93178536.51146
  23811367.640   125129603.91304  23811368.620    97503614.35443
  20962774.460   110160127.89507  20962772.520    85839056.84249
  23710373.100   124598836.60504  23710374.980    97090005.79745
  23822735.520   125189321.47704  23822737.100    97550136.33145
  22826762.520   119955439.56006  22826761.860    93471764.89447
  21676597.520   113911281.19907  21676596.280    88762026.34848
 15 02 12 00 24  0.0000000  0  7G16G18G21G25G27G29G31
  22739319.700   119495937.54006  22739318.200    93113717.35346
  23796992.640   125054065.35904  23796993.600    97444753.33344
  20963632.740   110164638.25207  20963630.760    85842571.41049
  23727232.160   124687431.13304  23727233.960    97159040.41344
  23808729.440   125115719.73904  23808731.300    97492784.40746
  22840716.220   120028765.75506  22840715.560    93528902.15247
  21689581.540   113979512.28207  21689580.300    88815193.40248
 15 02 12 00 24 30.0000000  0  7G16G18G21G25G27G29G31
  22723512.000   119412867.72906  22723510.440    93048987.64046
  23782631.680   124978599.95704  23782632.500    97385949.33244
  20964576.260   110169596.64607  20964574.260    85846435.10249
  23744130.400   124776231.52604  23744132.080    97228235.47846
  23794746.020   125042237.15404  23794748.160    97435525.30645
  22854678.640   120102138.01306  22854677.940    93586075.31047
  21702642.580   114048148.50807  21702641.360    88868676.15348
 15 02 12 00 25  0.0000000  0  7G16G18G21G25G27G29G31
  22707725.960   119329911.87806  22707724.340    92984346.73646
  23768284.980   124903207.99904  23768285.460    97327202.54744
  20965604.260   110174998.77507  20965602.220    85850644.55349
  23761067.220   124865234.31404  23761068.900    97297588.25945
  23780784.820   124968871.08604  23780786.920    97378357.02145
  22868649.140   120175552.99806  22868648.400    93643281.77747
  21715779.700   114117184.76307  21715778.480    88922470.61048
 15 02 12 00 25 30.0000000  0  7G16G18G21G25G27G29G31
  22691962.400   119247074.09806  22691960.700    92919797.81846
  23753953.280   124827894.80404  23753953.640    97268517.15344
  20966717.080   110180846.72107  20966715.080    85855201.40449
  23778042.860   124954441.20604  23778044.680    97367100.08245
  23766846.280   124895624.26904  23766848.320    97321281.65846
  22882628.140   120249012.92306  22882627.300    93700523.26146
  21728993.080   114186621.52507  21728991.800    88976577.14848
 15 02 12 00 26  0.0000000  0  7G16G18G21G25G27G29G31
  22676221.380   119164354.29506  22676219.700    92855340.85446
  23739636.700   124752661.04704  23739637.020    97209893.65944
  20967914.240   110187137.73607  20967912.280    85860103.49849
  23795056.700   125043849.50704  23795058.580    97436768.82645
  23752930.180   124822494.76404  23752932.120    97264297.70246
  22896615.260   120322515.30406  22896614.240    93757797.83546
  21742281.860   114256454.14707  21742280.520    89030992.15548
 15 02 12 00 26 30.0000000  0  7G16G18G21G25G27G29G31
  22660503.620   119081756.62006  22660501.940    92790979.02946
  23725335.900   124677511.36804  23725336.140    97151335.58244
  20969195.880   110193872.87607  20969193.960    85865351.66549
  23812108.900   125133460.26104  23812110.860    97506595.31845
  23739036.800   124749484.64904  23739038.640    97207406.75946
  22910610.540   120396061.32205  22910609.540    93815106.41745
  21755645.920   114326682.46207  21755644.600    89085715.48848
 15 02 12 00 27  0.0000000  0  7G16G18G21G25G27G29G31
  22644809.260   118999281.55506  22644807.560    92726712.76146
  23711051.320   124602447.58704  23711051.620    97092844.49044
  20970561.740   110201050.85507  20970559.860    85870944.90649
  23829199.360   125223271.56304  23829201.520    97576578.12246
  23725165.760   124676592.87904  23725167.840    97150608.05946
  22924613.880   120469649.86505  22924612.820    93872448.11846
  21769084.520   114397302.95007  21769083.320    89140744.41948
 15 02 12 00 27 30.0000000  0  7G16G18G21G25G27G29G31
  22629138.300   118916929.93106  22629136.640    92662542.67946
  23696783.720   124527471.57904  23696783.920    97034421.76441
  20972011.440   110208669.29307  20972009.520    85876881.35549
  23846327.720   125313281.51604  23846329.900    97646715.67645
  23711317.040   124603818.47904  23711319.500    97093900.80046
  22938624.880   120543279.19105  22938623.920    93929821.60946
  21782597.120   114468312.12907  21782595.920    89196076.21948
 15 02 12 00 28  0.0000000  0  7G16G18G21G25G27G29G31
  22613491.380   118834704.95906  22613489.800    92598471.29446
  23682533.440   124452586.85804  23682533.940    96976070.20445
  20973545.180   110216728.92807  20973543.160    85883161.60449
  23863493.940   125403490.53704  23863496.200    97717008.41244
  23697490.940   124531162.81804  23697493.780    97037286.05447
  22952643.880   120616950.09605  22952642.920    93987227.48046
  21796183.540   114539708.95107  21796182.240    89251710.07348
 15 02 12 00 28 30.0000000  0  7G16G18G21G25G27G29G31
  22597868.360   118752606.03406  22597866.760    92534498.13446
  23668300.940   124377794.31605  23668301.500    96917790.44644
  20975162.240   110225226.26807  20975160.160    85889782.91049
  23880697.540   125493895.36104  23880699.580    97787453.67244
  23683687.100   124458623.64605  23683690.100    96980762.08646
  22966670.380   120690659.91705  22966669.360    94044663.69546
  21809842.860   114611488.62807  21809841.460    89307642.26748
 15 02 12 00 29  0.0000000  0  7G16G18G21G25G27G29G31
  22582269.860   118670635.58306  22582268.140    92470625.05646
  23654086.600   124303097.05304  23654087.020    96859584.90645
  20976862.540   110234161.54607  20976860.540    85896745.46949
  23897938.200   125584495.68304  23897940.420    97858051.25846
  23669905.580   124386201.54304  23669908.560    96924329.33146
  22980704.300   120764408.36705  22980703.260    94102129.99647
  21823574.620   114683649.24607  21823573.200    89363871.29548
 15 02 12 00 29 30.0000000  0  7G16G18G21G25G27G29G31
  22566696.460   118588796.98806  22566694.700    92406854.74246
  23639891.420   124228499.62605  23639891.500    96801457.16544
  20978646.220   110243535.11607  20978644.280    85904049.55449
  23915215.940   125675292.09104  23915218.200    97928801.66344
  23656146.600   124313898.01404  23656149.600    96867988.98746
  22994745.880   120838196.84806  22994744.840    94159627.49746
  21837378.640   114756189.65607  21837377.180    89420396.26148
 15 02 12 00 30  0.0000000  0  7G16G18G21G25G27G29G31
  22551148.540   118507092.01906  22551146.760    92343188.55046
  23625715.460   124154004.34305  23625715.300    96743409.01344
  20980513.160   110253345.95207  20980511.180    85911694.36749
  23932530.780   125766283.67104  23932533.360    97999704.16045
  23642410.420   124241713.10805  23642413.240    96811741.06346
  23008794.940   120912025.05705  23008794.060    94217155.94947
  21851254.520   114829107.61907  21851252.980    89477215.42748
 15 02 12 00 30 30.0000000  0  7G16G18G21G25G27G29G31
  22535625.860   118425519.68306  22535624.060    92279625.71946
  23611558.940   124079611.04905  23611558.520    96685440.31344
  20982462.640   110263590.36207  20982460.580    85919677.03349
  23949882.280   125857466.53204  23949884.800    98070755.68944
  23628696.280   124169644.00605  23628698.800    96755583.36145
  23022850.820   120985889.28105  23022850.160    94274712.47546
  21865201.220   114902397.82007  21865199.640    89534324.64548
 15 02 12 00 31  0.0000000  0  7G16G18G21G25G27G29G31
  22520129.620   118344086.51806  22520127.880    92216171.30746
  23597423.020   124005327.61004  23597422.580    96627557.23144
  20984495.340   110274272.07107  20984493.200    85928000.45449
  23967270.880   125948844.65704  23967273.700    98141959.32244
  23615004.980   124097695.51305  23615007.500    96699519.68245
  23036914.360   121059793.95305  23036913.900    94332300.51346
  21879219.140   114976062.50807  21879217.580    89591725.67848
 15 02 12 00 31 30.0000000  0  7G16G18G21G25G27G29G31
  22504659.400   118262790.17406  22504657.700    92152823.53046
  23583307.660   123931152.06705  23583307.140    96569758.20745
  20986610.300   110285386.15307  20986608.160    85936660.78649
  23984695.880   126040412.66704  23984698.760    98213310.97444
  23601335.740   124025863.34005  23601338.280    96643546.62546
  23050984.680   121133734.12305  23050984.320    94389916.20146
  21893307.020   115050094.80107  21893305.500    89649413.15748
 15 02 12 00 32  0.0000000  0  7G16G18G21G25G27G29G31
  22489215.800   118181633.56006  22489214.160    92089584.60547
  23569213.700   123857088.27004  23569212.980    96512046.28845
  20988807.500   110296932.67207  20988805.460    85945658.06949
  24002157.060   126132170.61804  24002159.780    98284810.65144
  23587688.800   123954148.44705  23587691.120    96587664.93147
  23065062.020   121207710.54205  23065061.520    94447560.14347
  21907464.500   115124493.12307  21907463.060    89707385.84348
 15 02 12 00 32 30.0000000  0  7G16G18G21G25G27G29G31
  22473799.320   118100619.15606  22473797.640    92026456.51846
  23555141.400   123783138.88304  23555140.860    96454423.48346
  20991086.800   110308910.77907  20991084.900    85954991.66149
  24019654.300   126224117.89304  24019656.720    98356457.82745
  23574064.260   123882551.35805  23574066.680    96531875.04346
  23079146.300   121281723.27105  23079145.680    94505232.37746
  21921691.320   115199255.29107  21921689.800    89765642.04548
 15 02 12 00 33  0.0000000  0  7G16G18G21G25G27G29G31
  22458410.300   118019749.13206  22458408.620    91963440.92346
  23541091.780   123709308.26505  23541091.420    96396893.21543
  20993448.380   110321320.72907  20993446.460    85964661.75249
  24037187.480   126316254.49504  24037189.940    98428252.50646
  23560462.420   123811072.84104  23560464.640    96476177.56347
  23093237.480   121355772.45405  23093236.760    94562933.01847
  21935987.100   115274379.72007  21935985.520    89824180.53448
 15 02 12 00 33 30.0000000  0  7G16G18G21G25G27G29G31
  22443049.140   117939025.42006  22443047.420    91900539.34446
  23527065.160   123635598.73004  23527065.060    96339457.30245
  20995891.900   110334161.09007  20995889.860    85974667.23749
  24054756.420   126408579.14604  24054758.680    98500193.74445
  23546883.000   123739712.80405  23546885.120    96420572.36846
  23107335.440   121429857.66805  23107334.760    94620661.74746
  21950351.260   115349863.65907  21950349.640    89882999.16448
 15 02 12 00 34  0.0000000  0  7G16G18G21G25G27G29G31
  22427715.800   117858447.94906  22427714.100    91837751.72046
  23513061.680   123562010.66305  23513061.640    96282116.04645
  20998416.620   110347428.72307  20998414.520    85985005.65649
  24072360.540   126501088.78804  24072362.460    98572279.12845
  23533325.780   123668469.14305  23533328.020    96365057.86147
  23121439.780   121503976.34105  23121439.100    94678416.52647
  21964782.940   115425702.37607  21964781.320    89942094.23948
 15 02 12 00 34 30.0000000  0  7G16G18G21G25G27G29G31
  22412410.960   117778020.34306  22412409.260    91775080.87347
  23499082.220   123488548.67805  23499082.220    96224873.04944
  21001022.720   110361124.30207  21001020.700    85995677.53349
  24089999.820   126593784.06904  24090001.800    98644509.13145
  23519790.980   123597343.55405  23519793.380    96309635.39446
  23135550.680   121578129.67605  23135550.020    94736198.32547
  21979281.980   115501895.05907  21979280.400    90001465.13648
 15 02 12 00 35  0.0000000  0  7G16G18G21G25G27G29G31
  22397135.180   117697745.94506  22397133.480    91712529.39046
  23485127.680   123415217.04705  23485127.340    96167731.59145
  21003710.400   110375248.33407  21003708.460    86006683.27149
  24107674.520   126686665.77804  24107676.640    98716884.43945
  23506278.920   123526337.68805  23506280.920    96254306.18346
  23149668.380   121652319.22405  23149667.800    94794008.31746
  21993848.200   115578440.85207  21993846.600    90061111.18048
 15 02 12 00 35 30.0000000  0  7G16G18G21G25G27G29G31
  22381887.940   117617621.44506  22381886.260    91650094.71246
  23471197.440   123342013.29105  23471196.900    96110689.79645
  21006478.540   110389794.82107  21006476.640    86018018.20049
  24125383.600   126779727.51904  24125385.940    98789400.01045
  23492788.820   123455446.41605  23492790.440    96199066.28046
  23163792.020   121726539.24805  23163791.340    94851842.08647
  22008480.060   115655331.80307  22008478.500    90121026.17648
 15 02 12 00 36  0.0000000  0  7G16G18G21G25G27G29G31
  22366670.580   117537653.56206  22366668.840    91587782.08546
  23457292.860   123268944.89505  23457292.400    96053753.48646
  21009327.860   110404767.55007  21009325.900    86029685.26749
  24143127.860   126872973.16804  24143130.220    98862058.91245
  23479321.180   123384674.46505  23479322.960    96143919.35046
  23177922.280   121800793.71105  23177921.480    94909702.68246
  22023177.940   115732569.98307  22023176.440    90181211.74447
 15 02 12 00 36 30.0000000  0  7G16G18G21G25G27G29G31
  22351482.820   117457841.26606  22351481.080    91525590.69746
  23443413.900   123196010.99305  23443413.660    95996921.92345
  21012257.280   110420161.99807  21012255.280    86041680.94548
  24160906.140   126966398.38404  24160908.400    98934857.69844
  23465875.860   123314018.61105  23465877.560    96088862.87146
  23192058.400   121875079.27905  23192057.600    94967587.52546
  22037940.860   115810149.81707  22037939.440    90241663.53448
 15 02 12 00 37  0.0000000  0  7G16G18G21G25G27G29G31
  22336325.260   117378187.75306  22336323.440    91463523.02946
  23429561.520   123123216.41805  23429561.380    95940198.95444
  21015266.960   110435978.60107  21015265.000    86054005.56749
  24178718.500   127060003.73204  24178720.940    99007796.87945
  23452453.000   123243480.46405  23452454.700    96033898.14746
  23206200.720   121949397.39605  23206199.980    95025497.70846
  22052768.620   115888069.90107  22052767.240    90302380.44848
 15 02 12 00 37 30.0000000  0  7G16G18G21G25G27G29G31
  22321198.220   117298694.78706  22321196.420    91401580.46446
  23415736.200   123050563.61905  23415736.020    95883586.48944
  21018356.780   110452215.84007  21018354.820    86066657.96649
  24196564.960   127153787.97804  24196567.820    99080875.44444
  23439052.500   123173059.78305  23439054.200    95979024.92246
  23220349.080   122023747.02005  23220348.260    95083432.45746
  22067660.580   115966327.54007  22067659.240    90363360.39848
 15 02 12 00 38  0.0000000  0  7G16G18G21G25G27G29G31
  22306102.360   117219365.92006  22306100.640    91339765.76546
  23401938.800   122978056.88905  23401938.220    95827087.77846
  21021526.980   110468874.92807  21021524.980    86079639.08348
  24214445.820   127247751.64004  24214448.560    99154093.80345
  23425674.440   123102758.21105  23425676.140    95924244.52347
  23234503.660   122098129.48205  23234502.720    95141392.79546
  22082616.560   116044921.77907  22082615.280    90424602.63648
 15 02 12 00 38 30.0000000  0  7G16G18G21G25G27G29G31
  22291037.840   117140201.56406  22291036.200    91278079.25846
  23388169.160   122905696.87905  23388168.440    95770703.44244
  21024776.800   110485952.51707  21024774.780    86092946.30149
  24232360.340   127341891.82804  24232362.700    99227449.74443
  23412318.620   123032573.87505  23412320.340    95869555.47947
  23248664.120   122172542.89205  23248663.160    95199377.25446
  22097635.700   116123848.12407  22097634.520    90486103.65548
 15 02 12 00 39  0.0000000  0  7G16G18G21G25G27G29G31
  22276004.680   117061201.75406  22276003.020    91216520.96647
  23374427.380   122833484.43605  23374426.640    95714434.07445
  21028105.540   110503445.30507  21028103.560    86106577.04349
  24250307.800   127436205.75204  24250310.000    99300941.02944
  23398984.980   122962505.15305  23398986.620    95814956.51846
  23262829.960   122246985.00205  23262829.080    95257384.07847
  22112717.380   116203102.47507  22112716.140    90547860.25947
 15 02 12 00 39 30.0000000  0  7G16G18G21G25G27G29G31
  22261003.760   116982371.15907  22261002.080    91155094.54147
  23360714.860   122761425.37205  23360714.320    95658284.22545
  21031513.540   110521355.17807  21031511.660    86120532.78449
  24268288.420   127530695.03104  24268290.720    99374568.98644
  23385673.800   122892554.64305  23385675.600    95760449.67646
  23277001.680   122321458.24805  23277000.940    95315415.15446
  22127861.380   116282684.31707  22127860.040    90609872.04947
 15 02 12 00 40  0.0000000  0  7G16G18G21G25G27G29G31
  22246035.680   116903713.15207  22246033.940    91093802.59547
  23347032.300   122689523.90405  23347031.900    95602257.16944
  21035001.240   110539683.02907  21034999.260    86134814.23549
  24286302.520   127625360.14104  24286305.120    99448333.89444
  23372385.280   122822723.95005  23372387.280    95706036.19247
  23291179.540   122395963.61505  23291178.880    95373471.24847
  22143067.420   116362592.50407  22143066.020    90672138.13748
 15 02 12 00 40 30.0000000  0  7G16G18G21G25G27G29G31
  22231099.780   116825224.60207  22231098.060    91032642.70346
  23333379.340   122617777.14905  23333378.800    95546350.67444
  21038567.260   110558422.02007  21038565.140    86149416.06049
  24304349.000   127720194.65304  24304351.460    99522230.84845
  23359118.640   122753007.68505  23359120.420    95651711.87546
  23305362.440   122470495.36805  23305361.920    95431547.91246
  22158334.040   116442819.16607  22158332.720    90734652.38547
 15 02 12 00 41  0.0000000  0  7G16G18G21G25G27G29G31
  22216196.900   116746909.65406  22216195.200    90971618.08247
  23319756.800   122546190.24105  23319756.080    95490568.73445
  21042211.580   110577572.87007  21042209.440    86164338.79849
  24322428.200   127815199.71904  24322430.520    99596260.68444
  23345874.280   122683408.20605  23345876.020    95597478.56447
  23319550.800   122545055.47205  23319550.320    95489646.67246
  22173661.340   116523364.36807  22173660.020    90797414.85047
 15 02 12 00 41 30.0000000  0  7G16G18G21G25G27G29G31
  22201327.420   116668770.25406  22201325.700    90910730.24847
  23306165.220   122474765.59405  23306164.460    95434913.22644
  21045933.940   110597134.47607  21045931.900    86179581.60749
  24340539.640   127910374.37304  24340541.580    99670422.62341
  23332652.160   122613925.50705  23332654.000    95543336.25047
  23333744.480   122619644.01605  23333744.000    95547767.59546
  22189048.700   116604224.96307  22189047.300    90860423.07547
 15 02 12 00 42  0.0000000  0  7G16G18G21G25G27G29G31
  22186492.080   116590810.17406  22186490.380    90849982.14847
  23292605.360   122403507.73305  23292604.520    95379387.66545
  21049734.640   110617107.83107  21049732.740    86195145.25349
  24358683.300   128005719.07004  24358685.220    99744717.13744
  23319452.600   122544561.32505  23319454.440    95489286.29847
  23347943.760   122694262.01705  23347943.280    95605911.45946
  22204495.800   116685399.89007  22204494.440    90923676.23047
 15 02 12 00 42 30.0000000  0  7G16G18G21G25G27G29G31
  22171691.380   116513031.79707  22171689.640    90789375.63147
  23279077.900   122332419.98605  23279076.840    95323994.66944
  21053613.660   110637491.89007  21053611.680    86211028.94649
  24376858.960   128101233.04704  24376861.120    99819143.52945
  23306275.520   122475315.84905  23306277.280    95435328.83346
  23362148.720   122768909.59905  23362148.140    95664078.40446
  22220002.220   116766886.67407  22220000.920    90987172.39147
 15 02 12 00 43  0.0000000  0  7G16G18G21G25G27G29G31
  22156925.340   116435435.48907  22156923.520    90728910.99347
  23265582.980   122261503.30405  23265581.820    95268734.97945
  21057570.340   110658283.83207  21057568.160    86227230.47648
  24395066.260   128196913.54804  24395068.480    99893699.69644
  23293120.760   122406187.49105  23293122.540    95381462.62346
  23376358.920   122843584.55105  23376358.340    95722266.64647
  22235567.160   116848681.13107  22235565.960    91050908.29647
 15 02 12 00 43 30.0000000  0  7G16G18G21G25G27G29G31
  22142194.060   116358022.14507  22142192.280    90668588.92447
  23252120.680   122190759.03605  23252119.540    95213609.64445
  21061604.000   110679480.79007  21061601.720    86243747.59048
  24413304.920   128292758.34604  24413307.080    99968383.84944
  23279987.940   122337175.20005  23279989.940    95327686.84646
  23390574.200   122918285.77905  23390573.600    95780475.37247
  22251189.860   116930779.43807  22251188.780    91114880.97947
 15 02 12 00 44  0.0000000  0  7G16G18G21G25G27G29G31
  22127497.960   116280793.92807  22127496.200    90608411.10546
  23238691.760   122120190.52105  23238690.680    95158621.25346
  21065714.580   110701082.34707  21065712.320    86260579.97449
  24431574.860   128388766.88704  24431577.400   100043195.63444
  23266877.420   122268279.58005  23266879.540    95274001.99746
  23404794.340   122993013.44005  23404793.860    95838704.69546
  22266869.980   117013179.44607  22266869.000    91179088.73647
 15 02 12 00 44 30.0000000  0  7G16G18G21G25G27G29G31
  22112837.740   116203754.75907  22112836.140    90548380.60247
  23225297.080   122049802.06405  23225296.000    95103773.13644
  21069902.180   110723088.73307  21069900.020    86277727.80349
  24449875.900   128484939.52204  24449878.640   100118135.22344
  23253789.400   122199502.03305  23253791.480    95220409.16546
  23419019.720   123067768.63405  23419019.300    95896955.48246
  22282607.300   117095879.96707  22282606.400    91243530.67047
 15 02 12 00 45  0.0000000  0  7G16G18G21G25G27G29G31
  22098213.560   116126904.83107  22098212.100    90488497.55147
  23211936.780   121979594.32705  23211935.780    95049065.87946
  21074166.360   110745497.14707  21074164.260    86295188.90549
  24468207.540   128581273.21704  24468210.220   100193200.33944
  23240723.600   122130840.76205  23240725.520    95166906.91046
  23433250.040   123142549.45705  23433249.660    95955226.21846
  22298400.960   117178876.12706  22298400.020    91308202.95347
 15 02 12 00 45 30.0000000  0  7G16G18G21G25G27G29G31
  22083625.940   116050246.37307  22083624.460    90428763.70047
  23198611.520   121909570.22805  23198610.480    94994501.68645
  21078506.900   110768306.30507  21078504.740    86312962.29149
  24486569.860   128677767.09504  24486572.000   100268390.26244
  23227680.020   122062295.96805  23227681.880    95113495.44246
  23447485.300   123217355.89105  23447484.840    96013516.92346
  22314250.480   117262165.53806  22314249.480    91373103.76047
 15 02 12 00 46  0.0000000  0  7G16G18G21G25G27G29G31
  22069075.760   115973784.76907  22069074.260    90369183.24047
  23185322.480   121839736.14105  23185321.540    94940085.58045
  21082924.100   110791518.41707  21082921.880    86331049.65348
  24504962.860   128774423.33804  24504965.280   100343706.73345
  23214659.020   121993871.08405  23214660.960    95060177.38647
  23461725.920   123292190.63605  23461725.380    96071829.68146
  22330155.940   117345748.99006  22330154.900    91438233.69247
 15 02 12 00 46 30.0000000  0  7G16G18G21G25G27G29G31
  22054562.040   115897514.76307  22054560.500    90309752.07547
  23172068.760   121770086.75205  23172067.860    94885813.35545
  21087416.140   110815124.61407  21087413.940    86349444.09949
  24523385.320   128871233.45104  24523388.060   100419143.00045
  23201659.500   121925558.64205  23201661.480    95006946.95846
  23475970.620   123367046.31705  23475969.900    96130158.75146
  22346115.460   117429616.28406  22346114.360    91503584.79347
 15 02 12 00 47  0.0000000  0  7G16G18G21G25G27G29G31
  22040086.040   115821442.78607  22040084.420    90250475.21347
  23158851.620   121700629.53505  23158850.720    94831690.89346
  21091983.680   110839127.86707  21091981.540    86368147.93249
  24541837.880   128968200.54004  24541840.660   100494701.68345
  23188682.320   121857363.10105  23188684.420    94953807.62147
  23490220.000   123441927.12305  23490219.340    96188507.40845
  22362129.240   117513768.85106  22362128.120    91569158.17747
 15 02 12 00 47 30.0000000  0  7G16G18G21G25G27G29G31
  22025648.480   115745572.90107  22025646.840    90191355.83747
  23145671.860   121631369.38405  23145670.920    94777721.99445
  21096627.020   110863528.87807  21096624.880    86387161.71149
  24560320.220   129065325.60304  24560323.320   100570383.42544
  23175727.860   121789286.55005  23175729.960    94900761.01046
  23504474.540   123516834.80305  23504473.760    96246877.01846
  22378197.180   117598206.12006  22378196.060    91634953.41447
 15 02 12 00 48  0.0000000  0  7G16G18G21G25G27G29G31
  22011249.460   115669905.24107  22011247.780    90132394.02847
  23132529.700   121562306.98005  23132528.840    94723907.18745
  21101345.540   110888324.42107  21101343.420    86406482.91749
  24578832.000   129162605.41404  24578835.200   100646185.72645
  23162795.640   121721327.00105  23162797.640    94847805.56546
  23518733.740   123591767.20705  23518733.020    96305265.87446
  22394318.320   117682923.28206  22394317.240    91700966.75147
 15 02 12 00 48 30.0000000  0  7G16G18G21G25G27G29G31
  21996889.080   115594440.85307  21996887.420    90073590.60547
  23119425.520   121493443.84405  23119424.540    94670247.64845
  21106138.780   110913512.89907  21106136.720    86426110.30949
  24597372.860   129260038.14904  24597376.200   100722107.24645
  23149885.540   121653483.70805  23149887.420    94794940.69446
  23532997.360   123666723.29105  23532996.720    96363673.19445
  22410492.000   117767916.65506  22410490.940    91767195.31647
 15 02 12 00 49  0.0000000  0  7G16G18G21G25G27G29G31
  21982568.140   115519184.05807  21982566.540    90014948.94847
  23106360.060   121424784.57505  23106359.020    94616746.97845
  21111006.720   110939094.63507  21111004.800    86446044.12748
  24615943.020   129357624.37104  24615945.940   100798148.29145
  23136997.800   121585758.61905  23136999.820    94742167.95947
  23547265.700   123741704.20805  23547265.160    96422099.84746
  22426718.100   117853185.44606  22426717.040    91833638.48747
 15 02 12 00 49 30.0000000  0  7G16G18G21G25G27G29G31
  21968287.640   115444139.73907  21968286.080    89956472.86247
  23093334.600   121356335.05505  23093333.520    94563409.73545
  21115949.660   110965070.83207  21115947.840    86466285.31648
  24634542.820   129455365.63704  24634545.000   100874310.17745
  23124133.080   121518154.40005  23124135.140    94689489.36747
  23561539.380   123816713.10205  23561538.820    96480548.32244
  22442996.660   117938729.69806  22442995.620    91900296.29747
 15 02 12 00 50  0.0000000  0  8G16G18G21G22G25G27G29G31
  21954045.100   115369294.67807  21954043.540    89898152.03947
  23080346.640   121288082.63305  23080345.420    94510226.06045
  21120964.540   110991424.02607  21120962.580    86486820.27449
  24547954.200   129000370.11204  24547959.240   100519793.64943
  24653168.940   129553245.48303  24653170.960   100950580.08345
  23111288.440   121450655.76905  23111290.320    94636893.07647
  23575815.340   123891734.20405  23575814.860    96539006.29746
  22459324.260   118024531.27706  22459323.200    91967154.63147
 15 02 12 00 50 30.0000000  0  8G16G18G21G22G25G27G29G31
  21939843.380   115294663.72107  21939841.740    89839998.04947
  23067398.900   121220042.45005  23067397.680    94457207.76845
  21126053.700   111018167.18507  21126051.620    86507659.11248
  24530456.580   128908421.20104  24530461.320   100448146.16144
  24671823.260   129651304.75503  24671826.120   101027001.14245
  23098466.480   121383275.89605  23098468.160    94584389.32047
  23590096.140   123966780.61405  23590095.840    96597483.99445
  22475702.800   118110600.48706  22475701.700    92034221.50947
 15 02 12 00 51  0.0000000  0  7G16G18G21G22G27G29G31
  21925683.240   115220251.20507  21925681.440    89782014.27847
  23054492.460   121152219.30105  23054491.680    94404358.60245
  21131217.100   111045300.82207  21131215.020    86528802.21248
  24512944.400   128816398.24704  24512949.220   100376440.97646
  23085667.560   121316016.83105  23085669.140    94531979.71846
  23604382.200   124041854.15305  23604381.900    96655982.85845
  22492132.000   118196936.39406  22492130.980    92101496.20147
 15 02 12 00 51 30.0000000  0  8G16G18G21G22G25G27G29G31
  21911563.800   115146052.91807  21911561.900    89724197.43547
  23041626.820   121084609.66506  23041626.120    94351675.82446
  21136453.140   111072816.84807  21136451.200    86550243.26448
  24495417.480   128724297.29704  24495422.160   100304674.96844
  24709217.980   129847820.61904  24709221.040   101180126.04845
  23072890.300   121248872.12105  23072892.000    94479659.21447
  23618672.240   124116948.37605  23618671.760    96714497.81444
  22508610.180   118283529.85406  22508609.260    92168971.57347
 15 02 12 00 52  0.0000000  0  8G16G18G21G22G25G27G29G31
  21897486.580   115072076.44407  21897484.600    89666553.43347
  23028803.480   121017221.82806  23028802.420    94299165.85245
  21141762.720   111100719.38907  21141760.900    86571985.49848
  24477877.320   128632126.72004  24477881.580   100232854.66545
  24727956.420   129946293.93503  24727959.800   101256858.32846
  23060135.920   121181847.46705  23060137.560    94427432.24647
  23632967.100   124192068.10705  23632966.500    96773032.66445
  22525137.920   118370383.72206  22525137.040    92236649.86547
 15 02 12 00 52 30.0000000  0  8G16G18G21G22G25G27G29G31
  21883450.920   114998318.70807  21883449.020    89609079.88147
  23016021.700   120950052.64306  23016020.340    94246826.27044
  21147144.740   111129001.80807  21147142.840    86594023.75348
  24460323.360   128539883.22004  24460327.560   100160977.53645
  24746721.200   130044898.69003  24746725.260   101333703.81045
  23047403.380   121114937.54105  23047404.940    94375294.67347
  23647265.780   124267207.83105  23647265.040    96831583.07144
  22541713.620   118457489.78406  22541712.760    92304524.67347
 15 02 12 00 53  0.0000000  0  8G16G18G21G22G25G27G29G31
  21869457.660   114924783.76907  21869455.820    89551779.93947
  23003282.320   120883107.30605  23003280.800    94194661.10546
  21152599.180   111157664.38507  21152597.100    86616358.23748
  24442756.440   128447571.68004  24442760.500   100089047.36945
  24765515.760   130143663.55314  24765518.000   101410656.07054
  23034692.940   121048144.18605  23034694.660    94323247.93547
  23661568.700   124342369.61805  23661567.900    96890150.67745
  22558337.180   118544847.08706  22558336.340    92372595.24647
 15 02 12 00 53 30.0000000  0  7G16G18G21G22G27G29G31
  21855507.600   114851475.49407  21855505.720    89494656.61047
  22990586.220   120816390.20106  22990584.800    94142673.78745
  21158126.080   111186707.81307  21158123.840    86638989.48948
  24425177.260   128355196.60404  24425181.200   100017067.63245
  23022005.120   120981469.43905  23022006.840    94271293.61747
  23675876.100   124417555.18405  23675875.380    96948736.82046
  22575008.380   118632454.39006  22575007.520    92440860.62347
 15 02 12 00 54  0.0000000  0  8G16G18G21G22G25G27G29G31
  21841600.100   114778390.87507  21841598.200    89437707.56647
  22977933.160   120749898.67305  22977931.980    94090862.25345
  21163724.060   111216125.59807  21163721.820    86661912.43948
  24407585.440   128262755.06504  24407589.120    99945036.13445
  24803181.740   130341600.29504  24803184.420   101564900.27346
  23009338.860   120914908.04805  23009340.580    94219427.62947
  23690186.980   124492759.11905  23690186.320    97007337.26845
  22591725.760   118720304.48406  22591724.960    92509315.19947
 15 02 12 00 54 30.0000000  0  7G16G18G21G22G27G29G31
  21827735.100   114705529.41707  21827733.160    89380932.41847
  22965323.000   120683632.54705  22965321.960    94039226.32746
  21169392.400   111245913.34607  21169390.220    86685123.67149
  24389981.080   128170246.63904  24389984.420    99872952.47244
  22996693.640   120848457.31205  22996695.400    94167647.87847
  23704500.800   124567978.48805  23704500.140    97065949.75545
  22608488.180   118808391.19406  22608487.380    92577954.14847
 15 02 12 00 55  0.0000000  0  7G16G18G21G22G27G29G31
  21813916.860   114632913.98607  21813914.900    89324348.98047
  22952760.320   120617615.29706  22952759.340    93987784.36745
  21175134.900   111276090.49507  21175132.760    86708638.33348
  24372368.440   128077695.12604  24372371.700    99800835.16145
  22984073.460   120782138.25205  22984075.220    94115970.70147
  23718821.460   124643234.05605  23718820.800    97124590.44445
  22625299.100   118896732.82006  22625298.240    92646791.72047
 15 02 12 00 55 30.0000000  0  7G16G18G21G22G27G29G31
  21800141.820   114560525.76007  21800139.820    89267942.58647
  22940241.500   120551828.60106  22940240.580    93936522.05345
