     2.11           OBSERVATION DATA    G                   RINEX VERSION / TYPE
SPIDER V4,0,0,3554                      2015 03 16 00:14    PGM / RUN BY / DATE 
ADCK                                                        MARKER NAME         
ADCK                                                        MARKER NUMBER       
                                                            OBSERVER / AGENCY   
496498              LEICA GRX1200+GNSS  8.20/4.007          REC # / TYPE / VERS 
                    LEIAR25         NONE                    ANT # / TYPE        
  5227539.7664   314968.1794  3630496.8998                  APPROX POSITION XYZ 
        0.0480        0.0000        0.0000                  ANTENNA: DELTA H/E/N
     1     1                                                WAVELENGTH FACT L1/2
     4    C1    L1    P2    L2                              # / TYPES OF OBSERV 
    30.000                                                  INTERVAL            
  2015    02    13    00    00    0.0000000     GPS         TIME OF FIRST OBS   
  2015    02    13    23    59   30.0000000     GPS         TIME OF LAST OBS    
    16                                                      LEAP SECONDS        
    30                                                      # OF SATELLITES     
   G 1   829   828   828   828                              PRN / # OF OBS      
   G 2   932   932   932   932                              PRN / # OF OBS      
   G 3   848   848   848   848                              PRN / # OF OBS      
   G 4   847   847   847   847                              PRN / # OF OBS      
   G 5   665   665   665   665                              PRN / # OF OBS      
   G 6   776   776   776   776                              PRN / # OF OBS      
   G 7   657   657   656   656                              PRN / # OF OBS      
   G 9   797   797   797   797                              PRN / # OF OBS      
   G10   776   776   776   776                              PRN / # OF OBS      
   G11   792   792   792   792                              PRN / # OF OBS      
   G12   824   824   824   824                              PRN / # OF OBS      
   G13   817   817   816   816                              PRN / # OF OBS      
   G14   937   937   937   937                              PRN / # OF OBS      
   G15   722   722   722   722                              PRN / # OF OBS      
   G16   686   685   685   685                              PRN / # OF OBS      
   G17   937   937   936   936                              PRN / # OF OBS      
   G18   929   929   929   929                              PRN / # OF OBS      
   G19   773   773   773   773                              PRN / # OF OBS      
   G20   820   820   820   820                              PRN / # OF OBS      
   G21   727   726   726   726                              PRN / # OF OBS      
   G22   729   729   729   729                              PRN / # OF OBS      
   G23   740   740   740   740                              PRN / # OF OBS      
   G24   839   839   838   838                              PRN / # OF OBS      
   G25   868   868   867   867                              PRN / # OF OBS      
   G27   825   825   825   825                              PRN / # OF OBS      
   G28   897   897   897   897                              PRN / # OF OBS      
   G29   768   768   768   768                              PRN / # OF OBS      
   G30   703   703   703   703                              PRN / # OF OBS      
   G31   823   822   822   822                              PRN / # OF OBS      
   G32   756   756   756   756                              PRN / # OF OBS      
BIT 2 OF LLI FLAGS DATA COLLECTED UNDER A/S CONDITION       COMMENT             
SNR is mapped to RINEX snr flag value [2-9]                 COMMENT             
Lx:     = 25dBHz -> 1; 26-27dBHz -> 2; 28-31dBHz -> 3       COMMENT             
       32-35dBHz -> 4; 36-38dBHz -> 5; 39-41dBHz -> 6       COMMENT             
       42-44dBHz -> 7; 45-48dBHz -> 8; >=49dBHz -> 9        COMMENT             
                                                            END OF HEADER       
 15 02 13 00 00  0.0000000  0  7G16G18G21G25G27G29G31
  23504927.440   123519225.84408  23504923.900    96248732.67145
  24232213.160   127341197.55608  24232213.280    99226925.11444
  20957268.020   110131189.13708  20957264.040    85816495.09748
  22996071.380   120845165.48208  22996071.480    94165062.72047
  24410894.560   128280115.16408  24410895.160    99958537.89145
  22339521.060   117394971.17309  22339518.420    91476587.83548
  21195449.120   111382833.77109  21195445.600    86791802.02949
 15 02 13 00 00 30.0000000  0  7G16G18G21G25G27G29G31
  23488474.380   123432763.89408  23488470.720    96181359.74646
  24217863.280   127265789.79908  24217863.240    99168166.23644
  20955310.940   110120904.45408  20955306.900    85808481.08548
  23010834.420   120922745.68108  23010834.520    94225514.80947
  24396443.520   128204174.59408  24396444.100    99899363.49345
  22352800.500   117464755.17209  22352797.920    91530964.96348
  21204528.700   111430547.11509  21204525.160    86828981.25649
 15 02 13 00 01  0.0000000  0  7G16G18G21G25G27G29G31
  23472029.220   123346343.49008  23472025.520    96114019.17846
  24203510.360   127190366.07808  24203510.140    99109394.89244
  20953442.620   110111086.11708  20953438.500    85800830.43748
  23025644.220   121000571.72909  23025644.280    94286158.45847
  24382014.740   128128351.30308  24382015.440    99840280.47645
  22366092.180   117534603.60009  22366089.700    91585392.28548
  21213702.600   111478756.18809  21213699.040    86866546.74148
 15 02 13 00 01 30.0000000  0  7G16G18G21G25G27G29G31
  23455591.680   123259963.44308  23455588.020    96046710.07046
  24189154.480   127114926.75908  24189154.220    99050611.36844
  20951662.620   110101732.12709  20951658.480    85793541.62648
  23040500.380   121078641.22709  23040500.420    94346991.81947
  24367607.940   128052643.45208  24367608.780    99781287.43446
  22379395.520   117604513.46009  22379393.120    91639867.49048
  21222970.080   111527457.25309  21222966.540    86904495.61448
 15 02 13 00 02  0.0000000  0  7G16G18G21G25G27G29G31
  23439162.120   123173625.70908  23439158.580    95979433.94346
  24174796.280   127039475.43608  24174795.840    98991818.48144
  20949970.960   110092842.40709  20949966.800    85786614.57848
  23055402.820   121156953.78309  23055402.780    94408014.57647
  24353223.120   127977051.26408  24353224.020    99722384.49246
  22392710.420   117674483.94209  22392708.020    91694389.92548
  21232330.920   111576648.81709  21232327.360    86942826.68748
 15 02 13 00 02 30.0000000  0  7G16G18G21G25G27G29G31
  23422740.660   123087330.51908  23422737.300    95912190.97546
  24160435.940   126964012.93208  24160435.520    98933016.86644
  20948367.140   110084414.49208  20948363.020    85780047.38148
  23070351.160   121235507.54309  23070351.120    94469225.28347
  24338860.080   127901573.41308  24338861.120    99663570.65246
  22406036.520   117744513.19609  22406034.060    91748958.15748
  21241784.520   111626327.75209  21241780.920    86981537.52748
 15 02 13 00 03  0.0000000  0  7G16G18G21G25G27G29G31
  23406327.860   123001080.62908  23406324.460    95844983.29246
  24146074.200   126888543.19708  24146073.740    98874209.61644
  20946851.640   110076450.43609  20946847.500    85773841.63348
  23085345.560   121314303.64709  23085345.560    94530624.82847
  24324519.100   127826211.63507  24324520.140    99604847.26246
  22419373.980   117814602.02209  22419371.460    91803572.81448
  21251330.860   111676494.07909  21251327.280    87020628.15148
 15 02 13 00 03 30.0000000  0  7G16G18G21G25G27G29G31
  23389923.600   122914875.90008  23389920.220    95777810.80746
  24131711.400   126813067.56408  24131710.880    98815397.76044
  20945424.200   110068949.20908  20945420.060    85767996.53048
  23100385.680   121393339.97708  23100385.740    94592211.56147
  24310199.760   127750964.36207  24310200.960    99546213.12446
  22432722.320   117884747.84309  22432719.740    91858231.88348
  21260969.280   111727144.18909  21260965.720    87060095.75549
 15 02 13 00 04  0.0000000  0  7G16G18G21G25G27G29G31
  23373528.500   122828719.67208  23373525.160    95710676.09846
  24117348.360   126737590.54808  24117347.720    98756584.77944
  20944084.720   110061910.26008  20944080.580    85762511.64048
  23115471.700   121472617.66308  23115471.840    94653986.35047
  24295902.600   127675833.40607  24295903.940    99487669.61446
  22446081.780   117954952.07209  22446079.160    91912936.46548
  21270699.760   111778278.19109  21270696.220    87099940.40949
 15 02 13 00 04 30.0000000  0  7G16G18G21G25G27G29G31
  23357142.540   122742611.24708  23357139.180    95643578.65146
  24102985.220   126662112.60808  24102984.420    98697771.07045
  20942832.920   110055332.15608  20942828.800    85757385.85148
  23130603.140   121552134.01108  23130603.300    94715947.12347
  24281627.180   127600816.55607  24281628.580    99429215.02546
  22459451.820   118025211.95109  22459449.200    91967684.41248
  21280521.580   111829892.03809  21280518.040    87140158.97948
 15 02 13 00 05  0.0000000  0  7G16G18G21G25G27G29G31
  23340766.260   122656553.41408  23340762.780    95576520.63446
  24088622.560   126586637.36608  24088621.600    98638959.46745
  20941669.120   110049216.53008  20941665.000    85752620.43848
  23145780.180   121631889.92408  23145780.340    94778094.56647
  24267373.900   127525915.41608  24267375.380    99370850.56846
  22472832.460   118095527.71009  22472829.840    92022475.89248
  21290434.700   111881985.67709  21290431.120    87180751.40748
 15 02 13 00 05 30.0000000  0  7G16G18G21G25G27G29G31
  23324399.600   122570546.03608  23324395.980    95509501.92046
  24074260.760   126511166.38808  24074259.620    98580151.17345
  20940592.900   110043561.05309  20940588.780    85748213.57748
  23161002.440   121711883.37208  23161002.580    94840427.09447
  24253142.460   127451128.50808  24253143.860    99312575.13746
  22486223.360   118165897.24609  22486220.740    92077309.26848
  21300438.340   111934555.13909  21300434.760    87221714.60348
 15 02 13 00 06  0.0000000  0  7G16G18G21G25G27G29G31
  23308042.940   122484591.20708  23308039.320    95442524.15246
  24059900.220   126435702.33908  24059899.000    98521348.26845
  20939604.140   110038365.18109  20939600.020    85744164.84848
  23176269.880   121792114.07708  23176269.920    94902944.51447
  24238932.840   127376456.14608  24238934.020    99254388.96946
  22499624.340   118236319.83709  22499621.680    92132183.99648
  21310532.300   111987599.26209  21310528.720    87263047.67248
 15 02 13 00 06 30.0000000  0  7G16G18G21G25G27G29G31
  23291696.640   122398690.79208  23291692.980    95375588.76646
  24045541.640   126360248.44908  24045540.480    98462553.26245
  20938702.960   110033629.47409  20938698.840    85740474.69748
  23191582.460   121872581.89408  23191582.460    94965646.68947
  24224745.140   127301898.83808  24224746.120    99196292.41146
  22513035.520   118306795.98009  22513032.860    92187100.44848
  21320716.320   112041116.61409  21320712.780    87304749.48448
 15 02 13 00 07  0.0000000  0  7G16G18G21G25G27G29G31
  23275361.160   122312846.92908  23275357.380    95308697.46246
  24031185.680   126284808.12408  24031184.460    98403768.81945
  20937889.460   110029354.68409  20937885.360    85737143.69448
  23206940.160   121953287.02108  23206940.180    95028533.78546
  24210579.500   127227457.40608  24210580.280    99138286.17646
  22526456.900   118377325.54209  22526454.180    92242058.53748
  21330990.240   112095106.27109  21330986.680    87346819.33248
 15 02 13 00 07 30.0000000  0  7G16G18G21G25G27G29G31
  23259036.340   122227059.30508  23259032.540    95241849.98046
  24016832.420   126209382.24008  24016831.140    98344995.63844
  20937163.120   110025537.60509  20937158.960    85734169.34948
  23222342.520   122034227.00808  23222342.560    95091603.87446
  24196435.540   127153130.01308  24196436.160    99080368.78246
  22539887.880   118447905.64509  22539885.140    92297056.00548
  21341353.260   112149564.20909  21341349.680    87389254.06648
 15 02 13 00 08  0.0000000  0  7G16G18G21G25G27G29G31
  23242723.060   122141332.44508  23242719.260    95175049.85646
  24002482.880   126133975.90408  24002481.520    98286237.64745
  20936524.500   110022181.16109  20936520.220    85731553.94248
  23237789.940   122115404.00608  23237789.980    95154858.65547
  24182313.700   127078919.39808  24182314.220    99022542.41946
  22553328.780   118518538.04409  22553326.040    92352094.23248
  21351805.560   112204491.22409  21351801.960    87432054.33048
 15 02 13 00 08 30.0000000  0  7G16G18G21G25G27G29G31
  23226420.820   122055663.85908  23226417.040    95108295.12146
  23988136.900   126058588.29808  23988135.420    98227494.26044
  20935972.640   110019280.94709  20935968.340    85729294.03948
  23253281.680   122196813.80908  23253281.780    95218294.84746
  24168213.380   127004822.06608  24168213.720    98964804.29745
  22566778.960   118589219.21109  22566776.240    92407170.45047
  21362346.080   112259881.96009  21362342.460    87475215.91948
 15 02 13 00 09  0.0000000  0  7G16G18G21G25G27G29G31
  23210130.160   121970056.13808  23210126.500    95041587.82546
  23973795.200   125983223.22808  23973793.600    98168768.44145
  20935507.620   110016837.12909  20935503.280    85727389.77448
  23268817.800   122278456.66008  23268817.920    95281912.62646
  24154134.720   126930838.85208  24154135.020    98907155.10545
  22580238.420   118659949.21909  22580235.760    92462284.72948
  21372974.600   112315735.15709  21372970.960    87518737.88148
 15 02 13 00 09 30.0000000  0  7G16G18G21G25G27G29G31
  23193852.220   121884515.65408  23193848.780    94974932.92546
  23959459.280   125907888.23008  23959457.720    98110066.02745
  20935130.380   110014854.59609  20935126.020    85725844.93548
  23284399.100   122360336.82608  23284399.280    95345715.32446
  24140078.660   126856974.68008  24140079.060    98849598.70845
  22593708.000   118730732.15909  22593705.340    92517440.24448
  21383691.680   112372053.59209  21383688.020    87562622.35848
 15 02 13 00 10  0.0000000  0  7G16G18G21G25G27G29G31
  23177586.020   121799036.66308  23177582.740    94908325.95646
  23945128.160   125832578.29508  23945126.620    98051383.15445
  20934839.400   110013325.57509  20934835.080    85724653.50048
  23300024.060   122442446.14808  23300024.200    95409696.59446
  24126043.800   126783222.03108  24126044.340    98792129.19345
  22607186.160   118801560.05209  22607183.560    92572630.80048
  21394495.480   112428827.96009  21394491.840    87606862.11148
 15 02 13 00 10 30.0000000  0  7G16G18G21G25G27G29G31
  23161332.620   121713624.64908  23161329.360    94841771.16446
  23930803.040   125757300.04908  23930801.480    97992724.95845
  20934635.280   110012252.81009  20934630.920    85723817.57948
  23315693.240   122524787.85108  23315693.300    95473858.94146
  24112030.980   126709584.82408  24112031.680    98734749.63846
  22620673.500   118872436.02909  22620670.920    92627858.81848
  21405386.400   112486060.32809  21405382.820    87651458.74348
 15 02 13 00 11  0.0000000  0  7G16G18G21G25G27G29G31
  23145092.140   121628280.22708  23145088.760    94775269.02546
  23916484.400   125682055.54008  23916482.700    97934093.03945
  20934517.760   110011635.36209  20934513.440    85723336.45448
  23331406.400   122607360.77008  23331406.440    95538201.44946
  24098040.040   126636062.50307  24098040.820    98677459.59546
  22634169.740   118943358.83909  22634167.180    92683123.32948
  21416363.980   112543747.93009  21416360.440    87696410.10448
 15 02 13 00 11 30.0000000  0  7G16G18G21G25G27G29G31
  23128864.860   121543005.17708  23128861.420    94708820.93646
  23902172.640   125606847.16908  23902170.860    97875489.26745
  20934486.760   110011472.72109  20934482.500    85723209.71748
  23347163.340   122690163.97708  23347163.360    95602723.40246
  24084070.920   126562654.81008  24084071.780    98620258.89246
  22647674.720   119014327.60209  22647672.140    92738423.64547
  21427427.720   112601888.34409  21427424.220    87741714.29848
 15 02 13 00 12  0.0000000  0  7G16G18G21G25G27G29G31
  23112651.060   121457800.91709  23112647.540    94642428.02346
  23887868.280   125531677.80708  23887866.460    97816915.91045
  20934542.120   110011764.01509  20934537.940    85723436.70448
  23362963.920   122773196.66708  23362964.000    95667424.18146
  24070123.640   126489361.70408  24070124.560    98563147.46447
  22661188.240   119085341.67109  22661185.680    92793759.26347
  21438577.280   112660479.67209  21438573.800    87787369.85848
 15 02 13 00 12 30.0000000  0  7G16G18G21G25G27G29G31
  23096450.860   121372667.96808  23096447.240    94576090.67546
  23873571.660   125456549.02208  23873569.740    97758374.15945
  20934683.600   110012507.82908  20934679.500    85724016.31148
  23378807.960   122856457.67508  23378808.080    95732302.87446
  24056198.020   126416182.61008  24056198.920    98506124.91246
  22674710.120   119156400.02409  22674707.540    92849129.39448
  21449812.120   112719519.09409  21449808.660    87833374.59448
 15 02 13 00 13  0.0000000  0  7G16G18G21G25G27G29G31
  23080264.940   121287610.04809  23080261.240    94509811.78246
  23859283.660   125381465.64308  23859281.720    97699867.77145
  20934911.480   110013705.38809  20934907.360    85724949.47948
  23394695.620   122939948.05208  23394695.760    95797360.28646
  24042294.520   126343119.30108  24042295.380    98449192.55246
  22688240.640   119227503.75409  22688238.040    92904534.88147
  21461132.220   112779006.57909  21461128.760    87879728.45448
 15 02 13 00 13 30.0000000  0  7G16G18G21G25G27G29G31
  23064093.220   121202626.97808  23064089.460    94443591.21046
  23845004.440   125306428.21408  23845002.420    97641397.18545
  20935225.300   110015354.49209  20935221.200    85726234.49748
  23410626.440   123023665.14208  23410626.700    95862594.34346
  24028412.680   126270169.76308  24028413.500    98392348.84247
  22701779.340   119298650.20009  22701776.700    92959973.65247
  21472536.740   112838937.60509  21472533.280    87926427.93648
 15 02 13 00 14  0.0000000  0  7G16G18G21G25G27G29G31
  23047936.040   121117720.54508  23047932.280    94377430.36546
  23830734.520   125231439.81608  23830732.460    97582964.80945
  20935624.820   110017454.06508  20935620.740    85727870.53048
  23426600.380   123107608.57208  23426600.680    95928004.78546
  24014552.600   126197334.42408  24014553.280    98335594.11347
  22715326.180   119369839.21209  22715323.520    93015445.59147
  21484025.380   112899310.62409  21484021.940    87973471.82548
 15 02 13 00 14 30.0000000  0  7G16G18G21G25G27G29G31
  23031793.840   121032893.11908  23031790.160    94311331.07646
  23816474.620   125156504.00108  23816472.520    97524573.38545
  20936110.240   110020005.12708  20936106.200    85729858.37548
  23442617.360   123191778.13608  23442617.640    95993591.42446
  24000714.360   126124613.69908  24000714.880    98278928.69046
  22728881.100   119441070.76809  22728878.400    93070950.68547
  21495597.820   112960124.10709  21495594.380    88020858.93448
 15 02 13 00 15  0.0000000  0  7G16G18G21G25G27G29G31
  23015666.840   120948145.61408  23015663.340    94245294.07446
  23802225.040   125081622.64108  23802222.980    97466224.39245
  20936681.220   110023005.72908  20936677.180    85732196.50848
  23458677.100   123276172.46008  23458677.440    96059353.20747
  23986897.760   126052007.00508  23986898.220    98222352.11946
  22742443.920   119512343.50109  22742441.120    93126487.86947
  21507253.520   113021375.25009  21507250.080    88068587.07348
 15 02 13 00 15 30.0000000  0  7G16G18G21G25G27G29G31
  22999555.580   120863480.76808  22999552.200    94179321.47947
  23787986.560   125006799.54908  23787984.480    97407920.79945
  20937337.820   110026456.47208  20937333.820    85734885.39648
  23474779.720   123360791.96808  23474779.980    96125290.45146
  23973103.040   125979515.47708  23973103.460    98165865.27446
  22756014.740   119583658.14709  22756011.820    93182057.70947
  21518992.280   113083062.79709  21518988.860    88116655.26948
 15 02 13 00 16  0.0000000  0  7G16G18G21G25G27G29G31
  22983460.080   120778898.45209  22983456.780    94113413.20347
  23773759.300   124932035.28708  23773757.220    97349663.05145
  20938079.580   110030354.54109  20938075.620    85737922.86148
  23490924.680   123445634.18508  23490924.880    96191401.24646
  23959329.860   125907137.23208  23959330.280    98109466.72546
  22769593.040   119655012.24109  22769590.120    93237658.29147
  21530813.340   113145182.81309  21530809.940    88165060.46048
 15 02 13 00 16 30.0000000  0  7G16G18G21G25G27G29G31
  22967381.000   120694402.22409  22967377.700    94047572.00947
  23759544.180   124857334.69008  23759542.040    97291454.91245
  20938906.720   110034701.22009  20938902.760    85741309.89448
  23507112.180   123530700.09008  23507112.340    96257686.33946
  23945578.560   125834874.06308  23945579.020    98053157.81946
  22783179.040   119726407.19709  22783176.260    93293290.70247
  21542716.620   113207734.99609  21542713.240    88213802.40048
 15 02 13 00 17  0.0000000  0  7G16G18G21G25G27G29G31
  22951318.260   120609992.09509  22951314.980    93981797.88946
  23745341.360   124782699.03508  23745339.220    97233297.36145
  20939818.820   110039494.25409  20939814.860    85745044.72548
  23523341.780   123615987.33708  23523341.840    96324143.90746
  23931848.800   125762724.31008  23931849.320    97996937.29446
  22796772.340   119797840.61009  22796769.740    93348953.07748
  21554701.420   113270715.41309  21554698.040    88262878.02348
 15 02 13 00 17 30.0000000  0  7G16G18G21G25G27G29G31
  22935272.520   120525671.16009  22935269.240    93916093.28246
  23731151.720   124708132.52808  23731149.580    97175193.72445
  20940815.980   110044734.30009  20940812.020    85749127.88848
  23539613.740   123701496.90908  23539613.780    96390774.71846
  23918140.940   125690689.75708  23918141.480    97940806.52946
  22810373.200   119869313.82709  22810370.740    93404646.46748
  21566767.640   113334123.88509  21566764.300    88312287.19548
 15 02 13 00 18  0.0000000  0  7G16G18G21G25G27G29G31
  22919243.740   120441439.36009  22919240.420    93850458.12447
  23716975.320   124633635.60808  23716973.200    97117144.28545
  20941897.680   110050418.64008  20941893.740    85753557.25248
  23555927.500   123787225.99208  23555927.600    96457576.58446
  23904454.620   125618768.32008  23904455.180    97884763.91046
  22823981.120   119940824.27609  22823978.780    93460368.87048
  21578914.460   113397955.86609  21578911.100    88362026.38348
 15 02 13 00 18 30.0000000  0  7G16G18G21G25G27G29G31
  22903232.240   120357298.34209  22903228.900    93784893.70447
  23702812.660   124559210.84508  23702810.520    97059151.05146
  20943063.860   110056546.89208  20943059.900    85758332.51948
  23572282.920   123873173.81308  23572283.020    96524548.87946
  23890789.840   125546959.98908  23890790.440    97828809.41646
  22837596.080   120012371.76609  22837593.800    93516120.13847
  21591141.460   113462209.02709  21591138.100    88412093.75648
 15 02 13 00 19  0.0000000  0  7G16G18G21G25G27G29G31
  22887238.300   120273249.50109  22887234.860    93719401.11647
  23688664.360   124484861.32908  23688662.120    97001216.45145
  20944314.080   110063116.94709  20944310.140    85763452.04948
  23588679.700   123959339.11108  23588679.820    96591690.64946
  23877146.520   125475264.27608  23877147.100    97772942.68046
  22851217.860   120083955.09908  22851215.640    93571899.34147
  21603448.140   113526880.92709  21603444.780    88462487.42048
 15 02 13 00 19 30.0000000  0  7G16G18G21G25G27G29G31
  22871262.840   120189297.61709  22871259.300    93653984.08346
  23674531.360   124410592.21408  23674529.020    96943344.50645
  20945649.060   110070132.13009  20945645.100    85768918.43448
  23605118.240   124045724.07408  23605118.400    96659003.57746
  23863525.200   125403684.09608  23863525.780    97717165.98346
  22864846.820   120155576.41608  22864844.760    93627708.13747
  21615834.600   113591971.96209  21615831.200    88513207.69548
 15 02 13 00 20  0.0000000  0  7G16G18G21G25G27G29G31
  22855305.880   120105442.85009  22855302.180    93588642.71746
  23660413.920   124336405.07408  23660411.600    96885536.44545
  20947068.180   110077589.56709  20947064.180    85774729.42248
  23621598.160   124132326.60408  23621598.360    96726486.03746
  23849925.680   125332218.12508  23849926.160    97661478.27746
  22878482.860   120227234.35609  22878480.840    93683545.46547
  21628300.120   113657478.70409  21628296.720    88564251.88248
 15 02 13 00 20 30.0000000  0  7G16G18G21G25G27G29G31
  22839367.040   120021683.56209  22839363.280    93523375.75046
  23646311.960   124262299.02608  23646309.700    96827791.54645
  20948570.620   110085485.00009  20948566.620    85780881.70548
  23638118.620   124219142.55908  23638118.920    96794134.78346
  23836347.260   125260863.05208  23836347.720    97605876.97947
  22892125.180   120298924.66909  22892123.060    93739408.02547
  21640843.700   113723395.45909  21640840.260    88615615.56548
 15 02 13 00 21  0.0000000  0  7G16G18G21G25G27G29G31
  22823447.340   119938025.39708  22823443.660    93458187.58347
  23632226.620   124188280.51108  23632224.300    96770114.86846
  20950156.860   110093820.83709  20950152.860    85787377.16748
  23654680.220   124306174.68908  23654680.560    96861951.99946
  23822790.680   125189622.38808  23822791.080    97550364.82547
  22905774.420   120370651.19209  22905772.160    93795298.79947
  21653465.540   113789723.45009  21653462.060    88667299.69048
 15 02 13 00 21 30.0000000  0  7G16G18G21G25G27G29G31
  22807546.900   119854468.59108  22807543.300    93393078.39647
  23618158.200   124114350.90908  23618155.880    96712507.46446
  20951826.720   110102595.95009  20951822.700    85794214.91948
  23671282.540   124393420.85308  23671282.940    96929935.97446
  23809255.660   125118494.80808  23809255.940    97494940.80447
  22919430.200   120442411.73609  22919427.700    93851216.09847
  21666165.020   113856459.26609  21666161.520    88719301.60648
 15 02 13 00 22  0.0000000  0  7G16G18G21G25G27G29G31
  22791665.980   119771014.39509  22791662.500    93328049.16347
  23604107.200   124040512.70308  23604104.820    96654971.28146
  20953579.840   110111808.66608  20953575.780    85801393.66148
  23687925.420   124480879.75608  23687925.840    96998085.74346
  23795742.000   125047479.76708  23795742.220    97439604.46947
  22933092.180   120514205.24309  22933089.480    93907159.08047
  21678941.480   113923599.75909  21678937.940    88771618.85048
 15 02 13 00 22 30.0000000  0  7G16G18G21G25G27G29G31
  22775805.580   119687667.50109  22775802.100    93263103.53147
  23590074.600   123966771.00808  23590072.180    96597510.30146
  20955416.540   110121460.75208  20955412.520    85808914.76948
  23704609.140   124568553.25708  23704609.680    97066402.72246
  23782250.260   124976579.95008  23782250.380    97384357.91647
  22946760.820   120586034.01309  22946757.980    93963129.53847
  21691794.980   113991145.22609  21691791.460    88824251.66148
 15 02 13 00 23  0.0000000  0  7G16G18G21G25G27G29G31
  22759965.140   119604425.18309  22759961.640    93198239.40847
  23576059.940   123893123.91908  23576057.600    96540123.03146
  20957335.780   110131546.55008  20957331.780    85816773.83848
  23721332.760   124656435.95908  23721333.260    97134882.71646
  23768779.520   124905790.73908  23768779.600    97329197.57047
  22960435.260   120657893.36209  22960432.360    94019123.82247
  21704724.280   114059089.10109  21704720.760    88877194.92048
 15 02 13 00 23 30.0000000  0  7G16G18G21G25G27G29G31
  22744145.720   119521293.07109  22744142.080    93133461.14647
  23562064.640   123819578.70208  23562062.340    96482815.14645
  20959338.200   110142069.56708  20959334.240    85824973.58848
  23738096.860   124744531.18708  23738097.280    97203528.31546
  23755330.580   124835116.29008  23755330.600    97274126.62847
  22974116.100   120729786.59109  22974113.220    94075144.51147
  21717729.720   114127433.08109  21717726.200    88930449.94948
 15 02 13 00 24  0.0000000  0  7G16G18G21G25G27G29G31
  22728347.180   119438270.67309  22728343.440    93068768.38547
  23548088.880   123746135.81808  23548086.520    96425586.98245
  20961423.180   110153026.16308  20961419.200    85833511.20448
  23754900.800   124832836.02208  23754901.140    97272337.23746
  23741903.060   124764554.53208  23741903.080    97219143.49847
  22987802.980   120801711.63309  22987800.220    94131189.98447
  21730810.420   114196172.52909  21730806.900    88984013.13948
 15 02 13 00 24 30.0000000  0  7G16G18G21G25G27G29G31
  22712569.960   119355360.47809  22712566.140    93004163.04547
  23534133.140   123672798.13608  23534130.680    96368440.79145
  20963590.620   110164415.98508  20963586.620    85842386.39148
  23771744.440   124921349.63308  23771744.760    97341308.84746
  23728496.920   124694105.43708  23728496.940    97164248.15447
  23001495.720   120873667.75409  23001493.160    94187259.65647
  21743965.900   114265305.15009  21743962.440    89037882.68148
 15 02 13 00 25  0.0000000  0  7G16G18G21G25G27G29G31
  22696814.220   119272563.71009  22696810.460    92939646.09547
  23520197.880   123599568.14708  23520195.320    96311378.53246
  20965840.200   110176237.46108  20965836.180    85851597.93548
  23788627.560   125010070.79608  23788627.820    97410442.18446
  23715112.140   124623768.64008  23715112.240    97109440.33647
  23015194.260   120945654.39309  23015191.880    94243353.12148
  21757195.700   114334828.17409  21757192.220    89092056.45248
 15 02 13 00 25 30.0000000  0  7G16G18G21G25G27G29G31
  22681080.960   119189885.17309  22681077.280    92875221.27547
  23506284.080   123526450.77108  23506281.480    96254404.01345
  20968172.180   110188492.06409  20968168.160    85861146.97648
  23805550.420   125099001.10108  23805550.660    97479738.48746
  23701749.200   124553546.56308  23701749.420    97054721.89846
  23028898.960   121017673.57709  23028896.700    94299471.94947
  21770499.840   114404741.71009  21770496.340    89146534.51148
 15 02 13 00 26  0.0000000  0  7G16G18G21G25G27G29G31
  22665369.440   119107320.93309  22665365.800    92810885.50647
  23492391.280   123453443.51508  23492388.580    96197515.29045
  20970585.520   110201174.34308  20970581.520    85871029.27848
  23822511.940   125188134.61708  23822512.240    97549193.12746
  23688407.080   124483434.12908  23688407.320    97000088.90046
  23042608.880   121089719.98509  23042606.720    94355611.98247
  21783876.860   114475038.27509  21783873.340    89201311.03548
 15 02 13 00 26 30.0000000  0  7G16G18G21G25G27G29G31
  22649680.720   119024876.60509  22649677.120    92746643.18547
  23478520.660   123380553.25308  23478518.020    96140717.75646
  20973080.620   110214286.46608  20973076.680    85881246.52148
  23839512.680   125277474.10308  23839513.000    97618808.27546
  23675086.520   124413434.92108  23675086.800    96945544.13446
  23056324.660   121161796.81609  23056322.520    94411775.72747
  21797327.000   114545719.19009  21797323.480    89256387.04848
 15 02 13 00 27  0.0000000  0  7G16G18G21G25G27G29G31
  22634015.000   118942552.98709  22634011.400    92682494.91947
  23464672.640   123307781.67708  23464670.040    96084012.67945
  20975657.140   110227826.39408  20975653.240    85891797.11348
  23856552.280   125367017.52708  23856552.520    97688582.34946
  23661787.320   124343547.81508  23661787.600    96891086.71746
  23070045.920   121233902.36709  23070043.760    94467961.84947
  21810849.580   114616780.80409  21810846.100    89311759.71248
 15 02 13 00 27 30.0000000  0  7G16G18G21G25G27G29G31
  22618372.600   118860352.04409  22618369.060    92618442.24847
  23450847.540   123235130.65408  23450845.000    96027401.56046
  20978314.940   110241793.19008  20978311.020    85902680.33248
  23873630.500   125456763.85308  23873630.720    97758514.51646
  23648509.520   124273772.62608  23648509.720    96836716.50346
  23083772.640   121306036.58608  23083770.420    94524170.31747
  21824444.060   114688220.23109  21824440.600    89367426.77548
 15 02 13 00 28  0.0000000  0  7G16G18G21G25G27G29G31
  22602754.160   118778276.91109  22602750.680    92554487.62047
  23437046.360   123162604.95308  23437043.800    95970888.09446
  20981053.980   110256186.65309  20981050.000    85913896.03448
  23890747.360   125546713.64908  23890747.740    97828605.23746
  23635253.320   124204110.80908  23635253.360    96782434.62546
  23097504.900   121378200.24908  23097502.640    94580401.72347
  21838110.280   114760036.72809  21838106.860    89423387.67248
 15 02 13 00 28 30.0000000  0  7G16G18G21G25G27G29G31
  22587159.420   118696325.97009  22587155.940    92490629.74847
  23423268.800   123090203.37408  23423266.100    95914471.31646
  20983873.400   110271002.70808  20983869.380    85925441.01348
  23907902.060   125636862.29808  23907902.560    97898850.87446
  23622018.040   124134558.62308  23622017.980    96728238.15746
  23111242.020   121450389.15208  23111239.660    94636652.78747
  21851847.100   114832224.03109  21851843.720    89479637.49248
 15 02 13 00 29  0.0000000  0  7G16G18G21G25G27G29G31
  22571589.240   118614504.10609  22571585.780    92426872.46847
  23409516.020   123017932.48708  23409513.340    95858156.40245
  20986773.640   110286243.42808  20986769.620    85937316.90548
  23925095.080   125727212.14608  23925095.660    97969253.30846
  23608804.240   124065119.32008  23608804.080    96674129.65846
  23124984.640   121522606.71908  23124982.100    94692926.20647
  21865654.580   114904782.82809  21865651.240    89536176.79448
 15 02 13 00 29 30.0000000  0  7G16G18G21G25G27G29G31
  22556043.860   118532812.19709  22556040.320    92363216.44747
  23395788.280   122945793.07308  23395785.500    95801943.91545
  20989754.180   110301906.07908  20989750.120    85949521.56948
  23942325.940   125817760.74508  23942326.400    98039810.61346
  23595611.600   123995791.32908  23595611.340    96620107.89646
  23138732.320   121594851.04108  23138729.680    94749220.46947
  21879532.020   114977709.19709  21879528.680    89593002.51348
 15 02 13 00 30  0.0000000  0  7G16G18G21G25G27G29G31
  22540523.580   118451252.04409  22540519.960    92299663.09547
  23382086.200   122873788.44308  23382083.400    95745836.46746
  20992814.860   110317989.91908  20992810.760    85962054.44548
  23959594.540   125908507.50408  23959595.020    98110522.33746
  23582440.220   123926574.95508  23582439.900    96566173.11747
  23152485.060   121667121.89908  23152482.320    94805535.41347
  21893479.020   115051001.12109  21893475.680    89650113.08348
 15 02 13 00 30 30.0000000  0  7G16G18G21G25G27G29G31
  22525028.880   118369826.45209  22525025.140    92236214.58647
  23368410.440   122801922.13108  23368407.720    95689836.78045
  20995955.640   110334494.78509  20995951.560    85974915.38648
  23976900.820   125999452.37008  23976901.360    98181388.41846
  23569290.140   123857471.07308  23569289.900    96512325.98547
  23166242.900   121739419.85509  23166240.160    94861871.47647
  21907495.240   115124656.64709  21907491.880    89707506.97648
 15 02 13 00 31  0.0000000  0  7G16G18G21G25G27G29G31
  22509559.900   118288536.37409  22509556.100    92172871.67447
  23354761.240   122730195.44008  23354758.580    95633945.90346
  20999176.160   110351418.70008  20999172.060    85988102.85648
  23994244.460   126090593.37208  23994245.000    98252407.33646
  23556161.220   123788478.61608  23556161.020    96458565.68947
  23180005.700   121811743.64708  23180002.940    94918227.66347
  21921580.040   115198672.67309  21921576.680    89765181.77848
 15 02 13 00 31 30.0000000  0  7G16G18G21G25G27G29G31
  22494116.980   118207383.48909  22494113.220    92109635.67447
  23341139.180   122658611.18408  23341136.460    95578166.00445
  21002476.120   110368760.00209  21002472.000    86001615.56348
  24011625.140   126181929.03308  24011625.560    98323577.93046
  23543053.400   123719597.04608  23543053.320    96404891.78547
  23193773.300   121884092.47409  23193770.540    94974603.36447
  21935732.820   115273045.92609  21935729.460    89823134.94148
 15 02 13 00 32  0.0000000  0  7G16G18G21G25G27G29G31
  22478700.680   118126370.56909  22478696.980    92046508.73447
  23327544.900   122587172.79208  23327542.180    95522499.76146
  21005855.420   110386518.40709  21005851.280    86015453.28548
  24029042.820   126273459.39608  24029043.160    98394900.25046
  23529966.860   123650827.29508  23529966.860    96351305.03447
  23207545.720   121956466.88208  23207543.060    95030998.98347
  21949953.200   115347774.52809  21949949.880    89881364.99648
 15 02 13 00 32 30.0000000  0  7G16G18G21G25G27G29G31
  22463311.200   118045498.53209  22463307.460    91983491.57147
  23313978.720   122515881.91408  23313975.960    95466948.47146
  21009313.640   110404691.53609  21009309.500    86029614.16548
  24046497.100   126365182.33808  24046497.420    98466372.63245
  23516901.320   123582168.27308  23516901.460    96297804.56047
  23221322.760   122028865.71108  23221320.160    95087413.64047
  21964240.560   115422855.17409  21964237.260    89939869.36548
 15 02 13 00 33  0.0000000  0  7G16G18G21G25G27G29G31
  22447948.820   117964769.01709  22447945.160    91920585.46147
  23300441.080   122444741.06208  23300438.300    95411514.08146
  21012850.620   110423278.32809  21012846.460    86044097.38248
  24063987.820   126457096.81108  24063988.240    98537994.24745
  23503856.820   123513619.77208  23503857.100    96244390.21447
  23235104.380   122101288.74108  23235101.880    95143847.16647
  21978594.400   115498285.23409  21978591.120    89998646.01448
 15 02 13 00 33 30.0000000  0  7G16G18G21G25G27G29G31
  22432614.580   117884187.31009  22432611.000    91857794.53347
  23286933.140   122373756.32908  23286930.320    95356201.34046
  21016466.700   110442280.87009  21016462.520    86058904.55548
  24081515.380   126549204.83908  24081515.800    98609766.67745
  23490833.860   123445184.81608  23490834.300    96191064.34047
  23248891.080   122173738.62308  23248888.680    95200301.58447
  21993014.780   115574064.91809  21993011.540    90057695.09048
 15 02 13 00 34  0.0000000  0  7G16G18G21G25G27G29G31
  22417307.860   117803750.11109  22417304.340    91795116.21047
  23273454.360   122302925.20408  23273451.540    95301008.30046
  21020160.680   110461692.81309  21020156.500    86074030.74948
  24099078.620   126641500.27208  24099079.100    98681685.16046
  23477831.620   123376858.20208  23477832.120    96137822.87547
  23262681.860   122246209.88708  23262679.540    95256772.67147
  22007500.260   115650186.61909  22007497.040    90117010.67748
 15 02 13 00 34 30.0000000  0  7G16G18G21G25G27G29G31
  22402029.360   117723461.11709  22402025.880    91732553.37447
  23260005.660   122232252.07908  23260002.880    95245938.37346
  21023932.640   110481514.52909  21023928.400    86089476.25248
  24116677.680   126733983.77808  24116678.180    98753750.17845
  23464850.380   123308641.58208  23464850.820    96084667.12147
  23276476.960   122318703.82108  23276474.720    95313261.42847
  22022050.680   115726649.39509  22022047.460    90176592.04048
 15 02 13 00 35  0.0000000  0  7G16G18G21G25G27G29G31
  22386779.860   117643324.28809  22386776.280    91670109.10247
  23246587.900   122161741.57108  23246585.080    95190995.16046
  21027782.660   110501746.66809  21027778.440    86105241.55548
  24134312.720   126826656.42108  24134313.200    98825962.56546
  23451890.500   123240536.97208  23451890.760    96031598.64347
  23290276.680   122391221.91508  23290274.500    95369769.00947
  22036665.900   115803452.59209  22036662.640    90236438.66148
 15 02 13 00 35 30.0000000  0  7G16G18G21G25G27G29G31
  22371558.960   117563337.78209  22371555.320    91607781.95747
  23233200.920   122091392.87108  23233198.080    95136178.03245
  21031709.840   110522384.39509  21031705.660    86121322.90348
  24151982.840   126919513.26008  24151983.360    98898318.50345
  23438951.200   123172540.46208  23438951.360    95978614.38647
  23304080.320   122463760.57008  23304078.180    95426292.61047
  22051344.720   115880589.83109  22051341.400    90296545.57848
 15 02 13 00 36  0.0000000  0  7G16G18G21G25G27G29G31
  22356367.580   117483506.43109  22356363.880    91545575.71547
  23219845.760   122021211.23408  23219842.920    95081491.08545
  21035714.480   110543429.07809  21035710.300    86137721.35948
  24169688.360   127012555.99108  24169688.900    98970819.28346
  23426033.020   123104654.72108  23426033.040    95925716.46646
  23317888.360   122536322.12008  23317886.180    95482834.06747
  22066087.060   115958060.97009  22066083.720    90356912.67448
 15 02 13 00 36 30.0000000  0  7G16G18G21G25G27G29G31
  22341206.120   117403832.47909  22341202.380    91483492.12647
  23206522.960   121951199.50309  23206520.060    95026936.52646
  21039796.320   110564879.43709  21039792.180    86154435.92648
  24187429.120   127105783.83308  24187429.620    99043464.31646
  23413135.960   123036879.91908  23413135.860    95872904.96247
  23331700.820   122608906.77508  23331698.620    95539393.51247
  22080892.500   116035863.83209  22080889.120    90417538.25548
 15 02 13 00 37  0.0000000  0  7G16G18G21G25G27G29G31
  22326074.380   117324314.63009  22326070.640    91421530.17047
  23193232.460   121881357.41709  23193229.480    94972514.15446
  21043954.600   110586731.58709  21043950.480    86171463.57648
  24205204.340   127199192.66708  24205204.860    99116250.35546
  23400259.420   122969212.95608  23400259.220    95820177.50147
  23345516.980   122681510.90508  23345514.720    95595968.13847
  22095759.940   116113992.69409  22095756.560    90478417.86448
 15 02 13 00 37 30.0000000  0  7G16G18G21G25G27G29G31
  22310973.480   117244959.10409  22310969.820    91359694.70647
  23179975.540   121811691.76909  23179972.560    94918229.26846
  21048189.840   110608988.06308  21048185.760    86188806.28648
  24223014.520   127292785.38408  24223015.080    99189179.67646
  23387404.120   122901657.77008  23387403.880    95767537.13847
  23359337.620   122754138.27208  23359335.220    95652560.88247
  22110689.620   116192448.67309  22110686.260    90539552.36548
 15 02 13 00 38  0.0000000  0  7G16G18G21G25G27G29G31
  22295903.640   117165766.79909  22295900.020    91297986.43347
  23166752.540   121742204.43509  23166749.520    94864083.33546
  21052501.620   110631646.76408  21052497.520    86206462.42548
  24240859.340   127386560.10008  24240859.880    99262250.82546
  23374569.880   122834213.44408  23374569.600    95714983.16647
  23373162.420   122826787.73708  23373159.920    95709170.84247
  22125680.900   116271228.48909  22125677.580    90600939.21248
 15 02 13 00 38 30.0000000  0  7G16G18G21G25G27G29G31
  22280864.860   117086737.78209  22280861.320    91236405.38647
  23153563.440   121672895.32009  23153560.380    94810076.27146
  21056889.320   110654704.44108  21056885.240    86224429.44448
  24258738.100   127480513.36008  24258738.760    99335461.08845
  23361756.320   122766877.55008  23361756.020    95662513.67847
  23386990.960   122899457.11108  23386988.440    95765796.32047
  22140732.820   116350326.98909  22140729.580    90662574.38048
 15 02 13 00 39  0.0000000  0  7G16G18G21G25G27G29G31
  22265857.940   117007876.10809  22265854.380    91174954.75047
  23140409.340   121603770.09509  23140406.320    94756212.48846
  21061353.120   110678161.78208  21061349.020    86242707.90048
  24276651.080   127574646.46408  24276651.700    99408811.49946
  23348963.860   122699652.46708  23348963.480    95610130.53347
  23400823.720   122972148.49208  23400821.200    95822438.94247
  22155845.320   116429743.82009  22155842.120    90724457.60148
 15 02 13 00 39 30.0000000  0  7G16G18G21G25G27G29G31
  22250882.900   116929181.75009  22250879.280    91113634.48347
  23127290.300   121534829.17209  23127287.300    94702492.32946
  21065892.300   110702015.35209  21065888.200    86261295.09548
  24294597.620   127668956.17008  24294598.320    99482299.50545
  23336192.060   122632535.93908  23336191.620    95557831.97947
  23414660.140   123044859.22608  23414657.560    95879096.64947
  22171017.480   116509474.06409  22171014.280    90786585.03948
 15 02 13 00 40  0.0000000  0  7G16G18G21G25G27G29G31
  22235940.440   116850658.74209  22235936.800    91052447.73447
  23114207.200   121466077.08009  23114204.140    94648919.29346
  21070507.020   110726265.90109  21070502.960    86280191.62348
  24312577.920   127763443.34508  24312578.600    99555925.81145
  23323441.200   122565529.87608  23323440.740    95505619.49247
  23428500.620   123117591.26808  23428498.000    95935770.95147
  22186249.200   116589517.21709  22186245.980    90848956.29248
 15 02 13 00 40 30.0000000  0  7G16G18G21G25G27G29G31
  22221030.820   116772308.09009  22221027.120    90991395.28447
  23101160.400   121397515.64409  23101157.220    94595494.83246
  21075196.780   110750910.73509  21075192.660    86299395.38848
  24330591.580   127858105.76708  24330592.240    99629688.66645
  23310711.100   122498633.16108  23310710.660    95453492.22347
  23442344.860   123190343.33808  23442342.220    95992460.85947
  22201539.720   116669869.51509  22201536.500    90911568.44648
 15 02 13 00 41  0.0000000  0  7G16G18G21G25G27G29G31
  22206154.700   116694133.46209  22206150.960    90930480.00647
  23088150.560   121329148.51309  23088147.340    94542221.76846
  21079961.620   110775949.90209  21079957.460    86318906.43748
  24348638.700   127952943.76308  24348639.260    99703588.34545
  23298002.020   122431847.13108  23298001.680    95401451.21247
  23456193.140   123263116.46708  23456190.460    96049167.17946
  22216888.840   116750529.55909  22216885.660    90974420.40648
 15 02 13 00 41 30.0000000  0  8G16G18G21G22G25G27G29G31
  22191311.740   116616132.95209  22191307.980    90869700.40247
  23075177.560   121260975.03509  23075174.380    94489099.61446
  21084800.680   110801379.21509  21084796.440    86338721.49148
  24554029.880   129032296.47308  24554030.220   100544648.22454
  24366718.380   128047952.63608  24366718.800    99777621.18145
  23285313.340   122365168.23008  23285313.120    95349493.67247
  23470044.660   123335906.97108  23470042.000    96105887.03447
  22232295.320   116831490.91409  22232292.100    91037507.15348
 15 02 13 00 42  0.0000000  0  8G16G18G21G22G25G27G29G31
  22176501.260   116538303.35209  22176497.500    90809053.95847
  23062240.880   121192992.65909  23062237.740    94436126.36146
  21089712.540   110827191.16708  21089708.300    86358834.69548
  24536720.860   128941339.47608  24536721.560   100473773.64744
  24384829.360   128143125.95808  24384829.760    99851782.15145
  23272644.060   122298591.01108  23272643.900    95297615.35047
  23483898.460   123408709.43108  23483895.840    96162616.20146
  22247757.620   116912745.63309  22247754.380    91100822.49448
 15 02 13 00 42 30.0000000  0  8G16G18G21G22G25G27G29G31
  22161727.040   116460664.58009  22161723.360    90748556.22047
  23049344.420   121125221.70609  23049341.360    94383317.86146
  21094700.280   110853402.03808  21094696.080    86379258.75348
  24519396.940   128850304.23208  24519397.640   100402838.00944
  24402974.720   128238480.06708  24402975.180    99926083.98445
  23259997.380   122232132.94508  23259997.340    95245829.87947
  23497757.840   123481541.11208  23497755.300    96219368.13646
  22263278.580   116994308.50309  22263275.280    91164377.94048
 15 02 13 00 43  0.0000000  0  8G16G18G21G22G25G27G29G31
  22146986.660   116383203.52909  22146982.960    90688196.96747
  23036485.780   121057649.48309  23036482.760    94330664.20546
  21099760.860   110879995.71809  21099756.680    86399981.10748
  24502055.740   128759178.33808  24502056.480   100331831.68944
  24421151.420   128333998.83108  24421151.880   100000514.12545
  23247370.560   122165779.01508  23247370.560    95194125.57147
  23511619.960   123554386.86308  23511617.420    96276131.04247
  22278854.720   117076161.60509  22278851.440    91228159.55048
 15 02 13 00 43 30.0000000  0  8G16G18G21G22G25G27G29G31
  22132281.820   116305929.24909  22132278.120    90627983.25347
  23023666.880   120990285.81409  23023663.820    94278173.06146
  21104895.300   110906977.69708  21104891.220    86421006.02848
  24484699.040   128667971.32008  24484699.760   100260762.12845
  24439360.540   128429688.14008  24439361.060   100075077.14745
  23234764.960   122099536.11308  23234764.900    95142507.76147
  23525486.080   123627253.65208  23525483.540    96332910.34447
  22294486.880   117158309.23709  22294483.620    91292170.67348
 15 02 13 00 44  0.0000000  0  8G16G18G21G22G25G27G29G31
  22117612.140   116228839.83309  22117608.500    90567913.58347
  23010887.400   120923129.25409  23010884.340    94225843.31346
  21110102.660   110934342.69608  21110098.620    86442329.40548
  24467326.600   128576681.62208  24467327.220   100189628.10745
  24457601.100   128525542.78308  24457601.620   100149769.00245
  23222179.780   122033400.23608  23222179.620    95090973.34647
  23539355.460   123700137.46008  23539352.900    96389702.90447
  22310173.860   117240744.78409  22310170.580    91356406.13348
 15 02 13 00 44 30.0000000  0  8G16G18G21G22G25G27G29G31
  22102978.720   116151940.93109  22102975.120    90507992.36947
  22998148.580   120856186.33709  22998145.540    94173680.02546
  21115383.280   110962092.71408  21115379.260    86463952.80148
  24449939.500   128485314.94508  24449939.960   100118434.08045
  24475873.580   128621565.12908  24475874.220   100224591.52645
  23209615.620   121967374.85108  23209615.320    95039525.02247
  23553228.580   123773041.10308  23553226.120    96446510.92147
  22325915.780   117323468.91109  22325912.480    91420866.46348
 15 02 13 00 45  0.0000000  0  8G16G18G21G22G25G27G29G31
  22088381.440   116075231.61009  22088377.800    90448218.87647
  22985450.300   120789456.50909  22985447.240    94121682.78646
  21120736.340   110990223.27109  21120732.280    86485872.71348
  24432537.620   128393870.85908  24432537.960   100047179.68545
  24494177.120   128717750.81508  24494177.840   100299541.30545
  23197071.860   121901456.63008  23197071.460    94988160.20347
  23567104.960   123845961.77308  23567102.560    96503332.20547
  22341711.480   117406475.67509  22341708.180    91485547.02648
 15 02 13 00 45 30.0000000  0  8G16G18G21G22G25G27G29G31
  22073821.060   115998716.23109  22073817.400    90388596.51147
  22972793.460   120722944.61108  22972790.480    94069855.35746
  21126161.940   111018735.04709  21126157.880    86508089.68148
  24415121.940   128302354.27108  24415122.220    99975868.75945
  24512512.020   128814101.16807  24512512.880   100374619.41045
  23184548.900   121835648.07008  23184548.460    94936880.84347
  23580984.880   123918901.13208  23580982.500    96560168.05147
  22357560.960   117489764.87409  22357557.660    91550447.67448
 15 02 13 00 46  0.0000000  0  8G16G18G21G22G25G27G29G31
  22059297.400   115922393.81409  22059293.680    90329124.50247
  22960177.940   120656650.02309  22960175.060    94018197.26846
  21131659.280   111047623.84809  21131655.200    86530600.43148
  24397692.400   128210764.65808  24397692.640    99904500.90345
  24530877.440   128910611.84708  24530878.340   100449822.44845
  23172046.260   121769946.02709  23172045.760    94885684.47947
  23594867.900   123991856.66608  23594865.460    96617016.49247
  22373463.020   117573330.38709  22373459.680    91615563.63848
 15 02 13 00 46 30.0000000  0  8G16G18G21G22G25G27G29G31
  22044811.420   115846269.16809  22044807.620    90269806.59647
  22947604.860   120590578.22108  22947601.980    93966712.76846
  21137228.600   111076890.84509  21137224.520    86553405.88248
  24380250.040   128119107.17808  24380250.060    99833080.10845
  24549273.660   129007284.34108  24549274.680   100525151.58045
  23159564.400   121704353.09808  23159563.780    94834573.13247
  23608754.420   124064830.41408  23608751.920    96673879.12647
  22389417.600   117657172.09009  22389414.260    91680894.80248
 15 02 13 00 47  0.0000000  0  8G16G18G21G22G25G27G29G31
  22030363.080   115770342.33709  22030359.260    90210642.83748
  22935074.360   120524729.92009  22935071.380    93915402.43146
  21142869.160   111106532.03309  21142865.060    86576502.91748
  24362794.880   128027381.95208  24362794.720    99761606.50045
  24567700.020   129104115.21208  24567701.140   100600604.13345
  23147102.820   121638866.96308  23147102.140    94783545.00447
  23622643.940   124137820.34408  23622641.440    96730754.38147
  22405423.780   117741285.19109  22405420.480    91746437.44848
 15 02 13 00 47 30.0000000  0  8G16G18G21G22G25G27G29G31
  22015952.980   115694616.67209  22015949.180    90151635.82747
  22922587.040   120459108.65509  22922584.060    93864269.00446
  21148580.940   111136547.55309  21148576.860    86599891.63648
  24345327.640   127935593.13308  24345327.260    99690083.31245
  24586156.580   129201104.81308  24586157.640   100676180.35845
  23134661.820   121573489.15608  23134661.100    94732601.28947
  23636536.760   124210827.70908  23636534.300    96787643.22646
  22421481.320   117825668.34909  22421478.120    91812190.53148
 15 02 13 00 48  0.0000000  0  8G16G18G21G22G25G27G29G31
  22001582.020   115619096.65209  22001578.260    90092789.06148
  22910144.000   120393719.88409  22910140.920    93813316.74146
  21154364.160   111166938.32709  21154360.040    86623572.75948
  24327849.200   127843745.45308  24327848.620    99618514.24845
  24604643.540   129298253.90808  24604644.600   100751880.86545
  23122241.680   121508221.58408  23122241.040    94681743.47347
  23650433.280   124283854.40408  23650430.800    96844547.12146
  22437590.100   117910320.71909  22437586.940    91878153.38648
 15 02 13 00 48 30.0000000  0  8G16G18G21G22G25G27G29G31
  21987249.500   115543778.82209  21987245.760    90034099.84647
  22897744.640   120328560.60209  22897741.520    93762543.30046
  21160217.520   111197697.67309  21160213.380    86647541.08348
  24310359.060   127751836.21208  24310358.280    99546897.17645
  24623159.540   129395555.99207  24623160.400   100827700.58545
  23109841.440   121443058.91308  23109840.980    94630967.39747
  23664332.480   124356895.29008  23664330.020    96901462.08346
  22453748.560   117995234.13909  22453745.440    91944319.65748
 15 02 13 00 49  0.0000000  0  8G16G18G21G22G25G27G29G31
  21972956.820   115468670.63409  21972953.080    89975573.99448
  22885390.340   120263638.45109  22885387.220    93711954.63446
  21166141.580   111228828.65909  21166137.440    86671798.99548
  24292858.700   127659873.15408  24292857.720    99475238.12145
  24641705.400   129493014.90507  24641706.340   100903642.49745
  23097462.140   121378006.23008  23097461.820    94580277.03547
  23678235.300   124429955.32008  23678232.880    96958391.96546
  22469957.120   118080410.62309  22469954.020    92010690.91448
 15 02 13 00 49 30.0000000  0  8G16G18G21G22G25G27G29G31
  21958703.860   115393771.13109  21958700.120    89917210.74948
  22873081.020   120198952.70109  22873077.900    93661550.18146
  21172135.580   111260327.07809  21172131.380    86696343.21648
  24275347.920   127567855.44208  24275346.760    99403536.45645
  24660280.300   129590626.38507  24660281.200   100979703.29045
  23085103.180   121313060.36908  23085102.980    94529669.90147
  23692141.080   124503031.25708  23692138.700    97015334.22946
  22486214.720   118165844.64609  22486211.600    92077262.85348
 15 02 13 00 50  0.0000000  0  8G16G18G21G22G25G27G29G31
  21944490.820   115319081.34309  21944487.100    89859010.91448
  22860816.960   120134505.07208  22860813.840    93611331.28346
  21178198.880   111292189.60409  21178194.680    86721171.15048
  24257827.040   127475784.38508  24257825.820    99331793.22245
  24678883.780   129688388.04307  24678884.720   101055881.10145
  23072764.400   121248220.18908  23072764.340    94479145.10647
  23706049.640   124576121.69108  23706047.280    97072287.78946
  22502520.600   118251532.42909  22502517.480    92144032.52048
 15 02 13 00 50 30.0000000  0  8G16G18G21G22G25G27G29G31
  21930318.660   115244606.32309  21930315.000    89800978.43848
  22848599.320   120070301.32709  22848596.200    93561302.42146
  21184331.980   111324418.82609  21184327.700    86746284.82948
  24240297.120   127383665.85508  24240295.800    99260012.96645
  24697516.180   129786301.81607  24697517.140   101132177.43344
  23060446.440   121183488.78508  23060446.420    94428705.08447
  23719961.580   124649229.65508  23719959.260    97129255.00146
  22518874.840   118337474.08909  22518871.640    92211000.00848
 15 02 13 00 51  0.0000000  0  8G16G18G21G22G25G27G29G31
  21916187.300   115170345.52009  21916183.640    89743112.88347
  22836428.040   120006341.31809  22836424.940    93511463.46946
  21190533.960   111357010.29009  21190529.660    86771680.77448
  24222758.100   127291499.46408  24222756.580    99188195.40545
  24716176.820   129884363.61607  24716177.840   101208589.12945
  23048148.640   121118863.34508  23048148.580    94378347.63347
  23733876.380   124722352.14108  23733874.040    97186233.54146
  22535276.300   118423663.94109  22535273.060    92278160.90548
 15 02 13 00 51 30.0000000  0  8G16G18G21G22G25G27G29G31
  21902097.700   115096304.02509  21902094.060    89685418.22048
  22824304.200   119942630.25109  22824301.040    93461818.50446
  21196804.920   111389964.53909  21196800.660    86797359.40548
  24205210.980   127199290.57008  24205209.320    99116344.74546
  24734865.920   129982574.80507  24734867.020   101285117.22445
  23035871.500   121054346.40408  23035871.400    94328074.72348
  23747794.460   124795491.79608  23747792.140    97243225.46546
  22551724.920   118510101.72309  22551721.660    92345514.99448
 15 02 13 00 52  0.0000000  0  8G16G18G21G22G25G27G29G31
  21888049.400   115022479.65309  21888045.740    89627892.73748
  22812227.500   119879166.69809  22812224.320    93412366.39846
  21203143.920   111423276.33009  21203139.700    86823316.63848
  24187655.560   127107037.86608  24187653.860    99044459.90546
  24753582.400   130080929.96208  24753583.540   101361757.46745
  23023614.200   120989933.76108  23023614.080    94277883.07947
  23761715.100   124868644.57508  23761712.720    97300227.60447
  22568219.380   118596780.46609  22568216.120    92413056.82948
 15 02 13 00 52 30.0000000  0  8G16G18G21G22G25G27G29G31
  21874043.680   114948879.20009  21874040.020    89570541.74047
  22800199.200   119815957.48109  22800196.000    93363112.48746
  21209551.420   111456948.17709  21209547.200    86849554.44848
  24170093.080   127014747.94508  24170091.300    98972546.05846
  24772326.900   130179432.28307  24772327.940   101438512.42245
  23011377.620   120925629.93308  23011377.440    94227776.22747
  23775639.140   124941814.88508  23775636.660    97357243.41446
  22584759.960   118683701.83809  22584756.780    92480787.73348
 15 02 13 00 53  0.0000000  0  8G16G18G21G22G25G27G29G31
  21860080.380   114875501.49009  21860076.680    89513364.31248
  22788219.180   119753001.94609  22788215.960    93314056.24346
  21216026.640   111490975.76109  21216022.440    86876069.44848
