     2.11           OBSERVATION DATA    G                   RINEX VERSION / TYPE
SPIDER V4,0,0,3554                      2015 04 16 05:28    PGM / RUN BY / DATE 
CABS                                                        MARKER NAME         
CABS                                                        MARKER NUMBER       
                                                            OBSERVER / AGENCY   
462287              LEICA GRX1200PRO    8.10/2.127          REC # / TYPE / VERS 
103298              LEIAT504                                ANT # / TYPE        
  5116912.3402   671231.6412  3737143.4301                  APPROX POSITION XYZ 
        0.0600        0.0000        0.0000                  ANTENNA: DELTA H/E/N
     1     1                                                WAVELENGTH FACT L1/2
     4    C1    L1    P2    L2                              # / TYPES OF OBSERV 
    30.000                                                  INTERVAL            
  2015    02    13    00    00    0.0000000     GPS         TIME OF FIRST OBS   
  2015    02    13    23    59   30.0000000     GPS         TIME OF LAST OBS    
    16                                                      LEAP SECONDS        
    30                                                      # OF SATELLITES     
   G 1   803   803   803   803                              PRN / # OF OBS      
   G 2   941   941   941   941                              PRN / # OF OBS      
   G 3   847   847   847   847                              PRN / # OF OBS      
   G 4   831   831   831   831                              PRN / # OF OBS      
   G 5   645   645   645   645                              PRN / # OF OBS      
   G 6   832   832   832   832                              PRN / # OF OBS      
   G 7   673   673   673   673                              PRN / # OF OBS      
   G 9   807   807   807   807                              PRN / # OF OBS      
   G10   752   752   752   752                              PRN / # OF OBS      
   G11   769   769   769   769                              PRN / # OF OBS      
   G12   829   829   829   829                              PRN / # OF OBS      
   G13   792   792   792   792                              PRN / # OF OBS      
   G14   941   941   941   941                              PRN / # OF OBS      
   G15   700   700   700   700                              PRN / # OF OBS      
   G16   664   664   664   664                              PRN / # OF OBS      
   G17   943   943   943   943                              PRN / # OF OBS      
   G18   902   902   902   902                              PRN / # OF OBS      
   G19   750   750   750   750                              PRN / # OF OBS      
   G20   783   783   783   783                              PRN / # OF OBS      
   G21   739   739   739   739                              PRN / # OF OBS      
   G22   658   658   658   658                              PRN / # OF OBS      
   G23   755   755   755   755                              PRN / # OF OBS      
   G24   814   814   814   814                              PRN / # OF OBS      
   G25   855   855   855   855                              PRN / # OF OBS      
   G27   793   793   793   793                              PRN / # OF OBS      
   G28   874   874   874   874                              PRN / # OF OBS      
   G29   783   783   783   783                              PRN / # OF OBS      
   G30   718   718   718   718                              PRN / # OF OBS      
   G31   870   870   870   870                              PRN / # OF OBS      
   G32   769   769   769   769                              PRN / # OF OBS      
BIT 2 OF LLI FLAGS DATA COLLECTED UNDER A/S CONDITION       COMMENT             
SNR is mapped to RINEX snr flag value [2-9]                 COMMENT             
Lx:     = 25dBHz -> 1; 26-27dBHz -> 2; 28-31dBHz -> 3       COMMENT             
       32-35dBHz -> 4; 36-38dBHz -> 5; 39-41dBHz -> 6       COMMENT             
       42-44dBHz -> 7; 45-48dBHz -> 8; >=49dBHz -> 9        COMMENT             
                                                            END OF HEADER       
 15 02 13 00 00  0.0000000  0  6G16G18G21G25G29G31
  23669427.200   124383688.53506  23669428.780    96922359.11145
  24189679.240   127117653.10806  24189683.080    99052741.79744
  20943868.180   110060911.49508  20943868.800    85761816.55149
  22773465.080   119675559.53407  22773469.620    93253799.06647
  22029801.380   115767720.34508  22029802.960    90208756.29347
  21419853.640   112562103.91308  21419854.660    87710741.07548
 15 02 13 00 00 30.0000000  0  6G16G18G21G25G29G31
  23652187.300   124293092.67506  23652188.780    96851764.96044
  24174436.520   127037553.25405  24174440.220    98990326.48145
  20940975.080   110045707.99508  20940975.660    85749969.67349
  22788695.540   119755595.65607  22788700.080    93316164.85447
  22042195.480   115832851.49908  22042196.980    90259507.82747
  21429452.940   112612548.32308  21429453.920    87750048.38748
 15 02 13 00 01  0.0000000  0  6G16G18G21G25G29G31
  23634956.460   124202544.62206  23634957.780    96781208.06744
  24159191.700   126957442.56906  24159195.620    98927902.79643
  20938168.260   110030957.95908  20938168.800    85738476.14349
  22803976.120   119835894.87307  22803980.520    93378735.65446
  22054607.020   115898074.26208  22054608.440    90310330.73847
  21439143.860   112663474.06708  21439144.800    87789730.77348
 15 02 13 00 01 30.0000000  0  6G16G18G21G25G29G31
  23617734.900   124112044.96006  23617736.060    96710688.87045
  24143945.140   126877323.06805  24143949.500    98865472.25243
  20935447.620   110016661.07308  20935448.160    85727335.71849
  22819306.580   119916456.21707  22819310.760    93441510.70146
  22067035.740   115963387.38408  22067037.140    90361224.05447
  21448925.920   112714878.87208  21448926.820    87829786.45048
 15 02 13 00 02  0.0000000  0  6G16G18G21G25G29G31
  23600522.740   124021594.50406  23600523.760    96640208.02844
  24128697.400   126797197.04906  24128701.800    98803036.49744
  20932812.960   110002815.99808  20932813.520    85716547.35349
  22834686.400   119997277.81407  22834690.420    93504488.55046
  22079481.220   116028788.79708  22079482.580    90412186.18147
  21458798.540   112766759.74308  21458799.460    87870213.09548
 15 02 13 00 02 30.0000000  0  6G16G18G21G25G29G31
  23583320.140   123931194.24706  23583321.160    96569766.27845
  24113448.720   126717065.89305  24113453.200    98740596.82644
  20930263.900   109989420.91808  20930264.500    85706109.63449
  22850115.260   120078358.14207  22850119.360    93567668.01146
  22091943.260   116094277.31408  22091944.620    90463216.17647
  21468761.240   112819113.95608  21468762.180    87911008.57148
 15 02 13 00 03  0.0000000  0  6G16G18G21G25G29G31
  23566127.660   123840847.20706  23566128.680    96499365.99745
  24098199.820   126636933.73606  24098204.260    98678156.33545
  20927800.920   109976478.10708  20927801.560    85696024.33549
  22865593.580   120159698.35107  22865597.780    93631049.97746
  22104422.060   116159853.99008  22104423.500    90514314.86847
  21478814.000   112871941.52908  21478814.940    87952172.90448
 15 02 13 00 03 30.0000000  0  6G16G18G21G25G29G31
  23548945.260   123750553.40406  23548946.360    96429007.22245
  24082951.200   126556801.92305  24082955.520    98615716.11945
  20925423.840   109963986.53608  20925424.500    85686290.65549
  22881120.940   120241296.07407  22881125.320    93694632.61446
  22116917.140   116225516.32808  22116918.700    90565480.32147
  21488956.100   112925238.63808  21488957.060    87993703.10848
 15 02 13 00 04  0.0000000  0  6G16G18G21G25G29G31
  23531773.300   123660314.43606  23531774.540    96358691.17444
  24067703.280   126476673.03706  24067707.320    98553278.18244
  20923132.200   109951943.77408  20923132.860    85676906.69349
  22896697.180   120323150.29107  22896701.720    93758415.09846
  22129428.340   116291263.83708  22129430.060    90616712.13647
  21499187.140   112979003.26608  21499188.160    88035597.60948
 15 02 13 00 04 30.0000000  0  6G16G18G21G25G29G31
  23514612.100   123570131.47506  23514613.300    96288418.75145
  24052456.420   126396549.27705  24052460.000    98490844.23544
  20920926.060   109940350.20908  20920926.680    85667872.75249
  22912322.120   120405259.87807  22912326.800    93822396.58946
  22141955.680   116357095.59508  22141957.400    90668009.60547
  21509506.680   113033232.95108  21509507.740    88077854.49248
 15 02 13 00 05  0.0000000  0  6G16G18G21G25G29G31
  23497462.360   123480008.78606  23497463.560    96218193.30045
  24037211.500   126316435.51506  24037214.680    98428418.06044
  20918806.000   109929208.80608  20918806.540    85659191.14449
  22927996.120   120487626.81007  22928000.840    93886578.59346
  22154499.360   116423013.20508  22154501.120    90719373.96247
  21519914.920   113087928.73208  21519916.020    88120474.56548
 15 02 13 00 05 30.0000000  0  7G16G18G21G25G27G29G31
  23480324.620   123389949.47807  23480325.920    96148017.25445
  24021969.340   126236336.52506  24021972.000    98366003.41644
  20916772.100   109918520.44708  20916772.640    85650862.55949
  22943719.240   120570252.00407  22943723.940    93950961.85546
  24618932.180   129373356.66705  24618936.580   100810434.46943
  22167059.640   116489017.79008  22167061.400    90770806.08247
  21530411.720   113143089.63808  21530412.800    88163457.08548
 15 02 13 00 06  0.0000000  0  7G16G18G21G25G27G29G31
  23463196.900   123299942.84307  23463198.340    96077882.24545
  24006728.160   126156242.01806  24006730.400    98303592.23945
  20914821.780   109908271.61708  20914822.380    85642876.46449
  22959488.940   120653121.96307  22959493.620    94015535.82946
  24604150.340   129295677.35605  24604154.840   100749905.25244
  22179633.900   116555095.66808  22179635.600    90822295.31547
  21540994.280   113198701.32208  21540995.360    88206790.84648
 15 02 13 00 06 30.0000000  0  7G16G18G21G25G27G29G31
  23446082.520   123210006.56406  23446084.100    96007802.05046
  23991491.140   126076170.81906  23991493.060    98241199.22844
  20912958.200   109898478.62808  20912958.820    85635245.56749
  22975308.140   120736251.98407  22975312.720    94080312.46246
  24589385.920   129218090.25405  24589390.540   100689447.86644
  22192225.260   116621263.08908  22192226.820    90873854.32547
  21551665.340   113254777.79708  21551666.360    88250486.79548
 15 02 13 00 07  0.0000000  0  7G16G18G21G25G27G29G31
  23428981.220   123120138.66807  23428982.800    95937775.14245
  23976258.320   125996122.13506  23976260.040    98178823.72445
  20911180.660   109889137.99408  20911181.320    85627967.15749
  22991176.000   120819637.79107  22991180.440    94145288.38946
  24574637.860   129140600.03505  24574642.560   100629054.71244
  22204832.820   116687515.70608  22204834.240    90925479.71347
  21562423.820   113311313.76008  21562424.820    88294540.77348
 15 02 13 00 07 30.0000000  0  7G16G18G21G25G27G29G31
  23411892.380   123030336.15707  23411893.860    95867799.18345
  23961029.200   125916093.97806  23961031.020    98116464.23644
  20909488.060   109880243.74608  20909488.760    85621036.57949
  23007091.460   120903273.93807  23007095.720    94210459.38646
  24559906.380   129063186.00805  24559911.140   100568732.18244
  22217455.480   116753847.89408  22217456.760    90977167.11347
  21573268.380   113368302.13708  21573269.380    88338947.28448
 15 02 13 00 08  0.0000000  0  7G16G18G21G25G27G29G31
  23394816.360   122940601.11907  23394817.740    95797875.79745
  23945804.480   125836088.93506  23945806.200    98054122.72443
  20907880.520   109871796.26908  20907881.220    85614454.13549
  23023054.500   120987159.72007  23023058.440    94275824.90446
  24545190.980   128985856.43505  24545196.080   100508475.44345
  22230093.100   116820258.88508  22230094.360    91028915.92247
  21584198.640   113425740.99108  21584199.640    88383704.82148
 15 02 13 00 08 30.0000000  0  7G16G18G21G25G27G29G31
  23377753.860   122850936.87707  23377755.120    95728007.56845
  23930584.900   125756111.79305  23930586.780    97991802.98645
  20906358.280   109863796.87508  20906358.960    85608220.84549
  23039065.300   121071296.41107  23039068.960    94341385.95246
  24530492.080   128908613.35905  24530497.280   100448286.10845
  22242746.120   116886750.82808  22242747.360    91080727.80747
  21595214.640   113483630.40608  21595215.640    88428813.44448
 15 02 13 00 09  0.0000000  0  7G16G18G21G25G27G29G31
  23360704.920   122761343.80907  23360706.040    95658194.79645
  23915371.040   125676163.99606  23915372.860    97929506.09945
  20904920.940   109856243.43508  20904921.600    85602335.05149
  23055123.400   121155681.68607  23055126.920    94407140.68746
  24515809.380   128831455.42405  24515814.620   100388163.07445
  22255414.080   116953321.55708  22255415.360    91132601.09647
  21606315.660   113541966.63608  21606316.680    88474270.23648
 15 02 13 00 09 30.0000000  0  7G16G18G21G25G27G29G31
  23343669.960   122671824.38207  23343671.040    95588439.41745
  23900163.340   125596248.92205  23900165.500    97867234.72745
  20903568.600   109849136.77208  20903569.240    85596797.39849
  23071228.680   121240315.49407  23071232.400    94473089.08646
  24501143.120   128754383.49405  24501148.380   100328107.11744
  22268096.960   117019971.11108  22268098.360    91184535.79947
  21617501.420   113600748.17008  21617502.440    88520074.01548
 15 02 13 00 10  0.0000000  0  7G16G18G21G25G27G29G31
  23326648.940   122582378.70707  23326650.060    95518741.49544
  23884962.280   125516367.44306  23884964.420    97804989.53444
  20902300.880   109842474.92408  20902301.520    85591606.35449
  23087380.740   121325195.19707  23087384.680    94539229.10646
  24486492.920   128677395.82105  24486498.300   100268116.76445
  22280794.440   117086697.32108  22280796.020    91236530.22847
  21628771.200   113659971.26108  21628772.220    88566221.86848
 15 02 13 00 10 30.0000000  0  7G16G18G21G25G27G29G31
  23309642.620   122493010.13107  23309643.720    95449103.67445
  23869768.480   125436523.82406  23869770.540    97742773.81144
  20901117.880   109836258.42708  20901118.560    85586762.33649
  23103579.700   121410321.52207  23103583.920    94605561.29546
  24471859.060   128600494.09005  24471864.380   100208193.40445
  22293506.700   117153501.09708  22293508.400    91288585.10447
  21640124.940   113719635.54708  21640125.960    88612713.50848
 15 02 13 00 11  0.0000000  0  7G16G18G21G25G27G29G31
  23292651.160   122403719.51107  23292652.240    95379526.58845
  23854582.360   125356720.28206  23854584.360    97680589.32144
  20900019.500   109830486.48508  20900020.160    85582264.71949
  23119825.380   121495693.20707  23119829.800    94672084.68246
  24457241.340   128523677.84905  24457246.560   100148336.65945
  22306233.560   117220381.32708  22306235.300    91340699.54847
  21651562.080   113779738.17308  21651563.080    88659546.71348
 15 02 13 00 11 30.0000000  0  7G16G18G21G25G27G29G31
  23275674.960   122314509.10707  23275676.120    95310012.00245
  23839404.520   125276959.48006  23839406.380    97618438.14743
  20899005.680   109825158.97808  20899006.360    85578113.41949
  23136117.560   121581309.42207  23136122.100    94738798.60146
  24442639.920   128446947.24005  24442645.060   100088546.64745
  22318974.960   117287337.54108  22318976.680    91392873.20147
  21663082.240   113840276.90408  21663083.200    88706719.73048
 15 02 13 00 12  0.0000000  0  7G16G18G21G25G27G29G31
  23258714.400   122225380.72607  23258715.660    95240561.34646
  23824235.180   125197244.48106  23824237.240    97556322.63045
  20898076.340   109820275.26308  20898077.000    85574307.93349
  23152456.140   121667169.36307  23152460.640    94805702.43346
  24428054.800   128370302.42405  24428059.880   100028823.48145
  22331730.800   117354369.32108  22331732.460    91445105.73047
  21674685.000   113901249.85108  21674685.960    88754231.10748
 15 02 13 00 12 30.0000000  0  7G16G18G21G25G27G29G31
  23241769.560   122136335.21407  23241770.940    95171175.24745
  23809074.980   125117577.16806  23809077.160    97494244.24444
  20897231.260   109815834.28008  20897231.900    85570847.43349
  23168840.840   121753271.89207  23168845.260    94872795.28646
  24413486.060   128293743.12605  24413491.020    99969166.99444
  22344500.860   117421475.93708  22344502.420    91497396.58047
  21686369.920   113962654.27808  21686370.840    88802078.69448
 15 02 13 00 13  0.0000000  0  7G16G18G21G25G27G29G31
  23224841.000   122047375.30107  23224842.460    95101855.85945
  23793924.480   125037961.14206  23793926.940    97432205.86445
  20896470.420   109811836.07308  20896471.080    85567731.94949
  23185271.580   121839616.60707  23185275.940    94940076.84146
  24398933.720   128217269.99005  24398938.540    99909577.61744
  22357285.180   117488657.35408  22357286.580    91549745.71547
  21698136.640   114024488.77008  21698137.580    88850261.39948
 15 02 13 00 13 30.0000000  0  7G16G18G21G25G27G29G31
  23207928.880   121958501.85007  23207930.420    95032603.83645
  23778784.100   124958397.85906  23778786.480    97370208.58245
  20895793.620   109808279.46208  20895794.300    85564960.56849
  23201748.080   121926201.62707  23201752.320    95007545.67046
  24384397.500   128140881.96405  24384402.140    99850054.57444
  22370083.340   117555911.88908  22370084.700    91602151.82647
  21709984.460   114086749.62108  21709985.480    88898776.34148
 15 02 13 00 14  0.0000000  0  7G16G18G21G25G27G29G31
  23191033.620   121869716.83307  23191035.080    94963420.72445
  23763654.320   124878890.47506  23763656.840    97308254.87145
  20895200.680   109805163.45508  20895201.360    85562532.51649
  23218270.240   122013026.34807  23218274.400    95075201.26845
  24369877.540   128064579.46905  24369881.980    99790598.15844
  22382895.340   117623239.48708  22382896.720    91654614.87547
  21721913.100   114149435.11808  21721914.180    88947622.17348
 15 02 13 00 14 30.0000000  0  7G16G18G21G25G27G29G31
  23174155.660   121781022.48107  23174156.940    94894308.25845
  23748535.760   124799442.16905  23748538.240    97246347.16745
  20894691.740   109802488.87308  20894692.440    85560448.43349
  23234837.980   122100090.12007  23234842.100    95143043.15645
  24355373.920   127988362.81005  24355378.300    99731208.64644
  22395721.200   117690639.88708  22395722.620    91707134.65247
  21733922.160   114212543.30408  21733923.300    88996797.36948
 15 02 13 00 15  0.0000000  0  7G16G18G21G25G27G29G31
  23157295.060   121692419.32707  23157296.160    94825266.86045
  23733428.920   124720054.33006  23733431.260    97184486.61645
  20894266.300   109800253.27308  20894267.040    85558706.41149
  23251450.860   122187390.77107  23251454.920    95211069.62146
  24340886.380   127912230.83005  24340890.740    99671885.12444
  22408560.520   117758111.23708  22408562.100    91759709.71647
  21746011.000   114276070.65308  21746012.140    89046299.19148
 15 02 13 00 15 30.0000000  0  7G16G18G21G25G27G29G31
  23140452.440   121603910.68607  23140453.420    94756299.10845
  23718334.320   124640731.19606  23718336.480    97122676.44945
  20893924.600   109798457.72708  20893925.380    85557307.28949
  23268108.940   122274928.95807  23268113.060    95279281.18946
  24326415.320   127836185.17805  24326419.580    99612628.82045
  22421413.600   117825654.75408  22421415.300    91812341.01647
  21758179.440   114340016.19508  21758180.560    89096126.87148
 15 02 13 00 16  0.0000000  0  7G16G18G21G25G27G29G31
  23123627.960   121515497.37807  23123628.820    94687405.62445
  23703252.220   124561474.12006  23703254.240    97060917.76945
  20893666.300   109797100.31708  20893667.060    85556249.56949
  23284811.880   122362702.77507  23284816.020    95347676.35246
  24311960.500   127760224.77805  24311964.880    99553438.99944
  22434280.120   117893268.82508  22434281.880    91865027.29147
  21770426.880   114404376.65308  21770427.920    89146277.86348
 15 02 13 00 16 30.0000000  0  7G16G18G21G25G27G29G31
  23106822.180   121427182.51807  23106823.060    94618588.85645
  23688183.320   124482287.39406  23688185.380    96999213.90845
  20893491.500   109796181.80008  20893492.260    85555533.84749
  23301559.680   122450712.38807  23301563.940    95416255.26346
  24297522.080   127684350.97005  24297526.700    99494316.60245
  22447160.300   117960954.31008  22447162.060    91917769.21947
  21782753.040   114469150.99808  21782754.040    89196751.35648
 15 02 13 00 17  0.0000000  0  7G16G18G21G25G27G29G31
  23090035.440   121338967.71507  23090036.320    94549850.05246
  23673128.140   124403173.69406  23673130.440    96937566.92545
  20893400.120   109795701.45608  20893400.840    85555159.55949
  23318352.040   122538956.75907  23318356.420    95485017.08446
  24283100.140   127608563.55805  24283105.000    99435261.55244
  22460053.860   118028710.34108  22460055.660    91970566.12247
  21795157.480   114534336.56208  21795158.460    89247545.29248
 15 02 13 00 17 30.0000000  0  7G16G18G21G25G27G29G31
  23073267.800   121250853.16707  23073268.700    94481189.37146
  23658087.060   124324134.20805  23658089.400    96875977.77045
  20893391.680   109795656.95408  20893392.340    85555124.88449
  23335188.520   122627433.56006  23335193.060    95553960.03046
  24268694.440   127532861.36405  24268699.460    99376272.89346
  22472960.480   118096535.26308  22472962.280    92023416.69647
  21807639.540   114599930.01008  21807640.520    89298657.05348
 15 02 13 00 18  0.0000000  0  7G16G18G21G25G27G29G31
  23056519.660   121162841.12007  23056520.640    94412608.56746
  23643060.660   124245171.56206  23643063.140    96814448.49544
  20893466.080   109796047.80208  20893466.700    85555429.45049
  23352069.000   122716141.94306  23352073.740    95623083.42946
  24254304.940   127457244.54605  24254310.020    99317350.77146
  22485880.100   118164428.69208  22485881.960    92076320.64947
  21820198.740   114665928.77508  21820199.740    89350084.64248
 15 02 13 00 18 30.0000000  0  7G16G18G21G25G27G29G31
  23039791.480   121074933.84107  23039792.520    94344109.40246
  23628049.540   124166288.76306  23628052.000    96752981.42644
  20893623.380   109796874.18808  20893623.960    85556073.39749
  23368993.460   122805081.40306  23368998.260    95692386.86346
  24239931.760   127381713.52505  24239936.780    99258495.48345
  22498812.900   118232390.96308  22498814.760    92129278.24847
  21832834.680   114732330.86208  21832835.700    89401826.52048
 15 02 13 00 19  0.0000000  0  7G16G18G21G25G27G29G31
  23023083.300   120987131.89207  23023084.480    94275692.30946
  23613054.100   124087487.90606  23613056.540    96691578.23445
  20893862.940   109798133.04708  20893863.500    85557054.33049
  23385961.540   122894249.49406  23385966.300    95761868.46845
  24225574.580   127306266.88905  24225579.560    99199705.96845
  22511758.540   118300419.93508  22511760.200    92182287.81847
  21845546.680   114799132.67608  21845547.700    89453879.87148
 15 02 13 00 19 30.0000000  0  7G16G18G21G25G27G29G31
  23006395.500   120899437.39707  23006396.800    94207358.94046
  23598074.800   124008771.34006  23598077.160    96630240.70845
  20894184.880   109799825.00108  20894185.480    85558372.74049
  23402973.140   122983645.31706  23402977.560    95831527.53745
  24211233.480   127230904.89805  24211238.580    99140982.41445
  22524716.780   118368514.99508  22524718.200    92235348.88747
  21858334.240   114866331.72608  21858335.260    89506242.74948
 15 02 13 00 20  0.0000000  0  7G16G18G21G25G27G29G31
  22989728.580   120811852.23807  22989729.900    94139110.78946
  23583112.220   123930142.27306  23583114.420    96568971.34845
  20894589.000   109801948.81508  20894589.620    85560027.66849
  23420027.920   123073268.17607  23420032.080    95901363.50446
  24196908.560   127155627.73405  24196913.620    99082324.94145
  22537687.640   118436676.38908  22537688.880    92288461.64347
  21871196.920   114933925.93608  21871198.020    89558913.54748
 15 02 13 00 20 30.0000000  0  7G16G18G21G25G27G29G31
  22973082.880   120724378.37907  22973084.200    94070949.35346
  23568166.840   123851603.24306  23568168.960    96507772.16145
  20895075.180   109804503.77408  20895075.800    85562018.54549
  23437125.800   123163117.19107  23437129.680    95971375.71944
  24182600.000   127080435.72005  24182604.780    99023733.85846
  22550670.980   118504903.38408  22550672.120    92341625.52147
  21884134.360   115001913.00508  21884135.520    89611890.46648
 15 02 13 00 21  0.0000000  0  7G16G18G21G25G27G29G31
  22956458.760   120637017.56807  22956460.020    94002875.99646
  23553239.100   123773156.64306  23553241.080    96446644.98845
  20895643.120   109807488.30908  20895643.720    85564344.16149
  23454266.400   123253190.86907  23454270.120    96041562.99945
  24168307.620   127005328.32805  24168312.200    98965208.68345
  22563666.660   118573195.83808  22563667.840    92394840.39447
  21897145.980   115070289.95208  21897147.260    89665171.19448
 15 02 13 00 21 30.0000000  0  7G16G18G21G25G27G29G31
  22939857.000   120549774.30507  22939858.180    93934894.25146
  23538329.940   123694808.01406  23538331.940    96385594.18344
  20896293.400   109810905.48508  20896293.980    85567006.90149
  23471449.960   123343490.92007  23471453.780    96111926.63846
  24154031.880   126930308.38205  24154036.300    98906751.65645
  22576675.040   118641555.68908  22576676.340    92448107.79847
  21910231.940   115139057.29408  21910233.260    89718756.12148
 15 02 13 00 22  0.0000000  0  7G16G18G21G25G27G29G31
  22923277.400   120462647.95007  22923278.560    93867003.58346
  23523439.540   123616557.70606  23523441.460    96324619.95645
  20897025.300   109814751.69808  20897025.900    85570003.95549
  23488675.860   123434013.84306  23488679.880    96182463.96945
  24139772.340   126855373.43405  24139776.600    98848360.85346
  22589695.640   118709979.89208  22589697.060    92501425.35347
  21923391.240   115208209.78008  21923392.520    89772641.16148
 15 02 13 00 22 30.0000000  0  7G16G18G21G25G27G29G31
  22906720.780   120375642.64807  22906721.960    93799207.25246
  23508568.600   123538410.25206  23508570.520    96263725.88545
  20897839.060   109819028.07208  20897839.680    85573336.19949
  23505944.280   123524760.64406  23505948.520    96253175.74546
  24125529.320   126780525.55106  24125533.620    98790037.89545
  22602728.800   118778470.11208  22602730.320    92554794.34347
  21936623.720   115277746.87908  21936625.020    89826825.90148
 15 02 13 00 23  0.0000000  0  7G16G18G21G25G27G29G31
  22890187.100   120288758.10207  22890188.320    93731505.01646
  23493717.180   123460365.98306  23493719.260    96202912.21745
  20898734.060   109823731.32408  20898734.680    85577001.07649
  23523254.520   123615727.88806  23523259.140    96324059.29445
  24111302.340   126705762.45405  24111306.780    98731780.98245
  22615774.120   118847024.01508  22615775.680    92608212.96947
  21949928.600   115347664.13308  21949929.820    89881306.86348
 15 02 13 00 23 30.0000000  0  7G16G18G21G25G27G29G31
  22873677.100   120201997.60007  22873678.280    93663899.43646
  23478886.280   123382429.70306  23478888.500    96142182.70746
  20899710.500   109828862.54508  20899711.140    85580999.43749
  23540606.860   123706916.32006  23540611.840    96395115.17946
  24097091.740   126631085.92705  24097096.340    98673591.55345
  22628831.700   118915642.39808  22628833.280    92661681.82647
  21963305.660   115417960.63408  21963306.780    89936083.34048
 15 02 13 00 24  0.0000000  0  7G16G18G21G25G27G29G31
  22857190.660   120115360.50507  22857191.700    93596390.00546
  23464075.900   123304601.51106  23464078.260    96081537.41246
  20900767.620   109834417.88008  20900768.300    85585328.27549
  23558000.800   123798322.42706  23558006.020    96466340.68346
  24082897.140   126556493.55505  24082901.900    98615467.67645
  22641901.120   118984322.93108  22641902.740    92715199.10447
  21976753.940   115488631.33108  21976754.960    89991151.39748
 15 02 13 00 24 30.0000000  0  7G16G18G21G25G27G29G31
  22840728.220   120028849.61007  22840729.160    93528978.91246
  23449286.720   123226884.50506  23449289.140    96020978.74946
  20901905.440   109840397.23208  20901906.160    85589987.51749
  23575436.080   123889945.37906  23575441.360    96537735.16246
  24068718.640   126481985.66805  24068723.480    98557409.63345
  22654982.300   119053065.13008  22654983.920    92768764.43446
  21990272.940   115559673.95908  21990273.900    90046509.26848
 15 02 13 00 25  0.0000000  0  7G16G18G21G25G27G29G31
  22824290.300   119942467.42307  22824291.180    93461668.11846
  23434519.320   123149282.31906  23434521.820    95960509.54245
  20903123.860   109846800.23308  20903124.600    85594976.87049
  23592912.740   123981784.85706  23592917.920    96609298.36145
  24054556.360   126407563.02805  24054561.220    98499418.00245
  22668075.340   119121869.57708  22668076.940    92822378.26847
  22003862.360   115631086.75408  22003863.320    90102155.58348
 15 02 13 00 25 30.0000000  0  7G16G18G21G25G27G29G31
  22807877.180   119856215.94607  22807878.080    93394459.18046
  23419774.100   123071796.88706  23419776.740    95900131.35045
  20904422.680   109853625.53108  20904423.400    85600295.28649
  23610430.380   124073839.33606  23610435.400    96681029.09546
  24040410.280   126333225.21405  24040415.140    98441492.48145
  22681180.140   119190735.46108  22681181.740    92876039.98247
  22017521.580   115702866.79108  22017522.660    90158088.06248
 15 02 13 00 26  0.0000000  0  7G16G18G21G25G27G29G31
  22791489.100   119770096.29607  22791490.120    93327352.96946
  23405051.680   122994430.63406  23405054.300    95839845.99945
  20905801.760   109860872.61908  20905802.480    85605942.36849
  23627988.560   124166107.53006  23627993.460    96752926.37146
  24026280.380   126258972.13905  24026285.200    98383632.99845
  22694296.540   119259662.32508  22694298.180    92929749.20647
  22031250.120   115775011.30008  22031251.400    90214304.55248
 15 02 13 00 26 30.0000000  0  7G16G18G21G25G27G29G31
  22775126.440   119684109.97107  22775127.500    93260350.64346
  23390352.640   122917186.21806  23390355.060    95779655.59544
  20907260.740   109868539.51608  20907261.440    85611916.57749
  23645587.020   124258587.79906  23645591.760    96824988.87345
  24012166.560   126184803.21405  24012171.280    98325839.08946
  22707424.360   119328649.19808  22707426.020    92983505.18847
  22045047.440   115847517.29208  22045048.900    90270802.71148
 15 02 13 00 27  0.0000000  0  7G16G18G21G25G27G29G31
  22758790.080   119598261.94307  22758791.160    93193456.07847
  23375677.980   122840069.30107  23375680.140    95719564.53544
  20908800.000   109876628.30308  20908800.660    85618219.52849
  23663226.060   124351281.85006  23663230.720    96897218.00245
  23998069.340   126110721.38405  23998073.900    98268113.02245
  22720563.960   119397698.39907  22720565.720    93037309.74847
  22058913.700   115920384.96708  22058915.220    90327582.70348
 15 02 13 00 27 30.0000000  0  7G16G18G21G25G27G29G31
  22742480.280   119512553.36807  22742481.340    93126670.17547
  23361027.820   122763080.80307  23361029.580    95659573.53545
  20910419.160   109885137.11508  20910419.820    85624849.77749
  23680905.220   124444187.52206  23680909.840    96969612.00145
  23983988.420   126036725.57406  23983992.920    98210453.98845
  22733715.220   119466808.96007  22733717.060    93091162.10947
  22072848.160   115993610.38308  22072849.580    90384641.45548
 15 02 13 00 28  0.0000000  0  7G16G18G21G25G27G29G31
  22726196.900   119426983.92607  22726198.000    93059992.68346
  23346402.240   122686221.91307  23346403.620    95599683.52144
  20912117.560   109894062.34308  20912118.220    85631804.50749
  23698624.060   124537301.62706  23698628.640    97042168.42245
  23969923.540   125962813.74505  23969928.000    98152860.41846
  22746877.680   119535978.15407  22746879.560    93145060.17047
  22086849.840   116067189.10908  22086851.140    90441975.50548
 15 02 13 00 28 30.0000000  0  7G16G18G21G25G27G29G31
  22709940.480   119341556.46107  22709941.680    92993425.83846
  23331801.760   122609495.78307  23331802.960    95539896.95545
  20913895.260   109903404.25108  20913895.920    85639083.91649
  23716382.580   124630623.60506  23716387.000    97114886.83045
  23955874.780   125888986.62406  23955879.080    98095332.83945
  22760051.320   119605206.05007  22760053.180    93199003.97047
  22100918.340   116141119.06908  22100919.440    90499583.24348
 15 02 13 00 29  0.0000000  0  7G16G18G21G25G27G29G31
  22693711.660   119256273.81207  22693712.920    92926971.83846
  23317227.220   122532906.78607  23317228.500    95480217.27145
  20915752.220   109913162.82808  20915752.900    85646688.00049
  23734180.760   124724153.43306  23734185.060    97187767.18345
  23941842.240   125815245.28106  23941846.480    98037872.09345
  22773236.360   119674493.96807  22773238.220    93252994.54847
  22115053.320   116215398.65608  22115054.260    90557463.41848
 15 02 13 00 29 30.0000000  0  7G16G18G21G25G27G29G31
  22677510.820   119171137.62607  22677512.040    92860631.96146
  23302678.980   122456456.31507  23302680.280    95420645.49545
  20917688.120   109923336.08308  20917688.800    85654615.21749
  23752018.140   124817889.11206  23752022.400    97260807.95345
  23927825.880   125741588.93005  23927829.960    97980477.58146
  22786432.560   119743840.67207  22786434.500    93307030.92047
  22129254.100   116290024.44508  22129254.980    90615613.35948
 15 02 13 00 30  0.0000000  0  7G16G18G21G25G27G29G31
  22661337.940   119086148.21607  22661339.120    92794406.45347
  23288157.340   122380146.03406  23288158.880    95361182.97245
  20919702.440   109933921.67408  20919703.160    85662863.73249
  23769894.300   124911828.15706  23769898.500    97334007.18045
  23913825.480   125668016.24205  23913829.420    97923148.27545
  22799639.640   119813244.29907  22799641.620    93361111.66047
  22143520.040   116364992.68108  22143520.980    90674030.15248
 15 02 13 00 30 30.0000000  0  7G16G18G21G25G27G29G31
  22645194.020   119001310.89507  22645195.120    92728299.44347
  23273663.560   122303981.89407  23273665.400    95301834.32845
  20921795.720   109944921.95808  20921796.420    85671435.38249
  23787809.520   125005972.71706  23787813.880    97407366.54346
  23899841.560   125594530.61705  23899845.480    97865886.76846
  22812858.080   119882707.83507  22812860.100    93415239.07247
  22157851.300   116440303.69608  22157852.260    90732714.03948
 15 02 13 00 31  0.0000000  0  7G16G18G21G25G27G29G31
  22629078.900   118916625.46207  22629080.000    92662310.79047
  23259197.700   122227963.86507  23259199.720    95242599.51845
  20923967.320   109956333.70408  20923967.960    85680327.65949
  23805763.140   125100319.34006  23805767.700    97480883.35746
  23885873.760   125521129.72105  23885877.760    97808691.32646
  22826087.520   119952228.72507  22826089.500    93469411.17447
  22172246.940   116515952.95308  22172247.980    90791661.49448
 15 02 13 00 31 30.0000000  0  7G16G18G21G25G27G29G31
  22612992.900   118832093.40307  22612994.100    92596441.66147
  23244760.240   122152094.40107  23244762.340    95183480.50245
  20926216.860   109968155.01708  20926217.460    85689539.07449
  23823754.900   125194865.91506  23823759.620    97554555.98045
  23871921.880   125447812.82805  23871926.060    97751561.29546
  22839327.740   120021805.88607  22839329.600    93523627.12747
  22186706.240   116591936.74608  22186707.360    90850869.62148
 15 02 13 00 32  0.0000000  0  7G16G18G21G25G27G29G31
  22596936.680   118747717.47908  22596937.940    92530694.18247
  23230351.820   122076376.86207  23230353.840    95124479.85445
  20928544.300   109980385.63608  20928544.880    85699069.42549
  23841784.700   125289612.26006  23841789.500    97628384.27345
  23857986.180   125374580.79005  23857990.520    97694497.40446
  22852578.720   120091439.78607  22852580.500    93577887.29947
  22201228.740   116668252.98808  22201229.980    90910336.80448
 15 02 13 00 32 30.0000000  0  7G16G18G21G25G27G29G31
  22580910.540   118663499.16408  22580911.740    92465069.52346
  23215972.760   122000813.26507  23215974.600    95065599.14146
  20930949.240   109993023.58108  20930949.780    85708917.17849
  23859852.140   125384556.38906  23859856.920    97702366.67045
  23844066.560   125301433.02605  23844071.060    97637499.17447
  22865840.300   120161129.63307  22865842.060    93632191.05747
  22215813.900   116744898.61508  22215815.240    90970060.65848
 15 02 13 00 33  0.0000000  0  7G16G18G21G25G27G29G31
  22564915.280   118579443.34508  22564916.420    92399571.48447
  23201623.980   121925409.18907  23201625.800    95006842.75145
  20933432.120   110006071.04108  20933432.620    85719084.03049
  23877957.440   125479700.18806  23877962.280    97776504.64645
  23830163.520   125228372.44405  23830168.140    97580568.89147
  22879113.020   120230878.39207  22879114.800    93686540.71947
  22230461.780   116821874.03108  22230463.180    91030041.48048
 15 02 13 00 33 30.0000000  0  7G16G18G21G25G27G29G31
  22548950.620   118495548.34308  22548951.740    92334198.75847
  23187305.280   121850163.71807  23187307.140    94948209.95145
  20935991.960   110019523.06708  20935992.460    85729566.13049
  23896099.760   125575038.32906  23896104.460    97850794.08044
  23816276.500   125155376.18106  23816281.100    97523686.51446
  22892396.020   120300681.57707  22892397.980    93740932.79547
  22245171.060   116899172.24508  22245172.520    91090273.83247
 15 02 13 00 34  0.0000000  0  7G16G18G21G25G27G29G31
  22533017.380   118411818.68108  22533018.520    92268954.86747
  23173017.580   121775081.95707  23173019.640    94889704.70846
  20938629.080   110033381.15008  20938629.540    85740364.63949
  23914279.260   125670572.22306  23914283.820    97925236.05045
  23802405.740   125082484.77206  23802410.360    97466888.04446
  22905689.820   120370541.53307  22905691.920    93795369.11447
  22259941.840   116976793.24608  22259943.240    91150757.70747
 15 02 13 00 34 30.0000000  0  7G16G18G21G25G27G29G31
  22517115.740   118328255.05108  22517116.900    92203840.35447
  23158761.280   121700165.19407  23158763.480    94831328.04045
  20941342.900   110047642.56808  20941343.400    85751477.42549
  23932495.260   125766299.18406  23932499.960    97999828.43044
  23788551.160   125009677.80106  23788555.460    97410155.38646
  22918994.100   120440456.35107  22918996.320    93849848.18247
  22274773.300   117054732.85308  22274774.620    91211489.84447
 15 02 13 00 35  0.0000000  0  7G16G18G21G25G27G29G31
  22501246.500   118244861.71908  22501247.680    92138858.54547
  23144537.360   121625418.21907  23144539.500    94773083.67045
  20944133.660   110062308.26508  20944134.180    85762905.24849
  23950748.020   125862220.21405  23950752.900    98074572.05945
  23774713.020   124936957.56606  23774717.100    97353490.28746
  22932309.100   120510427.76307  22932311.500    93904371.35046
  22289665.280   117132990.47808  22289666.580    91272469.78947
 15 02 13 00 35 30.0000000  0  7G16G18G21G25G27G29G31
  22485409.580   118161638.13508  22485410.740    92074009.00547
  23130345.820   121550841.33607  23130347.780    94714971.85045
  20947000.660   110077374.64908  20947001.220    85774645.29549
  23969037.160   125958331.31006  23969042.140    98149463.80444
  23760890.760   124864321.37306  23760894.760    97296890.68246
  22945634.460   120580453.28107  22945636.940    93958936.67947
  22304616.800   117211560.79708  22304618.040    91333693.39648
 15 02 13 00 36  0.0000000  0  7G16G18G21G25G27G29G31
  22469605.240   118078585.78608  22469606.340    92009292.89547
  23116187.020   121476436.38907  23116188.780    94656993.99445
  20949943.540   110092839.69608  20949944.140    85786695.99149
  23987362.380   126054630.56306  23987367.100    98224502.14843
  23747084.280   124791768.55806  23747088.300    97240356.05446
  22958970.000   120650531.84807  22958972.440    94013543.34546
  22319627.100   117290440.11208  22319628.320    91395157.77847
 15 02 13 00 36 30.0000000  0  7G16G18G21G25G27G29G31
  22453833.840   117995706.68208  22453834.880    91944711.78047
  23102061.460   121402205.82607  23102062.980    94599152.03446
  20952961.980   110108701.87608  20952962.640    85799056.13149
  24005723.380   126151116.60006  24005727.700    98299686.04245
  23733293.700   124719299.02106  23733297.700    97183886.31746
  22972315.640   120720663.31307  22972317.980    94068191.22547
  22334695.640   117369625.80308  22334696.880    91456860.90047
 15 02 13 00 37  0.0000000  0  7G16G18G21G25G27G29G31
  22438096.240   117913005.32808  22438097.280    91880269.17247
  23087970.060   121328154.99607  23087971.480    94541450.11345
  20956056.380   110124963.02108  20956057.040    85811727.15849
  24024120.240   126247790.72406  24024124.280    98375016.50844
  23719519.460   124646915.42406  23719523.460    97127483.54746
  22985671.700   120790849.71107  22985673.940    94122881.91546
  22349822.460   117449117.66608  22349823.680    91518802.58647
 15 02 13 00 37 30.0000000  0  7G16G18G21G25G27G29G31
  22422392.800   117830483.46408  22422393.800    91815966.43147
  23073913.280   121254286.13107  23073914.660    94483889.98745
  20959226.320   110141621.19208  20959226.980    85824707.55349
  24042552.540   126344651.06206  24042556.300    98450492.05344
  23705761.480   124574617.20306  23705765.360    97071147.31846
  22999038.000   120861090.20207  22999040.180    94177614.75046
  22365006.860   117528912.13408  22365008.020    91580980.07447
 15 02 13 00 38  0.0000000  0  7G16G18G21G25G27G29G31
  22406723.860   117748142.48208  22406724.820    91751804.62947
  23059891.500   121180601.45907  23059893.020    94426473.38245
  20962471.520   110158674.72008  20962472.140    85837996.01649
  24061019.800   126441695.86006  24061023.580    98526111.34545
  23692019.720   124502403.88205  23692023.540    97014877.20745
  23012414.540   120931384.05007  23012416.620    94232389.16146
  22380248.280   117609006.20508  22380249.360    91643391.01447
 15 02 13 00 38 30.0000000  0  7G16G18G21G25G27G29G31
  22391089.740   117665984.48208  22391090.700    91687785.41947
  23045905.140   121107102.77807  23045906.800    94369201.70145
  20965791.720   110176122.35208  20965792.300    85851591.57149
  24079521.640   126538923.37206  24079525.720    98601873.01945
  23678294.040   124430274.98106  23678297.840    96958672.90145
  23025801.160   121001730.95607  23025803.160    94287204.91346
  22395546.060   117689396.56908  22395547.100    91706032.82347
 15 02 13 00 39  0.0000000  0  7G16G18G21G25G27G29G31
  22375491.140   117584013.06208  22375492.120    91623911.59147
  23031955.160   121033795.16107  23031956.960    94312078.89745
  20969186.980   110193964.33208  20969187.500    85865494.41549
  24098058.140   126636334.12306  24098062.680    98677777.47146
  23664584.820   124358232.48606  23664588.560    96902535.92245
  23039198.220   121072132.46907  23039200.160    94342063.22146
  22410900.040   117770082.13908  22410901.080    91768904.67947
 15 02 13 00 39 30.0000000  0  7G16G18G21G25G27G29G31
  22359927.960   117502228.03908  22359929.000    91560183.01647
  23018041.600   120960678.80807  23018043.500    94255105.13646
  20972656.560   110212197.01408  20972657.060    85879701.70049
  24116628.640   126733924.35206  24116633.720    98753821.77245
  23650891.640   124286273.92206  23650895.340    96846464.35346
  23052605.160   121142585.67007  23052607.020    94396961.80546
  22426309.180   117851057.69008  22426310.280    91832002.48347
 15 02 13 00 40  0.0000000  0  7G16G18G21G25G27G29G31
  22344401.240   117420634.77908  22344402.360    91496603.86747
  23004165.520   120887759.34207  23004167.480    94198284.79745
  20976200.840   110230822.45008  20976201.380    85894215.02649
  24135233.480   126831696.06505  24135239.200    98830007.47645
  23637214.920   124214402.52806  23637218.780    96790460.70446
  23066022.460   121213093.71607  23066024.300    94451903.12347
  22441773.620   117932323.81008  22441774.840    91895326.71648
 15 02 13 00 40 30.0000000  0  7G16G18G21G25G27G29G31
  22328910.620   117339230.86708  22328911.700    91433172.25547
  22990326.580   120815035.08707  22990328.560    94141616.55545
  20979818.700   110249834.48708  20979819.280    85909029.59349
  24153871.880   126929643.12105  24153877.980    98906329.83545
  23623553.920   124142613.69606  23623557.920    96734521.38746
  23079449.220   121283651.81107  23079451.080    94506883.43447
  22457291.960   118013873.07208  22457293.260    91958871.58147
 15 02 13 00 41  0.0000000  0  7G16G18G21G25G27G29G31
  22313456.720   117258019.92208  22313457.740    91369891.00747
  22976525.400   120742509.50707  22976527.420    94085103.14246
  20983510.100   110269233.10908  20983510.700    85924145.40449
  24172543.860   127027765.53505  24172549.960    98982788.79745
  23609908.940   124070908.72906  23609912.980    96678647.41046
  23092885.640   121354260.80907  23092887.580    94561903.41046
  22472863.840   118095703.89608  22472865.200    92022635.82847
 15 02 13 00 41 30.0000000  0  7G16G18G21G25G27G29G31
  22298040.120   117177004.96108  22298041.100    91306762.48347
  22962762.780   120670186.79207  22962764.760    94028747.79346
  20987275.200   110289019.04608  20987275.860    85939563.01549
  24191249.400   127126063.32505  24191255.320    99059384.44745
  23596280.160   123999289.00406  23596284.260    96622839.86247
  23106331.860   121424921.85707  23106333.920    94616963.94946
  22488488.960   118177814.50508  22488490.360    92086618.10347
 15 02 13 00 42  0.0000000  0  7G16G18G21G25G27G29G31
  22282660.960   117096187.00308  22282661.980    91243787.46347
  22949038.940   120598068.42507  22949040.940    93972551.69746
  20991113.360   110309188.94608  20991114.100    85955279.81749
  24209988.020   127224533.85605  24209993.460    99136114.69445
  23582667.300   123927753.24406  23582671.480    96567097.73846
  23119787.800   121495633.62307  23119789.940    94672063.99546
  22504166.600   118260200.97808  22504167.960    92150815.33247
 15 02 13 00 42 30.0000000  0  7G16G18G21G25G27G29G31
  22267319.920   117015569.39108  22267320.960    91180968.55547
  22935354.720   120526158.04907  22935356.640    93916517.64846
  20995024.520   110329742.52808  20995025.340    85971295.58849
  24228759.420   127323176.59705  24228764.300    99212979.11246
  23569070.620   123856302.33706  23569074.800    96511421.75246
  23133253.640   121566396.69507  23133255.740    94727204.03146
  22519896.320   118342861.35908  22519897.640    92215225.98847
 15 02 13 00 43  0.0000000  0  7G16G18G21G25G27G29G31
  22252017.420   116935154.24508  22252018.460    91118307.40047
  22921710.500   120454458.02007  22921712.420    93860647.51846
  20999008.580   110350678.83108  20999009.380    85987609.58549
  24247563.280   127421990.26106  24247567.620    99289976.75845
  23555490.100   123784936.43306  23555494.300    96455811.97546
  23146729.220   121637210.97307  23146731.200    94782383.96746
  22535677.600   118425792.70308  22535678.880    92279847.79047
 15 02 13 00 43 30.0000000  0  7G16G18G21G25G27G29G31
  22236753.920   116854944.07408  22236754.920    91055805.97647
  22908106.980   120382971.56507  22908108.840    93804943.81646
  21003065.260   110371996.84908  21003066.060    86004221.02149
  24266399.440   127520973.95606  24266403.500    99367106.87045
  23541925.840   123713655.95206  23541929.940    96400268.75446
  23160214.580   121708076.86007  23160216.480    94837604.10646
  22551510.020   118508992.61608  22551511.260    92344678.86247
 15 02 13 00 44  0.0000000  0  8G16G18G21G22G25G27G29G31
  22221530.960   116774947.01608  22221531.900    90993470.61047
  22894545.740   120311707.08307  22894547.560    93749413.08945
  21007195.520   110393701.26208  21007196.280    86021133.54549
  24562884.740   129078831.74405  24562888.720   100580915.90544
  24285268.740   127620132.14806  24285272.720    99444372.97945
  23528378.940   123642466.83006  23528382.960    96344796.74746
  23173710.840   121779000.16207  23173712.700    94892868.99046
  22567394.140   118592464.28808  22567395.400    92409721.70147
 15 02 13 00 44 30.0000000  0  8G16G18G21G22G25G27G29G31
  22206343.700   116695137.76808  22206344.600    90931281.59246
  22881022.220   120240640.11407  22881023.880    93694036.25146
  21011393.800   110415763.20208  21011394.520    86038324.66749
  24544792.940   128983756.91905  24544795.840   100506832.23644
  24304165.580   127719436.04106  24304169.900    99521752.57844
  23514844.220   123571341.65406  23514848.200    96289374.56546
  23187212.680   121849952.77007  23187214.480    94948156.72146
  22583324.220   118676177.29708  22583325.500    92474952.59447
 15 02 13 00 45  0.0000000  0  8G16G18G21G22G25G27G29G31
  22191199.700   116615555.66308  22191200.560    90869269.57647
  22867543.860   120169810.24007  22867545.460    93638844.16845
  21015666.880   110438218.34908  21015667.580    86055822.18649
  24526689.620   128888623.64606  24526691.660   100432703.00444
  24323096.900   127818921.10905  24323101.460    99599273.37445
  23501328.720   123500317.28806  23501332.560    96234030.94446
  23200727.120   121920971.89207  23200728.900    95003496.26945
  22599306.680   118760165.72308  22599308.040    92540398.09847
 15 02 13 00 45 30.0000000  0  8G16G18G21G22G25G27G29G31
  22176095.860   116536184.36408  22176096.720    90807421.81147
  22854107.580   120099201.44707  22854109.140    93583824.34346
  21020010.960   110461046.69408  21020011.640    86073610.50849
  24508571.880   128793416.02406  24508573.760   100358515.79844
  24342058.880   127918567.70905  24342063.760    99676920.01344
  23487828.940   123429375.61206  23487832.700    96178751.75946
  23214250.660   121992038.44307  23214252.320    95058872.79446
  22615337.580   118844408.48408  22615338.980    92606041.78247
 15 02 13 00 46  0.0000000  0  8G16G18G21G22G25G27G29G31
  22161033.100   116457029.13408  22161034.020    90745742.41147
  22840714.440   120028819.20907  22840715.980    93528981.05245
  21024426.460   110484250.28708  21024427.120    86091691.23549
  24490440.900   128698139.61206  24490442.860   100284274.97444
  24361051.960   128018377.46205  24361056.960    99754693.78645
  23474345.480   123358519.64606  23474349.180    96123539.33446
  23227783.940   122063156.02307  23227785.660    95114289.06446
  22631416.900   118928905.56108  22631418.300    92671883.64147
 15 02 13 00 46 30.0000000  0  8G16G18G21G22G25G27G29G31
  22146011.980   116378092.81508  22146012.960    90684233.59947
  22827365.060   119958666.96407  22827366.620    93474316.97246
  21028913.200   110507828.26808  21028913.860    86110063.68549
  24472297.340   128602797.44005  24472299.700   100209982.87045
  24380076.040   128118349.56205  24380081.220    99832594.03944
  23460878.460   123287750.06506  23460882.140    96068394.25146
  23241326.920   122134324.58507  23241328.800    95169745.06146
  22647544.220   119013654.62608  22647545.560    92737921.84847
 15 02 13 00 47  0.0000000  0  8G16G18G21G22G25G27G29G31
  22131032.560   116299375.76508  22131033.600    90622895.64547
  22814059.540   119888745.61108  22814061.180    93419832.81446
  21033470.460   110531776.96708  21033471.140    86128725.00949
  24454141.240   128507389.83005  24454143.880   100135639.72244
  24399130.420   128218480.59706  24399135.740    99910618.17145
  23447427.500   123217064.77806  23447431.200    96013314.85046
  23254879.220   122205542.29707  23254881.240    95225239.37046
  22663718.620   119098651.01308  22663719.820    92804152.77847
 15 02 13 00 47 30.0000000  0  8G16G18G21G22G25G27G29G31
  22116095.280   116220880.08408  22116096.360    90561730.17647
  22800798.260   119819057.27407  22800799.980    93365530.22246
  21038098.040   110556095.25308  21038098.760    86147674.32549
  24435973.360   128411919.57205  24435976.060   100061247.75845
  24418214.740   128318769.34405  24418220.140    99988765.19644
  23433992.660   123146464.18806  23433996.380    95958301.44446
  23268440.800   122276809.06207  23268442.920    95280771.89646
  22679939.500   119183891.99708  22679940.580    92870574.29147
 15 02 13 00 48  0.0000000  0  8G16G18G21G22G25G27G29G31
  22101200.700   116142608.89808  22101201.840    90500739.64847
  22787581.980   119749605.96607  22787583.740    93311412.32846
  21042795.920   110580782.70308  21042796.620    86166911.29949
  24417794.180   128316389.85106  24417796.980    99986809.41544
  24437329.020   128419214.89105  24437334.460   100067034.42444
  23420573.940   123075948.77506  23420577.760    95903354.38546
  23282011.780   122348125.27507  23282014.040    95336342.94446
  22696206.420   119269375.16008  22696207.440    92937184.52147
 15 02 13 00 48 30.0000000  0  8G16G18G21G22G25G27G29G31
  22086349.300   116064564.02708  22086350.400    90439925.47247
  22774411.240   119680393.83907  22774412.940    93257480.82246
  21047563.780   110605837.89508  21047564.460    86186434.82549
  24399604.180   128220803.07305  24399607.040    99912326.61344
  24456472.720   128519815.75005  24456478.360   100145424.64345
  23407171.460   123005518.54606  23407175.320    95848473.70946
  23295592.160   122419490.98207  23295594.580    95391952.55946
  22712518.760   119355097.47408  22712519.840    93003981.09747
 15 02 13 00 49  0.0000000  0  8G16G18G21G22G25G27G29G31
  22071541.240   115986746.82608  22071542.320    90379288.70247
  22761286.280   119611422.29907  22761287.880    93203736.79646
  21052401.000   110631257.74708  21052401.680    86206242.50049
  24381403.640   128125160.75005  24381406.640    99837800.47845
  24475645.560   128620569.30006  24475651.100   100223933.86744
  23393785.020   122935172.39206  23393788.920    95793658.54947
  23309181.620   122490904.89606  23309184.180    95447599.75345
  22728875.720   119441054.61708  22728877.000    93070960.66747
 15 02 13 00 49 30.0000000  0  8G16G18G21G22G25G27G29G31
  22056777.200   115909161.01008  22056778.300    90318832.22147
  22748207.880   119542695.13508  22748209.360    93150183.19546
  21057307.720   110657042.75808  21057308.380    86226334.71949
  24363193.320   128029466.67805  24363196.360    99763234.02644
  24494847.540   128721475.71305  24494852.960   100302562.24344
  23380414.900   122864911.95506  23380418.780    95738910.17346
  23322780.500   122562368.34406  23322783.100    95503285.54246
  22745277.200   119527245.63008  22745278.680    93138122.47947
 15 02 13 00 50  0.0000000  0  8G16G18G21G22G25G27G29G31
  22042057.040   115831806.25408  22042058.200    90258555.79547
  22735176.140   119474212.70107  22735177.440    93096820.29346
  21062283.020   110683188.24108  21062283.680    86246707.81849
  24344973.380   127933720.60106  24344976.060    99688627.01845
  24514077.900   128822530.94105  24514083.080   100381306.50345
  23367060.600   122794734.67406  23367064.460    95684226.59246
  23336388.260   122633878.44906  23336390.960    95559007.67146
  22761722.280   119613665.19108  22761723.860    93205462.37147
 15 02 13 00 50 30.0000000  0  8G16G18G21G22G25G27G29G31
  22027381.980   115754688.56408  22027383.200    90198464.10047
  22722192.220   119405981.51507  22722193.380    93043653.15646
  21067327.600   110709697.75408  21067328.260    86267364.58649
  24326744.700   127837929.18506  24326747.200    99613984.67944
  24533337.100   128923737.53506  24533341.980   100460168.73744
  23353722.860   122724644.63306  23353726.720    95629610.98646
  23350005.580   122705439.09406  23350008.480    95614769.17646
  22778211.140   119700314.16708  22778212.660    93272981.02647
 15 02 13 00 51  0.0000000  0  8G16G18G21G22G25G27G29G31
  22012752.120   115677808.16208  22012753.320    90138557.30247
  22709256.140   119338002.10507  22709257.240    92990682.20645
  21072440.740   110736567.54908  21072441.420    86288302.08849
  24308507.420   127742092.73506  24308509.740    99539307.22144
  24552624.440   129025091.89805  24552629.060   100539146.08344
  23340401.360   122654639.79106  23340405.200    95575061.77446
  23363632.080   122777047.91506  23363635.160    95670568.22046
  22794742.740   119787187.53608  22794744.120    93340674.53546
 15 02 13 00 51 30.0000000  0  8G16G18G21G22G25G27G29G31
  21998167.640   115601165.99508  21998168.760    90078836.13747
  22696368.100   119270275.45507  22696369.240    92937908.19546
  21077621.740   110763794.06408  21077622.460    86309517.55049
  24290261.780   127646212.34006  24290263.860    99464595.49945
  24571939.180   129126591.02505  24571943.480   100618236.27544
  23327095.780   122584718.54807  23327099.600    95520577.71846
  23377267.680   122848703.31907  23377270.720    95726403.56746
  22811316.200   119874280.69208  22811317.400    93408539.29947
 15 02 13 00 52  0.0000000  0  8G16G18G21G22G25G27G29G31
  21983629.360   115524766.56108  21983630.400    90019304.11447
  22683529.140   119202806.63807  22683530.380    92885335.08546
  21082870.900   110791378.70408  21082871.640    86331012.06949
  24272008.560   127550293.15806  24272010.760    99389853.56645
  24591281.600   129228235.80205  24591285.880   100697439.89744
  23313806.580   122514883.41207  23313810.320    95466160.76446
  23390912.780   122920407.81506  23390915.740    95782277.18046
  22827931.320   119961593.21408  22827932.460    93476574.99247
 15 02 13 00 52 30.0000000  0  8G16G18G21G22G25G27G29G31
  21969137.580   115448611.69308  21969138.600    89959962.66347
  22670739.540   119135597.47007  22670741.020    92832964.31246
  21088187.740   110819319.04708  21088188.520    86352783.76749
  24253748.120   127454336.70905  24253750.640    99315082.52646
  24610651.300   129330024.24405  24610655.660   100776755.50244
  23300533.660   122445133.95507  23300537.420    95411810.57646
  23404567.160   122992160.71807  23404570.080    95838188.50546
  22844587.460   120049121.60008  22844588.560    93544778.90047
 15 02 13 00 53  0.0000000  0  8G16G18G21G22G25G27G29G31
  21954692.500   115372702.28208  21954693.480    89900812.47947
  22657999.620   119068649.17207  22658001.300    92780796.82446
  21093571.880   110847612.84408  21093572.660    86374830.88149
  24235480.920   127358344.58405  24235483.620    99240283.74045
  24630047.780   129431953.46605  24630052.220   100856180.81945
  23287276.820   122375468.83707  23287280.580    95357526.09846
  23418230.460   123063960.67507  23418233.320    95894136.50346
  22861283.720   120136861.49108  22861284.900    93613147.61947
 15 02 13 00 53 30.0000000  0  8G16G18G21G22G25G27G29G31
  21940294.740   115297041.76608  21940295.740    89841856.24747
  22645310.180   119001965.60708  22645311.940    92728835.62746
  21099023.260   110876259.81808  21099024.000    86397153.19749
  24217207.960   127262320.80305  24217210.840    99165460.26246
  24649471.060   129534023.52306  24649475.640   100935715.84045
  23274036.300   122305889.65607  23274040.120    95303308.59746
  23431902.980   123135809.03607  23431905.640    95950122.22646
  22878019.920   120224811.61708  22878021.260    93681680.16547
 15 02 13 00 54  0.0000000  0  8G16G18G21G22G25G27G29G31
  21925944.840   115221632.64108  21925945.840    89783095.88947
  22632671.680   118935549.39408  22632673.320    92677082.75046
