     2.11           OBSERVATION DATA    M                   RINEX VERSION / TYPE
SPIDER V4,0,0,3554                      2015 03 29 00:09    PGM / RUN BY / DATE 
ABKD                                                        MARKER NAME         
ABKD                                                        MARKER NUMBER       
                                                            OBSERVER / AGENCY   
496503              LEICA GRX1200+GNSS  8.20/4.007          REC # / TYPE / VERS 
10301028            LEIAR25         NONE                    ANT # / TYPE        
  5126888.2753   206792.4418  3776148.0218                  APPROX POSITION XYZ 
        0.0000        0.0000        0.0000                  ANTENNA: DELTA H/E/N
     1     1                                                WAVELENGTH FACT L1/2
     4    C1    L1    P2    L2                              # / TYPES OF OBSERV 
    30.000                                                  INTERVAL            
  2015    03    26    00    00    0.0000000     GPS         TIME OF FIRST OBS   
  2015    03    26    23    59   30.0000000     GPS         TIME OF LAST OBS    
    16                                                      LEAP SECONDS        
    39                                                      # OF SATELLITES     
   G 1   822   822   822   822                              PRN / # OF OBS      
   G 2   932   932   932   932                              PRN / # OF OBS      
   G 3   829   829   829   829                              PRN / # OF OBS      
   G 4   844   844   843   843                              PRN / # OF OBS      
   G 5   663   663   663   663                              PRN / # OF OBS      
   G 6   746   746   744   744                              PRN / # OF OBS      
   G 7   685   684   684   684                              PRN / # OF OBS      
   G 9   782   782   782   782                              PRN / # OF OBS      
   G10   774   773   773   773                              PRN / # OF OBS      
   G11   787   787   787   787                              PRN / # OF OBS      
   G12   809   809   808   808                              PRN / # OF OBS      
   G13   811   811   811   811                              PRN / # OF OBS      
   G14   936   936   936   936                              PRN / # OF OBS      
   G15   725   725   725   725                              PRN / # OF OBS      
   G16   684   684   683   683                              PRN / # OF OBS      
   G17   936   936   934   934                              PRN / # OF OBS      
   G18   925   915   900   899                              PRN / # OF OBS      
   G19   780   780   779   779                              PRN / # OF OBS      
   G20   741   741   741   741                              PRN / # OF OBS      
   G21   710   710   710   710                              PRN / # OF OBS      
   G22   778   768   760   759                              PRN / # OF OBS      
   G23   716   716   715   715                              PRN / # OF OBS      
   G24   831   831   831   831                              PRN / # OF OBS      
   G25   847   847   847   847                              PRN / # OF OBS      
   G27   820   820   820   820                              PRN / # OF OBS      
   G28   910   910   910   910                              PRN / # OF OBS      
   G29   734   733   732   732                              PRN / # OF OBS      
   G30   693   693   689   689                              PRN / # OF OBS      
   G31   788   782   774   773                              PRN / # OF OBS      
   G32   731   730   728   728                              PRN / # OF OBS      
   R 1    30    30    30    30                              PRN / # OF OBS      
   R 2     2     2     2     2                              PRN / # OF OBS      
   R 8    30    30    30    30                              PRN / # OF OBS      
   R13    30    30    30    30                              PRN / # OF OBS      
   R14    30    30    30    30                              PRN / # OF OBS      
   R15    30    30    30    30                              PRN / # OF OBS      
   R17    30    30    30    30                              PRN / # OF OBS      
   R23    30    30    30    30                              PRN / # OF OBS      
   R24    30    30    30    30                              PRN / # OF OBS      
BIT 2 OF LLI FLAGS DATA COLLECTED UNDER A/S CONDITION       COMMENT             
SNR is mapped to RINEX snr flag value [2-9]                 COMMENT             
Lx:     = 25dBHz -> 1; 26-27dBHz -> 2; 28-31dBHz -> 3       COMMENT             
       32-35dBHz -> 4; 36-38dBHz -> 5; 39-41dBHz -> 6       COMMENT             
       42-44dBHz -> 7; 45-48dBHz -> 8; >=49dBHz -> 9        COMMENT             
                                                            END OF HEADER       
 15 03 26 00 00  0.0000000  0 16G04G07G16G18G19G21G22G27R01R08R13R14
                                R15R17R23R24
  23483507.180   123406709.61408  23483507.340    96161101.45945
  24515376.700   128829175.21108  24515375.940   100386365.86855
  20577534.180   108135729.47709  20577531.400    84261619.08848
  21986080.560   115537805.41209  21986077.240    90029523.11947
  22057576.700   115913381.95109  22057572.660    90322117.66148
  23949468.820   125855320.90608  23949466.040    98069076.03646
  21072785.180   110738335.48009  21072780.720    86289660.29148
  20697989.280   108768739.80209  20697988.840    84754881.38849
  21128677.740   112944969.88808  21128682.480    87846175.66906
  21166879.860   113347740.48308  21166880.020    88159382.38108
  22989045.160   122760196.26206  22989050.120    95480170.66306
  20958060.360   111718282.31707  20958065.440    86892035.88706
  22396585.620   119680572.62708  22396589.500    93084903.36207
  23120094.600   123720315.67207  23120096.800    96226922.60007
  21203292.700   113423352.59608  21203296.340    88218192.24006
  20283990.460   108467703.17008  20283990.720    84363811.35007
 15 03 26 00 00 30.0000000  0 16G04G07G16G18G19G21G22G27R01R08R13R14
                                R15R17R23R24
  23466305.200   123316311.66708  23466305.100    96090661.61746
  24513300.840   128818263.76108  24513299.620   100377863.30245
  20583107.740   108165017.82109  20583104.840    84284441.16448
  21991987.180   115568845.60609  21991983.900    90053710.29847
  22045641.000   115850658.51009  22045636.780    90273242.28148
  23963646.280   125929823.52808  23963643.500    98127130.00246
  21066038.320   110702880.63809  21066033.800    86262033.18148
  20692244.260   108738549.03409  20692243.780    84731356.12349
  21111351.140   112852349.67708  21111355.920    87774137.79806
  21170436.720   113366787.89908  21170436.980    88174197.06607
  23012501.140   122885449.32106  23012506.100    95577589.46806
  20967543.700   111768834.71907  20967549.120    86931354.41506
  22386984.140   119629265.25408  22386988.140    93044997.63907
  23106396.720   123647014.71707  23106398.960    96169910.83407
  21212495.480   113472581.26108  21212499.200    88256481.18506
  20280308.600   108448015.12608  20280309.000    84348498.42007
 15 03 26 00 01  0.0000000  0 16G04G07G16G18G19G21G22G27R01R08R13R14
                                R15R17R23R24
  23449141.000   123226112.06008  23449140.560    96020376.33146
  24511323.240   128807870.61708  24511322.000   100369764.73245
  20588785.640   108194854.48609  20588782.660    84307690.50548
  21997982.780   115600353.25109  21997979.660    90078261.71047
  22033731.800   115788074.58009  22033727.220    90224475.60548
  23977826.440   126004340.45408  23977823.600    98185195.09445
  21059386.340   110667924.67609  21059381.860    86234794.80148
  20686543.020   108708588.65309  20686542.520    84708010.36749
  21094119.680   112760237.99808  21094124.440    87702495.43706
  21174141.220   113386625.68108  21174141.320    88189626.47808
  23035976.580   123010805.87306  23035981.680    95675088.73207
  20977162.680   111820109.87907  20977168.540    86971235.07507
  22377517.500   119578678.18308  22377521.380    93005652.13607
  23092702.460   123573733.54807  23092704.600    96112914.42306
  21221723.660   113521945.90008  21221727.500    88294875.88306
  20276658.980   108428498.81008  20276659.420    84333319.05907
 15 03 26 00 01 30.0000000  0 16G04G07G16G18G19G21G22G27R01R08R13R14
                                R15R17R23R24
  23432015.580   123136117.09408  23432015.000    95950250.51746
  24509444.820   128798000.56208  24509443.780   100362073.75546
  20594568.740   108225244.26409  20594565.660    84331370.84148
  22004068.280   115632333.17709  22004065.260    90103181.13647
  22021850.220   115725636.27409  22021845.400    90175822.40848
  23992010.120   126078876.24308  23992007.380    98243274.91745
  21052830.360   110633473.92409  21052826.020    86207950.10148
  20680886.900   108678864.94509  20680886.260    84684849.05349
  21076985.180   112668644.62608  21076990.020    87631256.23006
  21177994.160   113407258.37508  21177994.360    88205674.14908
  23059471.560   123136266.63906  23059476.620    95772669.05406
  20986917.760   111872109.98007  20986924.040    87011679.57007
  22368186.780   119528818.28808  22368190.420    92966872.22407
  23079012.900   123500477.44107  23079014.620    96055937.49307
  21230978.260   113571451.89009  21230982.220    88333380.53606
  20273042.400   108409159.74608  20273042.840    84318277.58007
 15 03 26 00 02  0.0000000  0 16G04G07G16G18G19G21G22G27R01R08R13R14
                                R15R17R23R24
  23414928.220   123046322.70608  23414927.780    95880280.97746
  24507665.000   128788648.78708  24507663.740   100354786.65445
  20600456.020   108256181.69009  20600452.880    84355477.91848
  22010242.520   115664779.40609  22010239.600    90128463.92847
  22009995.560   115663339.89609  22009990.720    90127279.79048
  24006196.160   126153424.84608  24006193.460    98301364.69345
  21046369.860   110599524.74209  21046365.680    86181496.22448
  20675275.160   108649374.33309  20675274.340    84661869.36549
  21059947.520   112577568.87908  21059952.420    87560419.60906
  21181994.560   113428680.62708  21181994.960    88222335.92408
  23082984.380   123261822.59805  23082989.500    95870323.39807
  20996807.400   111924827.46207  20996813.880    87052682.03107
  22358991.560   119479682.61208  22358995.040    92928655.58907
  23065327.020   123427241.04107  23065328.560    95998975.93407
  21240258.500   113621094.71608  21240262.520    88371991.58906
  20269458.180   108389993.34608  20269458.460    84303370.38107
 15 03 26 00 02 30.0000000  0 16G04G07G16G18G19G21G22G27R01R08R13R14
                                R15R17R23R24
  23397879.500   122956731.71308  23397879.380    95810469.94145
  24505984.260   128779816.98608  24505982.920   100347904.70445
  20606447.840   108287668.47609  20606444.680    84380013.07848
  22016505.700   115697692.79109  22016502.800    90154110.72647
  21998168.300   115601187.83809  21998163.720    90078849.63348
  24020384.940   126227987.53208  24020382.180    98359465.47945
  21040005.540   110566080.39909  21040001.340    86155435.73348
  20669708.280   108620119.73709  20669707.300    84639073.58449
  21043007.920   112487017.12308  21043012.820    87489990.54106
  21186142.580   113450893.40508  21186143.060    88239612.52208
  23106514.380   123387471.00205  23106519.600    95968049.61706
  21006831.420   111978260.86307  21006838.000    87094241.32007
  22349932.760   119431275.12808  22349936.260    92891005.32807
  23051645.160   123354026.42507  23051646.780    95942031.30307
  21249564.660   113670876.33208  21249568.740    88410710.60806
  20265906.580   108371001.81308  20265906.840    84288599.21007
 15 03 26 00 03  0.0000000  0 16G04G07G16G18G19G21G22G27R01R08R13R14
                                R15R17R23R24
  23380869.640   122867345.23408  23380869.600    95740818.25145
  24504402.460   128771504.79107  24504401.060   100341427.65146
  20612544.080   108319704.25209  20612540.880    84404976.01248
  22022857.660   115731072.64809  22022854.720    90180121.02247
  21986368.800   115539181.29109  21986364.460    90030532.86248
  24034576.260   126302563.82408  24034573.600    98417576.84346
  21033737.640   110533142.26209  21033733.380    86129769.68548
  20664186.520   108591102.61109  20664185.400    84616462.85349
  21026167.100   112396993.89608  21026171.960    87419972.55406
  21190438.240   113473896.46908  21190438.740    88257503.81108
  23130060.820   123513207.91805  23130066.040    96065844.66806
  21016989.220   112032407.06607  21016995.780    87136355.01406
  22341010.660   119383598.46808  22341014.260    92853923.48907
  23037967.180   123280833.54507  23037968.920    95885103.57307
  21258897.020   113720797.92209  21258901.080    88449538.50306
  20262387.960   108352185.95108  20262388.180    84273964.65507
 15 03 26 00 03 30.0000000  0 16G04G07G16G18G19G21G22G27R01R08R13R14
                                R15R17R23R24
  23363899.280   122778166.55408  23363899.200    95671328.47946
  24502920.120   128763714.57708  24502918.700   100335357.34245
  20618745.140   108352290.86309  20618741.920    84430368.15648
  22029298.680   115764920.52809  22029295.720    90206495.99447
  21974597.740   115477323.83809  21974593.440    89982332.27448
  24048770.560   126377155.58508  24048768.020    98475700.24945
  21027566.720   110500713.97709  21027562.520    86104500.92448
  20658710.560   108562326.69309  20658709.480    84594040.06249
  21009426.460   112307505.95208  21009431.220    87350370.87606
  21194881.860   113497691.75608  21194882.200    88276011.26908
  23153623.640   123639031.51505  23153628.700    96163707.15206
  21027280.700   112087265.92107  21027286.980    87179022.97407
  22332226.300   119336657.86108  22332229.960    92817414.12707
  23024293.840   123207665.14007  23024295.540    95828194.87307
  21268256.020   113770862.10408  21268260.000    88488477.27706
  20258902.920   108333548.54708  20258902.980    84259468.90407
 15 03 26 00 04  0.0000000  0 16G04G07G16G18G19G21G22G27R01R08R13R14
                                R15R17R23R24
  23346967.000   122689187.09308  23346966.840    95601993.93645
  24501535.300   128756436.57308  24501533.960   100329686.17245
  20625049.080   108385418.39709  20625045.820    84456181.80948
  22035826.780   115799225.64709  22035823.800    90233227.25747
  21962853.460   115415606.86509  21962849.060    89934241.15948
  24062965.880   126451752.33708  24062963.340    98533827.57745
  21021491.240   110468787.17209  21021486.980    86079622.92748
  20653278.880   108533783.52109  20653277.920    84571798.63449
  20992784.940   112218548.20708  20992789.760    87281181.58706
  21199471.480   113522268.58208  21199471.660    88295126.58108
  23177200.420   123764927.97005  23177205.540    96261626.29106
  21037703.520   112142824.40907  21037709.440    87222235.10506
  22323578.020   119290444.50508  22323581.860    92781470.40707
  23010623.080   123134510.99507  23010624.860    95771297.25307
  21277639.920   113821059.55308  21277643.820    88527519.73306
  20255449.500   108315080.15208  20255449.360    84245104.61207
 15 03 26 00 04 30.0000000  0 16G04G07G16G18G19G21G22G27R01R08R13R14
                                R15R17R23R24
  23330074.740   122600417.69908  23330074.540    95532823.06045
  24500249.760   128749680.40808  24500248.280   100324421.60845
  20631457.640   108419096.23209  20631454.480    84482424.25548
  22042443.540   115833996.57909  22042440.520    90260321.48947
  21951137.840   115354040.88409  21951133.380    89886267.70248
  24077164.040   126526363.78308  24077161.340    98591966.32445
  21015513.420   110437373.22409  21015509.020    86055144.54748
  20647893.580   108505484.29909  20647892.840    84549747.29149
  20976245.280   112130134.82308  20976250.100    87212415.67006
  21204208.800   113547636.45908  21204208.920    88314857.16408
  23200792.040   123890903.10906  23200797.400    96359606.59307
  21048258.960   112199089.58907  21048264.620    87265996.87806
  22315068.400   119244971.59008  22315072.300    92746102.57207
  22996956.940   123061381.29507  22996958.560    95714418.62006
  21287050.680   113871401.05908  21287054.740    88566674.20706
  20252029.560   108296791.50108  20252029.320    84230880.10907
 15 03 26 00 05  0.0000000  0 16G04G07G16G18G19G21G22G27R01R08R13R14
                                R15R17R23R24
  23313221.920   122511855.21408  23313221.760    95463813.41145
  24499062.620   128743441.95108  24499060.580   100319560.44545
  20637970.000   108453319.77709  20637967.060    84509091.93648
  22049148.100   115869229.05109  22049145.120    90287775.36947
  21939450.340   115292623.28309  21939445.920    89838409.86648
  24091364.040   126600984.65808  24091361.080    98650112.43945
  21009632.680   110406469.23509  21009628.160    86031063.54348
  20642554.240   108477426.29009  20642553.620    84527883.91049
  20959807.480   112042265.82408  20959812.300    87144073.19606
  21209092.920   113573790.31108  21209093.100    88335199.06008
  23224396.600   124016948.23406  23224402.380    96457641.32707
  21058945.420   112256053.62407  21058951.120    87310302.20507
  22306696.840   119200236.42908  22306700.520    92711308.57507
  22983294.820   122988271.84907  22983296.040    95657555.79007
  21296487.700   113921882.65709  21296491.620    88605937.65506
  20248642.580   108278678.91108  20248642.140    84216792.55207
 15 03 26 00 05 30.0000000  0 16G04G07G16G18G19G21G22G27R01R08R13R14
                                R15R17R23R24
  23296408.860   122423502.04808  23296408.840    95394966.87245
  24497974.180   128737721.98908  24497971.640   100315103.33645
  20644586.380   108488089.85809  20644583.680    84536185.48348
  22055940.560   115904923.58809  22055937.560    90315589.29047
  21927791.440   115231356.13009  21927787.000    89790669.25048
  24105565.980   126675615.87107  24105562.940    98708266.61445
  21003849.460   110376077.81209  21003844.820    86007381.93748
  20637261.420   108449612.09209  20637260.720    84506210.51949
  20943472.660   111954947.23408  20943477.520    87076158.80006
  21214123.960   113600731.12008  21214124.380    88356153.03408
  23248013.800   124143060.67106  23248019.920    96555728.39007
  21069762.680   112313715.54907  21069768.360    87355150.34106
  22298463.780   119156241.92307  22298467.220    92677090.62107
  22969636.800   122915184.17107  22969637.660    95600709.86907
  21305951.440   113972506.45809  21305955.160    88645311.70206
  20245288.780   108260744.39008  20245288.220    84202843.49007
 15 03 26 00 06  0.0000000  0 16G04G07G16G18G19G21G22G27R01R08R13R14
                                R15R17R23R24
  23279635.460   122335357.75908  23279635.760    95326283.09345
  24496984.120   128732518.90208  24496981.640   100311048.94845
  20651306.380   108523404.36109  20651303.860    84563703.25348
  22062820.280   115941077.08109  22062817.340    90343760.83747
  21916161.180   115170239.07909  21916156.680    89743045.60548
  24119769.420   126750255.59307  24119766.440    98766427.39445
  20998163.740   110346198.60609  20998159.000    85984099.46748
  20632014.960   108422041.53509  20632014.180    84484726.97849
  20927241.340   111868181.91908  20927246.300    87008674.73206
  21219301.440   113628456.19108  21219301.920    88377716.97008
  23271642.520   124269234.85906  23271648.800    96653863.47106
  21080709.860   112372070.39507  21080715.460    87400537.40106
  22290369.500   119112988.49908  22290373.000    92643449.08207
  22955982.260   122842116.67807  22955983.540    95543879.63807
  21315441.500   114023271.23209  21315445.180    88684795.40106
  20241968.020   108242986.64908  20241967.500    84189031.92307
 15 03 26 00 06 30.0000000  0 16G04G07G16G18G19G21G22G27R01R08R13R14
                                R15R17R23R24
  23262902.240   122247424.81908  23262902.700    95257764.02346
  24496092.560   128727834.00108  24496090.720   100307398.36845
  20658130.200   108559264.50509  20658127.860    84591646.21348
  22069787.520   115977690.34509  22069784.560    90372290.66547
  21904559.920   115109274.57709  21904555.480    89695540.84148
  24133974.580   126824904.62807  24133971.760    98824595.44845
  20992576.060   110316834.86009  20992571.320    85961218.65748
  20626815.380   108394717.61309  20626814.580    84463435.62749
  20911114.800   111781976.14209  20911119.660    86941625.86306
  21224625.420   113656966.47608  21224625.980    88399891.66908
  23295282.400   124395468.28306  23295288.520    96752044.63206
  21091786.660   112431116.70207  21091792.240    87446462.29306
  22282414.880   119070480.28108  22282418.240    92610387.14307
  22942331.760   122769071.42007  22942333.500    95487066.70707
  21324958.300   114074179.47608  21324962.040    88724390.69106
  20238680.760   108225408.03008  20238680.320    84175359.68207
 15 03 26 00 07  0.0000000  0 16G04G07G16G18G19G21G22G27R01R08R13R14
                                R15R17R23R24
  23246208.880   122159701.30608  23246209.300    95189408.10346
  24495298.980   128723664.15208  24495297.580   100304149.13746
  20665057.300   108595666.78209  20665055.000    84620011.60548
  22076841.540   116014759.59409  22076838.560    90401175.79447
  21892987.400   115048461.08709  21892983.100    89648153.71448
  24148180.940   126899559.46707  24148178.360    98882768.01745
  20987086.040   110287984.35509  20987081.220    85938737.76948
  20621662.380   108367638.69109  20621661.620    84442335.16849
  20895093.180   111696331.15809  20895097.820    86875013.15006
  21230095.300   113686257.99208  21230095.820    88422673.94508
  23318932.280   124521754.16206  23318937.800    96850266.56706
  21102991.960   112490847.95507  21102997.640    87492919.88606
  22274599.400   119028716.30908  22274602.780    92577904.05707
  22928684.980   122696045.17407  22928686.680    95430268.55407
  21334501.460   114125228.47609  21334505.140    88764095.45006
  20235426.500   108208006.16708  20235426.060    84161824.90007
 15 03 26 00 07 30.0000000  0 16G04G07G16G18G19G21G22G27R01R08R13R14
                                R15R17R23R24
  23229555.720   122072188.77008  23229555.920    95121216.58946
  24494603.480   128720009.32508  24494601.920   100301301.20346
  20672087.720   108632611.32409  20672085.260    84648799.54748
  22083982.240   116052284.21509  22083979.180    90430415.76747
  21881443.920   114987800.15509  21881439.820    89600885.48248
  24162388.400   126974220.19208  24162386.060    98940945.16046
  20981694.080   110259649.01209  20981689.100    85916658.29748
  20616556.340   108340806.59009  20616555.580    84421427.04049
  20879177.320   111611251.25909  20879181.820    86808839.94506
  21235711.080   113716330.50908  21235711.520    88446063.68908
  23342591.220   124648088.45006  23342596.240    96948526.15306
  21114325.280   112551261.38907  21114330.940    87539908.08306
  22266923.380   118987698.29808  22266926.880    92546001.16407
  22915042.020   122623038.45808  22915043.520    95373485.61507
  21344071.080   114176419.56808  21344074.660    88803910.72106
  20232205.480   108190782.13408  20232205.040    84148428.43607
 15 03 26 00 08  0.0000000  0 16G04G07G16G18G19G21G22G27R01R08R13R14
                                R15R17R23R24
  23212942.880   121984888.54408  23212943.040    95053190.52846
  24494006.220   128716869.80908  24494004.240   100298854.78645
  20679221.400   108670097.94909  20679218.660    84678009.89448
  22091209.560   116090263.99409  22091206.540    90460010.40347
  21869929.840   114927293.46909  21869925.760    89553737.43548
  24176596.960   127048886.63608  24176594.640    98999126.79745
  20976400.500   110231830.68109  20976395.400    85894981.70848
  20611497.740   108314223.23109  20611496.920    84400712.74249
  20863368.240   111526741.85109  20863372.540    86743110.47006
  21241472.720   113747183.54808  21241473.100    88470060.51808
  23366258.300   124774467.70205  23366263.380    97046820.70206
  21125786.000   112612354.55807  21125791.720    87587424.94506
  22259387.300   118947429.05608  22259390.940    92514680.64907
  22901402.880   122550052.01707  22901403.880    95316718.44106
  21353667.440   114227753.78908  21353671.080    88843837.32506
  20229017.940   108173737.17408  20229017.560    84135171.25507
 15 03 26 00 08 30.0000000  0 16G04G07G16G18G19G21G22G27R01R08R13R14
                                R15R17R23R24
  23196370.680   121897801.71008  23196370.720    94985330.73146
  24493506.880   128714245.22607  24493504.440   100296809.62846
  20686458.120   108708125.85809  20686455.020    84707642.01248
  22098523.260   116128697.78609  22098520.280    90489958.81147
  21858445.340   114866941.95909  21858441.140    89506710.29548
  24190806.540   127123558.46208  24190804.240    99057312.57645
  20971205.400   110204530.08809  20971200.260    85873708.52948
  20606486.720   108287889.81509  20606485.840    84380193.19349
  20847666.480   111442806.98808  20847670.640    86677827.84706
  21247379.820   113778815.99108  21247380.360    88494663.52308
  23389932.720   124900887.91005  23389938.700    97145147.01306
  21137373.640   112674124.15107  21137379.560    87635467.91806
  22251991.800   118907910.47108  22251995.460    92483943.94907
  22887767.340   122477086.06407  22887768.120    95259967.17507
  21363290.640   114279231.81608  21363294.480    88883875.75906
  20225863.860   108156871.54608  20225863.520    84122053.53607
 15 03 26 00 09  0.0000000  0 16G04G07G16G18G19G21G22G27R01R08R13R14
                                R15R17R23R24
  23179839.540   121810930.12808  23179839.480    94917638.65446
  24493105.280   128712136.14907  24493103.320   100295166.14646
  20693797.920   108746695.67109  20693794.500    84737696.40848
  22105923.380   116167585.53209  22105920.500    90520260.95947
  21846990.840   114806747.67209  21846986.340    89459805.67848
  24205017.220   127198235.93508  24205014.840    99115502.80846
  20966109.220   110177749.55509  20966104.140    85852840.61248
  20601523.740   108261808.79309  20601522.760    84359870.32149
  20832073.040   111359451.84708  20832077.260    86612996.14506
  21253432.560   113811228.03208  21253433.100    88519872.89208
  23413614.180   125027345.57405  23413620.900    97243502.48806
  21149087.840   112736567.63407  21149093.880    87684035.03906
  22244737.400   118869144.71608  22244741.060    92453792.82007
  22874135.440   122404141.61607  22874136.640    95203232.65507
  21372940.960   114330854.68108  21372944.700    88924026.85406
  20222743.620   108140186.98008  20222743.480    84109076.66607
 15 03 26 00 09 30.0000000  0 16G04G07G16G18G19G21G22G27R01R08R13R14
                                R15R17R23R24
  23163349.040   121724271.84708  23163348.880    94850112.79346
  24492800.960   128710538.95407  24492800.140   100293921.55746
  20701239.980   108785803.34809  20701236.440    84768169.91548
  22113409.040   116206922.72509  22113406.300    90550913.32547
  21835565.860   114746708.61809  21835561.140    89413022.02248
  24219228.360   127272915.53508  24219225.920    99173694.67245
  20961111.560   110151487.15809  20961106.540    85832376.43548
  20596608.440   108235978.39109  20596607.360    84339742.73949
  20816588.320   111276677.77009  20816592.620    86548616.36506
  21259630.080   113844415.13208  21259630.420    88545685.09008
  23437301.700   125153834.06605  23437308.660    97341881.92406
  21160927.380   112799678.73007  21160933.200    87733121.41806
  22237623.840   118831131.16608  22237627.500    92424226.71807
  22860507.080   122331215.48908  22860508.600    95146512.37507
  21382617.880   114382620.27708  21382621.740    88964288.93606
  20219656.880   108123681.28608  20219656.900    84096238.90807
 15 03 26 00 10  0.0000000  0 16G04G07G16G18G19G21G22G27R01R08R13R14
                                R15R17R23R24
  23146899.240   121637827.18608  23146898.860    94782753.37246
  24492594.140   128709452.85208  24492594.360   100293075.23045
  20708784.120   108825447.95409  20708780.600    84799061.80548
  22120980.060   116246708.36509  22120977.180    90581915.12947
  21824170.560   114686825.79209  21824165.820    89366360.09648
  24233439.800   127347596.36808  24233437.220    99231887.49245
  20956212.680   110125743.66909  20956207.620    85812316.58648
  20591740.920   108210399.47209  20591739.900    84319811.11449
  20801212.980   111194488.18809  20801217.340    86484691.18306
  21265972.120   113878375.91408  21265972.280    88572099.02708
  23460994.240   125280348.70305  23461000.920    97440281.69606
  21172891.380   112863453.08707  21172896.980    87782723.64706
  22230651.140   118793870.72308  22230654.660    92395246.37707
  22846882.480   122258307.32008  22846884.120    95089806.06807
  21392321.560   114434528.68908  21392325.400    89004662.11606
  20216603.540   108107354.19108  20216603.600    84083540.06107
 15 03 26 00 10 30.0000000  0 16G04G07G16G18G19G21G22G27R01R08R13R14
                                R15R17R23R24
  23130489.740   121551594.42208  23130489.220    94715559.08846
  24492484.340   128708874.71108  24492484.300   100292624.68645
  20716429.680   108865626.00809  20716426.260    84830369.36748
  22128635.600   116286938.32309  22128632.640    90613263.15247
  21812804.560   114627097.35309  21812799.900    89319818.47448
  24247650.880   127422275.32008  24247648.000    99290078.87145
  20951412.340   110100517.62609  20951407.200    85792659.95148
  20586921.040   108185070.77409  20586920.080    84300074.46449
  20785947.360   111112884.85009  20785951.660    86421221.97206
  21272457.840   113913106.42008  21272457.940    88599111.64908
  23484690.380   125406882.60605  23484696.940    97538696.40206
  21184978.720   112927885.25107  21184984.240    87832837.51706
  22223819.040   118757362.07007  22223822.500    92366850.78007
  22833261.000   122185414.80408  22833262.700    95033111.94907
  21402051.540   114486577.59608  21402055.500    89045144.57006
  20213583.360   108091203.80108  20213583.480    84070978.65207
 15 03 26 00 11  0.0000000  0 16G04G07G16G18G19G21G22G27R01R08R13R14
                                R15R17R23R24
  23114121.760   121465580.10108  23114121.040    94648535.00745
  24492472.320   128708809.65108  24492470.760   100292573.97045
  20724177.620   108906342.34609  20724174.360    84862096.37548
  22136376.580   116327617.51309  22136373.520    90644961.21247
  21801469.060   114567529.76509  21801464.600    89273402.18448
  24261862.420   127496957.22507  24261859.460    99348272.51245
  20946711.600   110075815.11209  20946706.360    85773411.27048
  20582150.100   108159999.15709  20582149.140    84280538.14149
  20770793.300   111031877.54108  20770797.540    86358216.33506
  21279088.120   113948611.27408  21279088.060    88626726.53708
  23508390.180   125533437.42805  23508396.800    97637127.38606
  21197189.620   112992977.07007  21197195.300    87883464.44806
  22217128.900   118721612.27408  22217132.620    92339045.37007
  22819643.300   122112543.43607  22819645.120    94976434.26307
  21411809.140   114538773.51908  21411813.140    89085741.38506
  20210597.440   108075236.43208  20210597.540    84058559.58107
 15 03 26 00 11 30.0000000  0 16G04G07G16G18G19G21G22G27R01R08R13R14
                                R15R17R23R24
  23097795.400   121379784.58908  23097794.440    94581681.42246
  24492557.400   128709256.36808  24492554.560   100292922.06945
  20732027.760   108947595.90609  20732024.620    84894241.98848
  22144202.540   116368743.49709  22144199.560    90677007.43347
  21790164.320   114508123.66309  21790160.040    89227111.72948
  24276074.340   127571641.06707  24276071.340    99406467.69545
  20942110.580   110051636.77009  20942105.280    85754571.02448
  20577428.200   108135185.36109  20577427.240    84261202.71549
  20755751.440   110951469.91908  20755755.740    86295677.13406
  21285862.620   113984888.32808  21285862.580    88654942.02608
  23532093.000   125660008.76105  23532100.300    97735571.14406
  21209523.520   113058724.07007  21209529.280    87934600.96706
  22210581.120   118686622.71408  22210585.000    92311831.26807
  22806029.080   122039692.72007  22806031.260    94919772.64007
  21421594.100   114591116.01008  21421598.260    89126452.16506
  20207645.700   108059452.08708  20207645.800    84046282.86507
 15 03 26 00 12  0.0000000  0 16G04G07G16G18G19G21G22G27R01R08R13R14
                                R15R17R23R24
  23081510.500   121294206.70708  23081509.500    94514997.42946
  24492739.160   128710212.66907  24492736.340   100293667.21645
  20739979.600   108989384.02709  20739976.600    84926804.14448
  22152113.020   116410313.61809  22152110.200    90709399.73747
  21778890.320   114448878.41109  21778886.120    89180946.62448
  24290286.120   127646324.69007  24290283.100    99464662.69545
  20937609.220   110027981.92209  20937603.960    85736138.70448
  20572755.280   108110629.01309  20572754.320    84242067.90149
  20740822.080   110871664.15008  20740826.420    86233606.03006
  21292780.900   114021934.84608  21292780.820    88683755.99908
  23555797.980   125786590.20505  23555805.840    97834022.77606
  21221979.640   113125121.39907  21221985.120    87986243.29506
  22204175.480   118652393.09008  22204179.260    92285208.22307
  22792418.820   121966861.27408  22792420.760    94863125.98407
  21431406.220   114643604.31308  21431410.500    89167276.36406
  20204728.100   108043849.79908  20204728.200    84034147.75607
 15 03 26 00 12 30.0000000  0 16G04G07G16G18G19G21G22G27R01R08R13R14
                                R15R17R23R24
  23065267.320   121208848.11508  23065266.400    94448484.32646
  24493017.840   128711678.39907  24493016.100   100294809.30445
  20748033.060   109031705.99609  20748030.260    84959782.28648
  22160107.960   116452327.41409  22160105.120    90742137.75647
  21767647.340   114389795.79809  21767643.100    89134908.23648
  24304497.640   127721007.58007  24304494.980    99522857.08645
  20933207.640   110004851.63609  20933202.520    85718115.13548
  20568131.600   108086331.72609  20568130.700    84223134.95049
  20726006.000   110792464.65008  20726010.420    86172006.47106
  21299842.640   114059749.60508  21299842.540    88713167.47608
  23579504.720   125913178.57305  23579512.780    97932479.72207
  21234557.260   113192165.81407  21234562.660    88038388.91106
  22197912.200   118618924.40008  22197915.780    92259177.01507
  22778812.560   121894049.36008  22778813.740    94806494.55607
  21441245.760   114696239.15908  21441250.020    89208214.56006
  20201844.720   108028430.36508  20201844.680    84022154.86907
 15 03 26 00 13  0.0000000  0 15G04G16G18G19G21G22G27R01R08R13R14R15
                                R17R23R24
  23049064.180   121123700.49708  23049063.440    94382135.59546
  20756186.300   109074551.99509  20756183.660    84993168.75048
  22168185.340   116494774.36409  22168182.580    90775213.29747
  21756433.700   114330867.60409  21756429.480    89088990.17348
  24318707.280   127795680.42307  24318704.680    99581043.69244
  20928904.320   109982237.93409  20928899.260    85700494.07848
  20563555.660   108062285.83009  20563554.880    84204397.88649
  20711302.400   110713866.51308  20711306.980    86110874.64306
  21307045.780   114098321.96408  21307045.880    88743168.21108
  23603210.200   126039760.46905  23603218.240    98030931.63906
  21247253.840   113259844.32007  21247259.260    88091027.72006
  22191790.100   118586209.69308  22191793.560    92233732.23607
  22765208.280   121821247.83008  22765209.180    94749871.20907
  21451111.020   114749011.74609  21451115.340    89249259.87306
  20198993.880   108013185.18008  20198993.680    84010297.51507
 15 03 26 00 13 30.0000000  0 16G04G11G16G18G19G21G22G27R01R08R13R14
                                R15R17R23R24
  23032904.700   121038783.38008  23032904.300    94315966.49546
  24694713.440   129771593.53107  24694710.880   101120712.86354
  20764442.800   109117940.00909  20764440.280    85026977.56348
  22176348.460   116537672.18809  22176345.660    90808640.17947
  21745253.180   114272113.65809  21745248.920    89043207.89748
  24332918.560   127870361.04107  24332915.960    99639236.37045
  20924703.060   109960160.33209  20924697.960    85683290.77348
  20559031.460   108038511.33209  20559030.660    84185872.30749
  20696715.640   110635892.55709  20696720.320    86050228.28206
  21314393.620   114137669.70508  21314393.680    88773772.00208
  23626917.020   126166350.85205  23626924.940    98129390.12806
  21260072.260   113328172.49907  21260077.760    88144171.81806
  22185813.040   118554269.57208  22185816.280    92208889.90407
  22751609.100   121748476.00207  22751610.220    94693270.94207
  21461005.820   114801942.13908  21461010.140    89290427.92906
  20196179.200   107998133.93808  20196179.000    83998590.98807
 15 03 26 00 14  0.0000000  0 17G04G11G16G18G19G21G22G27R01R02R08R13
                                R14R15R17R23R24
  23016786.780   120954085.02308  23016786.740    94249967.86546
  24677230.420   129679718.41707  24677229.400   101049121.76344
  20772799.920   109161856.45109  20772797.360    85061198.15148
  22184594.640   116581006.43209  22184591.680    90842407.13747
  21734103.580   114213522.54909  21734099.300    88997552.49948
  24347129.040   127945037.25708  24347126.360    99697425.59544
  20920601.660   109938607.45809  20920596.560    85666496.35448
  20554556.860   108014997.12609  20554556.000    84167549.56049
  20682244.140   110558534.27809  20682248.760    85990060.78006
  23555492.420   125696623.80408  23555502.500    97764081.77506
  21321883.480   114177778.49108  21321883.580    88804967.72707
  23650622.080   126292933.09205  23650629.900    98227842.26306
  21273009.340   113397133.66907  21273014.980    88197808.24406
  22179978.740   118523092.24908  22179981.840    92184640.89807
  22738012.780   121675721.45907  22738014.300    94636684.10107
  21470927.820   114855017.74809  21470932.100    89331708.92906
  20193398.520   107983264.98408  20193398.420    83987026.25607
 15 03 26 00 14 30.0000000  0 17G04G11G16G18G19G21G22G27R01R02R08R13
                                R14R15R17R23R24
  23000711.080   120869608.17308  23000711.240    94184141.80946
  24659762.500   129587921.36807  24659761.700   100977591.48644
  20781257.820   109206302.36409  20781255.140    85095831.31348
  22192924.080   116624778.59209  22192921.200    90876515.29747
  21722985.700   114155097.50009  21722981.380    88952026.50648
  24361338.920   128019709.98708  24361336.240    99755612.11544
  20916600.440   109917581.39109  20916595.400    85650112.43348
  20550132.380   107991746.13009  20550131.480    84149431.90349
  20667888.900   110481797.17509  20667893.420    85930376.41206
  23530641.760   125564016.17908  23530651.600    97660943.53006
  21329515.480   114218648.47208  21329515.680    88836755.47908
  23674324.960   126419504.69205  23674333.160    98326286.07106
  21286064.880   113466726.45507  21286070.620    88251935.91406
  22174287.540   118492680.39408  22174290.940    92160987.23507
  22724420.020   121602985.51308  22724421.560    94580111.75107
  21480877.440   114908241.22008  21480881.660    89373104.92306
  20190652.180   107968580.08308  20190652.240    83975604.66607
 15 03 26 00 15  0.0000000  0  8G04G11G16G18G19G21G22G27
  22984677.040   120785350.08308  22984677.440    94118486.24346
  24642308.600   129496199.97708  24642307.900   100906120.28044
  20789815.620   109251273.21509  20789812.800    85130873.51548
  22201336.000   116668983.46109  22201333.100    90910960.65647
  21711899.000   114096835.58209  21711894.420    88906627.61648
  24375547.260   128094374.71308  24375544.460    99813792.40345
  20912699.120   109897080.12309  20912694.080    85634137.43748
  20545757.520   107968756.20109  20545756.620    84131517.67649
 15 03 26 00 15 30.0000000  0  8G04G11G16G18G19G21G22G27
  22968685.880   120701316.48208  22968686.420    94053005.58446
  24624869.660   129404559.09707  24624869.220   100834711.77444
  20798474.120   109296772.92509  20798471.080    85166327.82248
  22209831.020   116713624.72509  22209828.000    90945746.06747
  21700844.500   114038743.07509  21700839.740    88861360.74648
  24389754.920   128169036.12408  24389752.160    99871970.10145
  20908898.760   109877109.13609  20908893.680    85618575.65848
  20541433.500   107946033.63309  20541432.680    84113811.78149
 15 03 26 00 16  0.0000000  0  8G04G11G16G18G19G21G22G27
  22952737.060   120617504.54408  22952737.440    93987697.66346
  24607445.380   129312996.05607  24607445.060   100763363.90745
  20807232.480   109342797.20909  20807229.300    85202190.88648
  22218408.080   116758697.52909  22218405.020    90980867.72447
  21689821.660   113980817.41009  21689816.780    88816223.87748
  24403961.180   128243690.62908  24403958.660    99930142.41845
  20905198.740   109857665.62109  20905193.700    85603424.88348
  20537159.960   107923576.24909  20537159.260    84096312.51549
 15 03 26 00 16 30.0000000  0  8G04G11G16G18G19G21G22G27
  22936831.040   120533917.28808  22936831.200    93922564.79746
  24590036.400   129221513.49208  24590036.320   100692078.82544
  20816090.840   109389346.67909  20816087.420    85238463.18548
  22227067.340   116804202.53109  22227064.140    91016326.17446
  21678831.020   113923061.82709  21678826.160    88771219.53548
  24418166.300   128318339.44008  24418163.740    99988310.29545
  20901599.520   109838751.85509  20901594.620    85588686.91048
  20532937.520   107901387.18809  20532936.900    84079022.33549
 15 03 26 00 17  0.0000000  0  8G04G11G16G18G19G21G22G27
  22920967.660   120450553.77508  22920967.540    93857606.26946
  24572642.820   129130110.76908  24572642.740   100620855.96044
  20825048.600   109436418.97709  20825045.020    85275142.88248
  22235808.440   116850137.09609  22235805.360    91052119.34347
  21667872.620   113865476.06609  21667867.880    88726347.52348
  24432369.980   128392980.39608  24432367.520   100046472.04545
  20898101.120   109820367.57309  20898096.220    85574361.51848
  20528766.120   107879466.22509  20528765.520    84061941.06849
 15 03 26 00 17 30.0000000  0  8G04G11G16G18G19G21G22G27
  22905146.620   120367413.37808  22905146.280    93792821.59946
  24555264.320   129038786.66008  24555264.340   100549694.39944
  20834105.220   109484011.53909  20834101.500    85312227.98348
  22244630.700   116896497.95209  22244627.620    91088244.69147
  21656946.480   113808059.50109  21656941.800    88681607.36148
  24446571.820   128467611.66608  24446569.420   100104626.25345
  20894703.260   109802511.79809  20894698.300    85560447.94648
  20524645.700   107857813.23509  20524645.060    84045068.61449
 15 03 26 00 18  0.0000000  0  8G04G11G16G18G19G21G22G27
  22889368.500   120284498.91408  22889368.040    93728212.97746
  24537901.400   128947543.90207  24537901.220   100478596.22644
  20843260.840   109532125.13609  20843257.100    85349719.08948
  22253534.300   116943285.82609  22253531.220    91124702.78347
  21646053.340   113750815.35409  21646048.640    88637001.55148
  24460772.160   128542234.74308  24460769.720   100162774.09145
  20891406.460   109785187.40909  20891401.460    85546948.44548
  20520576.880   107836431.50209  20520576.200    84028407.52949
 15 03 26 00 18 30.0000000  0  8G04G11G16G18G19G21G22G27
  22873633.520   120201811.16408  22873633.100    93663781.01246
  24520554.160   128856383.51507  24520553.920   100407562.32644
  20852515.320   109580758.86809  20852511.740    85387615.47948
  22262518.900   116990499.31909  22262515.660    91161492.51447
  21635193.380   113693745.00909  21635188.540    88592531.15648
  24474970.880   128616849.27308  24474968.300   100220915.25144
  20888210.680   109768394.14509  20888205.760    85533862.79248
  20516559.940   107815322.59709  20516559.300    84011959.03049
 15 03 26 00 19  0.0000000  0  8G04G11G16G18G19G21G22G27
  22857941.900   120119350.89808  22857941.380    93599526.32046
  24503222.560   128765305.48607  24503222.060   100336592.61844
  20861868.540   109629911.42209  20861865.140    85425916.15848
  22271584.200   117038137.54809  22271580.900    91198613.21647
  21624366.660   113636849.17409  21624361.700    88548196.77048
  24489167.860   128691454.49408  24489165.220   100279049.16145
  20885116.440   109752134.08009  20885111.540    85521192.63448
  20512595.100   107794487.45109  20512594.540    83995723.85349
 15 03 26 00 19 30.0000000  0  8G04G11G16G18G19G21G22G27
  22842293.040   120037115.25208  22842292.520    93535446.65546
  24485906.180   128674306.95108  24485905.220   100265684.79944
  20871319.640   109679578.31209  20871316.380    85464617.60348
  22280729.300   117086195.11509  22280725.980    91236060.67347
  21613572.560   113580125.53509  21613567.560    88503996.54448
  24503362.300   128766046.64107  24503359.700   100337172.86845
  20882123.120   109736403.59409  20882118.120    85508935.11948
  20508682.040   107773923.91709  20508681.440    83979700.32049
 15 03 26 00 20  0.0000000  0  8G04G11G16G18G19G21G22G27
  22826687.480   119955107.09008  22826686.940    93471544.25046
  24468605.560   128583390.65207  24468604.060   100194841.04944
  20880868.780   109729760.09109  20880865.600    85503720.27948
  22289954.280   117134672.23709  22289950.800    91273835.05647
  21602811.620   113523577.33309  21602806.780    88459933.02548
  24517554.540   128840627.18707  24517551.960   100395287.54644
  20879231.100   109721205.50509  20879226.060    85497092.47148
  20504821.260   107753635.29709  20504820.620    83963891.01249
 15 03 26 00 20 30.0000000  0  8G04G11G16G18G19G21G22G27
  22811125.740   119873329.75708  22811125.160    93407821.70746
  24451321.160   128492560.00407  24451319.660   100124064.10945
  20890516.240   109780458.65809  20890513.220    85543225.62948
  22299259.460   117183571.19909  22299255.900    91311938.13647
  21592084.840   113467208.84909  21592080.260    88416009.54248
  24531745.020   128915198.48607  24531742.360   100453395.01245
  20876440.800   109706542.34109  20876435.760    85485666.63848
  20501013.540   107733625.86909  20501013.000    83948299.24049
 15 03 26 00 21  0.0000000  0  9G04G11G16G18G19G21G22G27G32
  22795607.600   119791781.61208  22795606.880    93344277.73946
  24434052.860   128401813.29008  24434051.180   100053352.59144
  20900261.260   109831669.81709  20900258.400    85583130.39848
  22308644.060   117232887.75209  22308640.560    91350366.62147
  21581392.060   113411018.22809  21581387.500    88372224.65248
  24545933.080   128989757.69907  24545930.640   100511493.07145
  20873752.060   109692413.02209  20873747.020    85474656.78848
  20497258.720   107713894.16709  20497258.240    83932923.88849
  24503808.620                                                  
 15 03 26 00 21 30.0000000  0  9G04G11G16G18G19G21G22G27G32
  22780132.700   119710460.70008  22780131.900    93280910.85446
  24416800.120   128311148.36808  24416798.300    99982704.75144
  20910103.280   109883390.10209  20910100.500    85623431.90848
  22318107.300   117282617.63109  22318103.860    91389117.17947
  21570733.000   113355004.18009  21570728.400    88328577.36648
  24560118.320   129064301.77807  24560116.200   100569579.32145
  20871164.520   109678815.19409  20871159.400    85464061.10348
  20493556.560   107694439.02009  20493556.060    83917764.04549
  24481178.300   128649459.32207  24481183.220   100246347.24645
 15 03 26 00 22  0.0000000  0  9G04G11G16G18G19G21G22G27G32
  22764701.560   119629370.08508  22764700.680    93217723.41046
  24399563.320   128220568.20007  24399561.240    99912122.94344
  20920042.480   109935620.46909  20920039.780    85664130.88048
  22327649.360   117332761.65809  22327645.880    91428190.43847
  21560108.260   113299170.40809  21560103.640    88285070.54148
  24574301.120   129138832.61907  24574298.960   100627655.24245
  20868678.680   109665751.63909  20868673.400    85453881.72348
  20489907.740   107675264.13109  20489907.200    83902822.56349
  24458551.380   128530554.66007  24458556.680   100153695.09744
 15 03 26 00 22 30.0000000  0  9G04G11G16G18G19G21G22G27G32
  22749314.800   119548512.43808  22749313.720    93154717.48346
  24382343.120   128130075.16508  24382340.540    99841609.02644
  20930078.940   109988361.87609  20930076.280    85705228.05948
  22337270.180   117383320.03409  22337266.880    91467586.56747
  21549518.240   113243519.78809  21549513.780    88241706.43348
  24588481.700   129213351.75707  24588479.440   100685722.03745
  20866294.820   109653224.34109  20866289.480    85444120.21348
  20486312.780   107656372.62009  20486312.220    83888101.90149
  24435928.280   128411671.16407  24435933.640   100061059.46945
 15 03 26 00 23  0.0000000  0  9G04G11G16G18G19G21G22G27G32
  22733971.980   119467886.02208  22733970.900    93091891.75946
  24365139.100   128039667.50808  24365136.400    99771161.66044
  20940211.940   110041610.36509  20940209.280    85746720.37648
  22346969.260   117434289.66909  22346966.120    91507303.16247
  21538962.720   113188051.09409  21538958.440    88198484.08948
  24602659.580   129287856.38907  24602657.240   100743777.57445
  20864012.680   109641231.88209  20864007.480    85434775.45648
  20482771.500   107637763.43809  20482771.000    83873601.23249
  24413309.180   128292809.33507  24413314.200    99968440.68944
 15 03 26 00 23 30.0000000  0  9G04G11G16G18G19G21G22G27G32
  22718673.540   119387492.18508  22718672.420    93029247.25846
  24347951.520   127949346.45708  24347948.740    99700781.77844
  20950441.340   110095365.29209  20950438.660    85788607.31048
  22356746.460   117485669.22809  22356743.440    91547339.18247
  21528442.160   113132766.25009  21528437.980    88155405.00848
  24616834.680   129362346.45107  24616832.320   100801821.76845
  20861832.460   109629775.04609  20861827.420    85425848.07348
  20479284.340   107619438.43909  20479283.820    83859322.01349
  24390694.680   128173972.47507  24390699.720    99875841.32145
 15 03 26 00 24  0.0000000  0  9G04G11G16G18G19G21G22G27G32
  22703419.260   119307329.90808  22703418.000    92966783.19146
  24330780.060   127859110.58508  24330777.300    99630468.21844
  20960766.580   110149623.62809  20960763.700    85830886.51648
  22366601.000   117537455.09809  22366597.940    91587691.80247
  21517956.600   113077664.64109  21517952.340    88112468.70648
  24631006.600   129436820.26707  24631004.120   100859853.29945
  20859754.020   109618852.87509  20859749.000    85417337.30348
  20475851.240   107601397.26309  20475850.660    83845263.96149
  24368085.140   128055161.84407  24368090.100    99783262.37644
 15 03 26 00 24 30.0000000  0  9G04G11G16G18G19G21G22G27G32
  22688209.780   119227403.43608  22688208.600    92904502.87646
  24313625.660   127768964.73208  24313623.040    99560224.81445
  20971187.880   110204387.40609  20971184.840    85873559.56548
  22376533.240   117589649.84509  22376530.300    91628363.01047
  21507506.900   113022751.08109  21507502.560    88069678.93148
  24645175.940   129511280.65707  24645173.420   100917874.32845
  20857778.120   109608469.03809  20857772.980    85409246.01448
  20472473.100   107583644.79209  20472472.540    83831430.85449
  24345481.800   127936383.93007  24345486.480    99690708.83944
 15 03 26 00 25  0.0000000  0  9G04G11G16G18G19G21G22G27G32
  22673044.560   119147709.80608  22673043.580    92842403.98346
  24296487.620   127678905.49507  24296485.240    99490048.90045
  20981704.280   110259651.76609  20981701.300    85916622.68548
  22386542.400   117642248.44309  22386539.440    91669348.92547
  21497092.560   112968023.24709  21497088.180    88027033.88248
  24659342.000   129585723.51007  24659339.600   100975881.69145
  20855903.960   109598620.30809  20855898.720    85401571.69748
  20469149.460   107566178.60409  20469148.960    83817820.83349
  24322884.500   127817637.70907  24322889.200    99598179.99244
 15 03 26 00 25 30.0000000  0  9G04G11G16G18G19G21G22G27G32
  22657923.760   119068250.07508  22657922.940    92780487.35946
  24279366.180   127588934.04307  24279364.620    99419941.42345
  20992315.660   110315416.03209  20992312.860    85960075.33548
  22396628.140   117695249.55909  22396625.140    91710648.49447
  21486713.780   112913482.39009  21486709.380    87984534.52348
  24673504.660   129660148.90607  24673502.380   101033875.45945
  20854131.680   109589307.34209  20854126.420    85394314.85748
  20465880.640   107549000.51909  20465880.120    83804435.30449
  24300293.880   127698926.63107  24300298.760    99505678.51044
 15 03 26 00 26  0.0000000  0  9G04G11G16G18G19G21G22G27G32
  22642847.640   118989024.97908  22642846.900    92718753.55446
  24262261.500   127499050.65507  24262260.480    99349902.53445
  21003021.820   110371678.38909  21003019.280    86003916.11248
  22406790.160   117748651.53908  22406787.140    91752260.42547
  21476370.940   112859130.00809  21476366.400    87942182.03448
  24687664.020   129734556.79807  24687661.780   101091855.62244
  20852461.480   109580530.57309  20852456.220    85387475.83348
  20462666.900   107532111.83109  20462666.240    83791275.29149
  24277710.460   127580253.63907  24277715.600    99413206.68645
 15 03 26 00 26 30.0000000  0  9G04G11G16G18G19G21G22G27G32
  22627816.080   118910033.73208  22627815.220    92657201.97446
  24245173.600   127409254.86908  24245173.060    99279931.90644
  21013822.180   110428435.76409  21013819.900    86048142.61048
  22417027.980   117802451.52609  22417024.940    91794182.49447
  21466063.980   112804965.78709  21466059.300    87899976.15248
  24701819.660   129808945.18607  24701817.460   101149820.57744
  20850893.040   109572288.37109  20850887.820    85381053.35448
  20459508.160   107515512.41609  20459507.440    83778340.68549
  24255134.680   127461620.08907  24255139.860    99320765.55845
 15 03 26 00 27  0.0000000  0  9G04G11G16G18G19G21G22G27G32
  22612829.960   118831281.04309  22612828.960    92595836.26946
  24228103.080   127319550.88807  24228103.000    99210032.77044
  21024717.500   110485691.10509  21024715.260    86092757.14048
  22427342.000   117856651.80409  22427338.960    91836416.47747
  21455793.880   112750994.85209  21455789.000    87857920.88848
  24715972.260   129883317.58207  24715969.880   101207773.08844
  20849427.160   109564585.43209  20849422.080    85375051.08948
  20456405.400   107499207.46309  20456404.720    83765635.52849
  24232567.800   127343032.90407  24232572.940    99228360.52744
 15 03 26 00 27 30.0000000  0  9G04G11G16G18G19G21G22G27G32
  22597888.340   118752762.05009  22597887.260    92534652.67546
  24211049.280   127229934.19807  24211049.600    99140201.64845
  21035706.340   110543437.13709  21035703.940    86137754.02648
  22437730.820   117911245.18209  22437727.840    91878956.77246
  21445559.720   112697213.25509  21445554.720    87816013.15648
  24730120.840   129957668.40707  24730118.080   101265708.76344
  20848062.900   109557416.95409  20848058.020    85369465.28048
  20453357.880   107483192.88409  20453357.200    83753156.62649
  24210009.420   127224489.47208  24210014.340    99135989.61745
 15 03 26 00 28  0.0000000  0  9G04G11G16G18G19G21G22G27G32
  22582991.680   118674479.77908  22582990.580    92473653.55047
  24194012.700   127140407.43008  24194013.100    99070440.56544
  21046788.900   110601675.27609  21046786.220    86183134.38448
  22448194.720   117966232.84909  22448191.620    91921804.30047
  21435362.160   112643624.43209  21435357.100    87774255.63848
  24744265.700   130031999.86707  24744263.060   101323629.35044
  20846800.820   109550784.97309  20846796.000    85364297.51548
  20450366.300   107467472.34609  20450365.680    83740906.85749
  24187460.520   127105994.98808  24187465.260    99043656.78245
 15 03 26 00 28 30.0000000  0  9G04G11G16G18G19G21G22G27G32
  22568139.840   118596433.93408  22568138.900    92412838.67746
  24176993.500   127050970.54408  24176993.640    99000749.47344
  21057964.540   110660402.91509  21057961.640    86228896.16248
  22458733.060   118021611.79709  22458729.960    91964956.73246
  21425201.300   112590228.72109  21425196.220    87732648.59648
  24758406.520   130106310.25707  24758403.980   101381533.50745
  20845640.780   109544688.93509  20845635.940    85359547.37248
  20447430.740   107452046.27009  20447430.260    83728886.53549
  24164921.320   126987551.50508  24164925.820    98951363.67445
 15 03 26 00 29  0.0000000  0  9G04G11G16G18G19G21G22G27G32
  22553333.200   118518625.85508  22553332.220    92352209.07147
  24159991.840   126961624.92308  24159991.540    98931129.52445
  21069233.120   110719619.17709  21069230.100    86275038.69148
  22469345.700   118077381.38709  22469342.520    92008413.55046
  21415077.540   112537027.78809  21415072.400    87691193.32648
  24772543.460   130180600.07607  24772540.780   101439421.65545
  20844582.880   109539129.58309  20844578.040    85355215.43248
  20444551.600   107436916.55309  20444551.220    83717097.14749
  24142392.500   126869162.64208  24142396.680    98859113.14345
 15 03 26 00 29 30.0000000  0  9G04G11G16G18G19G21G22G27G32
  22538571.680   118441055.13408  22538570.780    92291764.43547
  24143007.480   126872369.83708  24143006.480    98861580.14045
  21080594.120   110779321.09609  21080591.060    86321559.65548
  22480032.100   118133538.79809  22480028.780    92052172.57847
  21404990.860   112484022.14209  21404985.820    87649890.23548
  24786676.220   130254867.85508  24786673.560   101497292.61345
  20843626.920   109534106.05809  20843622.180    85351301.00948
  20441728.960   107422083.38009  20441728.540    83705538.83449
  24119874.400   126750830.11108  24119878.200    98766906.46345
 15 03 26 00 30  0.0000000  0  9G04G11G16G18G19G21G22G27G32
  22523855.640   118363722.67308  22523854.640    92231505.46147
  24126040.620   126783206.15608  24126038.900    98792101.97344
  21092047.360   110839507.97109  21092044.400    86368458.49048
  22490792.080   118190082.76109  22490788.680    92096232.81246
  21394941.640   112431213.39209  21394936.660    87608740.57248
  24800804.740   130329113.63207  24800802.120   101555146.43445
  20842772.980   109529618.64709  20842768.240    85347804.33748
  20438963.160   107407548.46909  20438962.580    83694212.93049
  24097367.600   126632557.12908  24097370.940    98674746.18945
 15 03 26 00 30 30.0000000  0  9G04G11G16G18G19G21G22G27G32
  22509185.520   118286631.37608  22509184.440    92171434.39047
  24109091.740   126694137.09608  24109089.300    98722697.55044
  21103592.940   110900180.42709  21103590.040    86415735.70248
  22501625.700   118247014.03209  22501622.300    92140594.83446
  21384930.500   112378605.02209  21384925.580    87567747.04148
  24814929.460   130403339.53307  24814926.860   101612984.76645
  20842021.620   109525670.34709  20842016.800    85344727.75048
  20436254.860   107393315.56609  20436254.140    83683122.35649
  24074873.100   126514349.13508  24074876.020    98582636.51245
 15 03 26 00 31  0.0000000  0  9G04G11G16G18G19G21G22G27G32
  22494560.800   118209778.64208  22494559.720    92111549.19846
  24092160.300   126605159.84208  24092157.380    98653364.68044
  21115229.960   110961333.58209  21115227.100    86463387.48948
  22512532.240   118304327.86009  22512528.940    92185254.95646
  21374957.020   112326194.88709  21374952.280    87526907.99448
  24829049.680   130477541.89307  24829047.120   101670804.74045
  20841372.200   109522257.46109  20841367.300    85342068.37748
