     2.11           OBSERVATION DATA    G                   RINEX VERSION / TYPE
SPIDER V4,0,0,3554                      2015 03 26 23:59    PGM / RUN BY / DATE 
ABZH                                                        MARKER NAME         
ABZH                                                        MARKER NUMBER       
                                                            OBSERVER / AGENCY   
462405              LEICA GRX1200PRO    8.20/2.127          REC # / TYPE / VERS 
103261              LEIAT504                                ANT # / TYPE        
  5106723.3315   270606.5343  3799533.4430                  APPROX POSITION XYZ 
        0.0770        0.0000        0.0000                  ANTENNA: DELTA H/E/N
     1     1                                                WAVELENGTH FACT L1/2
     4    C1    L1    P2    L2                              # / TYPES OF OBSERV 
    30.000                                                  INTERVAL            
  2015    03    26    00    00    0.0000000     GPS         TIME OF FIRST OBS   
  2015    03    26    23    59   30.0000000     GPS         TIME OF LAST OBS    
    16                                                      LEAP SECONDS        
    30                                                      # OF SATELLITES     
   G 1   818   818   818   818                              PRN / # OF OBS      
   G 2   914   914   913   913                              PRN / # OF OBS      
   G 3   830   830   829   829                              PRN / # OF OBS      
   G 4   841   841   841   841                              PRN / # OF OBS      
   G 5   659   659   659   659                              PRN / # OF OBS      
   G 6   788   788   788   788                              PRN / # OF OBS      
   G 7   654   654   654   654                              PRN / # OF OBS      
   G 9   782   782   782   782                              PRN / # OF OBS      
   G10   770   770   770   770                              PRN / # OF OBS      
   G11   781   781   781   781                              PRN / # OF OBS      
   G12   809   809   809   809                              PRN / # OF OBS      
   G13   805   805   805   805                              PRN / # OF OBS      
   G14   907   907   904   904                              PRN / # OF OBS      
   G15   721   721   721   721                              PRN / # OF OBS      
   G16   678   678   676   676                              PRN / # OF OBS      
   G17   898   898   898   898                              PRN / # OF OBS      
   G18   877   877   873   873                              PRN / # OF OBS      
   G19   775   775   775   775                              PRN / # OF OBS      
   G20   737   737   736   736                              PRN / # OF OBS      
   G21   701   701   700   700                              PRN / # OF OBS      
   G22   728   728   717   717                              PRN / # OF OBS      
   G23   732   732   732   732                              PRN / # OF OBS      
   G24   827   827   827   827                              PRN / # OF OBS      
   G25   841   841   841   841                              PRN / # OF OBS      
   G27   816   816   816   816                              PRN / # OF OBS      
   G28   868   868   867   867                              PRN / # OF OBS      
   G29   744   744   743   743                              PRN / # OF OBS      
   G30   700   700   700   700                              PRN / # OF OBS      
   G31   808   808   804   804                              PRN / # OF OBS      
   G32   744   744   744   744                              PRN / # OF OBS      
BIT 2 OF LLI FLAGS DATA COLLECTED UNDER A/S CONDITION       COMMENT             
SNR is mapped to RINEX snr flag value [2-9]                 COMMENT             
Lx:     = 25dBHz -> 1; 26-27dBHz -> 2; 28-31dBHz -> 3       COMMENT             
       32-35dBHz -> 4; 36-38dBHz -> 5; 39-41dBHz -> 6       COMMENT             
       42-44dBHz -> 7; 45-48dBHz -> 8; >=49dBHz -> 9        COMMENT             
                                                            END OF HEADER       
 15 03 26 00 00  0.0000000  0  7G04G16G18G19G21G22G27
  23550020.820   123756235.67906  23550023.440    96433442.42143
  20594281.500   108223727.55808  20594281.280    84330203.37448
  21936203.920   115275655.69508  21936203.620    89825243.21946
  22085509.900   116060172.87208  22085508.140    90436509.57446
  23885817.180   125520832.17305  23885817.260    97808446.86744
  21055839.460   110649317.61708  21055837.620    86220308.04647
  20696658.480   108761736.28208  20696660.600    84749455.22048
 15 03 26 00 00 30.0000000  0  7G04G16G18G19G21G22G27
  23532739.860   123665422.88806  23532742.300    96362679.30843
  20599940.540   108253466.25908  20599940.420    84353376.38748
  21942018.000   115306208.76308  21942017.660    89849050.81746
  22073354.040   115996292.59608  22073352.240    90386732.75246
  23899888.700   125594778.56305  23899888.840    97866067.36244
  21048945.020   110613087.02508  21048943.120    86192076.45347
  20690710.600   108730479.63009  20690712.640    84725099.39248
 15 03 26 00 01  0.0000000  0  7G04G16G18G19G21G22G27
  23515495.760   123574804.41006  23515498.060    96292067.62644
  20605704.600   108283756.67508  20605704.500    84376979.29448
  21947921.560   115337232.03808  21947921.240    89873224.80646
  22061224.920   115932553.67907  22061223.200    90337066.08246
  23913964.160   125668744.70006  23913964.140    97923703.30343
  21042145.700   110577356.31508  21042143.760    86164234.36847
  20684807.580   108699458.97709  20684809.600    84700927.46748
 15 03 26 00 01 30.0000000  0  7G04G16G18G19G21G22G27
  23498289.140   123484383.38506  23498291.420    96221609.79144
  20611574.060   108314600.42208  20611573.900    84401013.36748
  21953914.880   115368727.27908  21953914.580    89897766.55846
  22049123.140   115868959.06608  22049121.560    90287511.86947
  23928043.760   125742732.04006  23928043.380    97981355.81243
  21035442.140   110542128.72208  21035440.100    86136784.33047
  20678950.020   108668677.59108  20678952.140    84676941.98248
 15 03 26 00 02  0.0000000  0  7G04G16G18G19G21G22G27
  23481119.900   123394159.73306  23481122.340    96151305.78844
  20617548.500   108345996.02208  20617548.320    84425477.46248
  21959997.660   115400692.49608  21959997.340    89922674.52146
  22037048.880   115805509.19808  22037047.380    90238070.44347
  23942126.980   125816738.56505  23942126.480    98039023.21844
  21028834.380   110507404.62208  21028832.260    86109726.62347
  20673138.040   108638135.86909  20673140.200    84653143.25148
 15 03 26 00 02 30.0000000  0  7G04G16G18G19G21G22G27
  23463988.560   123304135.53706  23463991.080    96081157.12144
  20623628.020   108377944.41508  20623627.900    84450372.30348
  21966169.940   115433127.77008  21966169.660    89947948.76346
  22025002.560   115742205.68708  22025001.120    90188743.05747
  23956213.820   125890764.89905  23956213.500    98096706.03544
  21022322.880   110473186.57208  21022320.720    86083063.22747
  20667372.120   108607836.07308  20667374.320    84629533.02348
 15 03 26 00 03  0.0000000  0  7G04G16G18G19G21G22G27
  23446895.460   123214312.50306  23446898.280    96011165.23045
  20629812.740   108410445.69808  20629812.680    84475697.97048
  21972431.640   115466032.97908  21972431.300    89973589.18946
  22012984.480   115679050.32108  22012983.120    90139531.10447
  23970304.140   125964811.09205  23970304.100    98154404.26944
  21015908.040   110439476.42608  21015905.880    86056795.61447
  20661652.660   108577780.18708  20661654.820    84606112.86248
 15 03 26 00 03 30.0000000  0  7G04G16G18G19G21G22G27
  23429839.640   123124685.33706  23429842.900    95941325.96844
  20636101.480   108443493.16008  20636101.380    84501449.22348
  21978781.460   115499401.11708  21978781.040    89999590.35446
  22000993.700   115616038.24708  22000992.360    90090430.80747
  23984397.100   126038870.39106  23984397.100    98212112.78943
  21009588.940   110406269.33608  21009586.800    86030919.98047
  20655978.760   108547963.47009  20655980.860    84582879.05948
 15 03 26 00 04  0.0000000  0  7G04G16G18G19G21G22G27
  23412821.980   123035257.97906  23412825.320    95871642.40944
  20642494.660   108477089.32208  20642494.480    84527628.03648
  21985219.560   115533233.93408  21985219.220    90025953.59046
  21989030.960   115553173.32008  21989029.540    90041445.16647
  23998493.060   126112944.86606  23998493.100    98269833.14944
  21003366.320   110373569.42408  21003364.260    86005439.55347
  20650351.120   108518389.97508  20650353.200    84559834.78548
 15 03 26 00 04 30.0000000  0  7G04G16G18G19G21G22G27
  23395842.400   122946030.26206  23395845.720    95802114.39944
  20648991.980   108511232.59808  20648991.700    84554233.17748
  21991745.560   115567529.05708  21991745.360    90052677.06146
  21977096.120   115490455.11508  21977094.640    89992573.86847
  24012591.800   126187033.29906  24012591.520    98327564.37944
  20997240.260   110341377.11308  20997238.300    85980354.67548
  20644769.860   108489060.01109  20644771.880    84536980.26848
 15 03 26 00 05  0.0000000  0  7G04G16G18G19G21G22G27
  23378901.480   122857005.02106  23378904.520    95732744.17844
  20655593.640   108545924.29308  20655593.380    84581265.65048
  21998359.880   115602288.10008  21998359.800    90079762.03646
  21965189.820   115427887.05707  21965188.300    89943819.55647
  24026693.140   126261136.41205  24026692.600    98385307.06244
  20991211.380   110309695.46908  20991209.480    85955667.69647
  20639235.540   108459976.76608  20639237.540    84514318.01148
 15 03 26 00 05 30.0000000  0  7G04G16G18G19G21G22G27
  23361999.520   122768184.12006  23362002.420    95663533.15044
  20662299.700   108581164.72108  20662299.540    84608725.71748
  22005062.620   115637511.14208  22005062.520    90107208.55846
  21953312.340   115365470.74708  21953310.900    89895183.49247
  24040797.120   126335254.66204  24040796.760    98443061.51044
  20985280.060   110278526.61308  20985278.220    85931380.30647
  20633748.580   108431142.46309  20633750.560    84491849.72948
 15 03 26 00 06  0.0000000  0  7G04G16G18G19G21G22G27
  23345135.800   122679564.94706  23345138.960    95594479.35544
  20669109.280   108616949.49208  20669109.160    84636609.93848
  22011852.740   115673192.80908  22011852.480    90135012.46346
  21941463.200   115303203.61107  21941461.900    89846663.67947
  24054903.300   126409383.87405  24054903.200    98500824.49145
  20979445.820   110247867.92708  20979444.040    85907490.45047
  20628308.540   108402554.66509  20628310.500    84469573.52548
 15 03 26 00 06 30.0000000  0  7G04G16G18G19G21G22G27
  23328310.720   122591149.28006  23328313.960    95525584.08545
  20676022.540   108653279.18708  20676022.440    84664918.77248
  22018730.200   115709333.39108  22018729.840    90163173.95546
  21929642.840   115241087.62307  21929641.640    89798261.63147
  24069011.900   126483524.31806  24069011.720    98558596.23645
  20973709.240   110217722.11908  20973707.460    85884000.23047
  20622915.860   108374215.83009  20622917.760    84447491.31448
 15 03 26 00 07  0.0000000  0  7G04G16G18G19G21G22G27
  23311524.500   122502937.54706  23311527.580    95456847.78144
  20683039.320   108690152.56208  20683039.140    84693651.25448
  22025694.620   115745931.36808  22025694.140    90191691.86546
  21917851.320   115179123.51607  21917850.180    89749977.94047
  24083122.400   126557674.86806  24083122.280    98616375.84244
  20968070.300   110188089.28708  20968068.540    85860909.73648
  20617570.620   108346126.66508  20617572.520    84425603.65348
 15 03 26 00 07 30.0000000  0  7G04G16G18G19G21G22G27
  23294777.460   122414931.75006  23294780.360    95388271.91944
  20690159.660   108727570.07808  20690159.480    84722807.74848
  22032745.980   115782986.50208  22032745.540    90220566.00646
  21906089.200   115117313.27608  21906087.900    89701814.12947
  24097234.900   126631835.94705  24097234.800    98674163.68144
  20962529.420   110158971.67608  20962527.640    85838220.71248
  20612273.280   108318289.35709  20612275.240    84403912.24648
 15 03 26 00 08  0.0000000  0  7G04G16G18G19G21G22G27
  23278069.980   122327133.48606  23278072.700    95319857.76745
  20697383.500   108765531.85208  20697383.400    84752388.33748
  22039884.280   115820498.92908  22039884.040    90249796.46046
  21894356.780   115055658.99008  21894355.360    89653771.85147
  24111349.260   126706007.79304  24111349.420    98731959.89643
  20957086.960   110130371.53008  20957085.180    85815934.91648
  20607024.320   108290706.25109  20607026.360    84382418.92548
 15 03 26 00 08 30.0000000  0  7G04G16G18G19G21G22G27
  23261402.040   122239543.20106  23261404.680    95251605.68344
  20704710.700   108804036.48208  20704710.620    84782391.93348
  22047109.340   115858466.90208  22047109.160    90279381.89546
  21882654.160   114994160.99408  21882652.580    89605851.35347
  24125465.380   126780189.44705  24125465.760    98789763.75244
  20951742.960   110102288.96408  20951741.160    85794052.41248
  20601823.980   108263377.97809  20601825.980    84361124.16548
 15 03 26 00 09  0.0000000  0  7G04G16G18G19G21G22G27
  23244772.980   122152156.55706  23244775.540    95183512.27245
  20712140.180   108843078.27708  20712140.040    84812814.09848
  22054419.940   115896884.09608  22054419.840    90309317.37846
  21870980.520   114932815.12908  21870978.840    89558049.40747
  24139582.480   126854374.95105  24139582.760    98847570.59544
  20946496.740   110074720.06508  20946494.900    85772570.17748
  20596671.420   108236300.73509  20596673.360    84340025.01448
 15 03 26 00 09 30.0000000  0  7G04G16G18G19G21G22G27
  23228183.600   122064978.01006  23228185.920    95115581.01844
  20719672.340   108882659.61908  20719672.080    84843656.67848
  22061816.400   115935752.50608  22061816.380    90339604.45246
  21859336.640   114871625.93008  21859334.940    89510369.53847
  24153700.920   126928567.19205  24153701.140    98905382.71844
  20941349.160   110047669.36608  20941347.260    85751491.72448
  20591567.480   108209479.27808  20591569.400    84319125.17648
 15 03 26 00 10  0.0000000  0  7G04G16G18G19G21G22G27
  23211634.160   121978009.34306  23211636.320    95047813.30045
  20727307.180   108922780.94808  20727306.940    84874920.03948
  22069298.780   115975072.54408  22069298.800    90370243.43946
  21847722.980   114810595.82908  21847721.360    89462813.63647
  24167820.740   127002766.68706  24167821.100    98963200.48245
  20936300.580   110021139.05908  20936298.620    85730818.78547
  20586512.600   108182915.89709  20586514.560    84298426.43948
 15 03 26 00 10 30.0000000  0  7G04G16G18G19G21G22G27
  23195124.680   121891250.65406  23195126.600    94980209.21744
  20735044.420   108963440.63708  20735044.280    84906602.89948
  22076866.620   116014841.95408  22076866.680    90401232.59346
  21836139.640   114749724.88808  21836138.020    89415381.74847
  24181941.680   127076972.31505  24181942.340    99021023.01944
  20931351.120   109995129.56608  20931349.100    85710551.67848
  20581507.000   108156611.23909  20581508.960    84277929.30548
 15 03 26 00 11  0.0000000  0  7G04G16G18G19G21G22G27
  23178655.480   121804703.90406  23178657.240    94912770.27145
  20742884.180   109004638.85608  20742884.060    84938705.39548
  22084520.060   116055061.00808  22084520.060    90432572.11246
  21824586.960   114689015.04008  21824585.320    89368075.39747
  24196063.740   127151184.30505  24196064.540    99078850.50644
  20926501.020   109969642.39908  20926499.080    85690691.56348
  20576551.160   108130567.62709  20576553.060    84257635.57948
 15 03 26 00 11 30.0000000  0  7G04G16G18G19G21G22G27
  23162226.400   121718368.82606  23162228.220    94845496.28044
  20750826.100   109046373.90908  20750825.960    84971226.18948
  22092258.460   116095726.72708  22092258.380    90464259.68146
  21813064.980   114628466.33208  21813063.220    89320894.58847
  24210186.680   127225401.05204  24210187.400    99136681.67344
  20921750.320   109944677.58608  20921748.480    85671238.49048
  20571644.940   108104785.18309  20571646.820    84237545.36548
 15 03 26 00 12  0.0000000  0  7G04G16G18G19G21G22G27
  23145837.800   121632247.43706  23145839.760    94778388.77044
  20758870.280   109088646.16308  20758870.080    85004165.59948
  22100082.020   116136839.46808  22100081.760    90496295.59346
  21801574.120   114568081.24508  21801572.200    89273841.27747
  24224310.580   127299623.42805  24224311.240    99194517.26043
  20917099.520   109920237.54308  20917097.780    85652194.31748
  20566788.880   108079266.62309  20566790.840    84217660.76948
 15 03 26 00 12 30.0000000  0  7G04G16G18G19G21G22G27
  23129488.940   121546334.69106  23129491.020    94711443.83644
  20767015.260   109131448.33508  20767015.060    85037517.92348
  22107989.260   116178392.26308  22107988.940    90528674.39746
  21790113.400   114507855.04908  21790111.480    89226911.79447
  24238434.340   127373844.38005  24238434.700    99252351.78843
  20912547.580   109896316.76408  20912545.800    85633554.76348
  20561982.080   108054007.09109  20561984.100    84197978.02348
 15 03 26 00 13  0.0000000  0  7G04G16G18G19G21G22G27
  23113181.040   121460637.54306  23113183.340    94644666.90845
  20775262.160   109174785.74808  20775261.880    85071287.32348
  22115981.140   116220389.78608  22115980.820    90561399.73646
  21778684.260   114447794.75408  21778682.360    89180111.57947
  24252559.060   127448069.84305  24252559.140    99310189.77243
  20908095.840   109872922.49908  20908094.020    85615325.49348
  20557226.040   108029014.12709  20557228.040    84178502.98848
 15 03 26 00 13 30.0000000  0  7G04G16G18G19G21G22G27
  23096913.720   121375153.84206  23096916.280    94578056.31745
  20783610.220   109218654.70808  20783609.880    85105470.91048
  22124056.880   116262828.12908  22124056.560    90594468.57846
  21767286.440   114387898.65108  21767284.540    89133439.29947
  24266684.020   127522295.99205  24266683.960    99368028.34244
  20903743.880   109850052.61108  20903741.940    85597504.82548
  20552520.520   108004286.12409  20552522.460    84159234.41248
 15 03 26 00 14  0.0000000  0  7G04G16G18G19G21G22G27
  23080687.080   121289882.96706  23080689.700    94511611.51245
  20792058.900   109263052.63708  20792058.560    85140066.68448
  22132215.840   116305703.83208  22132215.420    90627878.21946
  21755919.780   114328166.29508  21755917.900    89086894.62447
  24280808.920   127596521.67905  24280808.960    99425866.51544
  20899491.620   109827706.75808  20899489.560    85580092.49148
  20547865.380   107979823.03009  20547867.320    84140172.25348
 15 03 26 00 14 30.0000000  0  7G04G16G18G19G21G22G27
  23064501.200   121204825.45106  23064503.800    94445333.02945
  20800608.000   109307978.47708  20800607.680    85175073.82048
  22140457.980   116349016.34608  22140457.540    90661628.22246
  21744584.460   114268598.94908  21744582.640    89040478.52747
  24294933.440   127670745.86705  24294933.580    99483703.46143
  20895339.080   109805885.01308  20895337.000    85563088.55648
  20543260.720   107955625.72309  20543262.780    84121317.21448
 15 03 26 00 15  0.0000000  0  6G04G16G18G19G22G27
  23048357.340   121119988.03006  23048359.820    94379225.99545
  20809258.460   109353436.95908  20809258.180    85210495.99948
  22148784.100   116392769.80808  22148783.440    90695721.84946
  21733281.760   114209203.02808  21733279.920    88994196.01347
  20891287.620   109784594.66008  20891285.600    85546498.68548
  20538708.080   107931701.43309  20538710.100    84102674.90448
 15 03 26 00 15 30.0000000  0  7G04G16G18G19G21G22G27
  23032253.740   121035362.77006  23032256.100    94313284.28745
  20818008.420   109399418.44008  20818008.200    85246325.70748
  22157192.200   116436954.39108  22157191.500    90730151.39246
  21722010.220   114149971.33208  21722008.500    88948041.46147
  24323182.520   127819188.17805  24323183.540    99599372.18844
  20887335.720   109763827.65808  20887333.700    85530316.62848
  20534206.000   107908042.94009  20534208.060    84084239.72148
 15 03 26 00 16  0.0000000  0  8G04G11G16G18G19G21G22G27
  23016192.420   120950960.19506  23016194.760    94247516.10244
  24673148.000   129658261.44205  24673148.020   101032418.79643
  20826859.580   109445931.86808  20826859.400    85282569.92048
  22165683.880   116481578.42808  22165683.300    90764923.36546
  21710771.960   114090914.58308  21710770.400    88902023.22047
  24337307.000   127893414.06905  24337308.100    99657210.48043
  20883485.400   109743594.47608  20883483.440    85514550.53748
  20529756.640   107884661.35109  20529758.720    84066020.29749
 15 03 26 00 16 30.0000000  0  8G04G11G16G18G19G21G22G27
  23000169.200   120866757.96006  23000171.560    94181904.02845
  24655642.660   129566271.13506  24655642.820   100960738.23341
  20835807.240   109492952.46708  20835807.040    85319209.33348
  22174254.420   116526617.33308  22174253.960    90800018.61746
  21699562.820   114032010.69408  21699561.340    88856124.10047
  24351427.740   127967619.96305  24351428.720    99715033.24542
  20879732.280   109723872.06508  20879730.340    85499182.43948
  20525355.780   107861534.52009  20525357.840    84047999.39248
 15 03 26 00 17  0.0000000  0  8G04G11G16G18G19G21G22G27
  22984190.300   120782788.53206  22984192.580    94116473.36444
  24638154.500   129474370.67805  24638154.340   100889127.63143
  20844857.440   109540511.24508  20844857.100    85356268.10948
  22182909.800   116572101.83008  22182909.420    90835461.07046
  21688389.240   113973292.90308  21688387.720    88810369.98647
  24365550.760   128041837.05705  24365551.460    99772864.81544
  20876082.760   109704693.57208  20876080.760    85484238.17848
  20521009.680   107838695.62909  20521011.700    84030202.86248
 15 03 26 00 17 30.0000000  0  8G04G11G16G18G19G21G22G27
  22968253.500   120699040.58907  22968255.820    94051215.28145
  24620680.880   129382548.23405  24620681.040   100817577.87643
  20854007.560   109588594.92508  20854007.100    85393735.89348
  22191647.400   116618017.97308  22191647.040    90871239.88346
  21677248.960   113914749.90608  21677247.320    88764752.07647
  24379673.520   128116052.96204  24379674.060    99830695.31844
  20872534.520   109686047.32408  20872532.420    85469708.65148
  20516716.380   107816133.92209  20516718.300    84012622.30148
 15 03 26 00 18  0.0000000  0  8G04G11G16G18G19G21G22G27
  22952358.040   120615509.59607  22952360.440    93986126.24445
  24603221.300   129290799.16405  24603221.880   100746085.21543
  20863256.280   109637196.90808  20863255.820    85431607.54648
  22200465.880   116664359.13808  22200465.440    90907349.89046
  21666141.080   113856377.63708  21666139.440    88719267.21147
  24393794.900   128190261.70604  24393795.160    99888520.28145
  20869086.700   109667928.88908  20869084.560    85455590.40748
  20512475.000   107793845.35909  20512476.940    83995254.59448
 15 03 26 00 18 30.0000000  0  8G04G11G16G18G19G21G22G27
  22936504.680   120532200.54406  22936507.220    93921210.14745
  24585776.640   129199128.55705  24585777.520   100674653.73341
  20872604.160   109686320.34908  20872603.840    85469885.53348
  22209365.760   116711128.05208  22209365.240    90943793.20046
  21655066.680   113798181.59808  21655065.140    88673919.67547
  24407915.660   128264467.15804  24407915.800    99946342.65042
  20865740.020   109650342.11908  20865737.880    85441886.44448
  20508286.680   107771835.65209  20508288.660    83978104.17949
 15 03 26 00 19  0.0000000  0  8G04G11G16G18G19G21G22G27
  22920693.640   120449113.44906  22920696.220    93856466.98245
  24568346.660   129107535.82705  24568347.660   100603282.91843
  20882050.840   109735963.20808  20882050.580    85508568.27348
  22218346.760   116758323.14508  22218346.200    90980568.59346
  21644025.820   113740161.90708  21644024.300    88628709.53947
  24422035.400   128338667.79404  24422035.880   100004161.25945
  20862494.800   109633288.41508  20862492.720    85428597.86448
  20504151.500   107750105.08209  20504153.440    83961171.26349
 15 03 26 00 19 30.0000000  0  8G04G11G16G18G19G21G22G27
  22904924.360   120366245.54406  22904926.860    93791894.64645
  24550931.040   129016018.29105  24550932.420   100531970.74742
  20891595.520   109786121.09808  20891595.340    85547652.32248
  22227407.820   116805939.16608  22227407.080    91017671.99046
  21633018.100   113682316.35508  21633016.580    88583635.10147
  24436153.700   128412860.07705  24436154.340   100061973.36643
  20859350.360   109616764.30308  20859348.340    85415721.94548
  20500068.980   107728651.65209  20500070.880    83944454.30248
 15 03 26 00 20  0.0000000  0  8G04G11G16G18G19G21G22G27
  22889197.180   120283598.82906  22889199.620    93727494.66545
  24533530.160   128924577.80005  24533531.760   100460718.56543
  20901238.180   109836793.67308  20901238.060    85587137.42748
  22236548.760   116853975.43708  22236547.880    91055102.86146
  21622044.020   113624647.38608  21622042.520    88538698.25847
  24450270.720   128487044.56605  24450271.360   100119779.47343
  20856307.100   109600771.72208  20856305.060    85403260.20648
  20496039.680   107707477.81909  20496041.640    83927955.22249
 15 03 26 00 20 30.0000000  0  8G04G11G16G18G19G21G22G27
  22873512.460   120201175.25306  22873514.980    93663268.54545
  24516144.380   128833216.31205  24516146.380   100389527.95943
  20910978.820   109887981.31608  20910978.820    85627023.88848
  22245769.820   116902432.81308  22245768.900    91092861.84446
  21611104.160   113567157.87308  21611102.620    88493901.25047
  24464386.420   128561222.15905  24464387.200   100177580.16543
  20853365.140   109585311.75408  20853363.140    85391213.49648
  20492064.160   107686586.42509  20492066.160    83911676.21049
 15 03 26 00 21  0.0000000  0  8G04G11G16G18G19G21G22G27
  22857870.520   120118976.17707  22857872.940    93599217.36545
  24498773.960   128741935.08205  24498775.980   100318399.86743
  20920817.300   109939682.88808  20920817.400    85667310.80248
  22255070.720   116951310.13408  22255069.940    91130948.06346
  21600198.780   113509849.07408  21600197.120    88449245.05047
  24478500.720   128635393.11405  24478501.920   100235375.73143
  20850524.960   109570386.41808  20850522.920    85379583.37948
  20488142.740   107665979.13509  20488144.760    83895618.58149
 15 03 26 00 21 30.0000000  0  8G04G11G16G18G19G21G22G27
  22842271.100   120037000.23506  22842273.380    93535340.05144
  24481418.480   128650732.54405  24481420.340   100247333.06944
  20930753.000   109991895.38808  20930753.160    85707995.85148
  22264450.880   117000603.61208  22264450.200    91169358.56146
  21589327.620   113452720.22508  21589325.880    88404729.08147
  24492613.240   128709554.96504  24492613.980   100293164.10744
  20847786.200   109555993.86408  20847784.060    85368368.41248
  20484275.240   107645655.28809  20484277.340    83879781.82149
 15 03 26 00 22  0.0000000  0  7G04G11G16G18G19G22G27
  22826715.160   119955253.44806  22826717.380    93471641.28845
  24464079.180   128559614.75405  24464081.260   100176332.32044
  20940786.720   110044622.73308  20940786.780    85749082.07348
  22273911.000   117050317.07508  22273910.380    91208096.33146
  21578491.940   113395778.06308  21578490.180    88360358.58047
  20845149.860   109542139.87808  20845147.680    85357573.11048
  20480462.960   107625621.60009  20480465.060    83864171.15549
 15 03 26 00 22 30.0000000  0  9G04G11G16G18G19G21G22G27G32
  22811200.820   119873725.55306  22811203.080    93408113.09745
  24446753.880   128468571.14805  24446756.500   100105389.37845
  20950916.180   110097852.88408  20950916.120    85790560.09048
  22283448.660   117100437.78008  22283448.080    91247151.42846
  21567689.800   113339012.56608  21567688.080    88316125.73347
  24520832.620   128857847.46504  24520833.860   100408721.12043
  20842613.940   109528813.51808  20842611.760    85347188.95348
  20476704.040   107605868.30009  20476706.120    83848778.97349
  24480243.680   128644550.52305  24480249.880   100242525.58441
 15 03 26 00 23  0.0000000  0  9G04G11G16G18G19G21G22G27G32
  22795726.920   119792410.22206  22795729.140    93344750.53845
  24429441.580   128377595.33605  24429444.280   100034499.26441
  20961139.640   110151577.27408  20961139.520    85832423.23348
  22293062.340   117150958.04108  22293061.740    91286517.86945
  21556920.200   113282417.93608  21556918.440    88272026.03347
  24534937.280   128931966.36904  24534938.020   100466476.03543
  20840177.220   109516008.74608  20840175.120    85337211.22448
  20472997.380   107586389.73609  20472999.480    83833600.87449
  24457582.440   128525466.09105  24457588.640   100149733.29542
 15 03 26 00 23 30.0000000  0  9G04G11G16G18G19G21G22G27G32
  22780298.800   119711335.17507  22780300.960    93281575.22445
  24412147.520   128286715.01505  24412150.280    99963683.54644
  20971462.040   110205821.54208  20971461.880    85874691.47148
  22302756.720   117201902.93807  22302756.100    91326215.18746
  21546188.480   113226022.50908  21546186.720    88228081.56547
  24549042.540   129006088.49704  24549042.980   100524233.54644
  20837844.920   109503752.76608  20837842.880    85327661.12148
  20469348.400   107567214.16909  20469350.460    83818658.87249
  24434927.980   128406419.10304  24434934.840   100056970.14243
 15 03 26 00 24  0.0000000  0  9G04G11G16G18G19G21G22G27G32
  22764913.820   119630486.37307  22764915.860    93218576.21045
  24394868.960   128195915.60605  24394871.540    99892930.92644
  20981880.280   110260569.62108  20981880.120    85917352.29248
  22312528.720   117253255.74607  22312528.180    91366230.35846
  21535492.140   113169812.69208  21535490.360    88184281.71647
  24563145.600   129080199.20905  24563145.660   100581982.09541
  20835614.420   109492031.55408  20835612.380    85318527.72448
  20465754.520   107548328.25509  20465756.600    83803942.57349
  24412278.260   128287397.79905  24412285.720    99964226.99444
 15 03 26 00 24 30.0000000  0  9G04G11G16G18G19G21G22G27G32
  22749571.660   119549863.18806  22749573.780    93155752.99645
  24377605.880   128105196.99605  24377608.300    99822241.14544
  20992393.740   110315818.59408  20992393.680    85960403.42548
  22322377.960   117305014.17508  22322377.460    91406561.60345
  21524831.160   113113788.42208  21524829.280    88140626.45347
  24577246.100   129154296.41805  24577245.840   100639720.13844
  20833485.500   109480843.89608  20833483.400    85309810.08548
  20462215.780   107529731.96209  20462217.880    83789451.94849
  24389633.820   128168403.69105  24389641.300    99871504.99643
 15 03 26 00 25  0.0000000  0  9G04G11G16G18G19G21G22G27G32
  22734272.940   119469467.98407  22734275.080    93093107.47045
  24360358.560   128014561.23205  24360361.100    99751615.93744
  21003002.640   110371568.91808  21003002.580    86003845.21048
  22332304.460   117357178.56608  22332304.100    91447209.16646
  21514205.980   113057952.76608  21514204.000    88097118.15247
  24591344.100   129228381.33705  24591343.700   100697448.62544
  20831458.500   109470191.94908  20831456.380    85301509.88148
  20458732.680   107511428.24709  20458734.760    83775189.31848
  24366995.480   128049441.12005  24367002.720    99778807.53641
 15 03 26 00 25 30.0000000  0  9G04G11G16G18G19G21G22G27G32
  22719017.780   119389301.66407  22719019.760    93030640.27945
  24343127.200   127924009.18804  24343129.660    99681055.92844
  21013706.840   110427819.70108  21013706.760    86047676.97447
  22342307.940   117409747.41807  22342307.640    91488171.90845
  21503616.900   113002306.85208  21503614.880    88053757.70347
  24605439.800   129302453.98704  24605439.560   100755167.48443
  20829533.500   109460076.20308  20829531.380    85293627.49848
  20455305.620   107493418.82009  20455307.620    83761155.99249
  24344363.800   127930513.30905  24344370.980    99686137.14244
 15 03 26 00 26  0.0000000  0  9G04G11G16G18G19G21G22G27G32
  22703805.940   119309362.82107  22703807.780    92968350.34345
  24325911.480   127833539.17505  24325913.620    99610559.88444
  21024505.560   110484566.97408  21024505.440    86091895.61248
  22352387.680   117462716.89907  22352387.340    91529446.83045
  21493063.740   112946850.05008  21493061.800    88010544.62947
  24619532.780   129376512.15604  24619532.580   100812875.11843
  20827710.200   109450494.96508  20827708.120    85286161.61648
  20451934.440   107475702.85009  20451936.400    83747351.34049
  24321738.980   127811621.18405  24321745.980    99593494.53141
 15 03 26 00 26 30.0000000  0  8G04G11G16G18G19G22G27G32
  22688638.120   119229655.23907  22688639.860    92906240.62345
  24308712.200   127743155.36905  24308714.320    99540130.97243
  21035399.040   110541812.22508  21035398.920    86136502.27448
  22362544.040   117516088.82307  22362543.640    91571035.33646
  21482547.460   112891586.70708  21482545.580    87967482.30747
  20825989.240   109441451.20408  20825987.100    85279114.54048
  20448619.920   107458284.80209  20448621.760    83733778.82848
  24299122.060   127692770.55105  24299128.960    99500884.21144
 15 03 26 00 27  0.0000000  0  9G04G11G16G18G19G21G22G27G32
  22673513.460   119150174.67507  22673515.220    92844307.77945
  24291528.440   127652852.92605  24291530.500    99469765.43844
  21046386.080   110599549.33308  21046386.020    86181492.21348
  22372775.720   117569856.41207  22372775.220    91612932.16346
  21472067.200   112836513.00208  21472065.400    87924567.74047
  24647710.480   129524595.31904  24647710.100   100928254.32643
  20824369.720   109432940.62908  20824367.580    85272482.94248
  20445361.360   107441160.94309  20445363.180    83720435.56049
  24276512.620   127573959.30205  24276519.520    99408304.59844
 15 03 26 00 27 30.0000000  0  9G04G11G16G18G19G21G22G27G32
  22658432.500   119070924.03707  22658434.440    92782554.09745
  24274360.780   127562635.18405  24274362.540    99399465.92643
  21057466.800   110657778.83908  21057466.760    86226865.83748
  22383082.720   117624020.30907  22383082.240    91655137.78746
  21461623.800   112781632.82008  21461622.000    87881803.96747
  24661795.140   129598609.09604  24661794.560   100985927.36243
  20822852.200   109424966.23708  20822850.140    85266269.14448
  20442159.480   107424334.97309  20442161.380    83707324.41149
  24253911.680   127455192.62605  24253918.360    99315759.69943
 15 03 26 00 28  0.0000000  0  8G04G11G16G18G19G22G27G32
  22643396.340   118991908.76407  22643398.280    92720983.80745
  24257209.880   127472507.25604  24257211.680    99329236.36743
  21068641.920   110716504.49108  21068641.840    86272626.06347
  22393465.840   117678584.13407  22393465.300    91697655.05546
  21451218.380   112726952.00808  21451216.620    87839195.55348
  20821437.620   109417532.48408  20821435.520    85260476.62448
  20439015.460   107407812.99709  20439017.440    83694450.14149
  24231320.660   127336478.14005  24231326.980    99223255.39843
 15 03 26 00 28 30.0000000  0  9G04G11G16G18G19G21G22G27G32
  22628403.200   118913119.48707  22628405.200    92659589.60845
  24240074.300   127382459.97105  24240076.160    99259069.76043
  21079909.300   110775714.57808  21079909.080    86318763.77347
  22403922.840   117733535.77407  22403922.260    91740474.51546
  21440849.300   112672461.90208  21440847.460    87796735.74047
  24689956.220   129746595.24104  24689956.160   101101234.42544
  20820124.100   109410629.76908  20820121.960    85255097.89748
  20435927.580   107391586.37509  20435929.640    83681806.02749
  24208738.280   127217808.73005  24208744.220    99130786.24244
 15 03 26 00 29  0.0000000  0  9G04G11G16G18G19G21G22G27G32
  22613454.900   118834565.46907  22613456.820    92598378.75545
  24222956.000   127292502.61105  24222957.980    99188973.11844
  21091270.120   110835416.12708  21091269.860    86365284.43647
  22414455.020   117788882.53007  22414454.380    91783601.86445
  21430518.260   112618172.11708  21430516.380    87754432.02847
  24704031.920   129820564.36104  24704032.260   101158872.65643
  20818913.300   109404266.78908  20818911.160    85250139.74548
  20432897.820   107375664.98209  20432899.900    83669399.74649
  24186166.560   127099196.01005  24186172.500    99038361.27243
 15 03 26 00 29 30.0000000  0  9G04G11G16G18G19G21G22G27G32
  22598550.560   118756242.57307  22598552.420    92537347.98045
  24205853.880   127202630.65805  24205855.880    99118943.06044
  21102723.180   110895602.31708  21102722.900    86412182.74648
  22425061.060   117844617.78607  22425060.500    91827031.91045
  21420224.760   112564079.39408  21420222.800    87712281.86647
  24718104.320   129894515.38005  24718104.420   101216496.79143
  20817804.320   109398438.83608  20817802.100    85245598.49748
  20429925.480   107360045.20609  20429927.540    83657228.49249
  24163604.760   126980637.76505  24163610.500    98945978.64344
 15 03 26 00 30  0.0000000  0  8G04G11G16G18G19G22G27G32
  22583691.140   118678155.61507  22583693.020    92476501.06445
  24188768.880   127112848.96505  24188770.820    99048983.41043
  21114269.040   110956276.35208  21114268.860    86459461.19947
  22435741.540   117900744.20007  22435741.060    91870766.77945
  21409969.840   112510189.34408  21409967.740    87670289.62447
  20816797.940   109393150.16608  20816795.660    85241477.47248
  20427011.600   107344732.75009  20427013.700    83645296.71249
  24141055.320   126862141.28705  24141060.400    98853644.26443
 15 03 26 00 30 30.0000000  0  9G04G11G16G18G19G21G22G27G32
  22568874.920   118600296.61607  22568876.760    92415831.77545
  24171699.520   127023149.86605  24171701.580    98979088.10843
  21125905.740   111017427.88808  21125905.660    86507111.72747
  22446494.580   117957251.62807  22446494.080    91914798.54145
  21399752.000   112456494.52708  21399749.940    87628449.51447
  24746238.920   130042365.20104  24746238.820   101331713.14645
  20815892.660   109388392.89808  20815890.360    85237770.52248
  20424154.900   107329720.43509  20424156.920    83633598.79849
  24118516.700   126743700.96705  24118521.760    98761353.51943
 15 03 26 00 31  0.0000000  0  8G04G11G16G18G19G22G27G32
  22554103.820   118522674.06407  22554105.580    92355346.71445
  24154647.620   126933541.61405  24154649.660    98909263.62944
  21137634.500   111079063.15908  21137634.540    86555139.19047
  22457321.360   118014146.42807  22457320.800    91959132.14945
  21389573.000   112403003.98608  21389571.160    87586768.58247
  20815089.900   109384174.42808  20815087.660    85234483.41348
  20421357.000   107315017.24809  20421359.000    83622141.76749
  24095990.560   126625327.32305  24095995.320    98669114.79344
 15 03 26 00 31 30.0000000  0  9G04G11G16G18G19G21G22G27G32
  22539376.460   118445281.30207  22539378.220    92295040.71745
  24137611.740   126844017.37305  24137613.820    98839504.56744
  21149453.600   111141172.93808  21149453.640    86603536.40647
  22468220.060   118071419.47007  22468219.420    92003760.49245
  21379431.800   112349711.62808  21379430.060    87545242.08147
  24774360.580   130190141.16805  24774360.260   101446869.59542
  20814388.320   109380487.93208  20814386.200    85231610.83948
  20418616.840   107300617.26309  20418618.740    83610920.99849
  24073476.520   126507016.04305  24073481.260    98576924.57843
 15 03 26 00 32  0.0000000  0  9G04G11G16G18G19G21G22G27G32
  22524694.240   118368125.76207  22524695.960    92234919.57545
  24120593.420   126754585.02005  24120595.420    98769817.10044
  21161364.080   111203762.63308  21161364.060    86652307.57047
  22479191.780   118129076.06907  22479191.080    92048687.71845
  21369330.020   112296626.25808  21369328.260    87503876.86248
  24788415.660   130264000.16105  24788414.860   101504422.08743
  20813789.260   109377340.28408  20813787.260    85229158.13648
  20415935.900   107286528.75509  20415937.780    83599942.93549
  24050975.940   126388777.01405  24050980.740    98484790.69643
 15 03 26 00 32 30.0000000  0  9G04G11G16G18G19G21G22G27G32
  22510056.860   118291206.00007  22510058.540    92174982.15545
  24103592.300   126665242.80105  24103594.080    98700199.85244
  21173365.280   111266828.77908  21173365.160    86701450.00147
  22490235.620   118187112.05307  22490235.060    92093910.54845
  21359267.380   112243746.74608  21359265.560    87462672.06048
  24802467.160   130337840.56904  24802466.520   101561959.97444
  20813292.320   109374729.18508  20813290.300    85227123.52948
  20413314.040   107272750.91609  20413315.960    83589206.95749
  24028489.540   126270610.92805  24028494.220    98392713.60742
 15 03 26 00 33  0.0000000  0  9G04G11G16G18G19G21G22G27G32
  22495464.240   118214521.76907  22495465.920    92115228.25846
  24086608.200   126575990.43506  24086609.820    98630652.60644
  21185456.500   111330368.22508  21185456.340    86750961.23547
  22501351.280   118245525.10707  22501350.820    92139427.21545
  21349243.900   112191073.35808  21349242.180    87421627.87448
  24816514.880   130411660.96905  24816514.220   101619482.37341
  20812897.300   109372653.70108  20812895.220    85225506.27648
  20410751.300   107259284.09209  20410753.380    83578713.33449
  24006017.420   126152519.86605  24006021.700    98300694.92744
 15 03 26 00 33 30.0000000  0  9G04G11G16G18G19G21G22G27G32
  22480916.560   118138073.29707  22480918.320    92055658.06945
  24069641.380   126486828.56606  24069642.600    98561175.90043
  21197637.360   111394379.27308  21197637.280    86800839.95847
  22512538.300   118304313.45907  22512537.980    92185236.31945
  21339259.900   112138607.08908  21339258.280    87380745.07948
  24830558.560   130485460.82404  24830557.840   101676988.72544
  20812604.260   109371113.78408  20812602.100    85224306.35348
  20408248.000   107246129.36109  20408250.160    83568462.89049
  23983559.960   126034506.34405  23983564.100    98208736.67344
 15 03 26 00 34  0.0000000  0  9G04G11G16G18G19G21G22G27G32
  22466414.100   118061861.88207  22466415.720    91996272.60246
  24052691.920   126397758.12506  24052692.880    98491770.43943
  21209907.700   111458860.87908  21209907.680    86851085.34647
  22523796.600   118363475.89907  22523796.320    92231336.90345
  21329315.760   112086350.24108  21329314.180    87340025.46048
  24844598.300   130559240.60004  24844597.880   101734479.42941
  20812413.240   109370109.84608  20812411.040    85223524.07448
  20405804.480   107233288.71609  20405806.640    83558457.19549
  23961117.900   125916574.00205  23961122.400    98116841.68943
 15 03 26 00 34 30.0000000  0  9G04G11G16G18G19G21G22G27G32
  22451956.840   117985888.40007  22451958.420    91937072.52945
  24035759.960   126308780.16606  24035760.740    98422437.08043
  21222267.360   111523811.58808  21222267.300    86901696.26247
  22535125.880   118423011.09207  22535125.600    92277727.96845
  21319411.740   112034304.34108  21319410.120    87299470.22148
  24858634.120   130633000.43304  24858633.820   101791954.63844
  20812324.360   109369642.72608  20812322.180    85223160.09748
  20403421.000   107220763.70109  20403423.220    83548697.44849
  23938691.880   125798726.06106  23938696.560    98025012.41643
 15 03 26 00 35  0.0000000  0  9G04G11G16G18G19G21G22G27G32
  22437544.620   117910151.65707  22437546.100    91878056.93745
  24018845.420   126219893.64006  24018846.280    98353174.95444
  21234715.800   111589228.04808  21234715.640    86952670.11047
  22546525.440   118482915.60607  22546525.100    92324406.79845
  21309547.840   111982469.06308  21309546.100    87259079.10348
  24872665.820   130706738.52504  24872665.640   101849412.83543
  20812337.240   109369710.46608  20812335.040    85223212.90248
  20401097.640   107208554.04709  20401099.860    83539183.42749
  23916282.220   125680963.70105  23916287.000    97933249.83344
 15 03 26 00 35 30.0000000  0  9G04G11G16G18G19G21G22G27G32
  22423177.360   117834651.82707  22423178.840    91819225.92945
  24001948.140   126131098.59405  24001949.080    98283984.09744
  21247252.320   111655107.74208  21247252.200    87004004.91347
  22557994.800   118543187.07407  22557994.400    92371371.58145
  21299724.180   111930845.07608  21299722.360    87218852.62648
  24886693.400   130780453.81104  24886693.480   101906853.33143
  20812451.700   109370311.94208  20812449.480    85223681.59448
  20398834.360   107196660.24109  20398836.520    83529915.52649
  23893889.260   125563289.15306  23893893.960    97841555.68244
 15 03 26 00 36  0.0000000  0  9G04G11G16G18G19G21G22G27G32
  22408855.640   117759391.24207  22408857.040    91760581.38145
  23985068.620   126042397.16805  23985069.660    98214866.18144
  21259876.940   111721450.53908  21259876.940    87055700.58647
  22569534.040   118603825.58507  22569533.500    92418622.37345
  21289941.300   111879435.63508  21289939.460    87178793.32748
  24900716.800   130854147.83304  24900716.900   101964277.11944
  20812668.100   109371449.06608  20812665.820    85224567.68348
  20396631.820   107185085.66009  20396633.940    83520896.37049
  23871514.020   125445707.40805  23871518.480    97749933.78343
 15 03 26 00 36 30.0000000  0  9G04G11G16G18G19G21G22G27G32
  22394579.600   117684370.37207  22394580.860    91702123.60345
  23968206.900   125953790.30505  23968208.220    98145821.93743
  21272589.400   111788254.99908  21272589.460    87107755.99547
  22581142.640   118664829.35507  22581142.060    92466157.77445
  21280199.460   111828242.03308  21280197.620    87138902.22948
  24914736.140   130927820.43704  24914736.340   102021684.36643
  20812986.440   109373121.88508  20812984.140    85225871.19048
  20394490.200   107173831.49709  20394492.320    83512126.89549
  23849156.880   125328221.17105  23849161.340    97658386.36145
 15 03 26 00 37  0.0000000  0  9G04G11G16G18G19G21G22G27G32
  22380348.460   117609585.84907  22380349.800    91643849.99445
  23951362.600   125865274.65006  23951363.960    98076848.76944
  21285388.620   111855514.93408  21285388.580    87160166.30947
  22592819.620   118726192.79607  22592819.040    92513973.42145
  21270498.180   111777261.51708  21270496.320    87099177.15448
  24928750.780   131001467.23404  24928750.620   102079071.39544
  20813405.860   109375325.95008  20813403.520    85227588.64848
  20392409.040   107162895.00109  20392411.200    83503604.94449
  23826817.860   125210829.39105  23826822.120    97566912.50744
 15 03 26 00 37 30.0000000  0  9G04G11G16G18G19G21G22G27G32
  22366163.180   117535042.71107  22366164.620    91585764.46645
  23934536.680   125776855.26305  23934538.140    98007950.64244
  21298275.080   111923233.33308  21298274.900    87212933.86547
  22604565.560   118787918.69707  22604565.040    92562071.52945
  21260838.660   111726500.29008  21260836.700    87059622.95948
  24942761.200   131075092.92204  24942761.220   102136442.03641
  20813927.220   109378065.89608  20813924.940    85229723.68648
  20390389.500   107152282.22109  20390391.600    83495335.24649
  23804498.240   125093539.78005  23804502.420    97475518.23644
 15 03 26 00 38  0.0000000  0  9G04G11G16G18G19G21G22G27G32
  22352023.600   117460739.29707  22352025.120    91527865.75445
  23917728.720   125688530.24505  23917730.000    97939126.01844
  21311247.840   111991405.79208  21311247.640    87266055.24547
  22616379.600   118850002.48307  22616379.300    92610448.49245
  21251220.540   111675957.03008  21251218.560    87020238.60748
  24956767.080   131148694.85904  24956766.940   102193794.18344
  20814550.100   109381339.33208  20814547.860    85232274.43148
  20388431.300   107141991.90509  20388433.340    83487316.81949
  23782198.200   124976352.80706  23782202.320    97384203.97943
 15 03 26 00 38 30.0000000  0  9G04G11G16G18G19G21G22G27G32
  22337929.300   117386673.55007  22337930.760    91470152.21945
  23900938.580   125600298.03405  23900939.700    97870373.72044
  21324306.140   112060028.17908  21324306.100    87319527.22047
  22628261.120   118912440.63107  22628261.020    92659101.59246
  21241643.680   111625630.86608  21241641.780    86981023.42548
  24970768.000   131222270.32704  24970767.620   102251125.68143
  20815273.900   109385143.24408  20815271.760    85235238.52948
  20386534.240   107132022.90509  20386536.280    83479548.76749
  23759917.700   124859268.79305  23759921.600    97292969.92744
 15 03 26 00 39  0.0000000  0  9G04G11G16G18G19G21G22G27G32
  22323881.480   117312851.75807  22323882.960    91412628.78646
  23884167.320   125512164.78105  23884168.440    97801698.52343
  21337450.780   112129104.09308  21337450.880    87373352.59247
  22640210.780   118975236.27607  22640210.760    92708033.25645
  21232109.620   111575529.08008  21232107.760    86941983.08648
  24984764.460   131295824.42804  24984764.440   102308440.57543
  20816099.720   109389483.00008  20816097.580    85238620.16948
  20384699.660   107122382.18009  20384701.680    83472036.51049
  23737658.440   124742296.33006  23737662.180    97201822.76844
 15 03 26 00 39 30.0000000  0  8G04G11G16G18G19G22G27G32
  22309878.860   117239267.61907  22309880.400    91355290.53545
  23867413.760   125424124.69105  23867414.900    97733095.93344
  21350680.300   112198625.18008  21350680.360    87427524.84547
  22652227.040   119038381.70407  22652227.140    92757237.47345
  21222617.200   111525645.93108  21222615.300    86903113.10448
  20817026.160   109394351.58808  20817024.040    85242413.88448
  20382926.620   107113064.46109  20382928.580    83464775.95149
  23715419.780   124625431.97206  23715423.340    97110759.88643
 15 03 26 00 40  0.0000000  0  8G04G11G16G18G19G22G27G32
  22295922.640   117165926.79207  22295924.120    91298141.88346
  23850678.920   125336183.04905  23850680.200    97664570.05044
  21363995.180   112268594.43008  21363995.120    87482046.31147
  22664310.360   119101879.99307  22664310.540    92806716.66345
  21213167.660   111475987.92208  21213165.720    86864418.55848
  20818054.240   109399754.45208  20818052.180    85246623.92348
  20381216.220   107104075.83309  20381218.160    83457771.82049
  23693203.120   124508683.31106  23693206.500    97019787.12244
 15 03 26 00 40 30.0000000  0  8G04G11G16G18G19G22G27G32
  22282012.240   117092827.13607  22282013.780    91241181.16345
  23833962.540   125248337.72205  23833963.720    97596119.23843
  21377394.420   112339007.08108  21377394.240    87536913.29247
  22676459.960   119165726.51407  22676460.280    92856467.18545
  21203760.720   111426553.80108  21203758.760    86825898.47848
  20819183.360   109405688.15708  20819181.280    85251247.60248
  20379568.160   107095414.98309  20379570.100    83451023.10149
  23671008.420   124392050.72606  23671011.860    96928904.81844
 15 03 26 00 41  0.0000000  0  8G04G11G16G18G19G22G27G32
  22268147.780   117019968.74907  22268149.320    91184408.43945
  23817264.640   125160589.53605  23817265.640    97527744.09444
  21390877.420   112409860.92908  21390877.300    87592124.06447
  22688675.420   119229918.95607  22688675.800    92906487.25945
  21194396.480   111377344.69008  21194394.580    86787553.73648
  20820413.300   109412151.67008  20820411.160    85256284.11748
  20377982.660   107087082.91909  20377984.600    83444530.58449
  23648836.200   124275536.87306  23648839.780    96838115.10343
 15 03 26 00 41 30.0000000  0  8G04G11G16G18G19G22G27G32
  22254329.360   116947352.48007  22254330.920    91127824.37346
  23800585.340   125072939.13706  23800586.000    97459445.15344
  21404443.880   112481153.98808  21404443.860    87647677.07847
  22700956.400   119294455.87807  22700956.640    92956775.74745
  21185075.380   111328362.14408  21185073.480    86749385.52348
  20821744.180   109419145.50208  20821742.000    85261733.86948
  20376459.940   107079081.05909  20376461.920    83438295.36849
  23626687.220   124159144.93405  23626690.640    96747420.28544
 15 03 26 00 42  0.0000000  0  8G04G11G16G18G19G22G27G32
  22240557.480   116874980.80407  22240559.020    91071430.91745
  23783924.960   124985388.88705  23783925.740    97391224.24943
  21418094.180   112552887.11708  21418094.260    87703573.00447
  22713303.060   119359337.83807  22713303.120    93007333.12545
  21175798.080   111279609.77708  21175796.200    86711396.67848
  20823176.260   109426670.92308  20823173.980    85267597.84348
  20375000.720   107071412.82109  20375002.740    83432320.11249
  23604562.300   124042879.87605  23604565.960    96656824.39943
 15 03 26 00 42 30.0000000  0  8G04G11G16G18G19G22G27G32
  22226830.840   116802846.92907  22226832.400    91015222.74146
  23767282.340   124897932.09905  23767283.340    97323076.17644
  21431826.440   112625050.31208  21431826.480    87759804.03747
  22725713.540   119424555.36407  22725713.540    93058151.97245
  21166563.480   111231081.34508  21166561.460    86673582.32648
  20824708.060   109434720.30008  20824705.740    85273870.09748
  20373603.700   107064071.89909  20373605.800    83426599.91349
  23582460.740   123926737.16205  23582464.440    96566323.85645
 15 03 26 00 43  0.0000000  0  8G04G11G16G18G19G22G27G32
  22213152.900   116730968.87007  22213154.520    90959213.89445
  23750660.960   124810587.22706  23750661.920    97255015.30044
  21445643.580   112697659.39708  21445643.500    87816382.51847
  22738190.800   119490124.11507  22738190.780    93109244.49145
  21157375.100   111182796.01408  21157373.040    86635957.39648
  20826342.980   109443311.21308  20826340.560    85280564.33648
  20372272.600   107057077.28209  20372274.740    83421149.56549
  23560386.320   123810737.29106  23560389.960    96475934.58444
 15 03 26 00 43 30.0000000  0  8G04G11G16G18G19G22G27G32
  22199519.660   116659326.03807  22199521.280    90903388.36046
  23734057.040   124723333.54505  23734057.840    97187025.46144
  21459540.980   112770690.87208  21459540.940    87873290.13447
  22750730.540   119556021.02207  22750730.420    93160592.71045
  21148229.180   111134733.95108  21148227.200    86598506.45048
  20828076.700   109452421.67708  20828074.240    85287663.40548
  20371003.600   107050409.00709  20371005.780    83415953.50549
  23538335.800   123694862.22506  23538339.400    96385642.59844
 15 03 26 00 44  0.0000000  0  8G04G11G16G18G19G22G27G32
  22185932.920   116587927.47907  22185934.560    90847753.14846
  23717472.240   124636180.56906  23717473.060    97119114.10244
  21473520.060   112844151.54308  21473520.100    87930532.21247
  22763334.160   119622253.23007  22763333.980    93212202.22645
  21139127.700   111086905.45808  21139125.800    86561237.52048
  20829910.880   109462059.94808  20829908.380    85295173.76848
  20369798.720   107044077.16209  20369800.840    83411019.59449
  23516311.420   123579123.59206  23516314.860    96295456.89444
 15 03 26 00 44 30.0000000  0  8G04G11G16G18G19G22G27G32
  22172392.580   116516772.63107  22172394.140    90792307.85745
  23700906.760   124549127.62506  23700907.340    97051280.66844
  21487580.320   112918038.57408  21487580.460    87988106.49147
  22776000.900   119688817.41107  22776000.820    93264070.39545
  21130070.600   111039310.66508  21130068.720    86524150.69048
  20831845.140   109472224.56808  20831842.620    85303094.26448
  20368657.860   107038081.80809  20368659.860    83406347.89148
  23494313.280   123463523.15606  23494316.700    96205378.85845
 15 03 26 00 45  0.0000000  0  8G04G11G16G18G19G22G27G32
  22158899.300   116445864.86607  22158900.740    90737055.08846
  23684360.880   124462178.50405  23684361.540    96983528.16644
  21501721.840   112992352.48808  21501722.080    88046013.42047
  22788731.140   119755714.97707  22788731.040    93316198.36645
  21121058.900   110991954.17008  21121057.000    86487249.52748
  20833879.880   109482917.27808  20833877.400    85311426.25448
  20367581.820   107032427.13009  20367583.780    83401941.64449
  23472342.420   123348066.69806  23472345.940    96115413.04044
 15 03 26 00 45 30.0000000  0  8G04G11G16G18G19G22G27G32
  22145455.500   116375217.29607  22145456.940    90682005.05445
  23667837.300   124375346.36806  23667837.960    96915866.82543
  21515946.560   113067103.86408  21515946.820    88104261.21747
  22801526.860   119822956.67607  22801526.640    93368594.48645
  21112095.280   110944849.69208  21112093.300    86450544.74848
  20836017.620   109494151.49808  20836015.220    85320180.20048
  20366573.220   107027126.80909  20366575.140    83397811.51449
  23450402.000   123232769.69606  23450405.540    96025571.44844
 15 03 26 00 46  0.0000000  0  9G01G04G11G16G18G19G22G27G32
  24578206.820   129159352.41304  24578213.040   100643675.03244
  22132052.900   116304786.42107  22132054.320    90627123.89745
  23651327.720   124288587.63206  23651328.240    96848262.65043
  21530245.740   113142246.53908  21530245.980    88162813.93247
  22814379.300   119890496.70407  22814379.040    93421223.06945
  21103171.440   110897954.66508  21103169.460    86414003.18248
  20838249.760   109505882.00408  20838247.520    85329320.86648
  20365623.960   107022138.21909  20365625.760    83393924.30048
  23428484.200   123117591.20506  23428487.660    95935822.17144
 15 03 26 00 46 30.0000000  0  9G01G04G11G16G18G19G22G27G32
  24562148.920   129074966.59404  24562154.640   100577919.90244
  22118699.540   116234614.34807  22118701.020    90572444.38245
  23634840.220   124201944.70706  23634840.720    96780748.72343
  21544626.920   113217820.18108  21544627.100    88221702.47147
  22827295.900   119958374.63607  22827295.720    93474114.97245
  21094295.660   110851312.18908  21094293.680    86377658.40648
  20840584.180   109518149.98608  20840582.040    85338880.34348
  20364742.180   107017504.23509  20364743.980    83390313.39649
  23406597.260   123002575.81506  23406600.880    95846199.97445
 15 03 26 00 47  0.0000000  0  9G01G04G11G16G18G19G22G27G32
  24546116.380   128990713.99804  24546122.460   100512268.60643
  22105393.180   116164689.27407  22105394.680    90517957.36145
  23618372.480   124115406.04906  23618372.900    96713316.06643
  21559087.520   113293810.64008  21559087.460    88280915.77847
  22840274.060   120026576.17607  22840273.920    93527259.01545
  21085465.920   110804911.49808  21085463.980    86341502.03148
  20843018.380   109530942.29008  20843016.380    85348848.38248
  20363925.760   107013213.81109  20363927.580    83386970.20749
  23384739.680   122887714.18706  23384743.340    95756697.59344
 15 03 26 00 47 30.0000000  0  9G01G04G11G16G18G19G22G27G32
  24530108.580   128906591.03004  24530114.280   100446718.30744
  22092133.160   116095007.31508  22092134.660    90463659.75945
  23601923.960   124028968.13106  23601924.260    96645961.86844
  21573626.180   113370211.08908  21573625.960    88340448.56947
  22853312.880   120095095.82407  22853312.720    93580650.94045
  21076681.720   110758750.05808  21076679.720    86305532.08048
  20845551.540   109544254.39408  20845549.600    85359221.45648
  20363174.060   107009264.00509  20363176.060    83383892.43449
  23362911.160   122773005.20506  23362914.600    95667314.10045
 15 03 26 00 48  0.0000000  0  9G01G04G11G16G18G19G22G27G32
  24514126.620   128822604.06804  24514131.980   100381273.98244
  22078920.620   116025575.07207  22078922.100    90409556.75045
  23585495.700   123942637.53606  23585496.040    96578691.31243
  21588243.600   113447025.53208  21588243.320    88400303.95846
  22866412.920   120163937.36407  22866412.900    93634293.67845
