     2.11           OBSERVATION DATA    M                   RINEX VERSION / TYPE
SPIDER V4,0,0,3554                      2015 03 27 00:07    PGM / RUN BY / DATE 
ADCK                                                        MARKER NAME         
ADCK                                                        MARKER NUMBER       
                                                            OBSERVER / AGENCY   
496498              LEICA GRX1200+GNSS  8.20/4.007          REC # / TYPE / VERS 
                    LEIAR25         NONE                    ANT # / TYPE        
  5227542.4619   314971.0247  3630502.1313                  APPROX POSITION XYZ 
        0.0480        0.0000        0.0000                  ANTENNA: DELTA H/E/N
     1     1                                                WAVELENGTH FACT L1/2
     4    C1    L1    P2    L2                              # / TYPES OF OBSERV 
    30.000                                                  INTERVAL            
  2015    03    26    00    00    0.0000000     GPS         TIME OF FIRST OBS   
  2015    03    26    23    59   30.0000000     GPS         TIME OF LAST OBS    
    16                                                      LEAP SECONDS        
    39                                                      # OF SATELLITES     
   G 1   829   828   828   828                              PRN / # OF OBS      
   G 2   935   935   934   934                              PRN / # OF OBS      
   G 3   850   850   850   850                              PRN / # OF OBS      
   G 4   855   855   854   854                              PRN / # OF OBS      
   G 5   661   661   661   661                              PRN / # OF OBS      
   G 6   781   781   781   781                              PRN / # OF OBS      
   G 7   659   659   659   659                              PRN / # OF OBS      
   G 9   796   795   795   795                              PRN / # OF OBS      
   G10   777   777   777   777                              PRN / # OF OBS      
   G11   791   791   790   790                              PRN / # OF OBS      
   G12   826   826   826   826                              PRN / # OF OBS      
   G13   816   816   816   816                              PRN / # OF OBS      
   G14   938   938   937   937                              PRN / # OF OBS      
   G15   725   725   725   725                              PRN / # OF OBS      
   G16   681   681   681   681                              PRN / # OF OBS      
   G17   936   936   936   936                              PRN / # OF OBS      
   G18   914   899   885   883                              PRN / # OF OBS      
   G19   781   781   781   781                              PRN / # OF OBS      
   G20   742   741   741   741                              PRN / # OF OBS      
   G21   723   723   723   723                              PRN / # OF OBS      
   G22   720   704   687   684                              PRN / # OF OBS      
   G23   740   740   740   740                              PRN / # OF OBS      
   G24   839   838   838   838                              PRN / # OF OBS      
   G25   859   857   856   856                              PRN / # OF OBS      
   G27   825   825   825   825                              PRN / # OF OBS      
   G28   897   897   897   897                              PRN / # OF OBS      
   G29   758   758   757   757                              PRN / # OF OBS      
   G30   707   707   707   707                              PRN / # OF OBS      
   G31   820   811   793   793                              PRN / # OF OBS      
   G32   753   753   753   753                              PRN / # OF OBS      
   R 1    30    30    30    30                              PRN / # OF OBS      
   R 2    10    10    10     9                              PRN / # OF OBS      
   R 8    30    30    30    30                              PRN / # OF OBS      
   R13    30    30    30    30                              PRN / # OF OBS      
   R14    30    30    30    30                              PRN / # OF OBS      
   R15    30    30    30    30                              PRN / # OF OBS      
   R17    30    30    30    30                              PRN / # OF OBS      
   R23    30    30    30    30                              PRN / # OF OBS      
   R24    30    30    30    30                              PRN / # OF OBS      
BIT 2 OF LLI FLAGS DATA COLLECTED UNDER A/S CONDITION       COMMENT             
SNR is mapped to RINEX snr flag value [2-9]                 COMMENT             
Lx:     = 25dBHz -> 1; 26-27dBHz -> 2; 28-31dBHz -> 3       COMMENT             
       32-35dBHz -> 4; 36-38dBHz -> 5; 39-41dBHz -> 6       COMMENT             
       42-44dBHz -> 7; 45-48dBHz -> 8; >=49dBHz -> 9        COMMENT             
                                                            END OF HEADER       
 15 03 26 00 00  0.0000000  0 15G04G16G18G19G21G22G27R01R08R13R14R15
                                R17R23R24
  23510038.340   123546145.55108  23510038.560    96269734.76646
  20552944.560   108006490.33309  20552941.480    84160914.67249
  21962144.900   115412119.91509  21962142.140    89931619.67348
  22208206.580   116704951.52509  22208202.340    90938916.24448
  23971107.620   125969425.27808  23971104.900    98158163.85745
  20967912.900   110187210.98609  20967908.380    85860207.05148
  20792940.360   109267710.86409  20792939.520    85143686.48849
  20973808.320   112117097.84909  20973813.100    87202258.18307
  21163422.480   113329252.15208  21163422.780    88145006.62408
  22888640.820   122224056.23306  22888646.420    95063176.57407
  21029590.320   112099566.49008  21029596.020    87188579.08206
  22586261.360   120694134.12108  22586264.640    93873236.25506
  23275826.260   124553679.10507  23275827.500    96875061.70406
  21216817.940   113495945.01609  21216821.580    88274775.08906
  20414621.900   109166270.25808  20414621.640    84907152.04707
 15 03 26 00 00 30.0000000  0 15G04G16G18G19G21G22G27R01R08R13R14R15
                                R17R23R24
  23493360.880   123458505.00408  23493361.060    96201443.51746
  20557660.600   108031273.12509  20557657.480    84180225.92849
  21968724.580   115446696.44009  21968721.880    89958562.43748
  22196135.420   116641517.61909  22196131.260    90889487.24848
  23984996.620   126042412.39008  23984993.980    98215036.90146
  20961844.240   110155319.87309  20961839.680    85835356.86348
  20786613.920   109234465.28409  20786613.060    85117780.84849
  20957168.360   112028148.13009  20957173.160    87133075.16007
  21167937.220   113353428.77808  21167937.580    88163810.68408
  22911626.160   122346795.24906  22911631.760    95158639.93107
  21038351.980   112146271.52708  21038357.800    87224905.19707
  22576377.660   120641318.78608  22576380.900    93832157.65406
  23262521.500   124482482.88807  23262522.880    96819686.91606
  21225172.880   113540638.35109  21225176.600    88309536.55306
  20410557.880   109144538.17808  20410557.620    84890249.32507
 15 03 26 00 01  0.0000000  0 15G04G16G18G19G21G22G27R01R08R13R14R15
                                R17R23R24
  23476721.760   123371066.21708  23476721.920    96133309.49946
  20562482.740   108056613.51009  20562479.620    84199971.67549
  21975391.960   115481733.94009  21975389.300    89985864.38447
  22184087.280   116578204.40809  22184083.140    90840152.30748
  23998886.500   126115403.90208  23998883.900    98271913.37146
  20955872.320   110123937.14809  20955867.720    85810902.82148
  20780328.320   109201434.10409  20780327.420    85092042.27449
  20940628.500   111939733.38809  20940633.220    87064308.21307
  21172598.620   113378390.78708  21172599.000    88183225.60008
  22934633.640   122469652.33606  22934639.240    95254195.12707
  21047249.840   112193702.20208  21047255.660    87261795.69307
  22566626.660   120589212.38508  22566629.940    93791630.46606
  23249217.260   124411289.58907  23249218.740    96764314.40507
  21233552.200   113585461.94809  21233555.980    88344399.33806
  20406521.160   109122952.30808  20406521.000    84873460.33007
 15 03 26 00 01 30.0000000  0 15G04G16G18G19G21G22G27R01R08R13R14R15
                                R17R23R24
  23460121.320   123283830.69208  23460121.500    96065333.85946
  20567411.000   108082511.69409  20567407.880    84220152.06749
  21982147.080   115517232.40109  21982144.360    90013525.53747
  22172062.400   116515013.20309  22172058.260    90790912.43848
  24012777.220   126188399.76908  24012774.540    98328793.22845
  20949997.400   110093064.26709  20949992.800    85786846.06148
  20774083.820   109168619.00309  20774082.920    85066472.07049
  20924189.600   111851858.52009  20924194.360    86995961.16007
  21177406.600   113404137.62308  21177407.040    88203250.92108
  22957662.340   122592623.40906  22957668.080    95349838.96307
  21056283.380   112241855.99208  21056289.200    87299248.61207
  22557008.780   120537817.05608  22557011.980    93751656.31907
  23235913.640   124340099.68108  23235915.340    96708944.58207
  21241956.100   113630416.55809  21241959.760    88379364.00906
  20402511.980   109101513.46608  20402511.820    84856785.68107
 15 03 26 00 02  0.0000000  0 15G04G16G18G19G21G22G27R01R08R13R14R15
                                R17R23R24
  23443558.880   123196795.01808  23443559.060    95997513.96546
  20572444.520   108108963.14609  20572441.440    84240763.58649
  21988988.900   115553186.55709  21988986.180    90041541.77348
  22160060.200   116451941.14209  22160056.000    90741765.40548
  24026667.800   126261394.78108  24026665.080    98385672.43245
  20944218.920   110062698.25009  20944214.340    85763184.26448
  20767879.920   109136017.21309  20767879.040    85041068.09449
  20907851.720   111764523.56709  20907856.420    86928034.03507
  21182360.300   113430664.52808  21182360.660    88223882.98608
  22980710.920   122715700.19206  22980716.760    95445565.01107
  21065451.400   112290726.24508  21065457.140    87337258.78806
  22547523.500   120487130.62508  22547526.720    93712233.55207
  23222609.800   124268908.51007  23222611.520    96653573.71907
  21250383.780   113675498.60509  21250387.460    88414427.80906
  20398529.620   109080217.89308  20398529.360    84840222.46807
 15 03 26 00 02 30.0000000  0 15G04G16G18G19G21G22G27R01R08R13R14R15
                                R17R23R24
  23427035.700   123109966.00708  23427035.940    95929855.10546
  20577584.440   108135973.84509  20577581.400    84261810.87449
  21995918.380   115589601.22809  21995915.600    90069916.85447
  22148081.920   116388994.70409  22148077.640    90692716.25248
  24040559.240   126334394.48608  24040556.460    98442555.28445
  20938538.300   110032846.37409  20938533.740    85739923.09348
  20761717.960   109103635.91309  20761717.100    85015835.91849
  20891616.880   111677739.05909  20891621.540    86860535.02107
  21187460.640   113457976.44908  21187461.000    88245125.60108
  23003779.520   122838884.08906  23003785.440    95541374.36207
  21074754.320   112340315.83808  21074760.000    87375828.44707
  22538172.420   120437161.27308  22538175.660    93673368.49207
  23209306.900   124197722.20507  23209308.660    96598206.65607
  21258836.400   113720714.45909  21258840.120    88449595.67306
  20394575.300   109059072.06808  20394574.940    84823775.73007
 15 03 26 00 03  0.0000000  0 15G04G16G18G19G21G22G27R01R08R13R14R15
                                R17R23R24
  23410551.220   123023340.28408  23410551.560    95862354.64045
  20582829.900   108163539.10909  20582826.900    84283290.28948
  22002934.500   115626471.23509  22002931.680    90098646.73947
  22136126.920   116326170.68609  22136122.580    90643762.49348
  24054450.600   126407393.99108  24054447.820    98499437.97745
  20932954.860   110003505.45409  20932950.340    85717060.06748
  20755597.400   109071472.17909  20755596.540    84990773.27749
  20875484.940   111591504.91309  20875489.600    86793464.07007
  21192706.580   113486068.39308  21192706.940    88266974.90808
  23026866.660   122962166.56706  23026872.560    95637260.37207
  21084190.800   112390617.22408  21084196.440    87414951.72206
  22528955.160   120387907.19808  22528958.460    93635059.77307
  23196003.920   124126536.13107  23196005.820    96542839.81307
  21267313.460   113766060.95009  21267317.140    88484865.14306
  20390648.220   109038072.33708  20390647.900    84807442.60807
 15 03 26 00 03 30.0000000  0 15G04G16G18G19G21G22G27R01R08R13R14R15
                                R17R23R24
  23394105.960   122936920.60508  23394106.340    95795014.73746
  20588181.180   108191660.44609  20588178.220    84305203.01149
  22010037.460   115663797.55209  22010034.640    90127732.18847
  22124195.800   116263472.20109  22124191.440    90594906.55548
  24068342.120   126480394.79708  24068339.420    98556321.67746
  20927469.260   109974678.54909  20927464.720    85694597.56448
  20749518.900   109039529.40909  20749518.000    84965882.81149
  20859457.140   111505827.36609  20859461.760    86726826.03807
  21198098.420   113514941.63108  21198098.800    88289431.87508
  23049971.700   123085545.42706  23049977.800    95733221.33107
  21093760.660   112441629.90708  21093766.280    87454628.22606
  22519872.660   120339373.19208  22519876.080    93597311.11207
  23182701.460   124055352.55907  23182703.340    96487474.86707
  21275815.460   113811540.43309  21275819.100    88520238.06206
  20386748.880   109017221.11608  20386748.720    84791224.99307
 15 03 26 00 04  0.0000000  0 15G04G16G18G19G21G22G27R01R08R13R14R15
                                R17R23R24
  23377699.620   122850705.55308  23377700.000    95727834.27946
  20593637.800   108220335.41509  20593634.900    84327547.12949
  22017226.580   115701576.57809  22017223.740    90157170.39947
  22112288.300   116200897.92709  22112283.940    90546147.40748
  24082233.320   126553393.86108  24082230.740    98613204.03145
  20922081.220   109946364.45009  20922076.660    85672534.66248
  20743482.200   109007806.49709  20743481.300    84941163.66649
  20843533.860   111420708.67509  20843538.500    86660622.67207
  21203635.500   113544592.68708  21203635.840    88312493.82508
  23073093.640   123209014.15406  23073099.920    95829252.17407
  21103462.900   112493348.45308  21103468.580    87494853.73906
  22510924.580   120291557.87108  22510928.120    93560121.42207
  23169398.920   123984168.51208  23169400.800    96432109.58707
  21284341.900   113857151.17509  21284345.620    88555713.07906
  20382877.000   108996516.46808  20382876.820    84775121.38907
 15 03 26 00 04 30.0000000  0 15G04G16G18G19G21G22G27R01R08R13R14R15
                                R17R23R24
  23361333.080   122764699.33008  23361333.420    95660816.54446
  20599200.380   108249566.98009  20599197.500    84350324.96648
  22024502.240   115739810.26909  22024499.380    90186962.89647
  22100405.160   116138451.85209  22100400.800    90497488.15848
  24096124.780   126626394.39708  24096122.180    98670087.51845
  20916791.680   109918567.85309  20916787.060    85650875.00348
  20737488.220   108976308.25309  20737487.400    84916619.59149
  20827716.540   111336156.26209  20827721.120    86594859.73807
  21209318.420   113575024.17908  21209318.820    88336162.77008
  23096232.340   123332571.85506  23096238.720    95925352.20607
  21113297.680   112545773.32707  21113303.420    87535628.61606
  22502112.340   120244467.83308  22502115.860    93523495.84107
  23156097.000   123912987.54308  23156098.900    96376746.66307
  21292893.640   113902897.49609  21292897.380    88591293.54106
  20379033.300   108975962.49308  20379033.120    84759134.97807
 15 03 26 00 05  0.0000000  0 15G04G16G18G19G21G22G27R01R08R13R14R15
                                R17R23R24
  23345005.400   122678897.05808  23345005.600    95593957.72045
  20604867.740   108279349.01109  20604864.820    84373531.72348
  22031863.220   115778492.56109  22031860.360    90217104.94447
  22088545.620   116076129.68209  22088541.200    90448925.45148
  24110015.300   126699389.54908  24110012.700    98726966.81045
  20911599.760   109891284.07909  20911595.100    85629614.94448
  20731536.140   108945030.29809  20731535.460    84892247.16449
  20812004.860   111252168.38609  20812009.380    86529535.89107
  21215145.700   113606229.12208  21215146.100    88360433.28508
  23119385.800   123456208.20806  23119392.260    96021513.39807
  21123263.140   112598895.12407  21123268.980    87576945.54306
  22493435.000   120198098.75408  22493438.480    93487431.00607
  23142794.540   123841803.64708  23142796.400    96321381.46207
  21301469.760   113948773.90709  21301473.400    88626975.16006
  20375216.780   108955553.92308  20375216.620    84743261.64807
 15 03 26 00 05 30.0000000  0 15G04G16G18G19G21G22G27R01R08R13R14R15
                                R17R23R24
  23328716.980   122593300.84608  23328717.040    95527259.46646
  20610640.000   108309682.33909  20610637.040    84397168.07948
  22039309.660   115817623.75209  22039306.720    90247596.79447
  22076710.040   116013933.35309  22076705.600    90400460.81048
  24123905.020   126772380.21008  24123902.360    98783842.62845
  20906505.860   109864515.46509  20906501.160    85608756.31648
  20725626.520   108913975.24809  20725625.860    84868048.43249
  20796399.820   111168750.82809  20796404.380    86464655.63207
  21221117.560   113638208.13708  21221117.980    88385305.86108
  23142553.460   123579920.23106  23142559.980    96117733.43507
  21133359.240   112652712.91208  21133365.040    87618803.80506
  22484893.120   120152453.38208  22484896.600    93451929.05207
  23129491.920   123770618.11008  23129493.500    96266014.99407
  21310070.660   113994782.56909  21310074.380    88662759.66106
  20371427.820   108935292.70708  20371427.680    84727502.92907
 15 03 26 00 06  0.0000000  0 15G04G16G18G19G21G22G27R01R08R13R14R15
                                R17R23R24
  23312468.660   122507915.32208  23312468.680    95460725.37946
  20616517.740   108340570.16109  20616514.800    84421236.49548
  22046841.880   115857205.80609  22046838.940    90278439.95747
  22064899.280   115951867.68409  22064894.860    90352097.97648
  24137794.620   126845369.76208  24137791.920    98840717.58145
  20901510.860   109838266.69109  20901506.160    85588302.75748
  20719760.280   108883148.14309  20719759.620    84844027.32249
  20780903.000   111085911.63109  20780907.620    86400225.20607
  21227234.420   113670963.54808  21227234.780    88410782.30408
  23165735.260   123703707.69906  23165741.860    96214012.13607
  21143585.920   112707226.98607  21143591.780    87661203.61606
  22476487.800   120107537.46808  22476491.180    93416994.45207
  23116189.680   123699434.54308  23116191.000    96210650.04906
  21318696.980   114040927.70109  21318700.800    88698650.30406
  20367667.120   108915182.83508  20367667.020    84711861.92807
 15 03 26 00 06 30.0000000  0 15G04G16G18G19G21G22G27R01R08R13R14R15
                                R17R23R24
  23296259.740   122422736.94108  23296259.700    95394352.71146
  20622500.100   108372007.90909  20622497.240    84445733.42349
  22054458.960   115897233.52409  22054455.860    90309630.39747
  22053112.720   115889929.25609  22053108.260    90303834.28648
  24151683.040   126918353.23408  24151680.280    98897587.79545
  20896614.240   109812534.96109  20896609.560    85568252.08148
  20713936.900   108852546.16409  20713936.280    84820181.62449
  20765514.400   111003650.96109  20765519.000    86336244.74807
  21233495.320   113704490.13408  21233495.640    88436858.53808
  23188929.560   123827562.01306  23188936.160    96310342.82206
  21153941.900   112762430.05107  21153947.760    87704139.30606
  22468218.520   120063349.14008  22468221.960    93382625.74507
  23102887.060   123628248.88108  23102888.220    96155283.46706
  21327348.160   114087205.97709  21327351.880    88734644.48606
  20363934.020   108895220.76108  20363934.000    84696335.86807
 15 03 26 00 07  0.0000000  0 15G04G16G18G19G21G22G27R01R08R13R14R15
                                R17R23R24
  23280090.820   122337769.22608  23280090.740    95328144.19046
  20628587.520   108403997.77209  20628584.740    84470660.57449
  22062161.180   115937708.59609  22062158.020    90341169.42447
  22041351.120   115828122.04109  22041346.680    90255672.85048
  24165570.720   126991332.76808  24165567.820    98954454.94345
  20891816.600   109787323.51809  20891811.980    85548606.82948
  20708157.120   108822173.38109  20708156.540    84796514.53049
  20750235.280   110921975.64209  20750239.820    86272719.56007
  21239900.500   113738789.28508  21239900.700    88463535.67408
  23212136.080   123951482.05806  23212142.700    96406724.61106
  21164426.980   112818321.34207  21164432.880    87747610.29006
  22460086.280   120019893.13208  22460089.780    93348826.63907
  23089584.440   123557063.58208  23089585.420    96099917.17406
  21336024.880   114133620.54109  21336028.560    88770744.67706
  20360229.280   108875409.84608  20360229.200    84680927.38707
 15 03 26 00 07 30.0000000  0 15G04G16G18G19G21G22G27R01R08R13R14R15
                                R17R23R24
  23263961.880   122253011.66808  23263961.780    95262099.42246
  20634779.720   108436537.99209  20634776.960    84496016.57648
  22069947.940   115978628.26209  22069944.800    90373054.88647
  22029614.360   115766445.61309  22029609.980    90207613.31848
  24179457.240   127064306.43708  24179454.280    99011317.48945
  20887117.920   109762632.06909  20887113.340    85529366.77248
  20702420.900   108792029.61409  20702420.360    84773025.88349
  20735066.060   110840887.76209  20735070.520    86209651.27107
  21246449.440   113773858.52908  21246449.600    88490811.75708
  23235353.800   124075461.67406  23235360.400    96503152.71506
  21175040.240   112874896.11307  21175046.180    87791612.86006
  22452091.060   119977169.15608  22452094.480    93315596.87907
  23076281.520   123485876.95208  23076282.420    96044549.82806
  21344726.920   114180170.80109  21344730.740    88806950.41706
  20356552.660   108855749.17008  20356552.580    84665635.76107
 15 03 26 00 08  0.0000000  0 15G04G16G18G19G21G22G27R01R08R13R14R15
                                R17R23R24
  23247873.600   122168468.02208  23247873.660    95196221.35246
  20641077.160   108469631.08609  20641074.400    84521803.38248
  22077819.680   116019994.80009  22077816.600    90405288.55647
  22017903.320   115704904.21309  22017899.040    90159659.01048
  24193343.080   127137276.85908  24193340.160    99068177.52145
  20882519.020   109738464.93409  20882514.480    85510535.26948
  20696729.180   108762119.52409  20696728.660    84749719.31949
  20720008.200   110760395.31909  20720012.660    86147046.10207
  21253142.520   113809699.81608  21253142.700    88518688.32608
  23258582.400   124199499.93006  23258589.180    96599626.41106
  21185781.820   112932154.70907  21185787.740    87836147.29306
  22444233.880   119935182.65908  22444237.260    93282940.70607
  23062978.940   123414692.27908  23062979.780    95989184.01706
  21353455.020   114226860.61709  21353458.960    88843264.69506
  20352904.840   108836242.69908  20352904.780    84650464.06107
 15 03 26 00 08 30.0000000  0 15G04G16G18G19G21G22G27R01R08R13R14R15
                                R17R23R24
  23231825.120   122084133.24408  23231825.340    95130506.03946
  20647478.540   108503270.39409  20647475.760    84548015.82049
  22085775.100   116061800.98209  22085772.000    90437864.81247
  22006217.080   115643492.81809  22006212.880    90111806.00348
  24207227.120   127210237.66908  24207224.280    99125030.07846
  20878018.860   109714816.73009  20878014.320    85492108.12848
  20691081.120   108732438.39209  20691080.500    84726591.17749
  20705061.360   110680496.13909  20705065.760    86084902.36207
  21259978.440   113846305.66708  21259978.580    88547159.56008
  23281820.160   124323586.72606  23281827.100    96696137.85306
  21196650.000   112990087.77907  21196655.820    87881206.32706
  22436513.920   119893929.48808  22436517.240    93250854.92307
  23049675.600   123343503.59908  23049676.420    95933815.07706
  21362208.280   114273684.76809  21362212.180    88879683.45206
  20349284.780   108816884.63508  20349284.740    84635407.80307
 15 03 26 00 09  0.0000000  0 15G04G16G18G19G21G22G27R01R08R13R14R15
                                R17R23R24
  23215817.000   122000010.45808  23215817.240    95064955.90246
  20653984.280   108537457.98209  20653981.460    84574655.47448
  22093814.400   116104047.93909  22093811.340    90470784.52347
  21994556.320   115582214.76109  21994552.040    90064056.89048
  24221109.640   127283190.61408  24221106.920    99181876.47845
  20873618.120   109691690.92209  20873613.580    85474088.05048
  20685477.340   108702990.04909  20685476.640    84703644.41549
  20690226.700   110601196.61809  20690231.100    86023225.01307
  21266957.300   113883677.41308  21266957.500    88576226.47808
  23305066.680   124447719.87206  23305073.720    96792685.33206
  21207644.460   113048694.24107  21207650.280    87926789.10106
  22428931.780   119853413.19908  22428935.260    93219342.25207
  23036371.880   123272313.18008  23036372.700    95878444.80306
  21370987.200   114320645.79509  21370991.140    88916208.66606
  20345693.100   108797678.15608  20345693.020    84620469.43707
 15 03 26 00 09 30.0000000  0 15G04G16G18G19G21G22G27R01R08R13R14R15
                                R17R23R24
  23199849.280   121916099.67808  23199849.480    94999570.96346
  20660593.960   108572192.03409  20660591.160    84601720.95348
  22101937.080   116146733.19909  22101934.060    90504045.76947
  21982921.020   115521070.19009  21982916.600    90016411.78648
  24234990.440   127356134.33208  24234987.740    99238715.71045
  20869316.820   109669087.56109  20869312.240    85456475.06948
  20679917.920   108673774.94909  20679917.200    84680879.40549
  20675504.860   110522500.14109  20675509.280    85962016.70007
  21274078.760   113921812.45408  21274078.920    88605887.07008
  23328321.160   124571894.84406  23328328.200    96889265.31206
  21218764.500   113107970.07407  21218770.360    87972892.50406
  22421487.840   119813635.27308  22421491.300    93188403.86507
  23023067.600   123201119.96407  23023068.520    95823072.34306
  21379791.780   114367743.88309  21379795.580    88952840.49106
  20342129.700   108778623.29308  20342129.640    84605648.99607
 15 03 26 00 10  0.0000000  0 16G04G16G18G19G21G22G27R01R02R08R13R14
                                R15R17R23R24
  23183922.180   121832402.14808  23183922.320    94934352.21046
  20667307.640   108607472.74509  20667304.860    84629212.38948
  22110143.100   116189856.68009  22110140.220    90537648.47147
  21971311.460   115460061.09909  21971306.960    89968872.25148
  24248869.500   127429069.02508  24248866.840    99295547.89545
  20865115.280   109647008.30709  20865110.660    85439270.48148
  20674403.220   108644795.06309  20674402.560    84658297.66949
  20660896.640   110444411.07409  20660901.120    85901280.80607
  23565768.380   125751457.98608  23565775.060                  
  21281342.700   113960710.23408  21281342.760    88636140.90508
  23351582.880   124696108.00706  23351589.920    96985874.94907
  21230009.480   113167912.05507  21230015.380    88019514.00906
  22414182.500   119774597.76508  22414186.020    93158041.35807
  23009762.920   123129924.53107  23009763.980    95767698.15907
  21388622.180   114414980.40209  21388625.840    88989579.97906
  20338594.860   108759720.88008  20338594.780    84590947.11507
 15 03 26 00 10 30.0000000  0 16G04G16G18G19G21G22G27R01R02R08R13R14
                                R15R17R23R24
  23168035.780   121748918.54208  23168035.900    94869300.16246
  20674125.220   108643299.29409  20674122.460    84657129.17648
  22118432.200   116233416.64609  22118429.420    90571591.31647
  21959727.720   115399188.16809  21959723.240    89921438.82548
  24262746.720   127501994.16408  24262743.980    99352372.64345
  20861013.600   109625454.04509  20861008.940    85422474.98648
  20668933.520   108616051.72409  20668932.940    84635900.27349
  20646402.860   110366933.58809  20646407.300    85841020.59807
  23541002.560   125619304.05208  23541013.080    97703928.41705
  21288748.700   114000369.15408  21288748.780    88666986.74408
  23374850.800   124820354.90606  23374857.980    97082510.81906
  21241378.920   113228517.37307  21241384.840    88066651.45406
  22407015.980   119736301.93508  22407019.500    93128255.71907
  22996457.860   123058727.03208  22996459.040    95712322.38707
  21397478.500   114462355.69409  21397482.140    89026427.40406
  20335088.680   108740971.65308  20335088.520    84576364.39507
 15 03 26 00 11  0.0000000  0 16G04G16G18G19G21G22G27R01R02R08R13R14
                                R15R17R23R24
  23152190.680   121665652.28608  23152190.740    94804417.47446
  20681047.100   108679673.58509  20681044.260    84685472.76148
  22126804.680   116277414.90109  22126802.040    90605875.66647
  21948170.480   115338454.87509  21948166.080    89874114.20848
  24276622.440   127574911.69308  24276619.620    99409191.48145
  20857012.360   109604427.74709  20857007.740    85406090.89048
  20663509.580   108587548.91409  20663509.040    84613690.29749
  20632024.700   110290074.30409  20632029.100    85781241.20307
  23516234.180   125487135.69208  23516244.820    97601130.59805
  21296297.100   114040790.53808  21296297.260    88698425.60508
  23398124.800   124944634.11606  23398132.060    97179171.77306
  21252872.620   113289784.90707  21252878.480    88114303.95006
  22399988.960   119698751.75608  22399992.440    93099050.04107
  22983152.840   122987529.88608  22983154.120    95656946.86807
  21406361.440   114509873.44409  21406365.160    89063385.63506
  20331611.800   108722378.95908  20331611.540    84561903.41807
 15 03 26 00 11 30.0000000  0 16G04G16G18G19G21G22G27R01R02R08R13R14
                                R15R17R23R24
  23136386.180   121582599.42508  23136386.140    94739701.06446
  20688072.260   108716590.55309  20688069.340    84714239.20848
  22135259.340   116321844.78309  22135256.780    90640496.34847
  21936639.140   115277857.67909  21936634.840    89826895.63048
  24290495.760   127647816.55308  24290492.940    99466000.42245
  20853110.880   109583925.73109  20853106.300    85390115.32148
  20658130.780   108559283.27109  20658130.220    84591665.11249
  20617762.080   110213832.55209  20617766.420    85721942.09807
  23491463.220   125354953.39408  23491473.980    97498322.32906
  21303986.660   114081967.80708  21303986.760    88730452.37108
  23421403.160   125068936.91006  23421410.620    97275851.03706
  21264488.880   113351706.06707  21264494.720    88162464.81906
  22393100.980   119661944.52208  22393104.380    93070422.19007
  22969847.020   122916328.21308  22969848.420    95601567.83507
  21415270.120   114557529.12409  21415273.960    89100451.13906
  20328163.420   108703938.62708  20328163.160    84547560.93707
 15 03 26 00 12  0.0000000  0 16G04G16G18G19G21G22G27R01R02R08R13R14
                                R15R17R23R24
  23120622.120   121499759.12808  23120622.020    94675150.28546
  20695200.260   108754048.02609  20695197.240    84743426.83648
  22143795.720   116366703.89409  22143793.180    90675451.50347
  21925133.700   115217396.34909  21925129.380    89779782.93448
  24304366.340   127720706.95808  24304363.540    99522798.12045
  20849309.100   109563947.58109  20849304.560    85374547.96548
  20652797.120   108531254.90909  20652796.600    84569824.83849
  20603615.400   110138210.76309  20603619.760    85663125.21107
  23466690.080   125222759.68708  23466700.960    97395505.43305
  21311816.880   114123898.39008  21311817.040    88763065.05308
  23444684.820   125193257.32306  23444692.520    97372543.95206
  21276226.920   113414276.50807  21276232.780    88211130.69506
  22386352.000   119625880.26508  22386355.380    93042372.22107
  22956540.220   122845120.98008  22956541.640    95546184.48807
  21424204.620   114605322.54609  21424208.400    89137623.77906
  20324743.440   108685650.19008  20324743.180    84533336.60807
 15 03 26 00 12 30.0000000  0 16G04G16G18G19G21G22G27R01R02R08R13R14
                                R15R17R23R24
  23104899.700   121417137.87808  23104899.600    94610770.18046
  20702431.920   108792050.41909  20702428.860    84773039.07449
  22152414.680   116411996.68809  22152412.100    90710744.58747
  21913655.440   115157077.69609  21913651.120    89732781.40148
  24318235.040   127793587.54508  24318232.280    99579588.16545
  20845608.140   109544499.19709  20845603.660    85359393.41048
  20647509.900   108503470.57509  20647509.400    84548174.70849
  20589586.440   110063218.29009  20589590.840    85604797.79007
  23441916.480   125090564.39208  23441927.500    97292687.76706
  21319788.460   114166585.95408  21319788.600    88796266.50208
  23467970.100   125317597.19506  23467978.040    97469251.99006
  21288087.160   113477498.13307  21288093.080    88260303.04106
  22379743.200   119590565.18308  22379746.660    93014904.93507
  22943233.440   122773913.49308  22943234.780    95490800.93907
  21433166.020   114653259.71509  21433169.800    89174908.21306
  20321353.020   108667519.61408  20321352.680    84519235.05307
 15 03 26 00 13  0.0000000  0 16G04G16G18G19G21G22G27R01R02R08R13R14
                                R15R17R23R24
  23089218.560   121334733.44408  23089218.400    94546559.01246
  20709766.600   108830594.20209  20709763.520    84803073.18149
  22161115.360   116457718.75209  22161112.660    90746372.17147
  21902203.920   115096899.65509  21902199.600    89685889.44548
  24332101.300   127866455.26208  24332098.540    99636368.16545
  20842007.600   109525578.64609  20842003.220    85344650.16348
  20642268.860   108475928.83609  20642268.380    84526713.62149
  20575675.460   109988856.40009  20575679.880    85546960.82707
  23417142.460   124958368.18308  23417153.480    97189869.60106
  21327900.540   114210025.97208  21327900.720    88830053.19108
  23491257.740   125441949.43706  23491265.840    97565969.67806
  21300068.260   113541364.33807  21300074.240    88309976.73306
  22373274.520   119555998.59908  22373277.980    92988019.82207
  22929925.980   122702702.77908  22929927.260    95435414.88207
  21442153.860   114701338.33109  21442157.620    89212302.66306
  20317991.660   108649544.65509  20317991.220    84505254.54007
 15 03 26 00 13 30.0000000  0 16G04G16G18G19G21G22G27R01R02R08R13R14
                                R15R17R23R24
  23073578.320   121252543.86108  23073578.060    94482515.26646
  20717203.660   108869676.06409  20717200.540    84833526.56348
  22169897.000   116503866.28509  22169894.240    90782331.28447
  21890778.880   115036860.67709  21890774.560    89639105.84548
  24345964.440   127939306.56708  24345961.640    99693135.38045
  20838507.160   109507183.90209  20838502.780    85330316.62348
  20637073.740   108448628.42009  20637073.260    84505440.56749
  20561882.640   109915126.00809  20561887.020    85489615.01707
  23392368.260   124826171.44508  23392379.040    97087050.47406
  21336152.380   114254214.15708  21336152.580    88864421.78008
  23514546.500   125566307.20306  23514554.700    97662691.69306
  21312169.180   113605869.01107  21312175.120    88360147.00306
  22366945.680   119522179.41308  22366949.260    92961716.01907
  22916617.480   122631486.33908  22916618.660    95380024.36207
  21451167.860   114749556.78709  21451171.540    89249805.87506
  20314659.000   108631723.31009  20314658.500    84491393.49707
 15 03 26 00 14  0.0000000  0 16G04G16G18G19G21G22G27R01R02R08R13R14
                                R15R17R23R24
  23057979.620   121170572.31808  23057979.260    94418641.40446
  20724743.400   108909297.60709  20724740.280    84864400.47448
  22178759.780   116550439.78309  22178756.840    90818622.32347
  21879381.000   114976964.40609  21879376.620    89592433.43548
  24359825.100   128012144.51708  24359822.120    99749892.19144
  20835107.500   109489318.48409  20835103.080    85316395.54648
  20631925.320   108421573.36109  20631924.880    84484358.70149
  20548209.180   109842033.78209  20548213.580    85432765.55307
  23367595.440   124693982.47608  23367606.100    96984237.76806
  21344544.120   114299151.34908  21344544.300    88899372.93508
  23537836.060   125690668.95606  23537844.400    97759416.71206
  21324389.680   113671010.91107  21324395.560    88410812.90206
  22360757.400   119489111.18508  22360761.040    92935996.28907
  22903308.500   122560266.94808  22903309.560    95324631.53307
  21460208.580   114797918.02609  21460212.140    89287420.14306
  20311355.740   108614059.32908  20311355.240    84477654.84107
 15 03 26 00 14 30.0000000  0 16G04G16G18G19G21G22G27R01R02R08R13R14
                                R15R17R23R24
  23042422.580   121088819.65008  23042422.180    94354938.09646
  20732385.720   108949458.22009  20732382.620    84895694.44248
  22187703.500   116597438.88609  22187700.460    90855244.99947
  21868010.540   114917212.31109  21868006.200    89545873.37848
  24373683.100   128084968.25508  24373680.020    99806637.93645
  20831808.620   109471982.60009  20831804.120    85302887.09248
  20626823.840   108394764.90609  20626823.460    84463469.00249
  20534655.800   109769583.32209  20534660.140    85376415.25107
  23342824.720   124561804.82608  23342835.220    96881433.93506
  21353075.260   114344835.67708  21353075.520    88934905.19408
  23561125.640   125815030.54806  23561134.080    97856141.57206
  21336729.180   113736786.90408  21336735.020    88461971.97906
  22354709.920   119456794.81508  22354713.440    92910861.33607
  22889998.820   122489044.11908  22889999.820    95269236.04507
  21469276.160   114846423.09609  21469279.700    89325146.29206
  20308081.920   108596552.76909  20308081.460    84464038.63007
 15 03 26 00 15  0.0000000  0  7G04G16G18G19G21G22G27
  23026906.880   121007284.32208  23026906.520    94291404.16046
  20740130.000   108990154.70409  20740126.940    84927405.97648
  22196727.480   116644859.55109  22196724.340    90892196.17347
  21856667.200   114857602.69909  21856662.860    89499424.35248
  24387537.780   128157774.64308  24387534.600    99863370.16645
  20828610.280   109455175.27809  20828605.740    85289790.51548
  20621769.120   108368202.25409  20621768.800    84442770.83849
 15 03 26 00 15 30.0000000  0  7G04G16G18G19G21G22G27
  23011433.500   120925971.30808  23011433.100    94228043.44246
  20747976.900   109031390.51509  20747973.900    84959537.76148
  22205832.200   116692704.80709  22205829.040    90929478.18447
  21845352.080   114798141.32409  21845347.680    89453090.82148
  24401389.940   128230567.85208  24401386.880    99920092.12845
  20825513.440   109438901.32909  20825508.860    85277109.54248
  20616762.260   108341891.23509  20616761.980    84422268.74549
 15 03 26 00 16  0.0000000  0  7G04G16G18G19G21G22G27
  22996001.440   120844875.56408  22996001.020    94164852.04546
  20755925.200   109073159.37909  20755922.220    84992084.91148
  22215016.320   116740967.55509  22215013.100    90967085.52647
  21834064.300   114738823.48809  21834059.820    89406869.14348
  24415238.500   128303342.23108  24415235.580    99976799.39845
  20822517.120   109423155.64809  20822512.540    85264840.21548
  20611802.520   108315827.64109  20611802.180    84401959.45749
 15 03 26 00 16 30.0000000  0  8G04G11G16G18G19G21G22G27
  22980611.500   120764000.94708  22980611.020    94101832.93446
  24678468.940   129686226.37408                                
  20763975.260   109115462.92209  20763972.340    85025048.69448
  22224280.180   116789649.32809  22224276.940    91005019.37047
  21822804.600   114679653.34109  21822800.080    89360762.54748
  24429083.920   128376100.10008  24429081.080   100033493.80246
  20819621.920   109407941.32009  20819617.320    85252984.91648
  20606890.700   108290015.65609  20606890.280    84381846.22649
 15 03 26 00 17  0.0000000  0  8G04G11G16G18G19G21G22G27
  22965264.080   120683350.06008  22965263.560    94038988.17946
  24661518.800   129597153.39608  24661517.940   100984795.76945
  20772127.320   109158302.58109  20772124.460    85058430.22848
  22233623.960   116838751.06909  22233620.660    91043280.47247
  21811573.680   114620634.36109  21811569.140    89314773.73848
  24442926.460   128448842.94908  24442923.760   100090176.50146
  20816828.500   109393261.59909  20816823.880    85241546.19748
  20602027.440   108264458.83409  20602026.960    84361931.82149
 15 03 26 00 17 30.0000000  0  8G04G11G16G18G19G21G22G27
  22949958.700   120602920.37008  22949958.260    93976315.79046
  24644582.860   129508154.60708  24644582.000   100915445.99645
  20780380.600   109201674.11209  20780377.800    85092226.21648
  22243046.600   116888267.62809  22243043.380    91081864.80047
  21800371.060   114561764.11109  21800366.480    89268900.83148
  24456765.480   128521567.31408  24456762.820   100146844.79045
  20814136.240   109379113.56109  20814131.600    85230521.78148
  20597212.360   108239155.36809  20597211.860    84342214.83749
 15 03 26 00 18  0.0000000  0  9G04G11G16G18G19G21G22G27G32
  22934694.780   120522708.63108  22934694.400    93913813.22246
  24627660.360   129419226.58507  24627659.620   100846151.41945
  20788734.140   109245572.41609  20788731.360    85126432.67248
  22252547.180   116938193.66009  22252544.020    91120768.20847
  21789196.200   114503039.87809  21789191.620    89223141.70048
  24470600.140   128594268.83308  24470597.520   100203495.27545
  20811544.560   109365493.97309  20811539.860    85219909.14248
  20592445.000   108214102.67209  20592444.500    84322693.26449
  24495964.560   128727166.07807  24495972.380   100306884.69644
 15 03 26 00 18 30.0000000  0  9G04G11G16G18G19G21G22G27G32
  22919473.200   120442719.26608  22919472.880    93851483.93946
  24610752.220   129330374.03007  24610751.540   100776915.67645
  20797188.500   109290000.48809  20797185.740    85161051.92548
  22262126.140   116988531.49009  22262123.040    91159992.48347
  21778050.120   114444466.84009  21778045.480    89177500.37848
  24484431.080   128666950.93908  24484428.400   100260130.64045
  20809054.100   109352406.21509  20809049.320    85209710.90348
  20587726.360   108189306.19809  20587725.880    84303371.33949
  24473378.100   128608475.48007  24473385.840   100214399.44244
 15 03 26 00 19  0.0000000  0  9G04G11G16G18G19G21G22G27G32
  22904294.760   120362956.44308  22904294.420    93789331.17446
  24593859.140   129241600.43208  24593858.420   100707741.51844
  20805744.120   109334960.59809  20805741.420    85196085.76348
  22271783.940   117039283.60009  22271780.860    91199539.58447
  21766933.640   114386049.21209  21766928.920    89131980.15948
  24498258.880   128739616.46608  24498256.100   100316753.09145
  20806665.900   109339855.68209  20806661.000    85199931.29648
  20583057.300   108164770.47209  20583056.860    84284252.59949
  24450795.420   128489805.67008  24450803.140   100121930.42144
 15 03 26 00 19 30.0000000  0  9G04G11G16G18G19G21G22G27G32
  22889158.420   120283414.73408  22889158.040    93727350.71646
  24576980.020   129152900.44107  24576979.280   100638624.74644
  20814399.660   109380445.93909  20814397.020    85231528.86048
  22281519.060   117090442.12709  22281515.940    91239403.37547
  21755845.840   114327782.25709  21755841.080    89086577.35048
  24512082.380   128812259.39907  24512079.480   100373357.93145
  20804378.720   109327836.20709  20804373.720    85190565.49048
  20578437.060   108140491.04409  20578436.620    84265333.56849
  24428216.000   128371153.46107  24428223.700   100029475.07644
 15 03 26 00 20  0.0000000  0  9G04G11G16G18G19G21G22G27G32
  22874064.600   120204096.43208  22874064.140    93665544.32046
  24560115.360   129064276.26007  24560114.640   100569567.00844
  20823155.160   109426456.73309  20823152.580    85267381.40548
  22291331.440   117142006.71609  22291328.340    91279583.57247
  21744787.180   114269668.79309  21744782.500    89041294.14448
  24525901.780   128884880.70707  24525898.960   100429945.92545
  20802192.980   109316350.01409  20802187.920    85181615.23349
  20573866.160   108116470.86809  20573865.700    84246616.55049
  24405640.740   128252523.30608  24405648.300    99937036.92945
 15 03 26 00 20 30.0000000  0  9G04G11G16G18G19G21G22G27G32
  22859013.820   120125004.31208  22859013.280    93603914.17346
  24543265.580   128975730.71707  24543264.920   100500570.63544
  20832010.980   109472994.47309  20832008.420    85303644.56048
  22301221.420   117193979.11209  22301218.320    91320081.54947
  21733758.420   114211712.64309  21733753.820    88996133.51448
  24539717.460   128957482.40707  24539714.500   100486518.65144
  20800109.040   109305398.98509  20800104.000    85173081.98348
  20569345.360   108092713.85109  20569344.860    84228104.58949
  24383070.700   128133920.44208  24383078.140    99844620.02345
 15 03 26 00 21  0.0000000  0  9G04G11G16G18G19G21G22G27G32
  22844005.600   120046136.00208  22844005.040    93542458.41446
  24526430.240   128887261.30407  24526429.700   100431633.53645
  20840966.220   109520054.51609  20840963.660    85340314.69848
  22311188.020   117246354.43709  22311185.020    91360893.48247
  21722759.180   114153911.42009  21722754.620    88951093.61148
  24553528.840   129030061.18108  24553525.700   100543073.52345
  20798126.580   109294981.33909  20798121.580    85164964.35349
  20564874.280   108069218.08609  20564873.720    84209796.19849
  24360505.800   128015344.49207  24360513.040    99752224.04345
 15 03 26 00 21 30.0000000  0  9G04G11G16G18G19G21G22G27G32
  22829040.200   119967492.84008  22829039.660    93481178.09646
  24509609.620   128798869.15907  24509609.120   100362756.66544
  20850020.880   109567636.87609  20850018.300    85377391.84048
  22321231.100   117299131.70109  22321228.220    91402018.61947
  21711789.840   114096267.20209  21711785.320    88906176.05648
  24567335.900   129102617.45608  24567332.640   100599610.85244
  20796245.780   109285097.95009  20796240.820    85157263.03549
  20560453.360   108045985.88909  20560452.740    84191693.19249
  24337946.740   127896799.23707  24337953.840    99659851.96244
 15 03 26 00 22  0.0000000  0  9G04G11G16G18G19G21G22G27G32
  22814117.780   119889075.52508  22814117.240    93420073.76846
  24492803.920   128710555.12207  24492803.340   100293940.64044
  20859174.720   109615740.33009  20859172.080    85414875.02748
  22331350.420   117352309.35009  22331347.660    91443455.74847
  21700850.660   114038781.45509  21700846.120    88861381.97448
  24581138.640   129175150.95008  24581135.440   100656130.43944
  20794466.720   109275749.15509  20794461.800    85149978.28548
  20556082.900   108023018.75709  20556082.220    84173796.72549
  24315394.100   127778287.56208  24315400.980    99567505.99845
 15 03 26 00 22 30.0000000  0  9G04G11G16G18G19G21G22G27G32
  22799238.440   119810884.33308  22799237.880    93359145.64546
  24476013.140   128622319.11108  24476012.500   100225185.44944
  20868427.480   109664363.65209  20868424.800    85452763.31348
  22341545.500   117405885.29809  22341542.880    91485203.23647
  21689941.740   113981454.80609  21689937.240    88816711.87848
  24594936.940   129247661.00908  24594933.820   100712631.76344
  20792789.300   109266934.54009  20792784.400    85143109.77848
  20551763.100   108000317.70809  20551762.380    84156107.60849
  24292848.400   127659812.05408  24292855.040    99475188.19745
 15 03 26 00 23  0.0000000  0  9G04G11G16G18G19G21G22G27G32
  22784401.640   119732916.69408  22784401.080    93298391.71546
  24459236.740   128534158.52108  24459235.880   100156489.00644
  20877778.260   109713502.26709  20877775.600    85491053.11948
  22351815.660   117459855.57609  22351813.120    91527257.99747
  21679062.700   113924285.31209  21679058.240    88772164.23548
  24608730.140   129320144.21208  24608727.100   100769112.14945
  20791213.120   109258651.79709  20791208.200    85136655.70948
  20547493.540   107977881.04209  20547492.880    84138624.48649
  24270309.480   127541372.34408  24270315.820    99382898.25044
 15 03 26 00 23 30.0000000  0  9G04G11G16G18G19G21G22G27G32
  22769608.680   119655179.22508  22769608.100    93237817.14646
  24442475.960   128446079.88808  24442474.900   100087856.43644
  20887228.020   109763161.00709  20887225.380    85529748.22048
  22362161.620   117514224.24209  22362159.140    91569623.18847
  21668214.940   113867280.33509  21668210.560    88727744.79548
  24622519.160   129392605.97808  24622516.220   100825575.81944
  20789739.300   109250906.98609  20789734.400    85130620.81249
  20543275.720   107955716.15109  20543275.040    84121353.14549
  24247779.100   127422977.37508  24247785.180    99290643.15545
 15 03 26 00 24  0.0000000  0  9G04G11G16G18G19G21G22G27G32
  22754858.820   119577668.49708  22754858.240    93177419.24846
  24425730.020   128358079.38008  24425728.920   100019284.70344
  20896775.800   109813334.66209  20896773.140    85568844.55648
  22372582.360   117568985.26609  22372579.860    91612294.11447
  21657397.980   113810436.97109  21657393.600    88683451.27948
  24636303.300   129465042.39607  24636300.400   100882019.75145
  20788367.200   109243696.67309  20788362.280    85125002.40549
  20539109.100   107933820.48109  20539108.420    84104291.58549
  24225257.080   127304626.09608  24225262.960    99198422.06644
 15 03 26 00 24 30.0000000  0  9G04G11G16G18G19G21G22G27G32
  22740152.100   119500384.50908  22740151.460    93117198.03946
  24408999.080   128270157.65208  24408997.760    99950774.37545
  20906421.140   109864021.20209  20906418.520    85608340.54348
  22383077.500   117624137.01109  22383074.860    91655269.50447
  21646612.000   113753755.95609  21646607.520    88639284.27548
  24650082.360   129537452.23407  24650079.600   100938442.95845
  20787096.720   109237020.25809  20787091.740    85119800.02648
  20534993.880   107912194.90709  20534993.220    84087440.49349
  24202743.800   127186320.88508  24202749.580    99106236.88145
 15 03 26 00 25  0.0000000  0  9G04G11G16G18G19G21G22G27G32
  22725488.880   119423329.21208  22725488.180    93057154.99946
  24392283.340   128182316.27108  24392282.000    99882326.65644
  20916164.200   109915220.96609  20916161.540    85648236.44048
  22393646.980   117679679.49109  22393644.240    91698549.35647
  21635857.440   113697240.07309  21635852.840    88595245.94248
  24663856.560   129609836.63207  24663854.040   100994846.32645
  20785928.180   109230879.46609  20785923.180    85115015.00749
  20530930.580   107890842.20809  20530929.920    84070802.02249
  24180240.080   127068065.88208  24180245.780    99014090.82744
 15 03 26 00 25 30.0000000  0  9G04G11G16G18G19G21G22G27G32
  22710869.440   119346504.07208  22710868.800    92997291.30146
  24375583.100   128094556.73508  24375581.800    99813942.74545
  20926004.880   109966933.84609  20926002.220    85688532.16948
  22404290.620   117735611.74409  22404287.780    91742132.93147
  21625134.600   113640891.04009  21625129.960    88551337.61548
  24677626.060   129682196.12707  24677623.660   101051230.29045
  20784861.720   109225275.26509  20784856.740    85110648.11648
  20526919.700   107869764.78609  20526919.000    84054378.05749
  24157746.700   126949864.94708  24157752.200    98921986.85045
 15 03 26 00 26  0.0000000  0  9G04G11G16G18G19G21G22G27G32
  22696293.580   119269907.71008  22696293.000    92937605.87346
  24358898.080   128006877.27708  24358896.820    99745621.19644
  20935942.540   110019156.07709  20935939.780    85729224.80448
  22415007.680   117791930.04409  22415004.780    91786017.31847
  21614443.420   113584708.38309  21614438.720    88507558.94048
  24691390.520   129754528.82307  24691388.060   101107593.39445
  20783897.040   109220205.93409  20783892.060    85106698.00648
  20522961.100   107848962.04509  20522960.320    84038168.12749
  24135263.780   126831719.14508  24135269.160    98829925.84645
 15 03 26 00 26 30.0000000  0  9G04G11G16G18G19G21G22G27G32
  22681760.980   119193538.50808  22681760.420    92878097.44947
  24342228.080   127919276.73207  24342226.960    99677361.19145
  20945976.440   110071883.99909  20945973.580    85770311.48448
  22425797.540   117848630.77009  22425794.560    91830199.70847
  21603783.720   113528691.11409  21603778.920    88463909.13248
  24705149.360   129826832.12307  24705146.940   101163933.59545
  20783033.640   109215668.98909  20783028.680    85103162.74548
  20519054.620   107828433.28009  20519053.800    84022171.69349
  24112791.440   126713629.06008  24112796.680    98737908.27145
 15 03 26 00 27  0.0000000  0  9G04G11G16G18G19G21G22G27G32
  22667272.440   119117400.37708  22667271.840    92818769.06847
  24325573.740   127831758.46707  24325572.740    99609165.29045
  20956106.980   110125119.97609  20956104.080    85811794.04548
  22436660.440   117905715.46109  22436657.420    91874681.28547
  21593156.340   113472843.74409  21593151.500    88420391.70848
  24718903.160   129899108.89307  24718900.900   101220253.09645
  20782272.300   109211668.31209  20782267.340    85100045.35348
  20515201.180   107808183.13509  20515200.360    84006392.35349
  24090330.940   126595601.00808  24090335.980    98645938.99545
 15 03 26 00 27 30.0000000  0  9G04G11G16G18G19G21G22G27G32
  22652827.980   119041493.87008  22652827.320    92759621.15947
  24308935.220   127744323.52907  24308934.320    99541034.33745
  20966333.880   110178862.32509  20966330.880    85853671.17748
  22447596.080   117963182.35309  22447593.000    91919460.67647
  21582561.540   113417167.83909  21582556.740    88377007.89448
  24732651.940   129971359.18507  24732649.900   101276551.98645
  20781613.140   109208204.45009  20781608.180    85097346.24448
  20511401.040   107788213.13909  20511400.260    83990831.31249
  24067882.820   126477637.83008  24067887.760    98554020.23545
 15 03 26 00 28  0.0000000  0  9G04G11G16G18G19G21G22G27G32
  22638426.900   118965815.74708  22638426.240    92700651.22047
  24292311.940   127656968.27107  24292311.060    99472965.47245
  20976656.220   110233106.41709  20976653.180    85895939.28348
  22458603.480   118021026.47309  22458600.380    91964534.01647
  21571998.820   113361660.72809  21571994.060    88333755.61448
  24746394.920   130043579.18807  24746392.860   101332827.27445
  20781055.340   109205273.15409  20781050.340    85095062.13848
  20507653.680   107768520.97009  20507652.980    83975486.76849
  24045446.900   126359738.72608  24045451.700    98462151.39145
 15 03 26 00 28 30.0000000  0  9G04G11G16G18G19G21G22G27G32
  22624069.920   118890369.37608  22624069.220    92641861.87346
  24275704.440   127569696.23907  24275703.500    99404961.48245
  20987074.280   110287853.52109  20987071.200    85938599.34748
  22469682.760   118079248.51109  22469679.640    92009901.85047
  21561469.000   113306326.58909  21561464.300    88290638.11948
  24760132.600   130115771.04207  24760130.400   101389080.62245
  20780599.460   109202877.54709  20780594.460    85093195.45348
  20503960.040   107749110.94209  20503959.400    83960362.08149
  24023024.260   126241909.46908  24023029.020    98370336.96645
 15 03 26 00 29  0.0000000  0  9G04G11G16G18G19G21G22G27G32
  22609756.680   118815152.90008  22609755.980    92583251.65647
  24259112.520   127482505.64408  24259111.560    99337020.89245
  20997587.320   110343099.77409  20997584.220    85981648.35848
  22480833.220   118137844.67109  22480830.160    92055561.19247
  21550971.840   113251164.03009  21550967.180    88247654.31548
  24773864.520   130187932.25907  24773862.180   101445310.11044
  20780244.980   109201015.12509  20780240.040    85091744.23248
  20500319.940   107729982.00409  20500319.320    83945456.41249
  24000615.040   126124150.57808  24000619.640    98278577.34145
 15 03 26 00 29 30.0000000  0  9G04G11G16G18G19G21G22G27G32
  22595487.640   118740168.50009  22595486.880    92524822.29247
  24242536.480   127395398.32608  24242535.460    99269145.21344
  21008195.240   110398844.91509  21008192.220    86025086.10948
  22492054.760   118196814.74009  22492051.800    92101511.89347
  21540508.000   113196176.22509  21540503.340    88204806.69548
  24787590.860   130260064.07108  24787588.380   101501516.70344
  20779992.260   109199687.51909  20779987.400    85090709.74848
  20496733.900   107711137.10009  20496733.240    83930772.07649
  23978220.060   126006466.51008  23978224.500    98186875.99445
 15 03 26 00 30  0.0000000  0  9G04G11G16G18G19G21G22G27G32
  22581262.940   118665417.18109  22581262.140    92466574.54447
  24225976.500   127308375.32208  24225975.380    99201335.21445
  21018898.000   110455088.57409  21018895.100    86068912.31448
  22503347.240   118256157.61509  22503344.360    92147753.09347
  21530077.780   113141365.10409  21530073.200    88162096.74348
  24801311.720   130332166.97508  24801308.980   101557700.77643
  20779841.440   109198895.09709  20779836.580    85090092.29248
  20493202.320   107692578.33809  20493201.620    83916310.70749
  23955840.000   125888860.79708  23955844.240    98095235.69745
 15 03 26 00 30 30.0000000  0  9G04G11G16G18G19G21G22G27G32
  22567081.760   118590894.60909  22567080.920    92408505.04047
  24209431.820   127221432.59408  24209430.680    99133587.73845
  21029694.340   110511824.29609  21029691.600    86113121.94648
  22514709.440   118315866.81709  22514706.620    92194279.73747
  21519680.480   113086726.97309  21519675.980    88119521.59548
  24815026.080   130404235.86908  24815023.200   101613858.34844
  20779791.640   109198633.58509  20779786.740    85089888.53748
  20489724.540   107674302.39109  20489723.820    83902069.71149
  23933474.580   125771331.66108  23933478.500    98003655.04545
 15 03 26 00 31  0.0000000  0  9G04G11G16G18G19G21G22G27G32
  22552945.260   118516606.99709  22552944.420    92350618.62046
  24192903.580   127134576.19308  24192902.200    99065907.49545
  21040585.140   110569056.26009  21040582.520    86157718.25848
  22526142.220   118375946.52609  22526139.360    92241095.09647
  21509317.420   113032268.71509  21509312.920    88077086.60548
  24828734.960   130476276.28308  24828732.100   101669993.72544
  20779843.840   109198908.07209  20779838.960    85090102.44148
  20486301.900   107656316.24409  20486301.140    83888054.52849
  23911125.380   125653887.54908  23911129.160    97912140.64246
 15 03 26 00 31 30.0000000  0  9G04G11G16G18G19G21G22G27G32
  22538853.520   118442554.53509  22538852.680    92292915.44347
  24176391.780   127047806.27708  24176390.220    98998294.62945
  21051569.960   110626782.38809  21051567.460    86202699.63448
  22537645.100   118436394.53209  22537642.280    92288197.44047
  21498988.780   112977991.25609  21498984.280    88034792.50148
  24842438.240   130548287.50607  24842435.600   101726106.35844
  20779998.040   109199718.60009  20779993.220    85090734.04148
  20482934.600   107638621.04209  20482933.820    83874266.06349
  23888792.920   125536531.19308  23888796.620    97820694.60046
 15 03 26 00 32  0.0000000  0  9G04G11G16G18G19G21G22G27G32
  22524805.640   118368732.42409  22524804.800    92235391.74247
  24159895.600   126961118.49808  24159893.920    98930745.81245
  21062647.580   110684996.05809  21062645.180    86248060.91148
  22549216.800   118497203.96609  22549213.880    92335581.41147
  21488693.880   112923891.26009  21488689.400    87992636.67248
  24856134.900   130620264.32107  24856132.280   101782192.16345
