     2.11           OBSERVATION DATA    M                   RINEX VERSION / TYPE
SPIDER V4,0,0,3554                      2015 03 27 00:25    PGM / RUN BY / DATE 
ADJF                                                        MARKER NAME         
ADJF                                                        MARKER NUMBER       
                                                            OBSERVER / AGENCY   
496631              LEICA GRX1200+GNSS  8.20/4.007          REC # / TYPE / VERS 
103293              LEIAT504                                ANT # / TYPE        
  5273001.7861   285409.4873  3566762.6176                  APPROX POSITION XYZ 
        0.0480        0.0000        0.0000                  ANTENNA: DELTA H/E/N
     1     1                                                WAVELENGTH FACT L1/2
     4    C1    L1    P2    L2                              # / TYPES OF OBSERV 
    30.000                                                  INTERVAL            
  2015    03    26    00    00    0.0000000     GPS         TIME OF FIRST OBS   
  2015    03    26    23    59   30.0000000     GPS         TIME OF LAST OBS    
    16                                                      LEAP SECONDS        
    39                                                      # OF SATELLITES     
   G 1   835   835   835   835                              PRN / # OF OBS      
   G 2   935   935   935   935                              PRN / # OF OBS      
   G 3   855   855   855   855                              PRN / # OF OBS      
   G 4   861   861   861   861                              PRN / # OF OBS      
   G 5   664   664   664   664                              PRN / # OF OBS      
   G 6   765   765   763   763                              PRN / # OF OBS      
   G 7   659   659   659   659                              PRN / # OF OBS      
   G 9   798   798   797   797                              PRN / # OF OBS      
   G10   781   781   781   781                              PRN / # OF OBS      
   G11   796   796   796   796                              PRN / # OF OBS      
   G12   829   829   829   829                              PRN / # OF OBS      
   G13   822   822   822   822                              PRN / # OF OBS      
   G14   937   936   936   936                              PRN / # OF OBS      
   G15   729   729   728   728                              PRN / # OF OBS      
   G16   684   684   684   684                              PRN / # OF OBS      
   G17   936   936   936   936                              PRN / # OF OBS      
   G18   897   885   885   878                              PRN / # OF OBS      
   G19   785   785   785   785                              PRN / # OF OBS      
   G20   745   745   745   745                              PRN / # OF OBS      
   G21   723   723   723   723                              PRN / # OF OBS      
   G22   719   696   684   680                              PRN / # OF OBS      
   G23   740   740   740   740                              PRN / # OF OBS      
   G24   840   840   840   840                              PRN / # OF OBS      
   G25   863   860   858   858                              PRN / # OF OBS      
   G27   830   830   830   830                              PRN / # OF OBS      
   G28   897   897   897   897                              PRN / # OF OBS      
   G29   758   758   758   758                              PRN / # OF OBS      
   G30   707   707   707   707                              PRN / # OF OBS      
   G31   803   790   786   781                              PRN / # OF OBS      
   G32   753   753   753   753                              PRN / # OF OBS      
   R 1    30    30    30    30                              PRN / # OF OBS      
   R 2    13    13    10    10                              PRN / # OF OBS      
   R 8    30    30    30    30                              PRN / # OF OBS      
   R13    29    29    29    29                              PRN / # OF OBS      
   R14    30    30    30    30                              PRN / # OF OBS      
   R15    30    30    30    30                              PRN / # OF OBS      
   R17    30    30    30    30                              PRN / # OF OBS      
   R23    30    30    30    30                              PRN / # OF OBS      
   R24    30    30    30    30                              PRN / # OF OBS      
BIT 2 OF LLI FLAGS DATA COLLECTED UNDER A/S CONDITION       COMMENT             
SNR is mapped to RINEX snr flag value [2-9]                 COMMENT             
Lx:     = 25dBHz -> 1; 26-27dBHz -> 2; 28-31dBHz -> 3       COMMENT             
       32-35dBHz -> 4; 36-38dBHz -> 5; 39-41dBHz -> 6       COMMENT             
       42-44dBHz -> 7; 45-48dBHz -> 8; >=49dBHz -> 9        COMMENT             
                                                            END OF HEADER       
 15 03 26 00 00  0.0000000  0 15G04G16G18G19G21G22G27R01R08R13R14R15
                                R17R23R24
  23456233.840   123263428.39507  23456235.240    96049453.73545
  20532725.060   107900252.80209  20532723.020    84078119.21649
  22003937.120   115631778.89409  22003935.160    90102807.77547
  22225834.320   116797576.47308  22225831.220    91011103.88848
  24037713.060   126319043.14507  24037711.300    98430420.75546
  20956578.320   110127628.03809  20956574.940    85813745.98249
  20822857.620   109424928.24009  20822858.040    85266198.04549
  20952129.920   112001214.43908  20952137.680    87112128.45507
  21216380.900   113612847.97407  21216384.340    88365605.93608
  22810326.040   121805826.24404  22810335.100    94737879.89307
  21002266.540   111953906.16906  21002274.940    87075297.30307
  22623585.180   120893577.77505  22623592.020    94028372.12206
  23274719.920   124547728.26605  23274724.300    96870478.27206
  21274523.560   113804378.57407  21274530.280    88514556.51906
  20457529.420   109395729.05508  20457532.460    85085643.59307
 15 03 26 00 00 30.0000000  0 15G04G16G18G19G21G22G27R01R08R13R14R15
                                R17R23R24
  23439783.900   123176985.60007  23439785.460    95982095.78945
  20537117.800   107923336.68509  20537115.760    84096106.65349
  22010787.620   115667778.47809  22010785.700    90130859.42247
  22213935.120   116735045.50508  22213931.900    90962378.48348
  24051615.360   126392100.50307  24051613.600    98487348.52945
  20950841.340   110097480.17609  20950837.980    85790254.18649
  20816560.860   109391838.59509  20816561.280    85240413.91949
  20935800.060   111913922.40608  20935807.860    87044234.74307
  21221170.480   113638496.08306  21221174.020    88385554.49308
  22833177.260   121927849.67204  22833186.320    94832786.66607
  21010635.660   111998517.98206  21010643.780    87109995.36507
  22613392.140   120839110.00305  22613399.080    93986008.32207
  23261731.580   124478224.43605  23261736.000    96816419.81206
  21282769.120   113848486.35607  21282775.800    88548862.55706
  20453652.560   109374998.04707  20453655.640    85069519.48507
 15 03 26 00 01  0.0000000  0 15G04G16G18G19G21G22G27R01R08R13R14R15
                                R17R23R24
  23423373.280   123090748.35307  23423374.840    95914897.98745
  20541616.260   107946976.34709  20541614.240    84114527.15449
  22017724.780   115704233.49209  22017722.880    90159265.93447
  22202057.320   116672627.31608  22202054.060    90913740.96048
  24065516.880   126465153.55207  24065515.320    98544272.94045
  20945201.200   110067841.18709  20945197.800    85767158.91149
  20810302.820   109358952.69409  20810303.260    85214788.54949
  20919570.980   111827169.20208  20919578.840    86976760.10107
  21226105.560   113664923.01706  21226109.140    88406108.79308
  22856052.140   122049999.33404  22856061.460    94927791.62607
  21019141.480   112043858.36206  21019149.320    87145260.08507
  22603330.160   120785341.97405  22603337.100    93944188.74407
  23248743.060   124408720.40205  23248747.540    96762361.19206
  21291036.680   113892712.15207  21291043.360    88583260.38206
  20449800.740   109354400.99007  20449803.860    85053499.55807
 15 03 26 00 01 30.0000000  0 15G04G16G18G19G21G22G27R01R08R13R14R15
                                R17R23R24
  23407001.740   123004715.29507  23407003.320    95847859.30446
  20546219.960   107971169.20309  20546217.980    84133378.72149
  22024748.120   115741141.06409  22024746.180    90188025.09447
  22190200.680   116610320.38408  22190197.500    90865190.13248
  24079417.100   126538199.39907  24079415.460    98601191.75945
  20939657.640   110038709.64309  20939654.220    85744459.04849
  20804083.340   109326269.34009  20804083.760    85189321.00749
  20903443.080   111740956.81708  20903450.980    86909706.09507
  21231185.360   113692125.27307  21231188.860    88427266.11408
  22878949.560   122172268.22604  22878958.740    95022889.30007
  21027782.900   112089922.00206  21027790.700    87181087.34507
  22593398.920   120732272.91905  22593405.880    93902912.82306
  23235754.040   124339213.65005  23235758.440    96708300.45206
  21299325.920   113937053.86107  21299332.580    88617748.35806
  20445973.620   109333935.71808  20445976.780    85037582.13907
 15 03 26 00 02  0.0000000  0 15G04G16G18G19G21G22G27R01R08R13R14R15
                                R17R23R24
  23390670.160   122918891.45108  23390671.800    95780983.67246
  20550929.680   107995919.26109  20550927.780    84152664.47849
  22031858.120   115778504.31109  22031856.200    90217139.33547
  22178366.220   116548130.21608  22178363.120    90816730.30448
  24093316.560   126611241.30807  24093314.820    98658107.50845
  20934211.660   110010090.97509  20934208.180    85722158.83249
  20797903.520   109293794.24809  20797903.940    85164015.75749
  20887417.980   111655293.84508  20887425.880    86843079.42207
  21236410.720   113720106.69406  21236414.080    88449029.46708
  22901869.380   122294656.58304  22901878.540    95118079.89407
  21036560.420   112136710.92806  21036568.260    87217478.72007
  22583599.960   120679909.42205  22583606.920    93862185.67306
  23222764.980   124269708.00305  23222769.700    96654240.60606
  21307637.700   113981516.52507  21307644.380    88652330.42006
  20442172.060   109313607.07408  20442175.180    85021770.98907
 15 03 26 00 02 30.0000000  0 15G04G16G18G19G21G22G27R01R08R13R14R15
                                R17R23R24
  23374378.340   122833276.32607  23374379.920    95714270.65346
  20555745.240   108021225.31309  20555743.360    84172383.46149
  22039054.340   115816320.80809  22039052.420    90246606.73947
  22166553.880   116486056.08108  22166550.740    90768360.86548
  24107214.940   126684277.56207  24107213.060    98715018.84445
  20928863.240   109981985.16109  20928859.740    85700258.23049
  20791763.360   109261527.29209  20791763.760    85138872.67849
  20871496.280   111570183.41808  20871504.120    86776882.48107
  21241781.080   113748864.75806  21241784.420    88471396.86008
  22924810.220   122417158.42304  22924819.680    95213358.71407
  21045473.040   112184220.69006  21045481.080    87254430.72807
  22573933.080   120628252.26105  22573939.780    93822007.87906
  23209776.020   124200202.35104  23209780.880    96600180.70606
  21315971.900   114026099.18307  21315978.660    88687005.80006
  20438395.920   109293414.09207  20438398.920    85006065.33707
 15 03 26 00 03  0.0000000  0 15G04G16G18G19G21G22G27R01R08R13R14R15
                                R17R23R24
  23358126.820   122747873.58907  23358128.220    95647723.14646
  20560667.080   108047089.80909  20560665.220    84192537.60649
  22046337.160   115854592.38809  22046335.260    90276428.76747
  22154764.380   116424101.71708  22154761.140    90720084.76148
  24121112.680   126757310.34507  24121110.740    98771927.47944
  20923613.140   109954396.01509  20923609.620    85678760.23149
  20785663.560   109229472.62709  20785663.960    85113895.02749
  20855679.260   111485632.62708  20855687.020    86711120.83407
  21247296.800   113778401.67306  21247300.300    88494370.03008
  22947772.140   122539772.43004  22947781.620    95308724.78606
  21054520.820   112232451.07506  21054529.120    87291943.22307
  22564399.440   120577306.93805  22564406.080    93782383.73107
  23196787.460   124130699.08505  23196792.160    96546122.68806
  21324329.360   114070805.90507  21324336.120    88721777.67806
  20434645.820   109273360.27908  20434648.700    84990467.93907
 15 03 26 00 03 30.0000000  0 15G04G16G18G19G21G22G27R01R08R13R14R15
                                R17R23R24
  23341915.160   122662681.20307  23341916.460    95581339.57546
  20565694.580   108073509.61809  20565692.740    84213124.45849
  22053705.840   115893315.24909  22053703.940    90306602.43247
  22142997.340   116362265.47608  22142993.980    90671900.69648
  24135009.100   126830336.43507  24135007.200    98828830.87345
  20918461.060   109927321.82009  20918457.520    85657663.48749
  20779603.920   109197628.88009  20779604.300    85089081.72049
  20839967.180   111401642.83308  20839974.900    86645795.50707
  21252957.260   113808713.77606  21252960.880    88517946.12308
  22970753.780   122662491.52504  22970763.260    95404172.57407
  21063702.780   112281396.74206  21063711.320    87330012.05007
  22554999.000   120527073.43906  22555005.620    93743313.23706
  23183798.900   124061195.49305  23183803.780    96492064.41506
  21332709.520   114115634.21407  21332716.360    88756644.12706
  20430921.240   109253443.18508  20430924.080    84974976.87307
 15 03 26 00 04  0.0000000  0 15G04G16G18G19G21G22G27R01R08R13R14R15
                                R17R23R24
  23325744.020   122577701.70407  23325745.120    95515121.84745
  20570828.080   108100486.23809  20570826.240    84234145.18449
  22061160.440   115932489.68309  22061158.520    90337127.97347
  22131253.220   116300549.91308  22131249.880    90623810.67448
  24148904.420   126903356.69007  24148902.500    98885729.75045
  20913407.480   109900765.24909  20913403.940    85636970.08149
  20773584.940   109165998.87709  20773585.280    85064434.96449
  20824361.180   111318220.25008  20824368.840    86580911.34207
  21258762.720   113839801.56007  21258766.240    88542125.51708
  22993754.720   122785313.10104  22993764.180    95499700.05807
  21073018.760   112331056.37906  21073027.460    87368636.18107
  22545732.220   120477554.48005  22545738.880    93704798.48506
  23170810.700   123991692.74905  23170815.420    96438006.77706
  21341112.860   114160586.43007  21341119.660    88791606.94106
  20427222.620   109233664.80408  20427225.440    84959593.69407
 15 03 26 00 04 30.0000000  0 15G04G16G18G19G21G22G27R01R08R13R14R15
                                R17R23R24
  23309612.460   122492929.20408  23309613.240    95449065.42245
  20576066.220   108128012.70509  20576064.380    84255594.36349
  22068699.440   115972107.57209  22068697.520    90367999.06547
  22119530.860   116238948.94008  22119527.620    90575809.93848
  24162797.360   126976364.28606  24162795.460    98942618.77044
  20908451.400   109874720.90709  20908447.900    85616675.81349
  20767605.640   109134577.35409  20767605.940    85039950.66349
  20808860.780   111235362.09208  20808868.420    86516466.18107
  21264711.580   113871657.37406  21264715.100    88566902.27608
  23016772.840   122908226.08904  23016782.260    95595298.60606
  21082466.820   112381420.33206  21082475.660    87407808.11807
  22536598.420   120428746.44405  22536605.160    93666836.68406
  23157821.360   123922183.93405  23157826.040    96383944.43206
  21349538.320   114205656.68507  21349544.920    88826661.57206
  20423548.720   109214019.02408  20423551.580    84944313.64807
 15 03 26 00 05  0.0000000  0 15G04G16G18G19G21G22G27R01R08R13R14R15
                                R17R23R24
  23293521.540   122408370.10208  23293522.080    95383175.27545
  20581410.040   108156094.34009  20581408.160    84277476.14449
  22076323.820   116012174.20109  22076321.960    90399219.82347
  22107831.740   116177469.63108  22107828.520    90527904.00348
  24176688.680   127049363.79906  24176686.860    98999501.47045
  20903594.060   109849195.44109  20903590.580    85596785.86749
  20761667.320   109103371.30109  20761667.620    85015634.26449
  20793467.840   111153078.13408  20793475.440    86452467.61807
  21270804.760   113904285.76806  21270808.160    88592279.93008
  23039808.040   123031231.74704  23039817.780    95690969.25607
  21092047.540   112432490.79306  21092056.320    87447529.57307
  22527598.980   120380656.71305  22527605.760    93629433.56606
  23144831.960   123852674.69405  23144836.560    96329881.76306
  21357987.000   114250851.07507  21357993.580    88861812.75106
  20419900.780   109194512.08408  20419903.700    84929141.59107
 15 03 26 00 05 30.0000000  0 15G04G16G18G19G21G22G27R01R08R13R14R15
                                R17R23R24
  23277471.340   122324025.49808  23277471.840    95317452.28945
  20586859.440   108184730.96009  20586857.560    84299790.38149
  22084033.440   116052688.77409  22084031.620    90430789.63547
  22096155.960   116116112.85408  22096152.680    90480093.55048
  24190578.500   127122355.03807  24190576.800    99056377.73845
  20898835.700   109824190.09909  20898832.260    85577301.21349
  20755770.340   109072382.27209  20755770.600    84991486.97549
  20778183.220   111071373.08008  20778190.740    86388919.31807
  21277042.100   113937686.25106  21277045.420    88618258.10408
  23062859.940   123154325.93004  23062870.060    95786708.72307
  21101760.520   112484265.84506  21101769.200    87487799.03307
  22518734.300   120333286.96805  22518741.040    93592590.42606
  23131842.360   123783165.09205  23131847.100    96275818.79506
  21366459.060   114296170.74207  21366465.680    88897061.35906
  20416278.920   109175144.83408  20416281.940    84914078.18607
 15 03 26 00 06  0.0000000  0 15G04G16G18G19G21G22G27R01R08R13R14R15
                                R17R23R24
  23261461.840   122239895.39707  23261462.380    95251896.46246
  20592414.220   108213921.27909  20592412.340    84322536.07149
  22091827.860   116093648.62309  22091825.960    90462706.41347
  22084503.460   116054878.71308  22084500.180    90432378.66248
  24204466.540   127195336.82106  24204464.940    99113246.62745
  20894176.320   109799704.92109  20894172.900    85558221.88249
  20749914.740   109041610.74509  20749914.980    84967509.16849
  20763007.460   110990250.26708  20763014.960    86325823.86507
  21283423.140   113971856.43006  21283426.380    88644834.92508
  23085927.500   123277503.80904  23085937.500    95882513.29206
  21111604.920   112536741.22906  21111613.440    87528613.21007
  22510004.700   120286638.42305  22510011.420    93556308.24607
  23118852.420   123713654.03805  23118857.320    96221754.70906
  21374954.460   114341615.27507  21374961.140    88932407.08006
  20412683.060   109155916.55608  20412686.180    84899122.87107
 15 03 26 00 06 30.0000000  0 15G04G16G18G19G21G22G27R01R08R13R14R15
                                R17R23R24
  23245492.480   122155976.79207  23245493.360    95186505.46045
  20598073.580   108243661.32109  20598071.700    84345710.11449
  22099706.120   116135049.11909  22099704.220    90494966.54847
  22072873.720   115993764.36108  22072870.420    90384757.11848
  24218351.920   127268304.73806  24218350.160    99170104.70845
  20889615.520   109775737.63909  20889612.060    85539546.10549
  20744100.080   109011054.42209  20744100.340    84943699.04649
  20747940.760   110909710.40408  20747948.360    86263181.82607
  21289946.960   114006791.61606  21289950.360    88672006.73808
  23109009.380   123400757.20004  23109019.200    95978376.55607
  21121579.420   112589910.26906  21121587.800    87569966.88707
  22501409.820   120240709.79605  22501416.460    93520585.98006
  23105861.660   123644137.94305  23105866.520    96167686.70506
  21383472.680   114387181.94907  21383479.360    88967847.81006
  20409112.640   109136824.26808  20409115.880    84884273.32407
 15 03 26 00 07  0.0000000  0 15G04G16G18G19G21G22G27R01R08R13R14R15
                                R17R23R24
  23229564.660   122072276.67608  23229565.700    95121284.67646
  20603838.660   108273956.89309  20603836.780    84369317.04349
  22107669.240   116176895.39009  22107667.300    90527574.04647
  22061268.240   115932777.26008  22061264.960    90337234.72348
  24232235.720   127341264.49706  24232234.080    99226956.44345
  20885154.520   109752294.92109  20885151.020    85521279.07849
  20738327.820   108980720.85409  20738328.060    84920062.50849
  20732984.980   110829763.84108  20732992.740    86201001.23407
  21296614.560   114042496.71806  21296618.060    88699777.38808
  23132105.820   123524088.52204  23132115.600    96074300.39906
  21131684.460   112643775.82906  21131692.880    87611862.29807
  22492951.220   120195509.46005  22492957.820    93485430.17806
  23092871.200   123574622.81305  23092875.600    96113619.41606
  21392015.000   114432877.51307  21392021.760    89003388.78106
  20405568.940   109117874.80608  20405572.300    84869534.86407
 15 03 26 00 07 30.0000000  0 15G04G16G18G19G21G22G27R01R08R13R14R15
                                R17R23R24
  23213677.420   121988789.00508  23213678.420    95056229.42645
  20609708.040   108304800.79509  20609706.200    84393351.23049
  22115715.600   116219179.17309  22115713.640    90560522.44947
  22049685.840   115871911.42408  22049682.600    90289806.81248
  24246116.540   127414208.64106  24246114.800    99283795.99345
  20880792.220   109729370.97709  20880788.720    85503416.28549
  20732596.880   108950604.40909  20732597.100    84896595.13949
  20718139.540   110750407.06808  20718147.380    86139279.34807
  21303424.460   114078963.66206  21303427.980    88728140.56208
  23155214.480   123647486.24904  23155224.560    96170275.89806
  21141918.220   112698327.66706  21141926.700    87654291.47207
  22484627.840   120151031.57705  22484634.280    93450836.26206
  23079879.360   123505101.30305  23079883.780    96059547.16906
  21400580.240   114478695.83607  21400587.180    89039025.22506
  20402050.820   109099061.69508  20402054.200    84854902.44507
 15 03 26 00 08  0.0000000  0 15G04G16G18G19G21G22G27R01R08R13R14R15
                                R17R23R24
  23197831.260   121905517.10108  23197832.200    94991342.32246
  20615682.220   108336195.22309  20615680.380    84417814.41449
  22123845.560   116261902.31709  22123843.540    90593813.22447
  22038127.180   115811170.67108  22038124.020    90242476.39148
  24259994.800   127487139.35806  24259993.080    99340625.10945
  20876529.340   109706969.65909  20876525.880    85485960.75449
  20726908.020   108920709.30009  20726908.260    84873300.25849
  20703405.880   110671647.62008  20703413.820    86078022.06407
  21310376.900   114116193.89806  21310380.560    88757097.43308
  23178335.320   123770948.73604  23178345.700    96266301.75706
  21152280.720   112753565.78606  21152289.380    87697254.42807
  22476440.600   120107281.33106  22476447.020    93416808.30606
  23066886.860   123435576.23305  23066891.280    96005472.17806
  21409169.060   114524640.40207  21409176.020    89074759.87406
  20398558.860   109080388.42608  20398562.220    84840378.80607
 15 03 26 00 08 30.0000000  0 16G04G16G18G19G21G22G27R01R02R08R13R14
                                R15R17R23R24
  23182026.420   121822462.24008  23182027.300    94926624.30846
  20621761.100   108368139.92409  20621759.280    84442706.36949
  22132058.940   116305063.88609  22132056.840    90627445.62247
  22026592.620   115750556.27008  22026589.420    90195244.40348
  24273870.460   127560056.72706  24273868.920    99397443.78944
  20872366.120   109685091.86909  20872362.640    85468913.14449
  20721261.540   108891037.15509  20721261.860    84850179.10249
  20688784.780   110593489.73908  20688792.760    86017232.65107
  23567606.720   125761262.88305                                
  21317471.740   114154186.41706  21317475.420    88786647.17608
  23201467.780   123894472.48004  23201478.420    96362375.20606
  21162771.500   112809487.37106  21162780.240    87740748.95907
  22468390.020   120064261.02105  22468396.320    93383348.06507
  23053893.960   123366048.06905  23053898.380    95951394.76406
  21417781.700   114570712.46207  21417788.600    89110593.66906
  20395093.140   109061855.60208  20395096.460    84825964.38707
 15 03 26 00 09  0.0000000  0 16G04G16G18G19G21G22G27R01R02R08R13R14
                                R15R17R23R24
  23166262.800   121739624.23107  23166263.760    94862075.31946
  20627944.480   108400633.75009  20627942.640    84468026.22749
  22140355.340   116348661.71509  22140353.180    90661417.96547
  22015082.140   115690068.23608  22015078.820    90148110.89548
  24287743.320   127632959.16406  24287741.780    99454250.86445
  20868302.520   109663737.75709  20868299.020    85452273.61049
  20715657.600   108861588.54009  20715658.000    84827232.14249
  20674276.760   110515936.49908  20674284.780    85956913.52207
  23542944.840   125629661.84504  23542955.760    97711977.61803
  21324708.620   114192939.11006  21324712.260    88816788.17808
  23224610.540   124018051.83203  23224621.120    96458491.93906
  21173389.700   112866088.06706  21173398.400    87784771.70607
  22460476.080   120021970.92706  22460482.260    93350455.78007
  23040900.320   123296515.67905  23040904.660    95897314.04606
  21426418.060   114616911.28507  21426424.920    89146526.07006
  20391653.700   109043463.04508  20391656.860    84811659.07507
 15 03 26 00 09 30.0000000  0 16G04G16G18G19G21G22G27R01R02R08R13R14
                                R15R17R23R24
  23150540.800   121657005.29407  23150541.960    94797697.02246
  20634232.420   108433677.23509  20634230.580    84493774.38049
  22148734.720   116392695.57309  22148732.560    90695730.07047
  22003596.160   115629708.94108  22003592.840    90101077.69648
  24301613.480   127705847.56306  24301612.000    99511046.99045
  20864339.040   109642909.59209  20864335.500    85436043.90049
  20710096.760   108832366.13909  20710097.140    84804461.44449
  20659882.920   110438993.51708  20659890.920    85897069.03307
  23518277.800   125498035.00704  23518290.900    97609634.19201
  21332087.480   114232451.68406  21332090.980    88847520.19108
  23247763.300   124141684.62604  23247773.980    96554650.13106
  21184134.940   112923366.17106  21184143.640    87829321.32107
  22452699.420   119980414.94206  22452705.580    93318134.46406
  23027906.020   123226980.23105  23027910.240    95843230.95906
  21435078.640   114663239.37207  21435085.560    89182559.00206
  20388240.920   109025213.06408  20388244.000    84797464.64707
 15 03 26 00 10  0.0000000  0 16G04G16G18G19G21G22G27R01R02R08R13R14
                                R15R17R23R24
  23134860.220   121574603.90208  23134861.520    94733488.24446
  20640624.520   108467267.87809  20640622.660    84519948.89449
  22157196.480   116437162.57409  22157194.380    90730379.68747
  21992134.500   115569477.59808  21992131.260    90054144.20348
  24315480.560   127778719.43906  24315478.940    99567830.22745
  20860475.380   109622606.22109  20860471.860    85420223.12249
  20704578.780   108803369.15809  20704579.180    84781866.39849
  20645603.560   110362662.36508  20645611.540    85837700.40707
  23493607.560   125366387.73405                                
  21339607.400   114272720.71206  21339610.800    88878840.55008
  23270924.760   124265364.22504  23270935.740    96650844.77206
  21195006.140   112981315.77606  21195014.840    87874393.21207
  22445059.920   119939592.38406  22445066.280    93286383.59706
  23014910.600   123157439.44005  23014914.580    95789143.69606
  21443763.200   114709695.33407  21443770.200    89218691.38506
  20384854.420   109007103.64008  20384857.420    84783379.54407
 15 03 26 00 10 30.0000000  0 16G04G16G18G19G21G22G27R01R02R08R13R14
                                R15R17R23R24
  23119221.280   121492421.05108  23119222.520    94669449.75746
  20647120.640   108501405.25109  20647118.800    84546549.43649
  22165740.400   116482061.28709  22165738.420    90765365.71247
  21980697.400   115509375.19508  21980694.140    90007311.18848
  24329344.420   127851574.55406  24329342.860    99624600.41045
  20856711.840   109602828.82709  20856708.240    85404812.20549
  20699104.020   108774599.28409  20699104.440    84759448.32649
  20631439.480   110286947.45708  20631447.520    85778811.09407
  23468935.000   125234726.97407                                
  21347268.300   114313744.89606  21347271.560    88910748.26307
  23294094.360   124389086.63903  23294105.540    96747072.64406
  21206002.880   113039934.49506  21206011.560    87919985.53007
  22437558.040   119899504.92206  22437564.580    93255204.46607
  23001914.020   123087893.73405  23001918.340    95735052.66806
  21452471.740   114756279.88607  21452478.820    89254923.80206
  20381494.400   108989135.83908  20381497.340    84769404.60207
 15 03 26 00 11  0.0000000  0 16G04G16G18G19G21G22G27R01R02R08R13R14
                                R15R17R23R24
  23103623.900   121410456.74208  23103624.980    94605581.55246
  20653720.540   108536088.02309  20653718.720    84573574.95249
  22174366.200   116527390.15909  22174364.260    90800686.91047
  21969284.840   115449401.79308  21969281.540    89960578.68748
  24343204.840   127924411.53706  24343203.440    99681356.44845
  20853048.320   109583576.98009  20853044.680    85389810.79349
  20693672.620   108746057.13509  20693673.020    84737207.69249
  20617391.260   110211852.04708  20617399.320    85720403.60307
  23444260.860   125103067.68707  23444273.800    97302439.63305
  21355069.780   114355522.12806  21355073.060    88943241.66708
  23317271.020   124512847.00703  23317282.380    96843329.96606
  21217124.360   113099217.85806  21217133.000    87966094.77307
  22430193.820   119860153.19106  22430200.520    93224597.56007
  22988916.500   123018342.02105  22988921.140    95680956.91706
  21461204.320   114802993.37807  21461211.420    89291256.48506
  20378160.760   108971309.53808  20378163.760    84755539.69807
 15 03 26 00 11 30.0000000  0 16G04G16G18G19G21G22G27R01R02R08R13R14
                                R15R17R23R24
  23088068.520   121328713.50408  23088069.560    94541885.60245
  20660424.520   108571317.60709  20660422.700    84601026.56149
  22183073.800   116573148.96909  22183071.900    90836343.12847
  21957897.380   115389560.32308  21957894.040    89913948.98548
  24357062.200   127997231.78606  24357060.600    99738099.47645
  20849485.340   109564853.41809  20849481.640    85375221.03949
  20688285.120   108717745.81809  20688285.540    84715146.93449
  20603460.020   110137381.97008  20603468.120    85662482.49007
  23419585.360   124971383.66906  23419597.820    97200019.96904
  21363011.940   114398052.38306  21363015.280    88976320.75908
  23340454.520   124636643.23504  23340466.120    96939615.25306
  21228370.180   113159163.87406  21228378.820    88012719.42307
  22422968.060   119821541.12905  22422974.680    93194565.96006
  22975918.340   122948786.04105  22975922.700    95626857.87106
  21469961.460   114849837.87807  21469968.360    89327691.07306
  20374854.060   108953627.16008  20374857.020    84741786.74107
 15 03 26 00 12  0.0000000  0 16G04G16G18G19G21G22G27R01R02R08R13R14
                                R15R17R23R24
  23072554.980   121247190.10708  23072556.080    94478360.96246
  20667232.100   108607091.58709  20667230.260    84628902.37549
  22191862.700   116619334.90609  22191860.820    90872332.17847
  21946534.960   115329850.16108  21946531.500    89867421.60148
  24370915.900   128070033.23706  24370914.320    99794827.82645
  20846022.760   109546657.31609  20846019.000    85361042.29349
  20682941.500   108689665.07109  20682941.940    84693265.84249
  20589646.140   110063539.24408  20589654.260    85605049.31907
  23394908.060   124839704.95506  23394921.960    97097603.93805
  21371094.140   114441332.67606  21371097.720    89009983.22207
  23363643.900   124760469.04704  23363655.500    97035923.52206
  21239739.340   113219767.93706  21239748.060    88059855.88507
  22415880.700   119783668.48706  22415887.280    93165109.46106
  22962919.120   122879224.27005  22962923.360    95572754.33606
  21478742.940   114896812.88807  21478749.760    89364227.16906
  20371574.080   108936087.80608  20371577.080    84728145.03007
 15 03 26 00 12 30.0000000  0 16G04G16G18G19G21G22G27R01R02R08R13R14
                                R15R17R23R24
  23057083.360   121165886.66808  23057084.560    94415007.71546
  20674142.920   108643408.09909  20674141.080    84657200.93449
  22200732.500   116665946.09509  22200730.640    90908652.57747
  21935197.540   115270271.71208  21935194.140    89820996.85348
  24384765.720   128142814.12506  24384764.160    99851540.18844
  20842660.440   109528988.20009  20842656.680    85347274.17349
  20677641.840   108661815.31609  20677642.300    84671564.73549
  20575950.220   109990326.77208  20575958.280    85548106.32907
  23370230.780   124708026.18308  23370244.980    96995187.85007
  21379315.940   114485360.20006  21379319.720    89044226.85208
  23386837.800   124884319.51804  23386849.420    97132250.97706
  21251231.000   113281025.57506  21251239.920    88107500.66707
  22408931.700   119746535.08506  22408938.220    93136227.91707
  22949918.620   122809655.58105  22949922.780    95518645.40106
  21487548.700   114943918.01007  21487555.680    89400864.44706
  20368320.740   108918691.00308  20368323.800    84714614.17407
 15 03 26 00 13  0.0000000  0 15G04G16G18G19G21G22G27R01R02R08R14R15
                                R17R23R24
  23041654.180   121084806.13508  23041655.360    94351828.15446
  20681157.300   108680268.87509  20681155.480    84685923.60649
  22209683.320   116712983.27409  22209681.480    90945304.93047
  21923885.760   115210828.09809  21923882.420    89774677.17548
  24398612.020   128215576.65406  24398610.200    99908238.20145
  20839399.020   109511849.28009  20839395.260    85333919.20349
  20672386.840   108634200.31809  20672387.320    84650046.56749
  20562373.480   109917751.07008  20562381.360    85491658.61007
  23345554.920   124576353.79005  23345568.800    96892776.77906
  21387677.500   114530135.64406  21387681.280    89079052.20408
  21262845.060   113342935.53206  21262854.120    88155652.81107
  22402121.940   119710145.63106  22402128.420    93107925.00507
  22936917.180   122740082.18205  22936921.280    95464532.82806
  21496379.420   114991156.24407  21496386.500    89437605.26806
  20365094.620   108901439.74308  20365097.760    84701196.53007
 15 03 26 00 13 30.0000000  0 16G04G16G18G19G21G22G27R01R02R08R13R14
                                R15R17R23R24
  23026266.840   121003945.09608  23026268.020    94288819.65146
  20688274.400   108717669.29109  20688272.600    84715066.77349
  22218714.220   116760441.24509  22218712.380    90982285.17347
  21912599.100   115151516.37908  21912595.740    89728460.27348
  24412453.860   128288315.91506  24412452.080    99964918.10744
  20836237.780   109495237.07309  20836234.040    85320974.65949
  20667176.060   108606817.41309  20667176.520    84628709.24949
  20548915.740   109845811.59208  20548923.420    85435705.74207
  23320880.180   124444687.70107  23320893.300    96790365.54707
  21396177.700   114575653.33406  21396181.420    89114454.86008
  23433238.000   125132176.95103  23433249.500    97325074.79906
  21274580.200   113405490.32606  21274589.120    88204306.50807
  22395451.020   119674497.66706  22395457.400    93080198.80607
  22923914.080   122670500.06905  22923918.160    95410413.46106
  21505234.460   115038524.65407  21505241.520    89474447.34006
  20361895.080   108884330.59208  20361898.320    84687889.41907
 15 03 26 00 14  0.0000000  0 16G04G16G18G19G21G22G27R01R02R08R13R14
                                R15R17R23R24
  23010922.000   120923307.17908  23010923.020    94225984.99046
  20695494.580   108755611.46209  20695492.780    84744632.07449
  22227825.360   116808320.90309  22227823.480    91019593.99047
  21901338.280   115092340.55708  21901334.880    89682349.25548
  24426291.920   128361035.34206  24426290.220   100021582.52745
  20833177.540   109479155.51609  20833173.800    85308443.59649
  20662010.300   108579671.05109  20662010.740    84607556.23749
  20535578.380   109774515.40408  20535585.800    85380253.19507
  23296207.720   124313033.92407  23296221.320    96687958.28006
  21404816.780   114621914.46506  21404820.260    89150435.73407
  23456440.800   125256078.74403  23456452.440    97421442.13806
  21286436.260   113468689.23206  21286445.000    88253461.16506
  22388919.560   119639595.31106  22388925.980    93053052.53007
  22910909.960   122600912.44405  22910913.880    95356289.79306
  21514114.520   115086026.64507  21514121.480    89511393.29806
  20358722.920   108867367.71008  20358726.200    84674696.05807
 15 03 26 00 14 30.0000000  0 16G04G16G18G19G21G22G27R01R02R08R13R14
                                R15R17R23R24
  22995619.760   120842893.39608  22995620.520    94163324.96946
  20702817.780   108794095.08009  20702816.000    84774619.29949
  22237016.760   116856622.09409  22237014.840    91057231.28747
  21890103.660   115033302.33008  21890100.260    89636345.46548
  24440126.200   128433734.43806  24440124.560   100078231.15545
  20830218.320   109463605.00709  20830214.600    85296326.34949
  20656889.820   108552762.74909  20656890.300    84586588.74249
  20522362.060   109703866.35908  20522369.320    85325303.99907
  23271539.180   124181398.39606  23271552.420    96585575.16005
  21413594.300   114668917.40306  21413597.560    89186993.58607
  23479645.820   125379990.50503  23479657.600    97517817.43506
  21298412.660   113532529.43706  21298421.300    88303114.61906
  22382527.820   119605439.72406  22382534.520    93026487.08507
  22897904.720   122531319.00605  22897908.680    95302161.62706
  21523019.840   115133663.55607  21523026.620    89548444.21406
  20355578.240   108850551.37508  20355581.460    84661616.69007
 15 03 26 00 15  0.0000000  0  7G04G16G18G19G21G22G27
  22980359.880   120762702.59608  22980360.540    94100838.71146
  20710243.500   108833117.45209  20710241.720    84805026.32849
  22246287.680   116905341.18809  22246285.800    91095194.22047
  21878895.000   114974400.41609  21878891.620    89590447.88848
  24453956.100   128506410.41006  24453954.060   100134861.76345
  20827360.060   109448584.96209  20827356.340    85284622.44249
  20651814.560   108526092.11209  20651815.060    84565806.43749
 15 03 26 00 15 30.0000000  0  8G04G11G16G18G19G21G22G27
  22965142.980   120682738.06108  22965143.660    94038528.76846
  24676146.580   129674036.15206  24676147.320   101044700.35045
  20717772.080   108872680.42009  20717770.300    84835854.59249
  22255638.380   116954479.51208  22255636.560    91133483.81947
  21867713.020   114915638.82008  21867709.660    89544659.65148
  24467781.980   128579065.84206  24467780.080   100191476.33144
  20824603.320   109434098.43509  20824599.620    85273334.26249
  20646785.360   108499663.29309  20646785.800    84545212.55749
 15 03 26 00 16  0.0000000  0  9G04G11G16G18G19G21G22G27G32
  22949969.460   120603001.20108  22949970.200    93976396.22746
  24659386.860   129585962.01506  24659387.540   100976071.14544
  20725403.620   108912784.25209  20725401.800    84867104.31749
  22265068.740   117004036.41408  22265066.900    91172099.58947
  21856558.040   114857019.26708  21856554.660    89498982.09448
  24481604.020   128651701.54406  24481602.140   100248075.50144
  20821948.360   109420146.77809  20821944.700    85262462.87049
  20641802.620   108473478.58209  20641803.020    84524808.88949
  24504349.900   128771225.37306  24504358.880   100341238.85945
 15 03 26 00 16 30.0000000  0  9G04G11G16G18G19G21G22G27G32
  22934835.220   120523470.03608  22934835.920    93914423.94646
  24642638.200   129497945.04306  24642638.580   100907486.43745
  20733133.500   108953404.88309  20733131.620    84898756.73649
  22274574.160   117053987.62808  22274572.360    91211022.60947
  21845426.020   114798520.18108  21845422.580    89453398.39348
  24495417.880   128724294.05706  24495416.140   100304641.07145
  20819390.840   109406707.23809  20819387.240    85251990.52549
  20636862.220   108447516.37309  20636862.560    84504578.59749
  24481806.240   128652760.93006  24481815.120   100248930.13844
 15 03 26 00 17  0.0000000  0  9G04G11G16G18G19G21G22G27G32
  22919747.380   120444182.39208  22919747.940    93852641.43446
  24625907.500   129410023.28906  24625907.620   100838975.95144
  20740968.720   108994579.03409  20740966.820    84930840.47649
  22284161.540   117104369.29809  22284159.660    91250281.05147
  21834324.240   114740180.17209  21834320.760    89407938.66448
  24509230.540   128796880.09906  24509228.900   100361201.55844
  20816938.120   109393818.26709  20816934.540    85241947.19849
  20631971.580   108421815.46309  20631971.840    84484551.92049
  24459267.820   128534326.84006  24459277.600   100156645.13845
 15 03 26 00 17 30.0000000  0  9G04G11G16G18G19G21G22G27G32
  22904702.280   120365119.67908  22904702.800    93791034.21746
  24609191.400   129322177.73506  24609191.160   100770524.78644
  20748905.420   109036286.51409  20748903.520    84963339.79049
  22293826.800   117155160.23309  22293824.840    91289858.40147
  21823249.260   114681980.77509  21823245.780    89362588.50348
  24523038.260   128869440.27006  24523036.480   100417741.93344
  20814586.560   109381460.84409  20814583.000    85232318.06249
  20627127.200   108396358.00109  20627127.440    84464714.94149
  24436731.840   128415906.42106  24436742.820   100064370.69945
 15 03 26 00 18  0.0000000  0  9G04G11G16G18G19G21G22G27G32
  22889699.460   120286279.64808  22889699.960    93729600.50546
  24592489.120   129234405.93106  24592488.720   100702131.07244
  20756942.840   109078523.37009  20756940.920    84996251.60649
  22303569.120   117206356.14209  22303567.120    91329751.32147
  21812200.740   114623920.32109  21812197.220    89317346.60348
  24536840.460   128941971.17406  24536838.740   100474259.50344
  20812335.740   109369632.78609  20812332.160    85223101.41249
  20622328.860   108371142.48309  20622329.080    84445066.48349
  24414198.860   128297499.92206  24414209.860    99972106.96545
 15 03 26 00 18 30.0000000  0  9G04G11G16G18G19G21G22G27G32
  22874739.900   120207667.21008  22874740.280    93668344.14046
  24575801.720   129146713.10505  24575801.300   100633798.87544
  20765081.660   109121293.08409  20765079.720    85029578.64449
  22313389.000   117257959.77508  22313386.920    91369961.94647
  21801179.720   114566004.38409  21801176.220    89272217.30948
  24550637.820   129014476.82106  24550636.220   100530757.35145
  20810186.380   109358337.85209  20810182.760    85214300.18949
  20617577.680   108346174.83809  20617577.880    84425611.17749
  24391670.000   128179114.46206  24391680.700    99879859.60745
 15 03 26 00 19  0.0000000  0  9G04G11G16G18G19G21G22G27G32
  22859823.480   120129280.91508  22859823.620    93607263.97746
  24559128.940   129059097.12006  24559128.740   100565526.59944
  20773321.280   109164592.48009  20773319.320    85063318.42249
  22323285.820   117309968.03908  22323283.680    91410487.87247
  21790185.920   114508231.61709  21790182.400    89227199.58948
  24564429.920   129086954.48306  24564428.000   100587233.41544
  20808138.440   109347575.86509  20808134.780    85205914.25849
  20612873.460   108321454.03109  20612873.640    84406348.21949
  24369145.420   128060750.62106  24369155.520    99787628.97244
 15 03 26 00 19 30.0000000  0  9G04G11G16G18G19G21G22G27G32
  22844950.480   120051122.82508  22844950.560    93546361.63946
  24542471.160   128971560.12906  24542471.240   100497315.84944
  20781661.820   109208422.33409  20781659.880    85097471.53949
  22333259.560   117362380.60908  22333257.420    91451328.83447
  21779219.860   114450604.79809  21779216.380    89182295.59148
  24578217.000   129159405.67606  24578215.120   100643688.85244
  20806192.180   109337348.12909  20806188.460    85197944.61849
  20608216.780   108296983.17109  20608216.980    84387280.02049
  24346625.720   127942412.92706  24346635.740    99695418.69945
 15 03 26 00 20  0.0000000  0  9G04G11G16G18G19G21G22G27G32
  22830120.840   119973193.25108  22830121.080    93485637.36546
  24525828.540   128884102.44706  24525828.540   100429166.94444
  20790103.000   109252781.03509  20790101.080    85132036.74649
  22343309.800   117415195.14508  22343307.720    91492483.02047
  21768281.800   114393124.79409  21768278.260    89137505.98648
  24591998.840   129231829.46106  24591997.280   100700122.92744
  20804347.640   109327654.89809  20804343.840    85190391.47449
  20603607.840   108272763.27409  20603608.100    84368407.37449
  24324111.460   127824103.95606  24324121.640    99603230.79844
 15 03 26 00 20 30.0000000  0  9G04G11G16G18G19G21G22G27G32
  22815334.640   119895491.73408  22815335.120    93425090.79446
  24509201.000   128796723.73506  24509200.960   100361079.55844
  20798644.460   109297666.90709  20798642.580    85167012.73449
  22353436.260   117468410.17208  22353434.240    91533949.27947
  21757371.740   114335792.16609  21757368.220    89092831.22948
  24605775.180   129304224.64706  24605773.660   100756534.74145
  20802604.540   109318494.77809  20802600.660    85183253.74649
  20599046.820   108248795.02109  20599047.120    84349730.81949
  24301603.260   127705825.93807  24301612.960    99511066.96445
 15 03 26 00 21  0.0000000  0  9G04G11G16G18G19G21G22G27G32
  22800592.000   119818018.60608  22800592.520    93364722.15646
  24492588.540   128709424.04906  24492588.540   100293053.76545
  20807285.900   109343078.05709  20807284.060    85202398.02749
  22363638.520   117522023.42608  22363636.560    91575725.83647
  21746489.780   114278607.15909  21746486.300    89048271.49348
  24619545.960   129376590.67406  24619544.320   100812923.79744
  20800963.040   109309868.61809  20800959.100    85176532.08649
  20594533.800   108225079.20909  20594534.160    84331250.96149
  24279101.520   127587580.98507  24279110.700    99418928.91645
 15 03 26 00 21 30.0000000  0  9G04G11G16G18G19G21G22G27G32
  22785893.220   119740775.59408  22785893.460    93304532.83946
  24475991.500   128622205.17706  24475991.280   100225091.01444
  20816027.440   109389015.02809  20816025.600    85238193.05149
  22373916.500   117576034.42308  22373914.540    91617812.33046
  21735636.400   114221572.32709  21735632.980    89003828.78848
  24633311.480   129448928.38106  24633309.660   100869290.81544
  20799423.360   109301777.73209  20799419.420    85170227.52649
  20590069.340   108201618.61009  20590069.760    84312969.97949
  24256606.720   127469373.39706  24256615.720    99326820.00044
 15 03 26 00 22  0.0000000  0  9G04G11G16G18G19G21G22G27G32
  22771237.660   119663760.35108  22771237.680    93244521.00446
  24459409.340   128535064.77806  24459409.100   100157189.42144
  20824868.280   109435473.67509  20824866.420    85274394.57649
  22384269.320   117630438.58408  22384267.240    91660205.18247
  21724811.340   114164686.08809  21724807.900    88959501.86348
  24647070.940   129521234.50306  24647069.160   100925633.19545
  20797985.020   109294219.40709  20797981.100    85164337.94849
  20585653.180   108178411.76109  20585653.640    84294886.71849
  24234119.120   127351203.20906  24234127.300    99234740.11745
 15 03 26 00 22 30.0000000  0  9G04G11G16G18G19G21G22G27G32
  22756626.240   119586977.53008  22756626.120    93184690.27346
  24442842.760   128448007.10706  24442842.800   100089352.37945
  20833808.980   109482457.25709  20833807.100    85311005.14549
  22394697.400   117685238.15908  22394695.300    91702906.15647
  21714015.480   114107953.46609  21714012.020    88915294.64148
  24660825.100   129593512.87106  24660823.600   100981953.95144
  20796648.760   109287197.59909  20796644.900    85158866.43949
  20581286.360   108155464.09609  20581286.860    84277005.42749
  24211639.620   127233077.23806  24211647.920    99142694.75745
 15 03 26 00 23  0.0000000  0  9G04G11G16G18G19G21G22G27G32
  22742058.300   119510423.53708  22742058.520    93125037.90546
  24426291.260   128361028.52106  24426291.160   100021576.92144
  20842848.500   109529960.20009  20842846.620    85348020.40749
  22405199.760   117740428.19508  22405197.660    91745911.37847
  21703248.240   114051371.43509  21703244.800    88871204.76548
  24674573.220   129665758.96706  24674571.620   101038249.64444
  20795413.920   109280708.86809  20795410.120    85153810.30749
  20576968.340   108132772.84209  20576968.860    84259323.93249
  24189168.500   127114994.30506  24189176.640    99050682.88645
 15 03 26 00 23 30.0000000  0  9G04G11G16G18G19G21G22G27G32
  22727534.860   119434102.90108  22727535.340    93065567.37046
  24409755.560   128274133.53806  24409755.220    99953866.68643
  20851987.380   109577985.38909  20851985.520    85385442.61149
  22415776.780   117796010.62108  22415774.640    91789222.36647
  21692510.700   113994945.32609  21692507.240    88827236.38348
  24688315.660   129737976.24706  24688314.100   101094522.77545
  20794281.340   109274757.24309  20794277.560    85149172.69649
  20572700.180   108110343.40209  20572700.700    84241846.44749
  24166706.960   126996961.21607  24166714.600    98958709.74145
 15 03 26 00 24  0.0000000  0  9G04G11G16G18G19G21G22G27G32
  22713055.020   119358010.80008  22713055.660    93006274.91846
  24393234.760   128187316.86506  24393234.480    99886217.43744
  20861224.380   109626526.31709  20861222.600    85423266.69549
  22426426.980   117851978.09408  22426424.880    91832833.38847
  21681802.020   113938670.81209  21681798.580    88783386.13548
  24702051.680   129810159.40906  24702050.420   101150769.36844
  20793250.020   109269337.83609  20793246.300    85144949.81249
  20568481.080   108088171.87409  20568481.600    84224569.93549
  24144254.600   126878975.64806  24144261.800    98866773.65545
 15 03 26 00 24 30.0000000  0  9G04G11G16G18G19G21G22G27G32
  22698619.340   119282150.68408  22698619.940    92947163.21946
  24376729.720   128100582.58706  24376729.400    99818632.41044
  20870559.840   109675584.48009  20870558.120    85461493.81249
  22437150.760   117908332.38708  22437148.700    91876745.82447
  21671122.980   113882552.06409  21671119.540    88739657.25748
  24715781.660   129882310.75206  24715780.300   101206991.12244
  20792320.580   109264453.50609  20792316.860    85141143.85749
  20564311.880   108066262.57209  20564312.380    84207497.74849
  24121812.380   126761043.38206  24121819.660    98774879.08845
 15 03 26 00 25  0.0000000  0  9G04G11G16G18G19G21G22G27G32
  22684228.440   119206526.27608  22684228.860    92888235.20346
  24360240.980   128013934.10106  24360240.880    99751114.20444
  20879994.200   109725162.11409  20879992.460    85500125.71249
  22447948.500   117965075.34108  22447946.540    91920961.11147
  21660474.460   113826593.68009  21660470.900    88696053.33448
  24729506.080   129954433.18406  24729504.400   101263190.42443
  20791493.620   109260107.73409  20791489.880    85137757.55949
  20560193.500   108044620.15009  20560193.940    84190633.51749
  24099381.260   126643170.45406  24099388.660    98683030.81045
 15 03 26 00 25 30.0000000  0  9G04G11G16G18G19G21G22G27G32
  22669881.140   119131131.35708  22669881.340    92829485.99546
  24343767.400   127927365.23507  24343767.320    99683658.03644
  20889525.980   109775251.53509  20889524.220    85539156.41449
  22458818.600   118022198.32008  22458816.760    91965472.51947
  21649855.280   113770789.74609  21649851.680    88652569.76348
  24743223.700   130026519.71405  24743221.760   101319361.71143
  20790767.880   109256293.82109  20790764.120    85134785.70349
  20556124.920   108023239.37909  20556125.300    84173973.17649
  24076960.840   126525353.12107  24076968.120    98591225.75345
 15 03 26 00 26  0.0000000  0  9G04G11G16G18G19G21G22G27G32
  22655578.180   119055969.84608  22655578.320    92770918.68846
  24327309.600   127840879.45106  24327309.560    99616266.67044
  20899155.420   109825854.37409  20899153.660    85578587.18549
  22469761.340   118079702.90908  22469759.580    92010281.29647
  21639266.420   113715145.05309  21639262.840    88609210.28948
  24756935.000   130098573.79405  24756933.360   101375507.73945
  20790144.000   109253015.28309  20790140.180    85132231.02749
  20552107.020   108002124.98009  20552107.400    84157520.40849
  24054552.420   126407597.82607  24054559.320    98499469.02845
 15 03 26 00 26 30.0000000  0  9G04G11G16G18G19G21G22G27G32
  22641319.620   118981041.29308  22641319.820    92712532.88946
  24310867.640   127754476.72806  24310867.600    99548939.95945
  20908882.060   109876968.23309  20908880.340    85618416.14249
  22480776.260   118137586.68108  22480774.480    92055385.53547
  21628707.900   113659659.79809  21628704.360    88565975.04348
  24770640.060   130170593.95706  24770638.720   101431627.28044
  20789621.720   109250270.83509  20789617.900    85130092.52149
  20548139.920   107981277.47109  20548140.280    84141275.59149
  24032156.020   126289906.30407  24032162.440    98407761.96945
 15 03 26 00 27  0.0000000  0  9G04G11G16G18G19G21G22G27G32
  22627105.260   118906344.32408  22627105.620    92654327.54947
  24294441.260   127668155.32406  24294441.060    99481676.62545
  20918705.400   109928590.28309  20918703.680    85658641.09349
  22491862.640   118195845.89608  22491860.820    92100782.33047
  21618179.600   113604333.20809  21618176.100    88522863.42948
  24784338.320   130242577.91706  24784336.960   101487718.63844
  20789200.780   109248059.03609  20789196.960    85128369.05949
  20544223.440   107960696.25109  20544223.800    84125238.27349
  24009772.140   126172279.73207  24009778.380    98316105.52445
 15 03 26 00 27 30.0000000  0  9G04G11G16G18G19G21G22G27G32
  22612935.760   118831882.59208  22612936.200    92596305.52146
  24278031.040   127581919.22506  24278030.900    99414479.78844
  20928625.760   109980722.11109  20928624.060    85699263.28249
  22503020.740   118254481.97008  22503018.840    92146472.77846
  21607682.400   113549170.02909  21607678.860    88479879.15448
  24798030.300   130314528.89806  24798029.120   101543784.33544
  20788881.900   109246383.59609  20788878.100    85127063.54549
  20540358.540   107940386.06209  20540358.880    84109412.15349
  23987401.640   126054724.18106  23987407.920    98224504.42645
 15 03 26 00 28  0.0000000  0  9G04G11G16G18G19G21G22G27G32
  22598811.140   118757656.79808  22598811.520    92538467.31547
  24261637.060   127495768.82806  24261636.860    99347349.75844
  20938643.020   110033363.07309  20938641.320    85740282.19549
  22514250.340   118313493.85108  22514248.420    92192456.06647
  21597216.540   113494171.49209  21597212.940    88437023.16448
  24811715.860   130386447.03506  24811714.660   101599824.39744
  20788665.060   109245244.12309  20788661.260    85126175.66449
  20536545.460   107920348.52009  20536545.880    84093798.48649
  23965045.220   125937242.74507  23965051.520    98132961.08745
 15 03 26 00 28 30.0000000  0  9G04G11G16G18G19G21G22G27G32
  22584730.740   118683663.81808  22584730.960    92480810.52546
  24245258.820   127409701.30007  24245258.700    99280284.29744
  20948756.180   110086508.11609  20948754.520    85781693.89549
  22525550.360   118372875.81008  22525548.380    92238727.72046
  21586781.580   113439335.35209  21586777.960    88394293.71648
  24825394.320   130458328.11406  24825393.140   101655835.56445
  20788549.600   109244637.30909  20788545.760    85125702.84049
  20532783.900   107900581.58309  20532784.380    84078395.68049
  23942703.080   125819834.88707  23942708.660    98041474.97545
 15 03 26 00 29  0.0000000  0  9G04G11G16G18G19G21G22G27G32
  22570695.020   118609906.31008  22570695.060    92423337.21046
  24228896.840   127323719.29006  24228896.660    99213285.45344
  20958965.400   110140157.95609  20958963.780    85823498.94249
  22536920.900   118432628.54808  22536918.980    92285288.29147
  21576378.080   113384664.71709  21576374.480    88351693.23648
  24839066.100   130530174.22606  24839064.840   101711819.54544
  20788535.920   109244565.13109  20788531.980    85125646.61249
  20529074.500   107881088.68309  20529075.020    84063206.40649
  23920375.740   125702505.62607  23920380.940    97950050.14845
 15 03 26 00 29 30.0000000  0  9G04G11G16G18G19G21G22G27G32
  22556703.980   118536383.34808  22556703.800    92366046.64146
  24212550.800   127237821.38106  24212550.640    99146352.14944
  20969270.060   110194309.28109  20969268.460    85865694.75949
  22548361.400   118492748.69908  22548359.520    92332135.15647
  21566006.100   113330159.62809  21566002.480    88309221.75048
  24852731.160   130601983.43706  24852729.720   101767774.76345
  20788623.680   109245026.03909  20788619.680    85126005.78449
  20525417.240   107861869.70509  20525417.740    84048230.57849
  23898063.580   125585256.33907  23898068.720    97858687.63045
 15 03 26 00 30  0.0000000  0  9G04G11G16G18G19G21G22G27G32
  22542757.880   118463096.15808  22542757.560    92308939.80247
  24196221.120   127152009.11906  24196220.920    99079485.58844
  20979670.160   110248962.05409  20979668.540    85908281.31849
  22559871.640   118553235.47908  22559869.760    92379267.71847
  21555666.040   113275822.25409  21555662.420    88266880.95648
  24866389.280   130673756.43606  24866387.560   101823701.75444
  20788812.960   109246020.65009  20788808.920    85126780.82749
  20521812.540   107842927.03609  20521813.060    84033470.05949
  23875767.400   125468090.89807  23875772.420    97767390.41245
 15 03 26 00 30 30.0000000  0  9G04G11G16G18G19G21G22G27G32
  22528857.080   118390047.10808  22528856.820    92252018.54247
  24179908.140   127066284.99706  24179908.020    99012687.74944
  20990165.780   110304116.66009  20990164.100    85951258.91649
  22571451.680   118614089.13208  22571449.820    92426686.15546
  21545358.460   113221655.67709  21545354.880    88224673.24748
  24880040.720   130745495.16906  24880038.880   101879602.05344
  20789104.220   109247551.38609  20789100.200    85127973.62649
  20518261.100   107824264.14809  20518261.640    84018927.55349
  23853488.020   125351014.23607  23853493.000    97676162.37346
 15 03 26 00 31  0.0000000  0  9G04G11G16G18G19G21G22G27G32
  22515000.780   118317232.50408  22515000.800    92195279.95146
  24163611.240   126980645.21407  24163611.220    98945955.58545
  21000755.820   110359767.44609  21000754.060    85994623.14349
  22583100.440   118675303.93608  22583098.580    92474385.99246
  21535082.780   113167656.84509  21535079.260    88182596.25248
  24893684.680   130817195.12006  24893683.140   101935472.12444
  20789496.560   109249613.44409  20789492.580    85129580.44049
  20514762.360   107805878.13709  20514762.900    84004600.79249
  23831225.400   125234024.99407  23831230.220    97585002.43045
 15 03 26 00 31 30.0000000  0  9G04G11G16G18G19G21G22G27G32
  22501189.400   118244654.48108  22501189.840    92138725.71347
  24147330.860   126895091.92807  24147330.880    98879290.83145
  21011440.280   110415914.40509  21011438.460    86038374.00549
  22594817.900   118736879.65908  22594816.000    92522367.08146
  21524839.600   113113828.65509  21524836.120    88140652.21848
  24907321.540   130888857.63605  24907320.280   101991312.98945
  20789990.360   109252208.77209  20789986.460    85131602.79049
  20511316.920   107787772.17009  20511317.440    83990492.24849
