     2.11           OBSERVATION DATA    G                   RINEX VERSION / TYPE
SPIDER V4,0,0,3554                      2015 03 28 00:00    PGM / RUN BY / DATE 
AKET                                                        MARKER NAME         
AKET                                                        MARKER NUMBER       
                                                            OBSERVER / AGENCY   
496661              LEICA GRX1200+GNSS  8.20/4.007          REC # / TYPE / VERS 
10271023            LEIAR25         NONE                    ANT # / TYPE        
  5151577.2369   350367.6470  3733758.8145                  APPROX POSITION XYZ 
        0.0480        0.0000        0.0000                  ANTENNA: DELTA H/E/N
     1     1                                                WAVELENGTH FACT L1/2
     4    C1    L1    P2    L2                              # / TYPES OF OBSERV 
    30.000                                                  INTERVAL            
  2015    03    26    00    00    0.0000000     GPS         TIME OF FIRST OBS   
  2015    03    26    02    09   30.0000000     GPS         TIME OF LAST OBS    
    16                                                      LEAP SECONDS        
    13                                                      # OF SATELLITES     
   G 1   165   165   165   165                              PRN / # OF OBS      
   G 3     1     1     1     1                              PRN / # OF OBS      
   G 4   260   260   260   260                              PRN / # OF OBS      
   G11   224   224   224   224                              PRN / # OF OBS      
   G14   120   120   120   120                              PRN / # OF OBS      
   G16   203   203   203   203                              PRN / # OF OBS      
   G18   225   225   225   225                              PRN / # OF OBS      
   G19   260   260   260   260                              PRN / # OF OBS      
   G21    87    87    87    87                              PRN / # OF OBS      
   G22   260   260   260   260                              PRN / # OF OBS      
   G27   260   260   260   260                              PRN / # OF OBS      
   G28     4     4     4     4                              PRN / # OF OBS      
   G32   158   158   156   156                              PRN / # OF OBS      
BIT 2 OF LLI FLAGS DATA COLLECTED UNDER A/S CONDITION       COMMENT             
SNR is mapped to RINEX snr flag value [2-9]                 COMMENT             
Lx:     = 25dBHz -> 1; 26-27dBHz -> 2; 28-31dBHz -> 3       COMMENT             
       32-35dBHz -> 4; 36-38dBHz -> 5; 39-41dBHz -> 6       COMMENT             
       42-44dBHz -> 7; 45-48dBHz -> 8; >=49dBHz -> 9        COMMENT             
                                                            END OF HEADER       
 15 03 26 00 00  0.0000000  0  7G04G16G18G19G21G22G27
  23588226.000   123956999.49508  23588225.480    96589894.21145
  20587062.580   108185741.68409  20587059.660    84300568.63649
  21904367.260   115108241.48009  21904364.080    89694727.99047
  22172988.480   116519884.19509  22172984.300    90794718.77848
  23872575.940   125451228.87908  23872573.060    97754186.64446
  20994672.060   110327790.30309  20994667.460    85969721.09048
  20744304.860   109012071.19709  20744304.000    84944472.46549
 15 03 26 00 00 30.0000000  0  7G04G16G18G19G21G22G27
  23571182.900   123867437.15608  23571182.280    96520105.45145
  20592314.260   108213339.12809  20592311.380    84322073.11648
  21910494.940   115140442.58709  21910491.600    89719819.75847
  22160679.620   116455200.44909  22160675.340    90744315.87748
  23886460.800   125524194.70008  23886458.080    97811043.08745
  20988069.500   110293093.71909  20988064.900    85942684.82148
  20737980.600   108978836.49009  20737979.600    84918575.30549
 15 03 26 00 01  0.0000000  0  7G04G16G18G19G21G22G27
  23554177.280   123778073.12308  23554176.900    96450471.31046
  20597672.740   108241498.24909  20597669.780    84344015.26548
  21916712.380   115173115.46009  21916709.020    89745279.14247
  22148396.600   116390652.69409  22148392.220    90694018.95448
  23900349.620   125597180.97308  23900347.140    97867915.46245
  20981563.800   110258906.20009  20981559.240    85916045.22948
  20731700.700   108945835.42209  20731699.780    84892860.18149
 15 03 26 00 01 30.0000000  0  7G04G16G18G19G21G22G27
  23537208.140   123688901.88708  23537207.880    96380987.35745
  20603136.800   108270212.08309  20603133.820    84366389.66148
  21923018.240   115206253.16709  21923015.020    89771100.74447
  22136138.340   116326235.38609  22136133.920    90643823.68048
  23914241.200   125670180.62608  23914238.640    97924798.27245
  20975153.860   110225222.26609  20975149.340    85889798.04348
  20725464.240   108913062.64809  20725463.460    84867322.95249
 15 03 26 00 02  0.0000000  0  7G04G16G18G19G21G22G27
  23520275.320   123599920.27607  23520275.360    96311651.21145
  20608705.640   108299476.01009  20608702.580    84389192.71249
  21929411.500   115239850.46109  21929408.400    89797280.47048
  22123904.360   116261945.69209  22123899.840    90593727.84748
  23928134.500   125743188.39708  23928131.680    97981687.42845
  20968839.220   110192039.01909  20968834.680    85863940.98948
  20719270.700   108880515.44709  20719270.020    84841961.50149
 15 03 26 00 02 30.0000000  0  7G04G16G18G19G21G22G27
  23503380.540   123511137.65808  23503380.620    96242470.00746
  20614380.860   108329298.49909  20614377.580    84412431.01448
  21935893.700   115273914.88909  21935890.760    89823824.18048
  22111696.400   116197792.76609  22111691.700    90543738.57848
  23942030.820   125816212.46508  23942027.720    98038589.25646
  20962621.800   110159366.41409  20962617.240    85838481.85248
  20713121.940   108848203.59709  20713121.280    84816783.42449
 15 03 26 00 03  0.0000000  0  7G04G16G18G19G21G22G27
  23486523.240   123422552.43208  23486523.360    96173442.73145
  20620161.820   108359676.59209  20620158.280    84436102.24748
  21942464.260   115308443.12809  21942461.300    89850729.31848
  22099514.280   116133775.26409  22099509.480    90493854.84248
  23955929.720   125889249.76208  23955926.400    98095501.41746
  20956501.320   110127203.16909  20956496.660    85813419.60748
  20707017.780   108816126.02809  20707017.000    84791787.92649
 15 03 26 00 03 30.0000000  0  7G04G16G18G19G21G22G27
  23469702.860   123334161.59308  23469703.360    96104566.95846
  20626047.580   108390605.78709  20626043.920    84460202.90648
  21949122.220   115343430.30309  21949119.100    89877992.05147
  22087357.320   116069890.50209  22087352.560    90444074.53448
  23969830.160   125962295.83708  23969826.720    98152420.41045
  20950477.240   110095546.52009  20950472.520    85788752.11948
  20700957.800   108784280.22609  20700956.880    84766973.02049
 15 03 26 00 04  0.0000000  0  7G04G16G18G19G21G22G27
  23452921.440   123245975.52608  23452921.760    96035850.62746
  20632039.940   108422095.28409  20632036.160    84484740.17248
  21955868.980   115378884.65009  21955865.800    89905618.82247
  22075227.560   116006148.99009  22075223.000    90394405.84248
  23983733.680   126035359.44408  23983730.240    98209353.05645
  20944551.600   110064407.11609  20944546.880    85764487.68448
  20694943.960   108752676.88209  20694942.900    84742347.05549
 15 03 26 00 04 30.0000000  0  7G04G16G18G19G21G22G27
  23436176.840   123157982.48008  23436177.260    95967284.76646
  20638136.260   108454131.90309  20638132.540    84509703.74948
  21962701.860   115414792.12409  21962698.740    89933598.67947
  22063122.780   115942538.66409  22063118.480    90344839.36948
  23997638.040   126108427.71908  23997634.540    98266289.35445
  20938722.300   110033773.68609  20938717.460    85740617.49948
  20688974.000   108721304.75909  20688972.880    84717901.24949
 15 03 26 00 05  0.0000000  0  7G04G16G18G19G21G22G27
  23419470.240   123070189.11408  23419470.540    95898874.43946
  20644337.660   108486720.96409  20644334.060    84535097.81849
  21969622.040   115451158.30709  21969619.020    89961935.97347
  22051044.520   115879066.91909  22051040.360    90295380.89748
  24011544.180   126181505.32008  24011540.740    98323232.91645
  20932990.660   110003653.19409  20932985.660    85717147.02048
  20683049.320   108690171.07309  20683048.320    84693641.23649
 15 03 26 00 05 30.0000000  0  7G04G16G18G19G21G22G27
  23402801.900   122982596.54309  23402801.800    95830620.57845
  20650644.120   108519862.10509  20650640.660    84560922.06149
  21976629.380   115487982.44209  21976626.260    89990630.10847
  22038992.820   115815734.61609  22038988.900    90246031.07548
  24025452.080   126254592.05608  24025448.720    98380183.59345
  20927356.900   109974046.94409  20927351.780    85694077.23048
  20677170.360   108659277.31609  20677169.500    84669568.18749
 15 03 26 00 06  0.0000000  0  7G04G16G18G19G21G22G27
  23386171.800   122895205.66108  23386171.780    95762523.94646
  20657055.500   108553554.62509  20657052.180    84587175.95548
  21983723.580   115525262.79909  21983720.360    90019679.74147
  22026967.780   115752542.88808  22026964.060    90196790.80448
  24039361.680   126327687.57408  24039358.340    98437141.10846
  20921821.120   109944955.96109  20921815.940    85671408.96048
  20671337.340   108628624.83309  20671336.660    84645683.14049
 15 03 26 00 06 30.0000000  0  7G04G16G18G19G21G22G27
  23369579.380   122808012.97708  23369579.100    95694581.66946
  20663570.880   108587793.84809  20663567.700    84613855.85949
  21990903.660   115562994.23209  21990900.240    90049080.86447
  22014968.840   115689488.38808  22014965.100    90147657.43548
  24053272.060   126400786.77508  24053268.880    98494101.49446
  20916382.800   109916377.50709  20916377.640    85649140.05348
  20665549.720   108598210.77709  20665549.120    84621983.87749
 15 03 26 00 07  0.0000000  0  7G04G16G18G19G21G22G27
  23353025.740   122721023.18308  23353025.220    95626797.48145
  20670190.880   108622582.89009  20670187.880    84640964.18548
  21998170.100   115601179.49309  21998166.540    90078835.61747
  22002997.000   115626576.13609  22002993.100    90098634.95048
  24067183.740   126473892.90008  24067180.620    98551067.26545
  20911042.820   109888315.90409  20911037.760    85627273.89848
  20659808.400   108568040.22009  20659807.820    84598474.35949
 15 03 26 00 07 30.0000000  0  7G04G16G18G19G21G22G27
  23336510.600   122634235.02908  23336510.280    95559170.46545
  20676915.000   108657919.14909  20676912.140    84668498.90748
  22005522.260   115639815.21209  22005518.720    90108941.37247
  21991052.100   115563805.06009  21991048.020    90049722.43248
  24081096.140   126547003.28408  24081092.940    98608036.35445
  20905800.900   109860770.26109  20905796.060    85605809.78948
  20654113.360   108538112.33609  20654112.620    84575153.93549
 15 03 26 00 08  0.0000000  0  7G04G16G18G19G21G22G27
  23320034.940   122547654.80908  23320034.500    95491705.40846
  20683744.220   108693807.58609  20683741.440    84696463.91548
  22012961.060   115678906.22109  22012957.460    90139401.90847
  21979135.480   115501182.03509  21979131.240    90000925.30448
  24095010.280   126620123.00908  24095007.020    98665012.73745
  20900658.500   109833747.50809  20900653.700    85584753.12748
  20648465.900   108508434.26309  20648465.000    84552028.17549
 15 03 26 00 08 30.0000000  0  7G04G16G18G19G21G22G27
  23303597.680   122461277.11108  23303596.980    95424398.20745
  20690677.260   108730240.98109  20690674.440    84724853.55548
  22020485.080   115718444.89709  22020481.340    90170211.26947
  21967246.020   115438701.58909  21967241.580    89952239.25748
  24108924.940   126693245.31608  24108921.860    98721991.12445
  20895614.520   109807241.90009  20895609.840    85564099.44148
  20642864.940   108479000.86409  20642863.980    84529093.06949
 15 03 26 00 09  0.0000000  0  7G04G16G18G19G21G22G27
  23287199.220   122375103.25308  23287198.860    95357249.83445
  20697714.100   108767219.34909  20697711.160    84753667.86048
  22028094.180   115758430.51209  22028090.380    90201368.88747
  21955383.920   115376365.21609  21955379.220    89903665.47848
  24122839.980   126766369.98108  24122837.040    98778971.32245
  20890669.340   109781255.05309  20890664.600    85543849.97348
  20637310.820   108449814.08009  20637309.940    84506350.12049
 15 03 26 00 09 30.0000000  0  7G04G16G18G19G21G22G27
  23270839.760   122289134.25908  23270839.620    95290261.10645
  20704854.480   108804741.74709  20704851.500    84782906.09048
  22035788.040   115798861.62509  22035784.200    90232873.65847
  21943549.420   115314174.07509  21943544.560    89855204.87648
  24136755.420   126839496.54508  24136752.480    98835953.04045
  20885823.160   109755788.08209  20885818.240    85524005.59648
  20631803.900   108420875.31709  20631803.120    84483800.43649
 15 03 26 00 10  0.0000000  0  7G04G16G18G19G21G22G27
  23254519.440   122203371.55708  23254519.540    95223433.08645
  20712098.420   108842808.52809  20712095.400    84812568.50448
  22043566.740   115839738.45709  22043562.820    90264725.72747
  21931742.960   115252130.49109  21931737.920    89806859.23848
  24150671.440   126912625.49508  24150668.500    98892936.60545
  20881076.280   109730842.96209  20881071.320    85504567.86948
  20626344.520   108392186.78509  20626343.880    84461445.74149
 15 03 26 00 10 30.0000000  0  7G04G16G18G19G21G22G27
  23238238.680   122117816.40607  23238239.240    95156766.82046
  20719445.800   108881419.03709  20719442.800    84842654.59848
  22051429.880   115881059.61609  22051426.020    90296924.03447
  21919964.700   115190235.47009  21919959.520    89758629.37848
  24164587.880   126985756.57908  24164585.060    98949921.83645
  20876429.000   109706420.97609  20876423.920    85485537.78048
  20620933.080   108363750.15409  20620932.520    84439287.32749
 15 03 26 00 11  0.0000000  0  7G04G16G18G19G21G22G27
  23221997.540   122032469.80108  23221998.320    95090263.13246
  20726896.540   108920572.82709  20726893.540    84873164.03348
  22059377.360   115922824.68309  22059373.620    90329468.25347
  21908214.920   115128490.28709  21908209.640    89710516.24548
  24178504.620   127058889.44108  24178501.760    99006908.43745
  20871881.380   109682522.89809  20871876.180    85466915.93048
  20615570.020   108335567.10409  20615569.380    84417326.51149
 15 03 26 00 11 30.0000000  0  7G04G16G18G19G21G22G27
  23205795.960   121947331.24508  23205796.940    95023921.51546
  20734450.280   108960268.00909  20734447.260    84904095.32348
  22067408.680   115965030.37609  22067405.080    90362355.80647
  21896493.620   115066894.75309  21896488.300    89662519.75548
  24192421.460   127132022.28808  24192418.540    99063895.03845
  20867433.360   109659148.44509  20867428.080    85448702.08948
  20610255.400   108307637.59709  20610254.500    84395563.26149
 15 03 26 00 12  0.0000000  0  7G04G16G18G19G21G22G27
  23189633.440   121862397.61408  23189634.380    94957739.53846
  20742106.240   109000499.90909  20742103.160    84935444.83948
  22075522.980   116007671.93609  22075519.600    90395583.00247
  21884800.300   115005446.32209  21884795.120    89614637.87148
  24206337.560   127205150.94908  24206334.460    99120878.38045
  20863084.400   109636294.86809  20863079.200    85430894.12648
  20604988.640   108279959.33309  20604987.500    84373995.78049
 15 03 26 00 12 30.0000000  0  7G04G16G18G19G21G22G27
  23173511.440   121777676.50508  23173512.400    94891723.19646
  20749865.460   109041273.96809  20749862.140    84967216.82348
  22083721.300   116050755.01609  22083718.260    90429154.23947
  21873136.540   114944152.95009  21873131.680    89566876.82048
  24220254.000   127278281.16608  24220250.640    99177862.91145
  20858835.880   109613969.30509  20858830.720    85413497.60948
  20599771.180   108252540.19009  20599769.780    84352630.21849
 15 03 26 00 13  0.0000000  0  7G04G16G18G19G21G22G27
  23157428.640   121693160.54708  23157429.480    94825866.69847
  20757726.100   109082581.29009  20757722.600    84999404.33548
  22092001.860   116094269.97309  22091998.960    90463062.00247
  21861500.920   114883007.39609  21861496.320    89519230.95448
  24234169.100   127351404.57708  24234165.560    99234842.17245
  20854686.480   109592164.63909  20854681.520    85396506.99148
  20594601.680   108225373.49809  20594600.060    84331461.37449
 15 03 26 00 13 30.0000000  0  7G04G16G18G19G21G22G27
  23141386.760   121608859.19208  23141387.380    94760177.38847
  20765689.680   109124429.90209  20765686.120    85032013.61448
  22100366.080   116138224.53509  22100363.160    90497312.31847
  21849895.360   114822019.59809  21849890.800    89471708.01048
  24248084.260   127424529.15008  24248080.600    99291822.30145
  20850638.060   109570890.35309  20850633.120    85379929.64648
  20589482.080   108198469.42209  20589480.340    84310497.15049
 15 03 26 00 14  0.0000000  0  7G04G16G18G19G21G22G27
  23125384.320   121524765.31608  23125384.560    94694649.74546
  20773754.520   109166810.87509  20773751.020    85065037.73448
  22108812.120   116182608.80309  22108809.100    90531897.46047
  21838318.580   114761182.82009  21838313.880    89424302.74048
  24261998.240   127497647.36608  24261994.520    99348797.50645
  20846689.280   109550139.65009  20846684.400    85363760.29648
  20584411.220   108171821.54209  20584409.420    84289732.57249
 15 03 26 00 14 30.0000000  0  7G04G16G18G19G21G22G27
  23109422.100   121440883.80708  23109422.380    94629287.63146
  20781921.260   109209727.50609  20781917.860    85098479.24348
  22117340.680   116227426.49409  22117337.580    90566820.33447
  21826771.660   114700502.61309  21826766.660    89377019.47448
  24275911.600   127570762.50108  24275907.840    99405770.31245
  20842841.020   109529916.81009  20842836.020    85348002.26548
  20579390.040   108145435.13909  20579388.260    84269171.74349
 15 03 26 00 15  0.0000000  0  7G04G16G18G19G21G22G27
  23093500.700   121357216.57408  23093500.960    94564092.46046
  20790189.940   109253179.90809  20790186.580    85132338.24648
  22125951.700   116272677.01609  22125948.460    90602080.47747
  21815254.860   114639980.74809  21815249.580    89329859.60248
  24289824.260   127643874.69808  24289820.540    99462740.83345
  20839093.740   109510224.42309  20839088.620    85332657.57348
  20574419.040   108119312.83309  20574417.380    84248816.70449
 15 03 26 00 15 30.0000000  0  7G04G16G18G19G21G22G27
  23077620.040   121273762.94308  23077620.100    94499063.68346
  20798560.140   109297165.67609  20798556.740    85166612.85948
  22134644.560   116318357.69409  22134641.260    90637675.80847
  21803768.020   114579617.29609  21803762.760    89282823.15248
  24303735.880   127716982.43607  24303732.520    99519707.85045
  20835447.260   109491061.56309  20835442.000    85317725.48948
  20569498.300   108093454.66109  20569496.840    84228667.48149
 15 03 26 00 16  0.0000000  0  7G04G16G18G19G21G22G27
  23061779.840   121190521.84608  23061779.500    94434200.54246
  20807031.340   109341682.39609  20807027.980    85201301.18948
  22143418.520   116364465.42509  22143415.240    90673603.91547
  21792311.020   114519411.49709  21792306.040    89235909.56548
  24317646.260   127790083.97907  24317643.480    99576670.05245
  20831901.360   109472427.18409  20831896.000    85303205.21448
  20564627.780   108067860.39009  20564626.400    84208723.89349
 15 03 26 00 16 30.0000000  0  7G04G16G18G19G21G22G27
  23045979.760   121107491.90208  23045979.220    94369501.93645
  20815602.820   109386726.24709  20815599.580    85236400.26648
  22152272.940   116410996.46309  22152269.740    90709861.87047
  21780883.680   114459362.27509  21780879.160    89189117.96148
  24331555.140   127863176.25407  24331552.680    99633625.03745
  20828455.580   109454319.12509  20828450.180    85289095.05248
  20559807.240   108042528.84309  20559805.960    84188985.02749
 15 03 26 00 17  0.0000000  0  7G04G16G18G19G21G22G27
  23030220.440   121024675.82008  23030219.640    94304969.96245
  20824274.860   109432298.64809  20824271.660    85271911.20348
  22161208.080   116457951.87009  22161205.060    90746450.50647
  21769486.900   114399473.20609  21769482.680    89142451.16448
  24345462.700   127936260.78308  24345460.340    99690573.97445
  20825110.580   109436740.80009  20825105.100    85275397.67148
  20555037.440   108017463.66909  20555036.260    84169453.71949
 15 03 26 00 17 30.0000000  0  7G04G16G18G19G21G22G27
  23014501.820   120942073.28408  23014500.980    94240604.38245
  20833047.140   109478397.36709  20833043.940    85307832.26848
  22170223.460   116505328.67909  22170220.520    90783367.49847
  21758120.680   114339744.05209  21758116.480    89095908.97148
  24359368.560   128009336.27107  24359366.200    99747515.89045
  20821866.220   109419691.49709  20821860.800    85262112.52048
  20550318.460   107992665.16509  20550317.300    84150130.21149
 15 03 26 00 18  0.0000000  0  8G04G11G16G18G19G21G22G27
  22998825.540   120859693.48708  22998824.460    94176412.34846
  24673589.720   129660596.51207  24673590.060   101034230.22746
  20841921.060   109525029.59009  20841917.740    85344169.06948
  22179320.460   116553134.00509  22179317.580    90820618.41147
  21746786.860   114280184.52809  21746782.480    89049498.96948
  24373274.080   128082410.67907  24373271.820    99804456.95245
  20818724.220   109403180.47009  20818718.900    85249246.80948
  20545652.140   107968143.13609  20545650.900    84131022.14049
 15 03 26 00 18 30.0000000  0  8G04G11G16G18G19G21G22G27
  22983191.220   120777534.83908  22983190.100    94112392.65245
  24656334.280   129569918.93908  24656334.840   100963572.58341
  20850895.800   109572192.12709  20850892.600    85380919.07848
  22188498.420   116601364.10109  22188495.480    90858200.30447
  21735485.220   114220793.75709  21735480.620    89003220.45648
  24387178.820   128155481.36407  24387176.820    99861395.08945
  20815684.120   109387205.08109  20815678.800    85236798.46848
  20541038.280   107943896.93009  20541037.020    84112128.99149
 15 03 26 00 19  0.0000000  0  8G04G11G16G18G19G21G22G27
  22967594.640   120695575.31108  22967594.000    94048528.16746
  24639089.600   129479295.61808  24639089.320   100892957.03945
  20859966.880   109619860.95909  20859963.840    85418063.60448
  22197752.840   116649995.31609  22197749.700    90896094.74647
  21724211.580   114161549.81709  21724206.840    88957056.37548
  24401078.540   128228524.95407  24401076.680    99918312.15345
  20812741.980   109371744.63309  20812736.740    85224751.39648
  20536472.640   107919904.88709  20536471.560    84093433.89049
 15 03 26 00 19 30.0000000  0  8G04G11G16G18G19G21G22G27
  22952040.540   120613838.80009  22952040.140    93984837.44946
  24621859.680   129388750.33507  24621858.860   100822402.44544
  20869138.480   109668058.28109  20869135.460    85455619.94348
  22207087.640   116699048.93009  22207084.240    90934318.33847
  21712970.540   114102477.14909  21712965.800    88911025.75148
  24414977.580   128301564.44807  24414975.760    99975225.99745
  20809902.280   109356822.16609  20809897.020    85213123.51048
  20531960.020   107896191.63909  20531959.100    84074956.02949
 15 03 26 00 20  0.0000000  0  8G04G11G16G18G19G21G22G27
  22936528.340   120532321.48608  22936527.880    93921317.47646
  24604643.560   129298279.19508  24604642.580   100751905.68444
  20878409.400   109716778.19309  20878406.580    85493583.48048
  22216501.500   116748518.59409  22216497.980    90972866.12847
  21701761.360   114043572.56509  21701756.780    88865126.08648
  24428874.940   128374594.78407  24428873.040   100032132.75144
  20807164.260   109342433.90209  20807159.040    85201911.89548
  20527499.940   107872754.07909  20527499.020    84056692.99349
 15 03 26 00 20 30.0000000  0  8G04G11G16G18G19G21G22G27
  22921057.560   120451021.70509  22921057.000    93857967.04446
  24587441.240   129207880.83206  24587439.220   100681465.51442
  20887779.240   109766017.51809  20887776.620    85531951.75448
  22225993.940   116798401.54209  22225990.460    91011735.97147
  21690583.940   113984835.37909  21690579.520    88819356.86648
  24442770.060   128447613.41307  24442768.100   100089030.37045
  20804527.460   109328577.30709  20804522.180    85191114.56248
  20523092.280   107849591.56109  20523091.240    84038644.28249
 15 03 26 00 21  0.0000000  0  8G04G11G16G18G19G21G22G27
  22905628.740   120369942.35408  22905628.040    93794788.37646
  24570253.060   129117557.65507  24570251.220   100611084.08045
  20897248.180   109815776.71109  20897245.500    85570725.14348
  22235565.100   116848698.18109  22235561.540    91050928.14647
  21679438.860   113926268.46509  21679434.600    88773720.31248
  24456663.140   128520622.26707  24456661.300   100145920.31045
  20801992.460   109315255.85709  20801987.060    85180734.23048
  20518737.520   107826707.37409  20518736.520    84020812.45449
 15 03 26 00 21 30.0000000  0  8G04G11G16G18G19G21G22G27
  22890241.440   120289081.64108  22890240.540    93731780.06647
  24553078.860   129027307.95008  24553076.880   100540759.79943
  20906815.460   109866052.52809  20906812.660    85609901.09048
  22245214.160   116899404.34109  22245210.480    91090439.44247
  21668326.040   113867870.75709  21668321.960    88728215.62148
  24470553.960   128593618.52507  24470552.020   100202800.47445
  20799558.900   109302467.37409  20799553.600    85170769.19248
  20514435.500   107804100.64809  20514434.620    84003196.82349
 15 03 26 00 22  0.0000000  0  8G04G11G16G18G19G21G22G27
  22874895.700   120208439.65308  22874894.640    93668942.20947
  24535918.560   128937131.58808  24535916.680   100470492.58744
  20916480.700   109916842.96409  20916477.740    85649478.04348
  22254940.840   116950517.88009  22254936.860    91130268.16747
  21657245.640   113809643.08509  21657241.740    88682843.42348
  24484442.240   128666601.10407  24484440.160   100259669.98545
  20797226.620   109290211.57809  20797221.440    85161219.25248
  20510186.420   107781772.18909  20510185.640    83985798.02249
 15 03 26 00 22 30.0000000  0  8G04G11G16G18G19G21G22G27
  22859592.080   120128018.72409  22859591.120    93606276.62746
  24518772.800   128847030.91507  24518771.240   100400284.37044
  20926243.900   109968148.73409  20926240.920    85689456.54548
  22264745.060   117002038.71509  22264740.820    91170414.25647
  21646198.200   113751588.15209  21646194.280    88637605.82148
  24498328.160   128739571.45907  24498325.960   100316529.97845
  20794996.020   109278490.16809  20794990.840    85152085.69448
  20505990.800   107759725.00809  20505990.160    83968618.40449
 15 03 26 00 23  0.0000000  0  8G04G11G16G18G19G21G22G27
  22844330.640   120047819.41509  22844330.060    93543783.72146
  24501641.420   128757006.17208  24501640.300   100330135.45544
  20936104.760   110019968.16609  20936101.920    85729835.30048
  22274626.560   117053966.01709  22274622.280    91210877.08947
  21635183.760   113693707.09409  21635179.840    88592503.71748
  24512211.540   128812529.14807  24512209.320   100373380.09245
  20792867.260   109267303.94509  20792862.180    85143369.18148
  20501848.940   107737960.41109  20501848.460    83951658.98349
 15 03 26 00 23 30.0000000  0  8G04G11G16G18G19G21G22G27
  22829111.700   119967843.88209  22829111.240    93481465.16647
  24484525.020   128667059.62908  24484524.040   100260047.33945
  20946063.440   110072301.50609  20946060.700    85770614.50448
  22284585.180   117106299.33909  22284581.060    91251656.30747
  21624202.940   113636002.81909  21624199.020    88547539.36348
  24526092.540   128885475.07607  24526090.540   100430221.04244
  20790840.780   109256654.57409  20790835.740    85135070.98848
  20497761.440   107716481.29709  20497761.140    83934922.01149
 15 03 26 00 24  0.0000000  0  8G04G11G16G18G19G21G22G27
  22813934.660   119888088.43209  22813933.680    93419318.06447
  24467422.480   128577186.86707  24467421.400   100190016.77443
  20956118.780   110125143.06908  20956116.140    85811789.72348
  22294619.780   117159032.34509  22294615.940    91292746.95147
  21613255.220   113578472.08609  21613251.200    88502710.22648
  24539970.560   128958404.86507  24539968.580   100487049.42145
  20788915.740   109246538.30709  20788910.680    85127188.19848
  20493727.800   107695284.72009  20493727.620    83918405.19549
 15 03 26 00 24 30.0000000  0  8G04G11G16G18G19G21G22G27
  22798799.580   119808553.10809  22798797.940    93357342.52245
  24450334.700   128487389.13107  24450333.340   100120044.39245
  20966270.420   110178490.76509  20966267.860    85853359.31948
  22304730.120   117212163.42109  22304726.520    91334147.78147
  21602340.720   113521115.62309  21602336.640    88458016.89748
  24553845.420   129031317.25507  24553843.200   100543864.29945
  20787092.020   109236954.65709  20787087.000    85119720.43748
  20489748.240   107674371.50509  20489747.980    83902109.18849
 15 03 26 00 25  0.0000000  0  8G04G11G16G18G19G21G22G27
  22783706.980   119729241.02009  22783705.420    93295540.96045
  24433261.180   128397668.49708  24433259.840   100050132.51043
  20976518.740   110232345.86909  20976516.200    85895324.31648
  22314916.400   117265693.72109  22314913.140    91375859.71247
  21591460.300   113463937.40509  21591455.920    88413462.46048
  24567717.460   129104214.51908  24567715.140   100600667.32544
  20785370.220   109227906.52109  20785365.180    85112669.95248
  20485823.400   107653745.52809  20485822.980    83886037.00049
 15 03 26 00 25 30.0000000  0  8G04G11G16G18G19G21G22G27
  22768657.280   119650154.42808  22768656.080    93233915.09445
  24416203.060   128308027.76506  24416201.940    99980282.59844
  20986863.740   110286708.89809  20986861.060    85937685.10248
  22325178.680   117319623.02409  22325175.680    91417882.55747
  21580614.300   113406939.90309  21580609.680    88369048.82848
  24581586.780   129177097.88307  24581584.440   100657459.51744
  20783750.600   109219395.65209  20783745.700    85106038.12648
  20481953.720   107633409.89609  20481953.340    83870191.04749
 15 03 26 00 26  0.0000000  0  8G04G11G16G18G19G21G22G27
  22753649.940   119571290.68108  22753648.940    93172462.84646
  24399159.500   128218463.52608  24399158.640    99910492.46845
  20997304.440   110341574.74209  20997301.640    85980437.70048
  22335516.100   117373946.35909  22335513.100    91460212.42447
  21569802.260   113350121.38209  21569797.500    88324774.66048
  24595452.800   129249964.09107  24595450.700   100714238.34045
  20782232.660   109211419.13109  20782227.880    85099822.67648
  20478138.900   107613362.65909  20478138.600    83854569.82549
 15 03 26 00 26 30.0000000  0  8G04G11G16G18G19G21G22G27
  22738684.320   119492645.97809  22738683.200    93111181.27146
  24382129.880   128128972.57706  24382128.960    99840759.40444
  21007839.720   110396937.30309  21007836.780    86023577.35148
  22345927.460   117428657.85509  22345924.360    91502844.74747
  21559023.600   113293478.60309  21559018.600    88280637.43648
  24609314.700   129322808.21307  24609312.700   100770999.95144
  20780815.540   109203972.25709  20780810.820    85094019.93348
  20474378.340   107593600.82209  20474378.140    83839170.98749
 15 03 26 00 27  0.0000000  0  8G04G11G16G18G19G21G22G27
  22723762.680   119414231.81308  22723761.360    93050079.33546
  24365116.440   128039565.89907  24365115.060    99771091.81246
  21018471.340   110452806.40909  21018468.240    86067111.72048
  22356414.380   117483766.60009  22356411.120    91545786.62247
  21548280.580   113237023.62309  21548275.400    88236646.55148
  24623174.460   129395640.65807  24623172.160   100827752.48745
  20779501.460   109197066.53609  20779496.600    85088638.86649
  20470674.440   107574136.53609  20470674.260    83824004.01549
 15 03 26 00 27 30.0000000  0  8G04G11G16G18G19G21G22G27
  22708883.000   119336038.13308  22708881.580    92989149.28946
  24348117.340   127950233.90107  24348116.040    99701482.64544
  21029197.060   110509169.63609  21029193.820    86111031.12248
  22366974.440   117539260.24809  22366971.120    91589028.42347
  21537571.580   113180747.43809  21537566.240    88192794.98648
  24637029.920   129468450.79907  24637027.400   100884487.64144
  20778288.460   109190691.98609  20778283.620    85083671.69748
  20467025.480   107554960.65609  20467025.240    83809061.77549
 15 03 26 00 28  0.0000000  0  8G04G11G16G18G19G21G22G27
  22694046.720   119258073.01308  22694045.260    92928397.31746
  24331133.640   127860984.07408  24331131.660    99631937.25944
  21040017.920   110566033.49209  21040014.740    86155340.59848
  22377608.900   117595145.04309  22377605.540    91632575.01146
  21526898.240   113124658.59409  21526892.860    88149089.40848
  24650882.480   129541245.97507  24650879.860   100941211.11245
  20777177.880   109184855.61509  20777172.960    85079123.90048
  20463433.040   107536082.03309  20463432.760    83794351.16049
 15 03 26 00 28 30.0000000  0  8G04G11G16G18G19G21G22G27
  22679253.760   119180335.36308  22679252.420    92867822.62947
  24314165.320   127771815.67508  24314164.020    99562455.59546
  21050933.280   110623394.60608  21050930.340    86200037.53448
  22388317.100   117651417.23709  22388313.720    91676423.47047
  21516260.480   113068756.79609  21516255.100    88105529.57748
  24664731.520   129614023.77607  24664729.080   100997921.06845
  20776169.400   109179556.10909  20776164.440    85074994.43548
  20459897.080   107517500.48609  20459896.860    83779872.03649
 15 03 26 00 29  0.0000000  0  8G04G11G16G18G19G21G22G27
  22664503.580   119102822.27009  22664502.100    92807422.90146
  24297212.100   127682725.84508  24297209.580    99493034.81743
  21061942.200   110681247.98808  21061939.540    86245118.04748
  22399098.200   117708071.91409  22399094.780    91720569.98147
  21505657.740   113013039.63909  21505652.560    88062113.61548
  24678576.660   129686780.65107  24678574.240   101054614.69444
  20775262.400   109174790.00509  20775257.440    85071280.58948
  20456417.220   107499213.79809  20456417.080    83765622.66649
 15 03 26 00 29 30.0000000  0  8G04G11G16G18G19G21G22G27
  22649795.900   119025533.45308  22649794.400    92747197.87547
  24280273.700   127593713.90008  24280271.420    99423674.90145
  21073044.300   110739590.69709  21073041.840    86290579.86848
  22409951.620   117765106.42409  22409948.060    91765012.44947
  21495090.220   112957507.75109  21495085.320    88018842.02048
  24692417.680   129759515.25007  24692415.040   101111290.97445
  20774456.820   109170556.45909  20774451.680    85067981.73748
  20452993.560   107481222.38809  20452993.360    83751603.38049
 15 03 26 00 30  0.0000000  0  8G04G11G16G18G19G21G22G27
  22635131.740   118948473.97308  22635130.420    92687151.60447
  24263351.100   127504785.10207  24263349.500    99354379.86544
  21084240.340   110798426.29009  21084237.960    86336425.75748
  22420877.920   117822523.69109  22420874.220    91809753.18447
  21484559.120   112902167.13009  21484554.380    87975719.47248
  24706255.320   129832231.96908  24706252.520   101167953.34345
  20773753.440   109166859.96209  20773748.280    85065101.37648
  20449627.320   107463532.32209  20449626.980    83737818.92149
 15 03 26 00 30 30.0000000  0  8G04G11G16G18G19G21G22G27
  22620510.940   118871642.10408  22620509.900    92627282.67347
  24246444.000   127415938.02307  24246441.600    99285148.30344
  21095529.540   110857750.82409  21095527.100    86382652.64548
  22431876.400   117880319.87909  22431872.540    91854789.15947
  21474064.360   112847016.72009  21474059.560    87932745.14648
  24720089.080   129904928.39607  24720086.160   101224599.87845
  20773151.940   109163698.87909  20773146.680    85062638.21148
  20446318.280   107446142.86609  20446317.820    83724268.70249
 15 03 26 00 31  0.0000000  0  8G04G11G16G18G19G21G22G27
  22605933.460   118795039.06808  22605932.760    92567592.03747
  24229552.600   127327173.55308  24229550.880    99215981.29245
  21106911.600   110917563.25209  21106909.020    86429259.69648
  22442946.780   117938494.03109  22442942.720    91900119.66047
  21463606.260   112792058.27709  21463601.160    87889920.39348
  24733919.060   129977604.76908  24733916.100   101281230.79445
  20772652.300   109161073.27709  20772646.980    85060592.29548
  20443066.660   107429055.81109  20443066.260    83710954.10749
 15 03 26 00 31 30.0000000  0  8G04G11G16G18G19G21G22G27
  22591399.480   118718664.21108  22591399.180    92508079.23347
  24212676.820   127238491.05408  24212674.980    99146878.04245
  21118385.920   110977860.41109  21118383.160    86476244.48648
  22454088.360   117997042.99609  22454084.220    91945742.22447
  21453184.700   112737291.79809  21453179.300    87847245.22248
  24747744.860   130050259.45207  24747741.840   101337844.81845
  20772254.380   109158982.27209  20772249.040    85058962.95548
  20439872.640   107412271.29309  20439872.280    83697875.26049
 15 03 26 00 32  0.0000000  0  8G04G11G16G18G19G21G22G27
  22576909.480   118642519.29408  22576909.220    92448745.60746
  24195816.980   127149892.64108  24195815.400    99077840.37745
  21129952.480   111038642.16209  21129949.560    86523606.87248
  22465301.060   118055966.50209  22465297.020    91991656.64947
  21442800.160   112682720.53009  21442794.780    87804722.17748
  24761566.700   130122893.74308  24761563.740   101394442.93244
  20771958.340   109157427.11309  20771953.020    85057751.15348
  20436736.880   107395792.11209  20436736.360    83685034.34849
 15 03 26 00 32 30.0000000  0  8G04G11G16G18G19G21G22G27
  22562463.560   118566604.88108  22562463.060    92389591.57046
  24178973.100   127061378.49407  24178971.820    99008868.45445
  21141610.840   111099907.13609  21141607.820    86571345.79548
  22476584.540   118115262.38609  22476580.760    92037861.23247
  21432452.840   112628345.44809  21432447.620    87762351.99248
  24775384.500   130195507.47407  24775381.580   101451025.04144
  20771764.220   109156407.44409  20771758.840    85056956.61248
  20433659.560   107379619.57409  20433658.840    83672432.36949
 15 03 26 00 33  0.0000000  0  8G04G11G16G18G19G21G22G27
  22548060.900   118490917.41708  22548060.040    92330614.38546
  24162144.720   126972945.14408  24162143.380    98939959.43846
  21153359.960   111161648.85009  21153356.740    86619456.22948
  22487937.780   118174925.00809  22487934.240    92084351.58447
  21422142.220   112574163.54909  21422137.200    87720132.34348
  24789197.440   130268096.04607  24789194.640   101507587.52644
  20771671.280   109155918.97809  20771665.900    85056576.00248
  20430640.000   107363750.82609  20430639.140    83660067.10849
 15 03 26 00 33 30.0000000  0  8G04G11G16G18G19G21G22G27
  22533702.200   118415460.84909  22533700.900    92271817.11046
  24145332.740   126884597.13608  24145331.320    98871116.93846
  21165200.240   111223869.58709  21165197.020    86667939.91248
  22499361.240   118234956.50509  22499358.020    92131129.37247
  21411869.300   112520179.77909  21411864.380    87678067.07548
  24803006.220   130340662.78607  24803003.560   101564133.01645
  20771680.100   109155965.53209  20771674.740    85056612.29848
  20427679.120   107348190.93109  20427678.280    83647942.51049
 15 03 26 00 34  0.0000000  0  8G04G11G16G18G19G21G22G27
  22519386.840   118340232.15508  22519385.480    92213197.39146
  24128536.200   126796330.78508  24128534.780    98802338.08546
  21177130.660   111286563.95209  21177127.380    86716792.66048
  22510853.920   118295351.23209  22510850.880    92178190.20147
  21401633.800   112466392.08909  21401628.860    87636154.61048
  24816810.240   130413203.97107  24816807.540   101620658.55544
  20771790.000   109156543.05809  20771784.680    85057062.33348
  20424776.480   107332937.56809  20424775.700    83636056.77949
 15 03 26 00 34 30.0000000  0  8G04G11G16G18G19G21G22G27
  22505115.320   118265234.45309  22505113.980    92154757.69247
  24111755.980   126708149.50908  24111754.540    98733625.52445
  21189151.280   111349732.82309  21189148.000    86766015.14948
  22522415.980   118356110.17909  22522413.000    92225534.82247
  21391436.400   112412804.33509  21391431.360    87594397.93348
  24830609.940   130485721.98407  24830607.320   101677166.09144
  20772001.440   109157654.64309  20771996.300    85057928.51748
  20421932.940   107317994.68009  20421932.140    83624412.96649
 15 03 26 00 35  0.0000000  0  8G04G11G16G18G19G21G22G27
  22490887.760   118190468.28409  22490886.160    92096498.37447
  24094992.000   126620053.93108  24094990.240    98664979.72445
  21201261.880   111413374.68109  21201258.740    86815606.18548
  22534047.040   118417231.67209  22534043.900    92273161.96447
  21381277.340   112359418.04909  21381272.280    87552798.24448
  24844405.320   130558216.83707  24844402.400   101733655.59244
  20772314.420   109159300.03609  20772309.440    85059210.66048
  20419148.860   107303363.86209  20419148.000    83613012.33149
 15 03 26 00 35 30.0000000  0  8G04G11G16G18G19G21G22G27
  22476704.340   118115934.03008  22476702.580    92038419.76947
  24078244.500   126532044.46308  24078242.580    98596400.97345
  21213461.960   111477487.31008  21213459.020    86865564.04248
  22545746.660   118478713.57209  22545743.280    92321069.92746
  21371156.700   112306234.20809  21371151.820    87511356.30848
  24858196.060   130630687.96206  24858193.080   101790126.58445
  20772728.780   109161478.31409  20772723.980    85060908.03848
  20416424.280   107289045.96709  20416423.380    83601855.53149
 15 03 26 00 36  0.0000000  0  8G04G11G16G18G19G21G22G27
  22462565.180   118041632.79708  22462563.720    91980522.77247
  24061513.320   126444121.91307  24061511.300    98527889.95245
  21225751.400   111542069.42008  21225748.620    86915887.71648
  22557514.540   118540554.74009  22557511.120    92369257.85446
  21361074.980   112253254.93209  21361070.180    87470073.76948
  24871982.140   130703135.69206  24871979.640   101846579.28645
  20773244.740   109164190.18009  20773240.020    85063021.19948
  20413759.660   107275043.26209  20413758.780    83590944.32949
 15 03 26 00 36 30.0000000  0  8G04G11G16G18G19G21G22G27
  22448470.640   117967565.86008  22448469.420    91922808.32947
  24044799.000   126356288.11508  24044796.680    98459448.11844
  21238130.080   111607120.36108  21238127.500    86966576.71648
  22569350.620   118602754.24609  22569347.240    92417724.98247
  21351032.640   112200482.34709  21351027.820    87428952.28148
  24885763.960   130775560.72206  24885761.800   101903014.32744
  20773862.460   109167436.38909  20773857.800    85065550.73348
  20411155.400   107261357.80509  20411154.620    83580280.33649
 15 03 26 00 37  0.0000000  0  8G04G11G16G18G19G21G22G27
  22434419.940   117893729.34808  22434418.800    91865273.46247
  24028100.900   126268539.31408  24028098.560    98391072.44845
  21250596.880   111672633.62709  21250594.320    87017625.98548
  22581253.740   118665306.05309  22581250.480    92466466.64747
  21341029.060   112147913.37909  21341024.260    87387989.47148
  24899540.660   130847958.36506  24899538.760   101959428.01245
  20774581.040   109171212.08209  20774576.300    85068492.83748
  20408610.940   107247986.59609  20408610.180    83569861.22049
 15 03 26 00 37 30.0000000  0  8G04G11G16G18G19G21G22G27
  22420413.360   117820124.34708  22420412.260    91807918.95947
  24011419.140   126180876.48908  24011416.860    98322763.90044
  21263151.600   111738608.21709  21263148.840    87069034.73048
  22593223.660   118728208.99009  22593220.640    92515481.92147
  21331064.620   112095550.27909  21331059.880    87347187.07048
  24913312.360   130920329.44507  24913310.840   102015821.01044
  20775400.520   109175517.81909  20775395.580    85071847.96748
  20406126.660   107234931.78909  20406125.860    83559688.64249
 15 03 26 00 38  0.0000000  0  8G04G11G16G18G19G21G22G27
  22406451.220   117746752.31209  22406449.840    91750746.00247
  23994754.100   126093301.07107  23994751.900    98254523.35545
  21275793.940   111805043.06909  21275790.900    87120802.13048
  22605260.100   118791461.68708  22605257.380    92564769.75146
  21321139.680   112043395.05909  21321135.100    87306546.65348
  24927079.320   130992674.49607  24927077.940   102072193.72844
  20776321.060   109180354.44109  20776315.940    85075616.76748
  20403702.900   107222195.44409  20403702.160    83549764.21749
 15 03 26 00 38 30.0000000  0  8G04G11G16G18G19G21G22G27
  22392533.540   117673613.96309  22392531.880    91693755.12446
  23978105.600   126005814.00808  23978103.380    98186351.71844
  21288523.480   111871936.73809  21288520.380    87172927.04748
  22617362.860   118855063.34408  22617360.300    92614329.47246
  21311254.660   111991449.58709  21311250.180    87266069.66548
  24940841.580   131064993.62908  24940840.240   102128546.24445
  20777342.460   109185721.51909  20777337.280    85079798.92548
  20401340.060   107209779.20909  20401339.380    83540089.22949
 15 03 26 00 39  0.0000000  0  8G04G11G16G18G19G21G22G27
  22378660.120   117600708.52009  22378658.120    91636945.72746
  23961473.880   125918414.53908  23961471.780    98118248.36145
  21301339.700   111939285.91909  21301336.580    87225406.91448
  22629531.280   118919010.11108  22629528.940    92664158.11546
  21301409.740   111939714.21509  21301405.180    87225756.40248
  24954598.660   131137285.11808  24954597.060   102184877.25045
  20778464.440   109191617.44609  20778459.220    85084393.16748
  20399038.240   107197683.18609  20399037.620    83530663.75949
 15 03 26 00 39 30.0000000  0  8G04G11G16G18G19G21G22G27
  22364831.620   117528039.86108  22364829.660    91580320.83746
  23944859.780   125831107.16707  23944857.420    98050216.66345
  21314242.900   112007092.51409  21314239.660    87278243.22048
  22641765.900   118983304.50808  22641763.820    92714257.63746
  21291605.760   111888193.52209  21291601.060    87185610.42148
  24968351.200   131209552.97108  24968349.120   102241189.86245
  20779687.600   109198045.38709  20779682.360    85089401.96348
  20396798.460   107185912.45109  20396797.740    83521491.75949
 15 03 26 00 40  0.0000000  0  8G04G11G16G18G19G21G22G27
  22351047.760   117455606.24208  22351045.960    91523879.10046
  23928262.600   125743889.50808  23928260.880    97982255.04145
  21327232.260   112075352.08809  21327229.000    87331432.48848
  22654066.000   119047942.11208  22654063.820    92764624.56446
  21281842.440   111836886.57409  21281837.740    87145630.99048
  24982098.500   131281794.06407  24982096.180   102297481.59244
  20781011.600   109205003.27709  20781006.360    85094823.70048
  20394620.400   107174465.67809  20394619.500    83512572.19349
 15 03 26 00 40 30.0000000  0  8G04G11G16G18G19G21G22G27
  22337308.540   117383407.63008  22337306.780    91467620.49146
  23911682.580   125656761.78507  23911680.720    97914363.34645
  21340307.220   112144062.20809  21340304.140    87384972.82848
  22666431.100   119112920.60708  22666428.720    92815257.16446
  21272119.900   111785794.47609  21272115.400    87105818.97348
  24995840.400   131354008.05507  24995837.980   102353752.19444
  20782436.220   109212489.85509  20782431.020    85100657.41848
  20392504.100   107163343.95209  20392502.960    83503905.91849
 15 03 26 00 41  0.0000000  0  8G04G11G16G18G19G21G22G27
  22323614.480   117311446.08608  22323612.660    91411546.59746
  23895120.260   125569726.71008  23895118.320    97846543.82444
  21353467.820   112213222.59409  21353465.020    87438864.02248
  22678860.900   119178239.53608  22678858.500    92866155.01946
  21262438.780   111734920.30409  21262434.520    87066176.77248
  25009577.200   131426196.44307  25009575.220   102410002.82244
  20783961.620   109220505.99909  20783956.480    85106903.77848
  20390450.140   107152550.27009  20390448.880    83495495.25449
 15 03 26 00 41 30.0000000  0  8G04G11G16G18G19G21G22G27
  22309964.640   117239716.77508  22309963.020    91355653.67347
  23878574.680   125482779.30808  23878572.940    97778792.68345
  21366712.560   112282825.73308  21366710.120    87493100.19247
  22691354.160   119243891.92108  22691351.740    92917312.71546
  21252798.460   111684260.07309  21252794.220    87026701.26548
  25023308.160   131498354.05207  25023306.120   102466229.50044
  20785586.780   109229046.55909  20785581.640    85113558.77248
  20388457.800   107142080.56509  20388456.540    83487337.03949
 15 03 26 00 42  0.0000000  0  8G04G11G16G18G19G21G22G27
  22296360.240   117168225.93509  22296358.900    91299946.58646
  23862046.800   125395925.56908  23862044.900    97711114.51445
  21380042.480   112352876.18908  21380040.080    87547684.94447
  22703911.780   119309881.99508  22703909.380    92968733.54846
  21243200.280   111633821.14409  21243196.000    86987398.23048
  25037034.400   131570486.46307  25037031.920   102522436.55143
  20787312.700   109238116.45309  20787307.480    85120626.23248
  20386528.460   107131942.07509  20386527.240    83479436.91549
 15 03 26 00 42 30.0000000  0  8G04G11G16G18G19G21G22G27
  22282799.940   117096966.09909  22282798.600    91244419.47447
  23845535.420   125309158.31708  23845533.800    97643503.78145
  21393455.620   112423363.43308  21393453.300    87602610.03047
  22716531.840   119376199.76209  22716529.440    93020409.71846
  21233642.940   111583596.83409  21233638.660    86948262.41448
  25050754.360   131642585.50807  25050751.640   102578617.63944
  20789137.760   109247707.45009  20789132.460    85128099.74448
  20384660.800   107122128.02309  20384659.620    83471789.59749
 15 03 26 00 43  0.0000000  0  8G04G11G16G18G19G21G22G27
  22269285.100   117025945.19809  22269283.880    91189078.56247
  23829042.240   125222485.99507  23829040.080    97575966.84444
  21406953.080   112494293.25108  21406950.800    87657879.99147
  22729215.440   119442850.77009  22729212.800    93072345.55347
  21224128.100   111533596.29009  21224123.860    86909300.96848
  25064469.340   131714658.46907  25064466.560   102634778.39944
  20791063.400   109257827.01409  20791058.120    85135985.14648
  20382856.680   107112647.40809  20382855.420    83464402.11449
 15 03 26 00 43 30.0000000  0  7G04G11G16G18G19G22G27
  22255815.580   116955162.23509  22255814.380    91133923.05147
  23812566.820   125135907.32308  23812564.720    97508503.08744
  21420534.240   112565661.79009  21420531.780    87713491.82048
  22741961.840   119509831.55409  22741958.860    93124538.35846
  21214655.800   111483819.32009  21214651.480    86870513.73148
  20793089.220   109268472.71009  20793083.900    85144280.49748
  20381116.000   107103500.00509  20381114.740    83457274.26349
 15 03 26 00 44  0.0000000  0  7G04G11G16G18G19G22G27
  22242390.440   116884612.16508  22242389.300    91078949.00947
  23796108.320   125049417.75808  23796106.540    97441108.70246
  21434197.600   112637461.85509  21434194.980    87769439.88948
  22754769.680   119577135.20009  22754766.260    93176982.75146
  21205225.440   111434262.24409  21205220.880    86831897.83648
  20795214.020   109279638.73009  20795208.860    85152981.30848
  20379437.940   107094681.93709  20379436.780    83450403.03749
 15 03 26 00 44 30.0000000  0  7G04G11G16G18G19G22G27
  22229010.560   116814300.30008  22229009.320    91024160.58647
  23779667.920   124963022.58908  23779665.640    97373787.80245
  21447943.700   112709696.50309  21447940.800    87825726.61648
  22767639.360   119644764.30409  22767635.560    93229680.74646
  21195838.120   111384931.13509  21195833.300    86793458.02248
  20797438.680   109291329.42309  20797433.600    85162090.94848
  20377823.660   107086199.24809  20377822.580    83443793.13949
 15 03 26 00 45  0.0000000  0  7G04G11G16G18G19G22G27
  22215676.240   116744227.31609  22215674.880    90969558.29447
  23763245.580   124876722.85708  23763243.600    97306541.40245
  21461772.060   112782363.66909  21461768.840    87882350.37448
  22780570.600   119712717.64309  22780566.580    93282631.39846
  21186494.220   111335828.03609  21186489.280    86755195.87848
  20799763.000   109303543.83909  20799758.020    85171608.68848
  20376273.560   107078053.58609  20376272.420    83437445.87849
 15 03 26 00 45 30.0000000  0  7G04G11G16G18G19G22G27
  22202387.000   116674391.26308  22202385.600    90915140.64147
  23746841.240   124790516.76208  23746838.860    97239367.80945
  21475681.720   112855458.92109  21475678.460    87939307.68448
  22793562.580   119780990.90409  22793558.600    93335831.34546
  21177193.500   111286951.70809  21177188.440    86717110.42748
  20802186.700   109316280.32709  20802181.700    85181533.23448
  20374787.340   107070243.72109  20374786.200    83431360.26749
 15 03 26 00 46  0.0000000  0  7G04G11G16G18G19G22G27
  22189143.420   116604795.38909  22189141.960    90860910.13347
  23730455.300   124704407.34908  23730452.940    97172269.66445
  21489672.900   112928982.90309  21489669.740    87996599.06848
  22806615.680   119849585.11809  22806611.700    93389281.38346
  21167936.820   111238306.38809  21167931.600    86679204.99648
  20804710.060   109329540.38609  20804705.020    85191865.76148
  20373365.820   107062773.85109  20373364.760    83425539.58949
 15 03 26 00 46 30.0000000  0  7G04G11G16G18G19G22G27
  22175945.000   116535437.27409  22175943.480    90806864.87947
  23714087.120   124618392.60508  23714084.880    97105245.26046
  21503744.760   113002930.85309  21503741.700    88054220.82348
  22819728.980   119918495.31009  22819724.960    93442977.62846
  21158723.820   111189890.77409  21158718.500    86641478.55248
  20807332.420   109343320.68709  20807327.300    85202603.66648
  20372008.780   107055642.51509  20372007.700    83419982.70249
 15 03 26 00 47  0.0000000  0  7G04G11G16G18G19G22G27
  22162791.760   116466317.28809  22162790.460    90753005.21347
  23697737.120   124532473.15608  23697734.140    97038295.02544
  21517896.880   113077300.77709  21517893.900    88112171.38648
  22832902.000   119987719.40909  22832897.900    93496918.48246
  21149554.700   111141706.35809  21149549.380    86603932.26848
  20810053.520   109357620.21409  20810048.380    85213746.16248
  20370716.420   107048850.93609  20370715.340    83414690.56249
 15 03 26 00 47 30.0000000  0  8G01G04G11G16G18G19G22G27
  24583801.120   129188744.12407  24583803.820   100666561.41646
  22149683.700   116397434.74809  22149682.340    90699330.53947
  23681405.320   124446648.71508  23681402.700    96971418.92845
  21532128.620   113152089.17509  21532125.680    88170448.02748
  22846134.200   120057255.13109  22846130.200    93551102.15846
  21140429.580   111093753.86009  21140424.320    86566566.69148
  20812873.120   109372437.60109  20812868.000    85225292.19248
  20369488.780   107042399.48409  20369487.700    83409663.46349
 15 03 26 00 48  0.0000000  0  8G01G04G11G16G18G19G22G27
  24568068.720   129106071.35706  24568072.000   100602141.16346
  22136622.660   116328799.56308  22136621.280    90645848.62247
  23665093.400   124360929.15508  23665090.400    96904624.47145
  21546441.440   113227303.40809  21546438.480    88229056.50448
  22859426.960   120127109.65309  22859422.940    93605534.23246
  21131350.640   111046044.21309  21131345.420    86529390.35348
  20815792.900   109387781.50309  20815787.800    85237248.49048
  20368327.800   107036298.91609  20368326.760    83404909.76849
 15 03 26 00 48 30.0000000  0  8G01G04G11G16G18G19G22G27
  24552360.860   129023527.20107  24552364.280   100537821.12445
  22123606.860   116260402.02309  22123605.620    90592551.89347
  23648799.580   124275304.98408  23648796.420    96837904.38745
  21560832.960   113302931.53709  21560830.160    88287987.46048
  22872777.820   120197270.35909  22872773.960    93660204.91046
  21122316.060   110998568.11809  21122310.960    86492396.00548
  20818810.900   109403641.08209  20818805.800    85249606.61848
  20367231.860   107030540.22509  20367230.920    83400422.48249
 15 03 26 00 49  0.0000000  0  8G01G04G11G16G18G19G22G27
  24536676.980   128941107.71607  24536680.260   100473598.14946
  22110635.560   116192237.67609  22110634.340    90539436.85847
  23632523.080   124189772.23208  23632520.380    96771255.53945
  21575301.980   113378966.55109  21575299.260    88347235.49048
  22886185.860   120267731.68009  22886182.280    93715109.82546
  21113325.380   110951322.95009  21113320.480    86455581.59748
  20821926.140   109420011.19309  20821920.840    85262362.54848
  20366200.440   107025120.18909  20366199.680    83396199.06949
 15 03 26 00 49 30.0000000  0  8G01G04G11G16G18G19G22G27
  24521018.220   128858820.71606  24521021.640   100409478.57246
  22097710.300   116124314.74009  22097708.920    90486509.92647
  23616265.460   124104339.04508  23616262.740    96704684.27545
  21589849.480   113455414.10009  21589846.700    88406805.00147
  22899652.280   120338499.04109  22899648.900    93770253.21346
  21104380.420   110904317.95809  21104375.700    86418954.34548
  20825139.940   109436899.14809  20825134.480    85275522.00048
  20365235.200   107020047.62709  20365234.540    83392246.41949
 15 03 26 00 50  0.0000000  0  8G01G04G11G16G18G19G22G27
  24505384.340   128776663.96408  24505387.740   100345460.48445
  22084830.520   116056630.68208  22084829.080    90433769.15047
  23600026.560   124019003.45608  23600024.020    96638189.04245
  21604474.440   113532268.93609  21604471.660    88466691.86047
  22913176.140   120409567.29209  22913172.880    93825631.06946
  21095480.960   110857551.63709  21095476.420    86382513.07448
  20828451.460   109454300.71409  20828445.900    85289081.66848
  20364335.760   107015321.09809  20364335.180    83388563.41249
 15 03 26 00 50 30.0000000  0  8G01G04G11G16G18G19G22G27
  24489775.480   128694638.67807  24489778.640   100281544.68745
  22071996.380   115989186.75009  22071994.740    90381215.48647
  23583806.480   123933766.80508  23583804.120    96571770.91945
  21619176.740   113609529.70809  21619173.980    88526895.04047
  22926757.240   120480935.87609  22926754.060    93881242.94046
  21086627.460   110811026.17309  21086623.040    86346259.47648
  20831860.680   109472215.92109  20831855.100    85303041.58248
  20363502.540   107010942.69509  20363502.040    83385151.66549
 15 03 26 00 51  0.0000000  0  9G01G04G11G16G18G19G22G27G32
  24474191.660   128612745.41107  24474194.700   100217731.91146
  22059208.100   115921983.63209  22059206.240    90328849.45247
  23567605.460   123848629.73308  23567603.240    96505430.43045
  21633955.840   113687194.23409  21633953.100    88587412.82447
  22940395.100   120552602.88009  22940392.000    93937087.34747
  21077820.180   110764743.56509  21077815.860    86310195.11248
  20835367.600   109490644.71009  20835361.980    85317401.68448
  20362735.840   107006913.93509  20362735.220    83382012.37149
  23157826.180   121695197.93004  23157827.420    94827436.25643
 15 03 26 00 51 30.0000000  0  9G01G04G11G16G18G19G22G27G32
  24458633.140   128530984.71908  24458635.860   100154022.43245
  22046465.660   115855021.88709  22046463.760    90276671.51147
  23551423.600   123763592.90208  23551421.380    96439167.99946
  21648811.440   113765261.02109  21648808.720    88648244.07048
  22954089.360   120624566.77309  22954086.300    93993163.11046
  21069059.380   110718705.36609  21069055.020    86274321.20948
  20838971.920   109509585.90809  20838966.420    85332161.08348
  20362035.960   107003236.17509  20362035.400    83379146.58849
  23136367.280   121582429.97704                                
