     2.11           OBSERVATION DATA    M                   RINEX VERSION / TYPE
SPIDER V4,0,0,3554                      2015 03 29 00:14    PGM / RUN BY / DATE 
CAEK                                                        MARKER NAME         
CAEK                                                        MARKER NUMBER       
                                                            OBSERVER / AGENCY   
496550              LEICA GRX1200+GNSS  8.10/4.007          REC # / TYPE / VERS 
                    LEIAR25         NONE                    ANT # / TYPE        
  5175862.1546   441305.6455  3689267.4457                  APPROX POSITION XYZ 
        0.0720        0.0000        0.0000                  ANTENNA: DELTA H/E/N
     1     1                                                WAVELENGTH FACT L1/2
     4    C1    L1    P2    L2                              # / TYPES OF OBSERV 
    30.000                                                  INTERVAL            
  2015    03    26    00    00    0.0000000     GPS         TIME OF FIRST OBS   
  2015    03    26    23    59   30.0000000     GPS         TIME OF LAST OBS    
    16                                                      LEAP SECONDS        
    39                                                      # OF SATELLITES     
   G 1   819   819   819   819                              PRN / # OF OBS      
   G 2   939   939   939   939                              PRN / # OF OBS      
   G 3   848   848   848   848                              PRN / # OF OBS      
   G 4   848   848   848   848                              PRN / # OF OBS      
   G 5   636   636   636   636                              PRN / # OF OBS      
   G 6   809   809   809   809                              PRN / # OF OBS      
   G 7   665   665   665   665                              PRN / # OF OBS      
   G 9   799   799   799   799                              PRN / # OF OBS      
   G10   768   768   768   768                              PRN / # OF OBS      
   G11   782   782   782   782                              PRN / # OF OBS      
   G12   817   817   817   817                              PRN / # OF OBS      
   G13   798   798   798   798                              PRN / # OF OBS      
   G14   893   893   893   893                              PRN / # OF OBS      
   G15   695   695   695   695                              PRN / # OF OBS      
   G16   674   674   674   674                              PRN / # OF OBS      
   G17   939   939   939   939                              PRN / # OF OBS      
   G18   911   902   888   888                              PRN / # OF OBS      
   G19   772   772   771   771                              PRN / # OF OBS      
   G20   733   733   733   733                              PRN / # OF OBS      
   G21   683   683   682   682                              PRN / # OF OBS      
   G22   637   626   619   618                              PRN / # OF OBS      
   G23   745   744   744   744                              PRN / # OF OBS      
   G24   804   804   804   804                              PRN / # OF OBS      
   G25   840   839   839   838                              PRN / # OF OBS      
   G27   816   816   816   816                              PRN / # OF OBS      
   G28   885   885   885   885                              PRN / # OF OBS      
   G29   749   749   748   748                              PRN / # OF OBS      
   G30   712   711   711   711                              PRN / # OF OBS      
   G31   829   822   819   816                              PRN / # OF OBS      
   G32   757   757   757   757                              PRN / # OF OBS      
   R 1    30    30    30    30                              PRN / # OF OBS      
   R 2     7     7     7     7                              PRN / # OF OBS      
   R 8    30    30    30    30                              PRN / # OF OBS      
   R13    30    30    30    30                              PRN / # OF OBS      
   R14    30    30    30    30                              PRN / # OF OBS      
   R15    30    30    30    30                              PRN / # OF OBS      
   R17    30    30    30    30                              PRN / # OF OBS      
   R23    30    30    30    30                              PRN / # OF OBS      
   R24    30    30    30    30                              PRN / # OF OBS      
BIT 2 OF LLI FLAGS DATA COLLECTED UNDER A/S CONDITION       COMMENT             
SNR is mapped to RINEX snr flag value [2-9]                 COMMENT             
Lx:     = 25dBHz -> 1; 26-27dBHz -> 2; 28-31dBHz -> 3       COMMENT             
       32-35dBHz -> 4; 36-38dBHz -> 5; 39-41dBHz -> 6       COMMENT             
       42-44dBHz -> 7; 45-48dBHz -> 8; >=49dBHz -> 9        COMMENT             
                                                            END OF HEADER       
 15 03 26 00 00  0.0000000  0 15G04G16G18G19G21G22G27R01R08R13R14R15
                                R17R23R24
  23648865.280   124275668.74308  23648865.860    96838204.45046
  20592492.360   108214316.22609  20592489.640    84322852.72148
  21860477.540   114877835.30909  21860474.780    89515288.89648
  22257154.580   116962174.92009  22257150.480    91139355.14248
  23836497.100   125262025.91008  23836493.880    97606942.63546
  20941981.060   110050923.82809  20941976.660    85753975.94348
  20785394.580   109228046.34209  20785394.080    85112781.36249
  20941796.220   111945987.77009  20941801.280    87069123.57207
  21047273.680   112707272.47808  21047273.880    87661240.24508
  23011748.000   122881453.31806  23011753.660    95574479.44906
  21135900.080   112666268.56808  21135905.960    87629341.00706
  22610823.980   120825393.00308  22610827.660    93975319.57306
  23367222.440   125042734.66007  23367224.400    97255465.91406
  21099271.380   112867116.96009  21099275.360    87785645.13806
  20396715.280   109070488.27608  20396715.320    84832645.40807
 15 03 26 00 00 30.0000000  0 15G04G16G18G19G21G22G27R01R08R13R14R15
                                R17R23R24
  23631987.860   124186978.03508  23631988.420    96769094.93945
  20597453.340   108240385.97309  20597450.600    84343166.80448
  21866813.720   114911131.58109  21866810.840    89541234.05847
  22244640.140   116896411.84309  22244636.120    91088111.22048
  23850177.820   125333918.70708  23850174.720    97662962.97645
  20935555.040   110017154.86509  20935550.660    85727662.50248
  20778689.840   109192812.70909  20778689.300    85085326.59349
  20924865.860   111855485.60809  20924870.960    86998733.05807
  21051696.560   112730957.00308  21051696.860    87679661.55908
  23034746.240   123004261.63206  23034752.000    95669996.75307
  21145132.700   112715482.72908  21145138.540    87667618.65906
  22601494.460   120775538.14708  22601498.080    93936543.57006
  23353441.520   124968990.41708  23353443.700    97198109.34307
  21107392.040   112910557.22909  21107396.020    87819432.00606
  20392024.080   109045403.20108  20392024.260    84813134.80807
 15 03 26 00 01  0.0000000  0 15G04G16G18G19G21G22G27R01R08R13R14R15
                                R17R23R24
  23615146.300   124098475.75208  23615146.780    96700132.23445
  20602520.740   108267014.96709  20602517.980    84363916.65448
  21873237.860   114944890.34409  21873234.860    89567539.58747
  22232148.820   116830770.00409  22232144.860    91036961.76848
  23863860.880   125405823.53408  23863857.860    97718992.66446
  20929225.200   109983890.99709  20929220.740    85701742.63848
  20772027.380   109157801.65209  20772026.900    85058045.25449
  20908035.340   111765517.17309  20908040.440    86928757.66007
  21056266.860   112755430.97508  21056267.180    87698696.88208
  23057763.500   123127171.28306  23057769.340    95765592.88207
  21154498.960   112765409.71007  21154504.840    87706450.72607
  22592298.620   120726399.05008  22592302.340    93898324.29206
  23339659.640   124895240.11107  23339661.640    97140748.02506
  21115540.360   112954145.27809  21115544.380    87853333.78506
  20387361.520   109020470.89508  20387361.820    84793743.02507
 15 03 26 00 01 30.0000000  0 15G04G16G18G19G21G22G27R01R08R13R14R15
                                R17R23R24
  23598340.880   124010163.05508  23598341.200    96631317.26045
  20607694.480   108294202.97009  20607691.760    84385102.10148
  21879749.960   114979111.26909  21879746.860    89594205.25347
  22219680.820   116765250.52709  22219676.900    90985907.66348
  23877546.140   125477740.00508  23877543.040    97775031.44646
  20922991.680   109951133.37909  20922987.160    85676217.25648
  20765407.600   109123014.58909  20765407.140    85030938.45649
  20891305.500   111676087.01209  20891310.620    86859200.93107
  21060984.380   112780693.47908  21060984.800    87718345.49908
  23080798.800   123250177.81906  23080804.900    95861264.30207
  21163998.300   112816046.51407  21164004.340    87745834.87006
  22583237.180   120677977.43008  22583240.560    93860662.99606
  23325876.300   124821483.69407  23325878.000    97083381.97706
  21123716.400   112997881.51809  21123720.440    87887350.84906
  20382727.740   108995691.93208  20382728.000    84774470.50807
 15 03 26 00 02  0.0000000  0 15G04G16G18G19G21G22G27R01R08R13R14R15
                                R17R23R24
  23581571.760   123922040.88108  23581572.020    96562650.75446
  20612974.600   108321949.77009  20612971.840    84406722.97648
  21886349.840   115013793.48109  21886346.560    89621230.36047
  22207236.480   116699854.99009  22207232.580    90934950.14048
  23891233.500   125549667.31808  23891230.420    97831078.67645
  20916854.740   109918883.45509  20916850.160    85651087.47648
  20758830.780   109088453.22209  20758830.340    85004007.52949
  20874677.240   111587199.65009  20874682.360    86790066.36507
  21065849.120   112806744.23308  21065849.620    87738607.21108
  23103851.640   123373277.54806  23103857.840    95957008.22407
  21173630.320   112867390.90707  21173636.500    87785769.36707
  22574310.220   120630275.41108  22574314.040    93823561.48607
  23312092.140   124747721.30707  23312093.880    97026011.28207
  21131920.360   113041766.90209  21131924.460    87921483.90706
  20378122.880   108971067.16508  20378123.020    84755317.92307
 15 03 26 00 02 30.0000000  0 15G04G16G18G19G21G22G27R01R08R13R14R15
                                R17R23R24
  23564839.280   123834111.31608  23564839.400    96494134.34045
  20618361.260   108350256.54709  20618358.480    84428780.19348
  21893037.500   115048937.09809  21893034.100    89648614.99847
  22194816.120   116634585.23909  22194812.180    90884090.62748
  23904923.100   125621606.31508  23904919.900    97887135.03345
  20910814.860   109887143.77909  20910810.260    85626355.28748
  20752297.400   109054120.05509  20752296.960    84977254.42149
  20858151.580   111498860.76409  20858156.700    86721358.40107
  21070861.060   112833583.29408  21070861.620    87759482.05108
  23126921.320   123496467.02206  23126927.580    96052821.93207
  21183394.680   112919440.78407  21183400.980    87826252.56906
  22565518.740   120583296.29307  22565522.440    93787022.13806
  23298307.000   124673954.28707  23298308.880    96968637.07406
  21140152.520   113085802.97309  21140156.680    87955734.17906
  20373547.100   108946598.36508  20373547.220    84736286.64607
 15 03 26 00 03  0.0000000  0 15G04G16G18G19G21G22G27R01R08R13R14R15
                                R17R23R24
  23548143.400   123746374.27908  23548143.520    96425767.95545
  20623854.160   108379121.73409  20623851.320    84451272.53448
  21899812.560   115084540.19509  21899809.160    89676357.67747
  22182419.700   116569441.38409  22182415.640    90833329.20648
  23918614.520   125693555.43108  23918611.460    97943199.22045
  20904872.060   109855914.43309  20904867.480    85602020.75448
  20745807.540   109020015.49709  20745807.080    84950679.44249
  20841729.140   111411073.59209  20841734.200    86653079.53607
  21076019.780   112861209.01208  21076020.560    87780968.72908
  23150006.820   123619741.08405  23150013.220    96148701.41507
  21193290.580   112972191.82507  21193297.000    87867281.12106
  22556862.540   120537041.34707  22556866.460    93751046.11106
  23284520.900   124600181.43607  23284522.380    96911258.19006
  21148412.860   113129989.92309  21148416.960    87990101.79006
  20369000.420   108922285.29308  20369000.520    84717376.48807
 15 03 26 00 03 30.0000000  0 15G04G16G18G19G21G22G27R01R08R13R14R15
                                R17R23R24
  23531484.020   123658829.08508  23531484.180    96357551.05445
  20629452.920   108408543.42209  20629450.080    84474198.50848
  21906674.580   115120600.36109  21906671.180    89704456.51047
  22170047.200   116504423.23409  22170043.040    90782665.73548
  23932307.540   125765512.70508  23932304.320    97999269.79345
  20899026.300   109825195.09309  20899021.800    85578083.63148
  20739361.240   108986139.57309  20739360.720    84924282.62049
  20825410.400   111323840.90809  20825415.420    86585231.94907
  21081325.040   112889619.13808  21081325.940    87803065.50808
  23173106.960   123743094.12106  23173113.620    96244642.30307
  21203317.260   113025639.97807  21203323.840    87908851.86306
  22548342.340   120491511.89308  22548346.380    93715634.28906
  23270733.480   124526401.59907  23270734.960    96853873.90406
  21156701.180   113174326.64009  21156705.320    88024585.88206
  20364482.700   108898127.06208  20364482.740    84698586.75407
 15 03 26 00 04  0.0000000  0 15G04G16G18G19G21G22G27R01R08R13R14R15
                                R17R23R24
  23514861.360   123571476.86408  23514861.440    96289484.50345
  20635157.540   108438521.54209  20635154.720    84497558.07648
  21913623.360   115157116.56809  21913620.020    89732910.70147
  22157698.860   116439532.10409  22157694.640    90732101.24548
  23946002.080   125837477.71708  23945998.960    98055346.40145
  20893277.840   109794987.13609  20893273.400    85554544.99848
  20732958.720   108952493.83009  20732958.160    84898065.16649
  20809196.300   111237167.54309  20809201.320    86517819.39407
  21086776.660   112918812.77808  21086777.620    87825771.67508
  23196221.220   123866522.22206  23196228.060    96340641.54607
  21213474.140   113079782.22407  21213480.820    87950962.47207
  22539957.860   120446708.85107  22539961.860    93680787.50306
  23256944.320   124452614.43707  23256945.980    96796484.00706
  21165017.680   113218814.04009  21165021.800    88059187.18906
  20359994.020   108874124.39908  20359994.100    84679918.02507
 15 03 26 00 04 30.0000000  0 15G04G16G18G19G21G22G27R01R08R13R14R15
                                R17R23R24
  23498275.900   123484320.45008  23498276.040    96221570.56245
  20640968.320   108469057.65709  20640965.540    84521352.43548
  21920659.000   115194089.39409  21920655.720    89761720.70047
  22145375.180   116374770.64209  22145370.900    90681637.79348
  23959698.360   125909452.35408  23959695.200    98111430.49945
  20887627.320   109765293.91809  20887622.940    85531407.44448
  20726600.680   108919081.75209  20726600.060    84872029.78149
  20793087.900   111151059.53108  20793092.960    86450846.55407
  21092374.880   112948791.13708  21092375.880    87849088.19108
  23219349.180   123990023.19605  23219356.200    96436697.46907
  21223761.120   113134617.57307  21223767.760    87993612.15906
  22531710.600   120402637.43008  22531714.380    93646509.70406
  23243154.560   124378822.31908  23243156.220    96739090.12106
  21173362.880   113263454.99209  21173366.960    88093907.90406
  20355535.000   108850280.17308  20355535.080    84661372.51807
 15 03 26 00 05  0.0000000  0 15G04G16G18G19G21G22G27R01R08R13R14R15
                                R17R23R24
  23481727.240   123397357.39908  23481727.380    96153807.28045
  20646884.560   108500148.00709  20646881.820    84545578.67048
  21927780.880   115231515.25809  21927777.640    89790883.72547
  22133075.840   116310137.16609  22133071.480    90631274.07048
  23973395.680   125981432.24608  23973392.740    98167518.68745
  20882074.300   109736113.22709  20882069.960    85508669.27648
  20720286.760   108885901.49509  20720286.080    84846175.03949
  20777085.420   111065517.64909  20777090.500    86384314.04207
  21098118.860   112979549.69608  21098119.740    87873011.52508
  23242489.500   124113589.15806  23242496.480    96532803.95907
  21234176.860   113190139.05107  21234183.520    88036795.50807
  22523599.820   120359295.60807  22523603.720    93612799.43006
  23229363.140   124305021.67707  23229365.000    96681689.73807
  21181736.240   113308246.59409  21181740.360    88128745.80706
  20351105.080   108826591.70508  20351105.200    84642948.16407
 15 03 26 00 05 30.0000000  0 15G04G16G18G19G21G22G27R01R08R13R14R15
                                R17R23R24
  23465216.300   123310592.51208  23465216.460    96086198.39846
  20652906.860   108531795.95109  20652904.220    84570239.38748
  21934989.500   115269397.11409  21934986.340    89820402.05047
  22120801.680   116245636.29009  22120797.360    90581013.67448
  23987094.660   126053420.89008  23987091.840    98223613.68845
  20876619.740   109707450.04309  20876615.480    85486334.35648
  20714017.940   108852958.36109  20714017.240    84820505.06649
  20761190.460   110980550.35309  20761195.540    86318228.42907
  21104009.140   113011091.73408  21104010.020    87897544.21908
  23265641.880   124237219.93706  23265648.900    96628960.80307
  21244721.660   113246348.20407  21244728.280    88080513.70106
  22515626.440   120316688.66008  22515630.180    93579660.67906
  23215570.920   124231216.69008  23215572.720    96624285.92806
  21190138.600   113353193.68009  21190142.840    88163704.62506
  20346705.160   108803063.72508  20346705.280    84624648.61707
 15 03 26 00 06  0.0000000  0 15G04G16G18G19G21G22G27R01R08R13R14R15
                                R17R23R24
  23448742.200   123224021.29108  23448742.440    96018740.44845
  20659034.180   108563995.50909  20659031.620    84595329.93648
  21942283.540   115307727.81309  21942280.400    89850270.13747
  22108551.920   116181263.83209  22108547.660    90530853.34548
  24000794.240   126125412.64008  24000791.420    98279711.13345
  20871262.840   109679300.00009  20871258.660    85464399.28948
  20707793.480   108820248.38509  20707792.760    84795016.78149
  20745402.820   110896156.42809  20745407.880    86252588.77607
  21110044.500   113043410.29008  21110045.300    87922680.88008
  23288804.680   124360906.04206  23288811.680    96725160.69607
  21255393.840   113303236.07607  21255400.380    88124759.79906
  22507790.060   120274812.98508  22507793.780    93547090.71307
  23201776.800   124157401.75707  23201778.120    96566874.31606
  21198569.180   113398291.21909  21198573.360    88198780.46906
  20342334.300   108779691.12708  20342334.400    84606469.94107
 15 03 26 00 06 30.0000000  0 15G04G16G18G19G21G22G27R01R08R13R14R15
                                R17R23R24
  23432305.800   123137648.11508  23432306.140    95951436.82545
  20665267.140   108596749.89809  20665264.620    84620852.82748
  21949663.500   115346510.09809  21949660.420    89880490.10647
  22096327.440   116117024.31109  22096323.300    90480796.60648
  24014494.960   126197410.42808  24014492.060    98335813.26045
  20866004.620   109651668.21409  20866000.520    85442868.05648
  20701614.280   108787776.68009  20701613.600    84769714.16249
  20729724.020   110812344.04509  20729729.040    86187401.43407
  21116225.340   113076508.15908  21116226.040    87948423.67908
  23311977.720   124484646.93506  23311984.800    96821403.16807
  21266193.400   113360803.25607  21266199.880    88169534.24506
  22500091.520   120233674.56807  22500095.560    93515094.18407
  23187981.460   124083580.85508  23187982.720    96509458.15106
  21207028.760   113443543.94109  21207032.800    88233977.02106
  20337993.380   108756478.47508  20337993.500    84588415.65807
 15 03 26 00 07  0.0000000  0 15G04G16G18G19G21G22G27R01R08R13R14R15
                                R17R23R24
  23415906.620   123051470.19408  23415906.860    95884285.32646
  20671604.900   108630054.92809  20671602.380    84646804.78248
  21957128.480   115385739.34209  21957125.520    89911058.35547
  22084127.820   116052915.50609  22084123.780    90430841.71148
  24028196.020   126269410.11808  24028193.280    98391916.88846
  20860844.500   109624551.60609  20860840.420    85421738.26448
  20695479.980   108755541.05509  20695479.400    84744595.49349
  20714154.080   110729113.62209  20714159.000    86122666.72207
  21122550.780   113110380.27108  21122551.340    87974768.65108
  23335159.680   124608435.08406  23335166.760    96917682.38507
  21277119.020   113419042.45207  21277125.460    88214831.36006
  22492530.740   120193271.61908  22492534.580    93483669.63706
  23174184.400   124009750.21707  23174185.760    96452034.35206
  21215516.720   113488948.57909  21215520.740    88269291.71206
  20333681.880   108733422.84308  20333682.020    84570483.50207
 15 03 26 00 07 30.0000000  0 15G04G16G18G19G21G22G27R01R08R13R14R15
                                R17R23R24
  23399545.240   122965490.85408  23399545.320    95817288.57246
  20678047.840   108663912.59609  20678045.300    84673187.36048
  21964678.720   115425416.65209  21964675.820    89941975.73947
  22071953.740   115988940.89009  22071949.820    90380991.39148
  24041897.880   126341413.66108  24041895.400    98448023.49146
  20855783.180   109597953.82509  20855779.000    85401012.74448
  20689391.280   108723545.26209  20689390.800    84719663.71149
  20698694.140   110646471.17909  20698698.920    86058389.32707
  21129021.040   113145028.05908  21129021.520    88001716.93908
  23358350.040   124732268.36106  23358357.140    97013996.68507
  21288170.500   113477952.75607  21288176.920    88260650.45207
  22485108.080   120153607.51907  22485112.040    93452819.80307
  23160385.840   123935912.06808  23160387.280    96394604.75806
  21224033.680   113534508.47609  21224037.720    88304727.16606
  20329400.360   108710527.36908  20329400.500    84552675.91107
 15 03 26 00 08  0.0000000  0 15G04G16G18G19G21G22G27R01R08R13R14R15
                                R17R23R24
  23383221.800   122879710.73708  23383221.720    95750447.04845
  20684595.840   108698322.25809  20684593.260    84700000.06748
  21972314.120   115465541.23109  21972311.300    89973241.64447
  22059805.460   115925101.75509  22059801.620    90331246.62648
  24055600.340   126413420.56308  24055597.900    98504132.73746
  20850820.840   109571876.06609  20850816.520    85380692.44448
  20683348.540   108691790.92709  20683348.120    84694920.07549
  20683345.060   110564421.56809  20683349.780    85994573.03007
  21135635.920   113180450.30408  21135636.380    88029267.58308
  23381548.040   124856142.69406  23381555.300    97110342.90207
  21299347.300   113537531.26107  21299353.700    88306989.25906
  22477824.280   120114684.59008  22477828.320    93422546.40507
  23146586.040   123862066.74407  23146587.400    96337169.53006
  21232579.840   113580224.36409  21232583.900    88340283.94606
  20325148.960   108687792.93108  20325149.060    84534993.57307
 15 03 26 00 08 30.0000000  0 15G04G16G18G19G21G22G27R01R08R13R14R15
                                R17R23R24
  23366936.060   122794128.66608  23366935.820    95683759.83346
  20691248.320   108733280.96909  20691245.680    84727240.60749
  21980034.000   115506109.68409  21980031.220    90004853.42647
  22047682.820   115861396.93109  22047678.980    90281606.52648
  24069302.960   126485428.37808  24069300.640    98560242.67445
  20845957.200   109546316.82409  20845952.680    85360776.17648
  20677351.600   108660277.22509  20677351.220    84670363.94849
  20668107.200   110482966.49309  20668111.880    85931219.14907
  21142394.700   113216643.38208  21142395.120    88057417.75408
  23404752.480   124980051.89906  23404759.900    97206716.24907
  21310648.340   113597772.42507  21310654.780    88353843.46406
  22470679.120   120076502.33508  22470682.840    93392849.08906
  23132784.440   123788212.17507  23132786.020    96279727.19406
  21241154.840   113626094.93409  21241158.880    88375961.03206
  20320927.340   108665217.80508  20320927.420    84517435.14307
 15 03 26 00 09  0.0000000  0 15G04G16G18G19G21G22G27R01R08R13R14R15
                                R17R23R24
  23350688.500   122708747.55908  23350688.180    95617229.21645
  20698005.660   108768790.52809  20698002.900    84754910.37748
  21987838.560   115547122.99209  21987835.720    90036811.85447
  22035586.320   115797829.66009  22035582.520    90232073.60848
  24083006.040   126557438.68608  24083003.480    98616354.58445
  20841192.840   109521279.42309  20841188.180    85341266.53948
  20671401.200   108629007.90109  20671400.840    84645998.24149
  20652981.720   110402112.19509  20652986.320    85868332.53706
  21149297.660   113253608.43308  21149297.920    88086168.36208
  23427963.140   125103993.72106  23427970.740    97303114.93707
  21322073.400   113658674.87407  21322079.920    88401211.99806
  22463673.120   120039063.95708  22463676.820    93363730.36907
  23118981.540   123714350.62007  23118982.980    96222279.32806
  21249759.180   113672122.54308  21249763.360    88411760.26406
  20316736.040   108642805.05908  20316736.200    84500003.01307
 15 03 26 00 09 30.0000000  0 15G04G16G18G19G21G22G27R01R08R13R14R15
                                R17R23R24
  23334478.800   122623565.45708  23334478.420    95550853.66146
  20704867.100   108804847.04809  20704864.260    84783006.35448
  21995726.960   115588576.69309  21995724.060    90069113.44647
  22023515.720   115734398.17309  22023511.900    90182646.48848
  24096709.000   126629448.10908  24096706.500    98672465.77945
  20836527.400   109496761.92109  20836522.600    85322162.01948
  20665497.000   108597981.42309  20665496.720    84621821.76749
  20637968.840   110321860.00909  20637973.360    85805914.23307
  21156343.900   113291340.80308  21156344.080    88115515.76708
  23451178.660   125227961.58305  23451186.380    97399533.86607
  21333621.340   113720232.46607  21333627.980    88449090.08106
  22456806.340   120002368.86807  22456810.220    93335189.73007
  23105176.780   123640479.01007  23105178.360    96164823.70506
  21258392.520   113718305.36608  21258396.840    88447680.21206
  20312574.720   108620552.80908  20312574.900    84482695.71007
 15 03 26 00 10  0.0000000  0 15G04G16G18G19G21G22G27R01R08R13R14R15
                                R17R23R24
  23318307.540   122538585.17508  23318307.080    95484635.35446
  20711832.960   108841452.19009  20711829.960    84811529.82148
  22003699.380   115630472.25309  22003696.540    90101759.33247
  22011471.660   115671106.10809  22011467.760    90133328.01048
  24110412.200   126701458.43508  24110409.640    98728577.69546
  20831961.440   109472767.54209  20831956.600    85303465.12348
  20659639.740   108567201.38009  20659639.460    84597837.31949
  20623069.740   110242215.89309  20623074.220    85743968.85907
  21163533.560   113329841.48308  21163533.780    88145460.73608
  23474398.700   125351953.40605  23474406.700    97495971.37307
  21345291.940   113782443.42207  21345298.500    88497476.35106
  22450079.080   119966420.44108  22450082.800    93307229.85307
  23091370.500   123566599.58507  23091372.140    96107362.00006
  21267055.380   113764646.34508  21267059.920    88483723.15806
  20308443.900   108598463.60208  20308444.140    84465515.21407
 15 03 26 00 10 30.0000000  0 15G04G16G18G19G21G22G27R01R08R13R14R15
                                R17R23R24
  23302174.700   122453806.93908  23302174.240    95418574.51346
  20718902.920   108878604.62609  20718899.840    84840479.74948
  22011755.560   115672807.58109  22011752.780    90134747.89947
  21999454.260   115607953.84609  21999450.240    90084118.46948
  24124115.340   126773468.85308  24124113.000    98784689.64446
  20827495.120   109449296.85909  20827490.280    85285176.30748
  20653829.560   108536668.80109  20653829.280    84574045.70049
  20608285.020   110163183.59409  20608289.580    85682499.35407
  21170866.340   113369108.42608  21170866.620    88176001.70008
  23497622.420   125475964.54506  23497630.620    97592423.89007
  21357084.520   113845304.50607  21357091.040    88546368.26706
  22443491.840   119931219.48208  22443495.320    93279851.30907
  23077562.760   123492712.22107  23077564.540    96049894.08606
  21275747.820   113811145.44408  21275752.420    88519889.09706
  20304343.660   108576537.87008  20304343.900    84448461.87307
 15 03 26 00 11  0.0000000  0 15G04G16G18G19G21G22G27R01R08R13R14R15
                                R17R23R24
  23286080.240   122369230.75608  23286079.780    95352671.10046
  20726076.700   108916302.75009  20726073.580    84869854.90048
  22019895.180   115715581.01609  22019892.320    90168077.85147
  21987463.500   115544941.48309  21987459.380    90035017.94148
  24137818.280   126845477.76608  24137815.740    98840800.45645
  20823128.340   109426349.35109  20823123.500    85267295.15948
  20648066.540   108506384.23709  20648066.300    84550447.34449
  20593615.320   110084766.25309  20593619.960    85621508.14407
  21178341.840   113409139.44208  21178342.160    88207136.93708
  23520848.820   125599989.90305  23520857.100    97688887.47907
  21368998.200   113908810.98107  21369004.740    88595762.15606
  22437044.300   119896766.26407  22437047.960    93253054.38607
  23063753.400   123418815.87307  23063755.100    95992419.18406
  21284469.920   113857802.82709  21284474.500    88556178.15006
  20300273.960   108554775.57408  20300274.240    84431535.64107
 15 03 26 00 11 30.0000000  0 16G04G16G18G19G21G22G27R01R02R08R13R14
                                R15R17R23R24
  23270023.880   122284855.09708  23270023.420    95286923.93045
  20733353.760   108954543.77809  20733350.620    84899653.08748
  22028117.380   115758788.32509  22028114.380    90201745.87747
  21975499.080   115482067.93409  21975494.920    89986025.58048
  24151520.440   126917482.52008  24151517.720    98896908.05946
  20818860.880   109403923.79209  20818856.080    85249820.72448
  20642350.560   108476346.81709  20642350.320    84527041.56049
  20579061.020   110006965.61109  20579065.680    85560996.58807
  23550369.260   125669291.92308  23550380.760    97742807.86407
  21185959.260   113449930.35408  21185959.600    88238863.20408
  23544076.740   125724023.41105  23544085.080    97785357.38006
  21381031.800   113972956.57107  21381038.340    88645653.13606
  22430736.540   119863060.39208  22430740.260    93226838.68907
  23049942.040   123344908.23607  23049943.880    95934935.52906
  21293221.200   113904616.42908  21293225.820    88592588.69806
  20296234.540   108533175.09808  20296234.880    84414735.27807
 15 03 26 00 12  0.0000000  0 16G04G16G18G19G21G22G27R01R02R08R13R14
                                R15R17R23R24
  23254006.780   122200685.68008  23254006.440    95221337.46146
  20740734.920   108993332.03509  20740731.800    84929877.68948
  22036422.900   115802433.67209  22036419.820    90235755.23747
  21963562.280   115419339.66309  21963558.060    89937146.42048
  24165222.700   126989488.01408  24165219.940    98953016.20345
  20814693.920   109382026.35909  20814689.180    85232757.81448
  20636682.920   108446563.25709  20636682.680    84503833.59549
  20564623.820   109929790.78409  20564628.440    85500971.77607
  23525442.780   125536279.89808  23525454.240    97639354.97407
  21193719.240   113491485.26708  21193719.740    88271183.70008
  23567306.260   125848065.72605  23567314.740    97881834.11006
  21393185.780   114037743.55107  21393192.220    88696042.97106
  22424570.020   119830108.43508  22424573.820    93201209.36807
  23036129.380   123270994.94307  23036131.260    95877447.48106
  21302002.860   113951592.76908  21302007.700    88629125.82206
  20292226.560   108511742.76108  20292226.860    84398065.68307
 15 03 26 00 12 30.0000000  0 16G04G16G18G19G21G22G27R01R02R08R13R14
                                R15R17R23R24
  23238028.400   122116719.30708  23238028.220    95155909.19246
  20748219.180   109032662.09209  20748216.100    84960524.47248
  22044810.780   115846511.79809  22044807.660    90270101.83147
  21951652.560   115356753.75709  21951648.320    89888378.18948
  24178924.000   127061489.14708  24178921.420    99009120.93345
  20810626.680   109360653.24709  20810622.040    85216103.47248
  20631063.080   108417030.61709  20631062.760    84480821.15149
  20550303.600   109853241.22509  20550308.120    85441433.27907
  23500514.540   125403260.31407  23500525.880    97535896.06705
  21201620.760   113533797.88808  21201621.320    88304093.51208
  23590536.000   125972108.84905  23590544.660    97978311.39306
  21405458.500   114103163.82507  21405464.920    88746925.36606
  22418543.660   119797906.46807  22418547.940    93176163.41907
  23022315.020   123197071.65907  23022316.900    95819951.62507
  21310814.280   113998727.90808  21310819.100    88665786.45906
  20288249.320   108490474.73808  20288249.620    84381523.88607
 15 03 26 00 13  0.0000000  0 16G04G16G18G19G21G22G27R01R02R08R13R14
                                R15R17R23R24
  23222089.080   122032958.28508  23222089.000    95090640.93946
  20755806.680   109072534.88109  20755803.640    84991594.16248
  22053280.980   115891022.84009  22053277.880    90304785.75747
  21939770.400   115294312.82109  21939766.160    89839722.92148
  24192624.760   127133487.36108  24192622.440    99065223.38245
  20806659.660   109339807.07809  20806655.200    85199859.73248
  20625491.620   108387752.08409  20625491.220    84458006.71649
  20536101.420   109777322.83209  20536105.900    85382385.69207
  23475585.920   125270239.31608  23475597.200    97432436.00505
  21209663.860   113576868.28008  21209664.460    88337592.71908
  23613765.460   126096150.26106  23613774.200    98074787.31806
  21417849.640   114169215.32907  21417856.120    88798298.70406
  22412658.440   119766458.40307  22412662.760    93151703.80707
  23008499.040   123123139.97207  23008500.920    95762449.26506
  21319655.820   114046024.19308  21319660.640    88702572.42906
  20284303.340   108469373.51008  20284303.560    84365111.82807
 15 03 26 00 13 30.0000000  0 16G04G16G18G19G21G22G27R01R02R08R13R14
                                R15R17R23R24
  23206188.480   121949400.64608  23206188.520    95025531.17346
  20763496.820   109112947.04009  20763493.860    85023084.13448
  22061832.800   115935963.05209  22061829.640    90339804.10047
  21927915.580   115232015.42709  21927911.340    89791179.51148
  24206324.440   127205479.25808  24206321.900    99121320.96845
  20802792.560   109319485.86409  20802788.240    85184025.04948
  20619968.320   108358726.49009  20619967.820    84435389.36749
  20522017.520   109702036.55609  20522022.040    85323829.74707
  23450657.580   125137218.52608  23450668.320    97328975.76604
  21217847.640   113620692.19308  21217848.360    88371677.97808
  23636993.420   126220183.11005  23637002.240    98171256.57406
  21430358.020   114235891.91307  21430364.560    88850158.23006
  22406913.980   119735762.92707  22406918.380    93127829.53907
  22994681.180   123049197.57107  22994683.000    95704938.52006
  21328527.200   114093480.04608  21328532.000    88739482.50106
  20280388.200   108448437.23508  20280388.380    84348828.05807
 15 03 26 00 14  0.0000000  0 16G04G16G18G19G21G22G27R01R02R08R13R14
                                R15R17R23R24
  23190327.100   121866048.66308  23190327.100    94960581.65346
  20771289.660   109153899.06609  20771286.820    85054994.78448
  22070466.180   115981331.93009  22070463.060    90375156.47347
  21916088.580   115169864.26109  21916084.360    89742750.04048
  24220023.260   127277466.80908  24220020.740    99177415.13145
  20799025.880   109299692.16609  20799021.620    85168601.40848
  20614493.700   108329956.85509  20614493.140    84412971.47849
  20508052.940   109627388.02509  20508057.400    85265769.82007
  23425730.180   125004203.62508  23425740.500    97225520.24606
  21226172.140   113665269.37308  21226172.960    88406349.11008
  23660219.340   126344205.17505  23660228.340    98267717.41206
  21442983.180   114303191.21607  21442989.800    88902502.07206
  22401311.040   119705822.48208  22401315.720    93104542.54307
  22980861.600   122975246.20407  22980863.540    95647420.86107
  21337428.840   114141097.39808  21337433.580    88776518.19006
  20276504.440   108427668.72108  20276504.540    84332674.77107
 15 03 26 00 14 30.0000000  0 16G04G16G18G19G21G22G27R01R02R08R13R14
                                R15R17R23R24
  23174505.020   121782903.22408  23174504.920    94895793.07146
  20779185.140   109195390.34009  20779182.360    85087325.63348
  22079181.120   116027129.19409  22079178.000    90410842.66047
  21904289.720   115107860.97009  21904285.520    89694435.80948
  24233720.980   127349449.41008  24233718.520    99233505.44945
  20795359.680   109280426.29909  20795355.420    85153589.07848
  20609068.060   108301444.63009  20609067.400    84390754.17049
  20494208.320   109553380.94709  20494212.820    85208208.81107
  23400804.780   124871198.85109  23400814.840    97122072.51908
  21234637.080   113710598.02208  21234637.840    88441604.74208
  23683442.540   126468212.32305  23683451.500    98364166.71706
  21455724.660   114371110.09607  21455731.240    88955327.83606
  22395849.640   119676637.89308  22395854.320    93081843.41607
  22967040.320   122901285.68107  22967042.220    95589896.04107
  21346360.880   114188877.35609  21346365.640    88813680.36106
  20272652.100   108407068.24408  20272652.100    84316652.17807
 15 03 26 00 15  0.0000000  0  7G04G16G18G19G21G22G27
  23158722.260   121699964.28608  23158721.900    94831165.38546
  20787182.920   109237419.14209  20787180.220    85120075.32648
  22087977.080   116073352.37509  22087973.960    90446860.72047
  21892518.940   115046005.48809  21892514.760    89646236.75048
  24247417.520   127421425.35808  24247415.360    99289590.56645
  20791794.040   109261688.90609  20791789.760    85138988.53548
  20603691.580   108273190.59509  20603690.820    84368738.03549
 15 03 26 00 15 30.0000000  0  7G04G16G18G19G21G22G27
  23142979.160   121617234.03208  23142978.860    94766700.31546
  20795283.100   109279985.96709  20795280.500    85153244.27048
  22096854.000   116120001.66409  22096851.040    90483210.81747
  21880776.860   114984300.80609  21880772.720    89598155.19748
  24261113.140   127493396.02208  24261111.100    99345671.54045
  20788329.320   109243481.90809  20788325.000    85124801.29148
  20598364.780   108245197.77309  20598363.980    84346925.45549
 15 03 26 00 16  0.0000000  0  7G04G16G18G19G21G22G27
  23127274.860   121534707.83008  23127274.720    94702394.23546
  20803484.560   109323084.88509  20803482.000    85186827.82048
  22105810.800   116167070.37809  22105807.900    90519887.73947
  21869062.700   114922742.68209  21869058.560    89550187.84048
  24274806.840   127565356.22008  24274804.580    99401744.42845
  20784964.660   109225800.67309  20784960.280    85111023.72448
  20593086.960   108217462.45009  20593086.120    84325313.51349
 15 03 26 00 16 30.0000000  0  7G04G16G18G19G21G22G27
  23111610.520   121452391.14208  23111610.300    94638251.37946
  20811787.840   109366719.01409  20811785.360    85220828.42348
  22114847.980   116214561.67109  22114845.200    90556893.94347
  21857377.560   114861336.95909  21857373.380    89502339.24948
  24288499.180   127637309.89808  24288496.980    99457812.14845
  20781701.000   109208649.90409  20781696.500    85097659.50448
  20587859.200   108189990.43009  20587858.360    84303906.75049
 15 03 26 00 17  0.0000000  0  7G04G16G18G19G21G22G27
  23095985.720   121370282.08708  23095985.340    94574270.32746
  20820192.340   109410885.21709  20820189.940    85255243.62448
  22123964.900   116262471.99509  22123962.180    90594226.65747
  21845721.260   114800082.71809  21845717.020    89454608.68248
  24302189.720   127709254.01807  24302187.260    99513872.51945
  20778538.060   109192028.39709  20778533.420    85084707.70048
  20582681.380   108162780.84209  20582680.560    84282704.47649
 15 03 26 00 17 30.0000000  0  7G04G16G18G19G21G22G27
  23080401.080   121288384.21508  23080400.660    94510453.83146
  20828698.420   109455585.22109  20828696.100    85290074.77848
  22133161.760   116310802.27209  22133159.060    90631886.62047
  21834094.500   114738983.66609  21834090.160    89406999.05348
  24315879.040   127781191.21308  24315876.500    99569927.44545
  20775476.400   109175939.31509  20775471.720    85072170.77148
  20577554.320   108135838.00409  20577553.540    84261710.06149
 15 03 26 00 18  0.0000000  0  7G04G16G18G19G21G22G27
  23064855.780   121206692.75508  23064855.260    94446798.17346
  20837304.820   109500812.26309  20837302.540    85325316.61148
  22142437.260   116359545.59009  22142434.600    90669868.43047
  21822496.500   114678035.56009  21822492.080    89359507.04148
  24329565.960   127853115.52008  24329563.380    99625972.33745
  20772515.160   109160377.88309  20772510.400    85060045.00148
  20572477.280   108109157.78009  20572476.480    84240920.27349
 15 03 26 00 18 30.0000000  0  7G04G16G18G19G21G22G27
  23049350.920   121125214.09408  23049350.480    94383308.34446
  20846012.480   109546571.19409  20846010.180    85360972.89648
  22151792.220   116408706.25509  22151789.440    90708175.44247
  21810928.580   114617245.63509  21810924.100    89312138.28148
  24343251.380   127925032.44908  24343248.660    99682011.46546
  20769655.360   109145349.44409  20769650.560    85048334.54648
  20567451.600   108082747.64209  20567450.820    84220340.94849
 15 03 26 00 19  0.0000000  0  7G04G16G18G19G21G22G27
  23033886.360   121043946.95508  23033885.880    94319983.33346
  20854820.760   109592858.75809  20854818.400    85397041.11148
  22161226.040   116458281.30909  22161223.220    90746805.35447
  21799390.520   114556612.70809  21799386.040    89264891.86448
  24356934.780   127996939.39007  24356932.160    99738042.78545
  20766897.020   109130854.00109  20766892.140    85037039.41548
  20562477.160   108056606.74209  20562476.420    84199971.42149
 15 03 26 00 19 30.0000000  0  7G04G16G18G19G21G22G27
  23018461.640   120962889.44908  23018461.140    94256821.67946
  20863729.040   109639671.58909  20863726.560    85433518.62748
  22170737.860   116508266.43109  22170735.020    90785754.80447
  21787882.120   114496135.69709  21787877.680    89217766.93748
  24370615.800   128068833.78808  24370613.000    99794064.36745
  20764239.600   109116888.92609  20764234.700    85026157.55448
  20557553.780   108030734.18409  20557553.060    84179810.98849
 15 03 26 00 20  0.0000000  0  7G04G16G18G19G21G22G27
  23003076.940   120882042.44608  23003076.380    94193824.04846
  20872737.040   109687008.40909  20872734.440    85470404.44348
  22180327.420   116558659.84309  22180324.460    90825022.39347
  21776403.660   114435816.05109  21776399.240    89170764.62848
  24384294.540   128140715.24508  24384291.580    99850075.91645
  20761683.220   109103455.04509  20761678.300    85015689.61848
  20552681.740   108005131.55109  20552681.080    84159860.89149
 15 03 26 00 20 30.0000000  0  8G04G16G18G19G21G22G27G32
  22987732.680   120801407.60308  22987732.060    94130991.73746
  20881844.780   109734869.43109  20881842.120    85507698.72548
  22189994.780   116609462.13409  22189991.800    90864608.59447
  21764955.640   114375656.45709  21764951.260    89123887.03748
  24397970.940   128212584.64508  24397968.080    99906078.02545
  20759228.060   109090553.08709  20759223.100    85005636.16048
  20547861.600   107979801.60809  20547861.000    84140123.27149
  24488475.640   128687810.45608  24488479.900   100276211.62244
 15 03 26 00 21  0.0000000  0  9G04G11G16G18G19G21G22G27G32
  22972428.320   120720982.88508  22972427.780    94068323.16946
  24656003.720   129568177.08107  24656003.220   100962218.31944
  20891051.420   109783250.28509  20891048.680    85545398.07848
  22199739.060   116660668.78909  22199736.100    90904509.87647
  21753537.700   114315655.00109  21753533.380    89077132.67048
  24411644.380   128284439.09607  24411641.700    99962068.41945
  20756873.820   109078181.67709  20756868.880    84995996.11948
  20543093.000   107954742.87709  20543092.520    84120596.99149
  24465830.620   128568812.30308  24465835.400   100183486.63244
 15 03 26 00 21 30.0000000  0  9G04G11G16G18G19G21G22G27G32
  22957165.780   120640777.92209  22957165.220    94005825.83046
  24638939.780   129478503.08508  24638938.980   100892342.61744
  20900358.500   109832159.12909  20900355.720    85583508.85548
  22209561.700   116712287.05809  22209558.780    90944731.90147
  21742151.820   114255822.07909  21742147.580    89030509.63248
  24425316.540   128356287.25008  24425313.940   100018053.96045
  20754622.280   109066349.94609  20754617.400    84986776.60548
  20538378.060   107929965.96209  20538377.640    84101290.30449
  24443191.920   128449847.83308  24443197.100   100090787.90244
 15 03 26 00 22  0.0000000  0  9G04G11G16G18G19G21G22G27G32
  22941943.400   120560783.95608  22941942.860    93943492.90646
  24621888.000   129388894.74807  24621887.000   100822518.12444
  20909763.980   109881585.24709  20909761.160    85622022.69448
  22219460.620   116764306.01609  22219457.700    90985266.15647
  21730796.560   114196149.79809  21730792.320    88984011.75548
  24438985.800   128428119.27808  24438983.260   100074026.91845
  20752471.700   109055048.85109  20752466.900    84977970.57948
  20533715.260   107905462.98809  20533714.880    84082197.07549
  24420558.440   128330910.60708  24420563.980    99998110.39044
 15 03 26 00 22 30.0000000  0  9G04G11G16G18G19G21G22G27G32
  22926761.420   120481002.37008  22926760.840    93881325.46346
  24604848.740   129299353.19308  24604847.680   100752745.67344
  20919267.820   109931528.42609  20919264.980    85660939.43948
  22229435.560   116816724.60609  22229432.640    91026111.81347
  21719472.180   114136639.95609  21719468.000    88937640.46348
  24452652.160   128499935.77508  24452649.000   100129987.85644
  20750422.220   109044279.07309  20750417.520    84969578.55948
  20529105.000   107881236.09209  20529104.660    84063318.97349
  24397930.720   128212004.17108  24397936.280    99905456.79845
 15 03 26 00 23  0.0000000  0  9G04G11G16G18G19G21G22G27G32
  22911620.320   120401435.50308  22911619.720    93819325.32346
  24587822.740   129209880.78507  24587821.660   100683027.06444
  20928870.080   109981988.82909  20928867.260    85700259.21148
  22239486.740   116869543.81309  22239483.840    91067269.62747
  21708179.260   114077295.55209  21708175.100    88891398.07348
  24466315.760   128571738.21508  24466312.400   100185937.78245
  20748474.320   109034043.21809  20748469.720    84961602.57848
  20524547.880   107857288.49109  20524547.600    84044658.50049
  24375309.840   128093133.09608  24375315.100    99812830.72144
 15 03 26 00 23 30.0000000  0  9G04G11G16G18G19G21G22G27G32
  22896520.580   120322086.45908  22896520.220    93757494.94846
  24570810.100   129120480.38307  24570809.000   100613364.62144
  20938570.980   110032967.72909  20938568.220    85739983.01748
  22249614.260   116922764.14609  22249611.340    91108740.01347
  21696918.600   114018120.54709  21696914.460    88845287.69248
  24479976.960   128643528.44707  24479973.680   100241878.19745
  20746628.560   109024343.87809  20746624.020    84954044.66948
  20520044.700   107833624.13109  20520044.420    84026218.73949
  24352696.620   127974302.64408  24352701.660    99720236.31445
 15 03 26 00 24  0.0000000  0  9G04G11G16G18G19G21G22G27G32
  22881461.460   120242950.44308  22881461.180    93695830.56046
  24553810.440   129031146.97108  24553809.220   100543754.19944
  20948369.240   110084458.40809  20948366.580    85780105.60348
  22259816.740   116976378.19609  22259813.860    91150517.19547
  21685689.360   113959110.65009  21685685.240    88799305.96448
  24493634.760   128715301.25408  24493631.720   100297804.97145
  20744884.000   109015176.20309  20744879.480    84946901.04748
  20515594.700   107810239.05709  20515594.400    84007996.60849
  24330090.680   127855510.39708  24330095.640    99627671.69445
 15 03 26 00 24 30.0000000  0  9G04G11G16G18G19G21G22G27G32
  22866443.460   120164030.91508  22866443.140    93634334.85646
  24536824.160   128941884.56507  24536823.220   100474199.29944
  20958265.140   110136462.19209  20958262.560    85820628.01648
  22270094.480   117030387.80009  22270091.620    91192602.59147
  21674492.400   113900270.16309  21674488.200    88753456.23848
  24507289.780   128787058.76308  24507286.720   100353719.89745
  20743241.200   109006543.10209  20743236.660    84940173.97248
  20511198.700   107787137.67209  20511198.340    83989995.52849
  24307493.040   127736762.09808  24307498.000    99535141.28945
 15 03 26 00 25  0.0000000  0  9G04G11G16G18G19G21G22G27G32
  22851466.540   120085326.86908  22851466.180    93573007.06046
  24519851.200   128852691.82108  24519849.900   100404698.49444
  20968258.160   110188976.31809  20968255.720    85861548.08848
  22280446.880   117084789.94309  22280444.040    91234993.85947
  21663327.640   113841598.89509  21663323.380    88707738.37148
  24520941.660   128858799.09708  24520938.440   100409621.44145
  20741699.860   108998443.29309  20741695.260    84933862.44448
  20506856.660   107764319.75909  20506856.220    83972215.33249
  24284903.940   127618058.75308  24284908.700    99442645.84245
 15 03 26 00 25 30.0000000  0  9G04G11G16G18G19G21G22G27G32
  22836530.840   120006839.78708  22836530.580    93511848.34546
  24502891.740   128763570.20007  24502890.520   100335253.16144
  20978348.260   110242000.62209  20978345.940    85902865.70748
  22290873.900   117139583.70609  22290870.940    91277690.29647
  21652195.420   113783098.70009  21652191.180    88662153.81448
  24534590.320   128930523.01607  24534586.860   100465510.16044
  20740260.180   108990877.82309  20740255.560    84927967.28548
  20502569.040   107741787.82709  20502568.520    83954657.98349
  24262324.240   127499404.34308  24262328.940    99350188.50545
 15 03 26 00 26  0.0000000  0  9G04G11G16G18G19G21G22G27G32
  22821636.680   119928570.70808  22821636.460    93450859.49146
  24485945.920   128674520.39007  24485945.120   100265863.81744
  20988535.240   110295533.66609  20988533.000    85944579.74848
  22301375.240   117194767.77709  22301372.060    91320690.87047
  21641096.180   113724771.56609  21641091.860    88616704.11348
  24548235.740   129002230.91807  24548232.180   100521386.44344
  20738922.340   108983847.37709  20738917.680    84922489.02848
  20498336.180   107719543.68809  20498335.600    83937324.89349
  24239754.460   127380802.16508  24239759.120    99257771.87945
 15 03 26 00 26 30.0000000  0  9G04G11G16G18G19G21G22G27G32
  22806783.860   119850519.03008  22806783.760    93390040.04946
  24469013.660   128585542.18706  24469012.640   100196530.21444
  20998818.540   110349572.69609  20998816.320    85986688.06148
  22311950.280   117250339.54809  22311946.960    91363993.53947
  21630029.880   113666617.59609  21630025.500    88571389.34048
  24561877.880   129073921.22608  24561874.520   100577248.98645
  20737686.060   108977350.51809  20737681.320    84917426.55748
  20494158.080   107697587.69209  20494157.460    83920216.32449
  24217194.980   127262253.88008  24217199.420    99165397.19645
 15 03 26 00 27  0.0000000  0  9G04G11G16G18G19G21G22G27G32
  22791972.140   119772683.15808  22791971.960    93329388.76346
  24452094.760   128496633.59507  24452094.040   100127250.89845
  21009197.560   110404114.40709  21009195.300    86029188.07548
  22322598.280   117306295.00609  22322594.860    91407595.18647
  21618996.400   113608635.79709  21618991.880    88526208.72148
  24575516.220   129145591.24908  24575513.080   100633095.69845
  20736551.000   108971385.59609  20736546.160    84912778.57648
  20490034.660   107675918.95809  20490034.000    83903331.59249
  24194645.900   127143760.12708  24194650.300    99073064.99945
 15 03 26 00 27 30.0000000  0  9G04G11G16G18G19G21G22G27G32
  22777202.180   119695066.22608  22777201.800    93268908.06346
  24435189.780   128407798.11907  24435189.340   100058028.57944
  21019672.440   110459159.67609  21019670.100    86072080.46848
  22333319.500   117362635.00009  22333316.000    91451496.47647
  21607996.440   113550830.41009  21607991.880    88481165.57948
  24589151.320   129217243.63108  24589148.120   100688928.71745
  20735517.740   108965955.77309  20735512.860    84908547.55948
  20485966.680   107654541.67909  20485966.020    83886673.97349
  24172108.260   127025326.37908  24172112.480    98980779.51445
 15 03 26 00 28  0.0000000  0  9G04G11G16G18G19G21G22G27G32
  22762473.780   119617667.78309  22762473.340    93208597.64146
  24418298.600   128319034.98408  24418297.800    99988862.51145
  21030242.760   110514706.51309  21030240.360    86115363.70148
  22344113.460   117419357.32509  22344109.900    91495695.68247
  21597030.080   113493201.61309  21597025.460    88436260.04348
  24602782.840   129288877.42908  24602779.740   100744747.20845
  20734585.980   108961059.63009  20734581.100    84904732.39948
  20481954.240   107633456.30109  20481953.600    83870243.81349
  24149582.420   126906954.49207  24149586.620    98888542.21146
 15 03 26 00 28 30.0000000  0  9G04G11G16G18G19G21G22G27G32
  22747787.200   119540489.20508  22747786.720    93148458.53946
  24401421.580   128230345.76107  24401420.900    99919754.09644
  21040908.360   110570754.09609  21040905.860    86159037.12248
  22354979.900   117476460.66909  22354976.280    91540191.79047
  21586097.680   113435751.63909  21586093.020    88391493.84048
  24616410.740   129360492.70607  24616407.740   100800551.28444
  20733756.000   108956698.26309  20733751.140    84901333.94848
  20477997.780   107612665.20009  20477997.160    83854042.95749
  24127069.100   126788648.24108  24127073.240    98796356.05445
 15 03 26 00 29  0.0000000  0  9G04G11G16G18G19G21G22G27G32
  22733142.440   119463530.70908  22733141.880    93088490.94946
  24384558.660   128141730.69408  24384557.900    99850703.46844
  21051668.900   110627300.54809  21051666.280    86203099.27448
  22365918.480   117533943.27909  22365914.940    91584983.42647
  21575199.480   113378481.21409  21575194.780    88346867.54948
  24630034.920   129432089.13808  24630031.780   100856340.66345
  20733027.740   108952871.29209  20733022.880    84898351.90948
  20474097.540   107592169.37109  20474096.920    83838072.18349
  24104568.740   126670410.12708  24104572.700    98704222.96446
 15 03 26 00 29 30.0000000  0  9G04G11G16G18G19G21G22G27G32
  22718539.240   119386790.30108  22718538.560    93028693.28846
  24367709.520   128053187.51607  24367708.700    99781708.80645
  21062523.480   110684341.29309  21062520.760    86247546.59048
  22376928.400   117591800.74609  22376924.900    91630067.15747
  21564335.220   113321389.37609  21564330.540    88302380.41748
  24643655.060   129503663.63008  24643651.840   100912113.00344
  20732400.700   108949576.11409  20732395.840    84895784.25648
  20470253.240   107571967.61209  20470252.680    83822330.55149
  24082081.380   126552240.37108  24082085.220    98612143.13245
 15 03 26 00 30  0.0000000  0  9G04G11G16G18G19G21G22G27G32
  22703978.320   119310272.52108  22703977.460    92969069.10346
  24350874.760   127964720.70508  24350874.140    99712773.72545
  21073472.720   110741879.41009  21073469.900    86292381.46548
  22388010.040   117650035.53909  22388006.640    91675444.90347
  21553505.980   113264481.65909  21553501.380    88258036.76048
  24657271.820   129575220.21008  24657268.740   100967871.35445
  20731875.620   108946816.70209  20731870.740    84893634.08048
  20466466.000   107552065.58409  20466465.440    83806822.47749
  24059608.400   126434145.99208  24059612.200    98520122.00546
 15 03 26 00 30 30.0000000  0  9G04G11G16G18G19G21G22G27G32
  22689458.700   119233971.89408  22689457.900    92909614.13046
  24334053.740   127876325.25608  24334053.000    99643894.16545
  21084515.080   110799907.22709  21084512.240    86337597.92648
  22399162.060   117708640.01709  22399158.680    91721110.73747
  21542710.820   113207753.29409  21542706.300    88213832.86148
  24670884.000   129646752.78307  24670881.160   101023610.99545
  20731451.440   108944587.64509  20731446.560    84891897.16848
  20462735.000   107532458.88609  20462734.400    83791544.53549
  24037149.240   126316124.00508  24037152.880    98428157.26445
 15 03 26 00 31  0.0000000  0  9G04G11G16G18G19G21G22G27G32
  22674981.580   119157894.89208  22674980.880    92850333.42446
  24317247.420   127788007.33808  24317246.680    99575075.03145
  21095651.420   110858429.03109  21095648.580    86383199.30748
  22410385.300   117767618.59409  22410381.900    91767068.06347
  21531951.160   113151211.45609  21531946.720    88169774.30048
  24684492.660   129718267.04207  24684490.240   101079336.35144
  20731129.200   108942894.28909  20731124.280    84890577.68648
  20459061.580   107513154.71609  20459060.920    83776502.31849
  24014705.460   126198183.01808  24014709.180    98336255.66645
 15 03 26 00 31 30.0000000  0  9G04G11G16G18G19G21G22G27G32
  22660546.600   119082038.95208  22660545.800    92791224.93046
  24300455.360   127699764.51008  24300454.460    99506314.41545
  21106880.840   110917439.90009  21106877.980    86429181.78448
  22421678.780   117826966.28209  22421675.380    91813313.02147
  21521226.660   113094854.35909  21521222.320    88125859.69648
  24698097.120   129789759.55607  24698094.960   101135044.69445
  20730908.360   108941733.93209  20730903.480    84889673.52948
  20455445.420   107494151.49109  20455444.760    83761694.61849
  23992277.140   126080323.03008  23992280.580    98244417.13045
 15 03 26 00 32  0.0000000  0  9G04G11G16G18G19G21G22G27G32
  22646153.620   119006403.64208  22646152.900    92732288.38446
  24283677.580   127611596.62508  24283676.480    99437612.21345
  21118202.860   110976937.47209  21118199.980    86475543.51048
  22433042.000   117886680.58209  22433038.640    91859843.63647
  21510537.560   113038683.09809  21510533.300    88082089.89948
  24711697.440   129861229.34907  24711695.140   101190735.43844
  20730788.720   108941105.49309  20730783.880    84889183.85848
  20451886.640   107475449.86009  20451885.980    83747121.92549
  23969864.600   125962545.98208  23969868.000    98152643.25545
 15 03 26 00 32 30.0000000  0  9G04G11G16G18G19G21G22G27G32
  22631802.800   118930989.60808  22631802.000    92673524.25046
  24266914.080   127523504.03007  24266913.040    99368968.69245
  21129617.240   111036920.41809  21129614.380    86522283.44148
  22444474.560   117946759.33009  22444471.220    91906658.23647
  21499884.080   112982698.72509  21499879.840    88038465.72248
  24725293.500   129932676.39908  24725290.960   101246408.44244
  20730770.220   108941008.67209  20730765.420    84889108.42348
  20448385.560   107457051.24509  20448384.820    83732785.33849
  23947468.460   125844854.82508  23947471.700    98060936.23746
 15 03 26 00 33  0.0000000  0  9G04G11G16G18G19G21G22G27G32
  22617494.520   118855799.24409  22617493.780    92614934.42646
  24250165.360   127435489.17507  24250164.140    99300385.73744
  21141123.900   111097388.41909  21141121.140    86569401.33948
  22455976.500   118007203.03909  22455973.440    91953757.22347
