     2.11           OBSERVATION DATA    M                   RINEX VERSION / TYPE
SPIDER V4,0,0,3554                      2015 03 27 00:22    PGM / RUN BY / DATE 
CBCK                                                        MARKER NAME         
CBCK                                                        MARKER NUMBER       
                                                            OBSERVER / AGENCY   
496514              LEICA GRX1200+GNSS  8.10/4.007          REC # / TYPE / VERS 
10301041            LEIAR25         NONE                    ANT # / TYPE        
  5163536.5817   764112.4203  3655122.7607                  APPROX POSITION XYZ 
        0.0720        0.0000        0.0000                  ANTENNA: DELTA H/E/N
     1     1                                                WAVELENGTH FACT L1/2
     4    C1    L1    P2    L2                              # / TYPES OF OBSERV 
    30.000                                                  INTERVAL            
  2015    03    26    00    00    0.0000000     GPS         TIME OF FIRST OBS   
  2015    03    26    23    59   30.0000000     GPS         TIME OF LAST OBS    
    16                                                      LEAP SECONDS        
    39                                                      # OF SATELLITES     
   G 1   808   808   808   808                              PRN / # OF OBS      
   G 2   937   922   931   922                              PRN / # OF OBS      
   G 3   858   857   857   857                              PRN / # OF OBS      
   G 4   844   844   844   844                              PRN / # OF OBS      
   G 5   713   709   711   708                              PRN / # OF OBS      
   G 6   843   838   842   838                              PRN / # OF OBS      
   G 7   681   681   681   681                              PRN / # OF OBS      
   G 9   817   817   816   816                              PRN / # OF OBS      
   G10   753   752   752   752                              PRN / # OF OBS      
   G11   769   769   769   769                              PRN / # OF OBS      
   G12   831   818   825   817                              PRN / # OF OBS      
   G13   757   756   756   756                              PRN / # OF OBS      
   G14   911   894   901   891                              PRN / # OF OBS      
   G15   658   658   658   658                              PRN / # OF OBS      
   G16   659   658   658   657                              PRN / # OF OBS      
   G17   939   939   937   937                              PRN / # OF OBS      
   G18   888   877   861   858                              PRN / # OF OBS      
   G19   755   754   754   754                              PRN / # OF OBS      
   G20   717   717   717   717                              PRN / # OF OBS      
   G21   708   703   702   699                              PRN / # OF OBS      
   G22   664   651   640   636                              PRN / # OF OBS      
   G23   763   763   763   763                              PRN / # OF OBS      
   G24   789   769   780   768                              PRN / # OF OBS      
   G25   831   810   826   810                              PRN / # OF OBS      
   G27   801   799   799   799                              PRN / # OF OBS      
   G28   843   842   842   842                              PRN / # OF OBS      
   G29   740   722   735   722                              PRN / # OF OBS      
   G30   729   729   729   729                              PRN / # OF OBS      
   G31   833   815   821   809                              PRN / # OF OBS      
   G32   777   777   777   777                              PRN / # OF OBS      
   R 1    30    30    30    30                              PRN / # OF OBS      
   R 2    10    10     9     9                              PRN / # OF OBS      
   R 8    30    30    30    30                              PRN / # OF OBS      
   R13    28    28    28    28                              PRN / # OF OBS      
   R14    30    30    30    30                              PRN / # OF OBS      
   R15    30    30    30    30                              PRN / # OF OBS      
   R17    24    24    24    24                              PRN / # OF OBS      
   R23    30    30    30    30                              PRN / # OF OBS      
   R24    30    30    30    30                              PRN / # OF OBS      
BIT 2 OF LLI FLAGS DATA COLLECTED UNDER A/S CONDITION       COMMENT             
SNR is mapped to RINEX snr flag value [2-9]                 COMMENT             
Lx:     = 25dBHz -> 1; 26-27dBHz -> 2; 28-31dBHz -> 3       COMMENT             
       32-35dBHz -> 4; 36-38dBHz -> 5; 39-41dBHz -> 6       COMMENT             
       42-44dBHz -> 7; 45-48dBHz -> 8; >=49dBHz -> 9        COMMENT             
                                                            END OF HEADER       
 15 03 26 00 00  0.0000000  0 14G04G16G18G19G21G22G27R01R08R13R14R15
                                R23R24
  23926823.680   125736326.33808  23926825.300    97976373.70946
  20658087.440   108559018.59109  20658084.680    84591453.75549
  21669485.420   113874218.01409  21669482.880    88733277.85448
  22490581.200   118188831.48009  22490577.120    92095191.56948
  23623070.900   124140465.45308  23623068.180    96732989.50446
  20815896.200   109388379.10609  20815891.360    85237721.75948
  20873371.160   109690366.26909  20873370.520    85473030.81149
  20756064.340   110953163.48209  20756069.300    86296943.92807
  20847573.160   111637899.40408  20847573.660    86829524.13008
  23148574.000   123612081.69506  23148580.640    96142740.72806
  21400331.540   114075830.11808  21400337.640    88725673.73606
  22832749.400   122011291.52908  22832753.220    94897687.03106
  20912356.200   111867256.82709  20912360.200    87007978.40506
  20496653.640   109604900.96608  20496653.460    85248289.75007
 15 03 26 00 00 30.0000000  0 14G04G16G18G19G21G22G27R01R08R13R14R15
                                R23R24
  23910096.420   125648424.37708  23910097.820    97907878.89345
  20662699.920   108583257.36609  20662697.160    84610341.09848
  21675979.900   113908346.90309  21675977.400    88759871.79748
  22477199.640   118118511.16709  22477195.520    92040396.55347
  23636071.420   124208783.30308  23636068.740    96786224.15146
  20809463.840   109354577.26509  20809459.120    85211382.68648
  20865492.180   109648962.05809  20865491.520    85440767.79349
  20739283.120   110863458.10809  20739287.940    86227173.15807
  20852696.000   111665331.53008  20852696.320    86850860.24108
  23171117.680   123732462.06306  23171124.080    96236369.60706
  21409728.040   114125917.88108  21409734.200    88764630.84406
  22824168.060   121965435.07608  22824171.860    94862020.92606
  20919253.240   111904152.19309  20919257.500    87036674.78107
  20490519.740   109572100.18708  20490519.520    85222778.02707
 15 03 26 00 01  0.0000000  0 14G04G16G18G19G21G22G27R01R08R13R14R15
                                R23R24
  23893401.600   125560692.63208  23893402.760    97839516.74645
  20667421.040   108608067.40509  20667418.360    84629673.59648
  21682562.120   113942936.22409  21682559.560    88786824.52748
  22463838.700   118048298.67309  22463834.380    91985685.53547
  23649075.580   124277120.36708  23649072.960    96839473.80046
  20803128.220   109321284.33209  20803123.720    85185440.17848
  20857655.820   109607782.07309  20857655.180    85408679.51449
  20722606.120   110774309.83809  20722610.780    86157835.68707
  20857966.820   111693556.07608  20857967.000    86872812.67808
  23193677.720   123852929.73806  23193684.060    96330066.37506
  21419254.640   114176699.33207  21419260.860    88804127.49506
  22815721.160   121920297.12008  22815724.960    94826913.64506
  20926183.260   111941223.51309  20926187.700    87065508.01607
  20484412.600   109539442.34608  20484412.400    85197377.50107
 15 03 26 00 01 30.0000000  0 14G04G16G18G19G21G22G27R01R08R13R14R15
                                R23R24
  23876738.760   125473129.38408  23876739.720    97771285.85745
  20672250.280   108633445.76009  20672247.740    84649448.92249
  21689231.400   113977982.90409  21689228.720    88814133.63048
  22450497.860   117978192.50809  22450493.560    91931057.37148
  23662082.780   124345473.69108  23662080.160    96892736.10146
  20796889.100   109288498.66209  20796884.800    85159892.92748
  20849861.900   109566825.19409  20849861.380    85376765.07549
  20706033.580   110685720.37309  20706038.240    86088932.85107
  20863384.860   111722569.11008  20863385.040    86895378.37808
  23216252.800   123973477.55006  23216259.120    96423825.47906
  21428910.220   114228168.69008  21428916.400    88844159.17406
  22807408.480   121875876.38508  22807412.080    94792364.18406
  20933145.900   111978468.68509  20933150.200    87094476.46706
  20478331.840   109506925.53008  20478331.680    85172086.65607
 15 03 26 00 02  0.0000000  0 14G04G16G18G19G21G22G27R01R08R13R14R15
                                R23R24
  23860108.100   125385735.47208  23860108.920    97703186.91245
  20677187.620   108659392.13509  20677185.180    84669666.85848
  21695987.440   114013485.91909  21695984.660    88841798.32148
  22437177.460   117908194.33009  22437173.440    91876513.36748
  23675092.880   124413842.54808  23675090.260    96946010.51345
  20790746.860   109256221.55609  20790742.580    85134741.95648
  20842110.840   109526093.25909  20842110.460    85345025.91149
  20689566.340   110597694.09409  20689571.060    86020468.04207
  20868950.020   111752370.05108  20868950.200    86918556.89608
  23238842.140   124094101.72606  23238848.560    96517643.92506
  21438694.380   114280323.47307  21438700.440    88884723.97006
  22799230.360   121832174.74308  22799233.780    94758374.00606
  20940141.340   112015888.77809  20940145.440    87123580.96706
  20472277.640   109474550.80908  20472277.420    85146906.33107
 15 03 26 00 02 30.0000000  0 14G04G16G18G19G21G22G27R01R08R13R14R15
                                R23R24
  23843509.820   125298511.80008  23843510.560    97635220.59445
  20682233.120   108685906.54809  20682230.740    84690327.42348
  21702830.100   114049444.20609  21702827.300    88869817.77248
  22423877.780   117838305.03009  22423874.040    91822054.19548
  23688105.900   124482226.77408  23688103.300    96999296.88246
  20784701.700   109224454.37309  20784697.440    85109988.33248
  20834402.960   109485587.85809  20834402.620    85313463.26749
  20673205.280   110510235.50109  20673210.060    85952444.76307
  20874661.960   111782957.59708  20874662.240    86942347.20908
  23261444.840   124214797.85306  23261451.400    96611518.35207
  21448606.380   114333160.44807  21448612.520    88925819.35506
  22791187.060   121789194.08608  22791190.480    94724944.60606
  20947169.400   112053484.42209  20947173.540    87152821.99606
  20466250.200   109442319.10108  20466249.860    85121837.21807
 15 03 26 00 03  0.0000000  0 15G04G16G18G19G21G22G27R01R08R13R14R15
                                R17R23R24
  23826944.160   125211459.61708  23826944.880    97567387.90745
  20687386.760   108712988.94609  20687384.420    84711430.57248
  21709759.260   114085857.31309  21709756.540    88898191.62048
  22410599.200   117768526.38109  22410595.660    91767681.24448
  23701121.920   124550626.44708  23701119.360    97052595.30046
  20778753.900   109193198.64409  20778749.640    85085633.23848
  20826738.620   109445311.10109  20826738.220    85282078.77949
  20656951.320   110423349.25109  20656956.200    85884866.64307
  20880520.680   111814331.37908  20880521.160    86966749.04808
  23284060.260   124335562.19706  23284067.040    96705445.83407
  21458645.860   114386676.74707  21458652.120    88967443.10206
  22783279.120   121746937.13908  22783282.560    94692078.07906
  23589271.500   126230946.96007  23589273.340    98179635.87706
  20954230.580   112091257.55409  20954234.840    87182201.08006
  20460249.800   109410231.97408  20460249.400    85096880.56607
 15 03 26 00 03 30.0000000  0 15G04G16G18G19G21G22G27R01R08R13R14R15
                                R17R23R24
  23810410.620   125124576.11408  23810411.180    97499686.61545
  20692647.720   108740635.25209  20692645.320    84732973.13348
  21716774.120   114122720.60909  21716771.420    88926916.27448
  22397341.340   117698856.17909  22397337.860    91713392.79648
  23714140.220   124619037.67108  23714137.640    97105902.70846
  20772903.000   109162451.83609  20772898.640    85061674.70748
  20819117.360   109405261.08609  20819116.940    85250870.98849
  20640804.540   110337035.85409  20640809.440    85817734.07807
  20886525.340   111846486.72808  20886526.000    86991758.76808
  23306687.140   124456387.17906  23306694.160    96799420.43406
  21468811.680   114440866.03407  21468818.020    89009590.27806
  22775506.340   121705402.68108  22775509.980    94659773.49606
  23574991.700   126154534.40407  23574993.460    98120203.96806
  20961324.540   112129205.09809  20961328.780    87211715.81606
  20454275.880   109378286.58908  20454275.560    85072034.16207
 15 03 26 00 04  0.0000000  0 15G04G16G18G19G21G22G27R01R08R13R14R15
                                R17R23R24
  23793909.360   125037862.18508  23793909.600    97432117.46544
  20698015.920   108768845.24409  20698013.460    84754954.93348
  21723874.440   114160032.88009  21723871.680    88955990.77348
  22384104.500   117629295.74209  22384101.000    91659189.87048
  23727160.740   124687459.92008  23727157.940    97159218.73546
  20767149.180   109132215.09709  20767144.760    85038113.64348
  20811539.440   109365439.41509  20811539.060    85219841.12449
  20624765.760   110251299.93309  20624770.600    85751050.65907
  20892675.820   111879422.38408  20892676.440    87017375.39108
  23329324.620   124577268.67806  23329331.800    96893439.01506
  21479103.140   114495725.14007  21479109.400    89052258.44006
  22767869.020   121664591.49208  22767872.940    94628031.46106
  23560704.780   126078082.35407  23560706.200    98060741.32905
  20968451.340   112167328.07609  20968455.540    87241366.99407
  20448328.520   109346483.84008  20448328.380    85047298.70607
 15 03 26 00 04 30.0000000  0 15G04G16G18G19G21G22G27R01R08R13R14R15
                                R17R23R24
  23777441.040   124951321.33108  23777441.220    97364683.14445
  20703491.880   108797621.24009  20703489.360    84777377.77348
  21731060.520   114197795.42809  21731057.560    88985416.14148
  22370889.240   117559848.66709  22370885.660    91605075.28748
  23740183.840   124755896.05708  23740181.000    97212545.57546
  20761493.240   109102492.49309  20761488.760    85014953.19548
  20804005.740   109325850.52909  20804005.540    85188992.64849
  20608836.300   110166148.25509  20608841.100    85684821.63407
  20898972.420   111913140.08908  20898972.960    87043600.28108
  23351972.460   124698205.39306  23351979.740    96987500.51606
  21489520.160   114551253.77107  21489526.400    89095447.33206
  22760368.080   121624509.16008  22760372.240    94596856.32407
  23546410.960   126001593.79807  23546412.340    98001250.24606
  20975611.600   112205630.35809  20975615.860    87271157.63907
  20442408.560   109314827.66108  20442408.520    85022677.24207
 15 03 26 00 05  0.0000000  0 15G04G16G18G19G21G22G27R01R08R13R14R15
                                R17R23R24
  23761005.920   124864955.04308  23761006.200    97297384.82645
  20709075.560   108826963.42409  20709073.040    84800241.79449
  21738332.320   114236008.59809  21738329.220    89015192.63948
  22357696.000   117490517.37909  22357692.380    91551050.92648
  23753209.400   124824345.77708  23753206.620    97265882.97846
  20755935.440   109073285.71609  20755930.840    84992194.69148
  20796516.880   109286496.77209  20796516.840    85158327.38549
  20593017.020   110081585.51109  20593021.780    85619050.67507
  20905414.980   111947639.19908  20905415.380    87070432.92208
  23374629.880   124819193.52906  23374637.200    97081602.01706
  21500062.180   114607448.88607  21500068.440    89139154.59406
  22753004.020   121585157.60508  22753008.220    94566249.55706
  23532110.380   125925069.53807  23532111.840    97941731.43005
  20982805.720   112244113.29209  20982810.020    87301088.78307
  20436516.360   109283319.69508  20436516.340    84998171.04507
 15 03 26 00 05 30.0000000  0 15G04G16G18G19G21G22G27R01R08R13R14R15
                                R17R23R24
  23744603.720   124778761.92008  23744604.120    97230221.46445
  20714766.440   108856869.07209  20714763.900    84823544.88648
  21745689.180   114274669.19509  21745686.120    89045317.78648
  22344524.620   117421300.58709  22344520.880    91497115.78348
  23766237.160   124892806.69508  23766234.340    97319229.12546
  20750475.540   109044593.60009  20750470.840    84969837.23048
  20789072.760   109247377.57609  20789072.720    85127844.90749
  20577308.420   109997613.89709  20577313.060    85553739.48907
  20912002.860   111982916.52008  20912003.200    87097870.84308
  23397295.780   124940226.70206  23397303.200    97175738.51006
  21510728.300   114664305.85907  21510734.620    89183376.65506
  22745776.460   121546535.69708  22745780.460    94536210.29106
  23517802.780   125848507.44907  23517804.180    97882183.21705
  20990033.360   112282775.72809  20990037.520    87331159.55006
  20430651.700   109251958.79208  20430651.660    84973779.23507
 15 03 26 00 06  0.0000000  0 15G04G16G18G19G21G22G27R01R08R13R14R15
                                R17R23R24
  23728234.160   124692739.87408  23728234.580    97163191.34645
  20720563.840   108887334.63809  20720561.320    84847284.27048
  21753130.260   114313772.51609  21753127.240    89075787.89648
  22331374.720   117352196.70809  22331370.740    91443268.61248
  23779266.460   124961275.75008  23779263.520    97372581.61346
  20745113.200   109016414.17909  20745108.460    84947879.26048
  20781673.120   109208491.63809  20781672.980    85097544.17349
  20561710.660   109914234.62909  20561715.200    85488889.00907
  20918735.120   112018967.41308  20918735.420    87125910.42708
  23419968.800   125061298.08506  23419976.380    97269904.73206
  21521517.480   114721818.12707  21521523.860    89228108.37306
  22738685.340   121508642.15108  22738689.220    94506737.51806
  23503487.620   125771904.69007  23503488.800    97822603.32605
  20997294.060   112321615.38209  20997298.120    87361368.14906
  20424814.020   109220742.60208  20424814.060    84949499.98007
 15 03 26 00 06 30.0000000  0 15G04G16G18G19G21G22G27R01R08R13R14R15
                                R17R23R24
  23711898.440   124606895.09208  23711898.780    97096299.33846
  20726468.700   108918365.21509  20726466.300    84871463.92449
  21760656.480   114353323.10309  21760653.440    89106606.53748
  22318247.540   117283212.31209  22318243.340    91389514.55048
  23792298.220   125029757.93508  23792295.300    97425944.32446
  20739849.680   108988754.35309  20739844.960    84926326.17548
  20774319.200   109169846.16709  20774319.000    85067430.82249
  20546225.620   109831457.70809  20546230.060    85424507.02807
  20925612.600   112055796.33308  20925612.840    87154555.14808
  23442649.320   125182409.06406  23442656.840    97364101.75306
  21532430.000   114779988.19607  21532436.460    89273351.72306
  22731731.880   121471484.67508  22731735.720    94477837.24307
  23489166.020   125695267.27407  23489167.280    97762996.49706
  21004589.080   112360639.12709  21004593.140    87391719.92606
  20419004.620   109189677.89908  20419004.700    84925338.55707
 15 03 26 00 07  0.0000000  0 15G04G16G18G19G21G22G27R01R08R13R14R15
                                R17R23R24
  23695595.420   124521221.82308  23695595.600    97029540.94845
  20732479.780   108949953.71409  20732477.380    84896078.32248
  21768266.320   114393313.42109  21768263.320    89137767.82447
  22305142.060   117214342.46609  22305137.720    91335849.74748
  23805331.140   125098246.30508  23805328.320    97479311.86146
  20734683.880   108961608.15909  20734679.240    84905173.31748
  20767010.040   109131436.29309  20767009.760    85037501.05849
  20530852.700   109749280.54909  20530857.120    85360591.52007
  20932633.900   112093395.08108  20932634.120    87183798.63208
  23465335.380   125303549.27606  23465342.880    97458321.49406
  21543464.080   114838805.75607  21543470.600    89319098.66506
  22724915.220   121435058.35308  22724919.120    94449505.64907
  23474836.800   125618588.46107  23474838.020    97703357.47306
  21011917.380   112399840.94909  21011921.440    87422210.21306
  20413222.480   109158759.10708  20413222.600    84901290.61607
 15 03 26 00 07 30.0000000  0 15G04G16G18G19G21G22G27R01R08R13R14R15
                                R17R23R24
  23679325.980   124435724.75008  23679326.100    96962919.85545
  20738597.720   108982103.54609  20738595.300    84921130.12148
  21775960.260   114433745.96909  21775957.400    89169273.70547
  22292059.300   117145592.21909  22292054.880    91282278.13448
  23818365.880   125166744.45708  23818363.160    97532686.99945
  20729616.760   108934980.53909  20729612.220    84884424.54548
  20759746.700   109093267.43109  20759746.400    85007759.09049
  20515593.340   109667710.52709  20515597.760    85297148.22607
  20939799.440   112131766.30308  20939799.780    87213642.91308
  23488026.760   125424718.08306  23488034.320    97552563.43906
  21554619.700   114898271.30407  21554626.280    89365349.60506
  22718236.200   121399367.81008  22718240.180    94421746.35007
  23460500.620   125541872.21408  23460501.840    97643689.32606
  21019280.000   112439225.88709  21019284.000    87452842.92806
  20407468.680   109127991.10508  20407468.940    84877359.96707
 15 03 26 00 08  0.0000000  0 15G04G16G18G19G21G22G27R01R08R13R14R15
                                R17R23R24
  23663089.960   124350403.39208  23663090.020    96896435.66245
  20744822.100   109014812.88609  20744819.720    84946617.89848
  21783737.940   114474618.75709  21783735.280    89201122.62348
  22278999.360   117076961.85809  22278994.920    91228799.94748
  23831402.080   125235250.83608  23831399.500    97586068.56146
  20724648.400   108908871.54409  20724643.860    84864079.90048
  20752529.400   109055340.23709  20752529.100    84978205.43449
  20500448.120   109586751.23709  20500452.680    85234179.94807
  20947108.700   112170907.40108  20947109.160    87244085.98708
  23510722.460   125545910.27206  23510730.180    97646823.54006
  21565896.100   114958380.71007  21565902.660    89412101.31506
  22711694.920   121364413.90108  22711698.980    94394559.99307
  23446157.260   125465117.67808  23446158.580    97583991.39006
  21026676.760   112478793.70109  21026680.760    87483617.87406
  20401743.180   109097373.91508  20401743.440    84853546.60107
 15 03 26 00 08 30.0000000  0 15G04G16G18G19G21G22G27R01R08R13R14R15
                                R17R23R24
  23646887.940   124265261.23408  23646888.080    96830091.09446
  20751153.280   109048083.56409  20751150.960    84972543.07948
  21791599.720   114515933.12309  21791597.160    89233315.62447
  22265962.960   117008455.18209  22265958.520    91175418.11748
  23844440.240   125303767.95208  23844437.920    97639458.48245
  20719779.360   108883284.31909  20719774.760    84844141.82548
  20745358.920   109017658.88709  20745358.640    84948843.33549
  20485418.360   109506409.15309  20485423.020    85171691.71007
  20954562.000   112210819.39608  20954562.480    87275128.64108
  23533422.320   125667124.65605  23533430.160    97741100.92506
  21577293.180   115019133.22907  21577299.660    89459353.23106
  22705292.380   121330200.88808  22705296.500    94367949.87107
  23431807.240   125388327.77208  23431808.600    97524265.95506
  21034108.460   112518548.13809  21034112.500    87514537.96206
  20396046.540   109066910.93108  20396046.700    84829853.16507
 15 03 26 00 09  0.0000000  0 15G04G16G18G19G21G22G27R01R08R13R14R15
                                R17R23R24
  23630719.060   124180293.36208  23630719.240    96763882.35845
  20757590.200   109081909.57309  20757587.860    84998900.99248
  21799544.380   114557682.21509  21799541.760    89265847.38347
  22252949.200   116940067.80009  22252944.920    91122129.26948
  23857479.340   125372289.71008  23857477.160    97692852.03745
  20715008.700   108858214.37109  20715004.100    84824606.82548
  20738234.500   108980219.51809  20738234.160    84919669.80149
  20470503.720   109426682.50609  20470508.440    85109682.15607
  20962157.780   112251495.31008  20962158.460    87306765.46308
  23556124.420   125788351.07606  23556132.540    97835387.59306
  21588809.200   115080519.60307  21588815.560    89507098.13206
  22699027.660   121296723.86908  22699031.760    94341912.19707
  23417449.520   125311496.96408  23417451.000    97464508.70706
  21041574.040   112558483.88209  21041578.100    87545599.07206
  20390377.800   109036597.61208  20390377.960    84806276.14307
 15 03 26 00 09 30.0000000  0 15G04G16G18G19G21G22G27R01R08R13R14R15
                                R17R23R24
  23614583.660   124095501.04708  23614583.760    96697810.42145
  20764132.720   109116290.27509  20764130.280    85025691.13848
  21807571.580   114599864.80309  21807568.860    89298716.94247
  22239958.420   116871801.39009  22239954.240    91068934.67248
  23870519.460   125440816.19508  23870517.160    97746249.28845
  20710336.680   108833662.96709  20710332.060    84805475.88748
  20731156.460   108943024.12209  20731156.100    84890686.38449
  20455705.020   109347575.86909  20455709.760    85048154.82807
  20969896.000   112292933.58408  20969896.800    87338995.23208
  23578828.300   125909586.30706  23578836.460    97929681.15906
  21600443.520   115142536.93107  21600449.920    89555333.79306
  22692901.100   121263985.30808  22692905.220    94316448.88107
  23403084.200   125234625.61208  23403085.620    97404719.92006
  21049073.820   112598602.61909  21049077.800    87576802.51706
  20384737.360   109006435.66608  20384737.720    84782816.86607
 15 03 26 00 10  0.0000000  0 16G04G16G18G19G21G22G27R01R02R08R13R14
                                R15R17R23R24
  23598481.720   124010884.45508  23598481.800    96631875.41245
  20770780.640   109151224.75509  20770778.040    85052912.79548
  21815681.020   114642479.79609  21815678.240    89331923.43247
  22226990.820   116803657.19809  22226986.780    91015835.31448
  23883560.540   125509346.78408  23883558.180    97799649.72046
  20705763.420   108809630.74109  20705758.820    84786749.49448
  20724125.000   108906073.96309  20724124.660    84861894.04849
  20441023.000   109269092.55009  20441027.660    84987112.29207
  23566797.720   125756951.11708                                
  20977776.360   112335132.40208  20977777.160    87371816.53508
  23601533.080   126030825.83206  23601541.120    98023978.04706
  21612195.320   115205180.85907  21612202.000    89604056.79806
  22686912.860   121231985.88808  22686917.040    94291560.46507
  23388711.280   125157713.48908  23388712.740    97344899.43406
  21056607.860   112638904.95209  21056611.880    87608148.74906
  20379125.300   108976425.40008  20379125.700    84759475.54607
 15 03 26 00 10 30.0000000  0 16G04G16G18G19G21G22G27R01R02R08R13R14
                                R15R17R23R24
  23582414.320   123926449.44108  23582414.320    96566081.89245
  20777534.660   109186717.35109  20777532.020    85080569.35548
  21823873.340   114685530.71209  21823870.560    89365469.59548
  22214047.640   116735641.39009  22214043.760    90962836.00548
  23896603.300   125577886.40908  23896601.020    97853057.17946
  20701290.100   108786123.80109  20701285.560    84768432.42248
  20717141.540   108869375.88509  20717141.220    84833298.14349
  20426459.280   109191241.93509  20426464.100    84926561.87007
  23541703.540   125623044.41508  23541714.020    97706853.55307
  20985799.380   112378095.25608  20985800.160    87405232.10108
  23624238.820   126152070.74706  23624246.800    98118279.12706
  21624065.200   115268453.80707  21624071.980    89653269.03706
  22681064.160   121200731.88808  22681068.240    94267251.80407
  23374331.780   125080766.35408  23374333.180    97285051.70606
  21064177.420   112679396.75009  21064181.440    87639642.34907
  20373542.760   108946573.22108  20373543.100    84736257.19307
 15 03 26 00 11  0.0000000  0 16G04G16G18G19G21G22G27R01R02R08R13R14
                                R15R17R23R24
  23566380.840   123842192.94508  23566380.780    96500427.48645
  20784393.940   109222763.43109  20784391.340    85108657.18948
  21832147.760   114729012.85409  21832144.920    89399351.78348
  22201128.440   116667751.25509  22201124.720    90909934.62248
  23909646.920   125646430.67208  23909644.580    97906468.26046
  20696916.180   108763138.62709  20696911.560    84750521.92048
  20710205.680   108832927.71909  20710205.420    84804896.97049
  20412013.980   109114024.00909  20412018.880    84866503.52807
  23516609.560   125489139.82408  23516620.240    97602706.29106
  20993964.020   112421816.72808  20993964.800    87439237.68208
  23646944.020   126273313.07706  23646952.100    98212578.15906
  21636051.680   115332347.95807  21636058.360    89702964.43006
  22675354.460   121170220.34908  22675358.220    94243520.60507
  23359945.020   125003780.16508  23359946.400    97225173.61306
  21071781.880   112720075.40109  21071786.000    87671281.26806
  20367989.260   108916876.37808  20367989.680    84713159.64807
 15 03 26 00 11 30.0000000  0 16G04G16G18G19G21G22G27R01R02R08R13R14
                                R15R17R23R24
  23550381.120   123758113.79908  23550381.060    96434911.28945
  20791358.180   109259360.56009  20791355.540    85137174.41848
  21840503.500   114772922.32709  21840500.600    89433566.95347
  22188233.100   116599986.28509  22188229.520    90857130.76448
  23922691.080   125714977.51208  23922688.540    97959881.35645
  20692641.380   108740674.28109  20692636.660    84733017.25148
  20703317.360   108796729.12909  20703317.120    84776690.28149
  20397687.480   109037440.81609  20397692.380    84806938.87307
  23491516.160   125355239.51508  23491527.060    97498562.37406
  21002269.600   112466292.82008  21002270.360    87473830.18908
  23669647.600   126394547.11806  23669655.820    98306870.70305
  21648153.580   115396857.47607  21648160.180    89753138.45406
  22669783.660   121140451.06108  22669787.140    94220366.71407
  23345550.620   124926753.17308  23345551.980    97165263.78706
  21079420.980   112760939.43709  21079425.140    87703064.37906
  20362464.760   108887333.91208  20362465.040    84690182.18307
 15 03 26 00 12  0.0000000  0 16G04G16G18G19G21G22G27R01R02R08R13R14
                                R15R17R23R24
  23534415.700   123674215.03508  23534415.700    96369535.65346
  20798427.600   109296510.47609  20798424.980    85166122.38048
  21848940.740   114817260.69109  21848937.980    89468116.32547
  22175362.360   116532350.47709  22175358.980    90804427.56548
  23935736.160   125783529.25808  23935733.440    98013298.28246
  20688466.320   108718734.31309  20688461.580    84715921.19348
  20696477.400   108760784.49809  20696477.140    84748681.47749
  20383480.960   108961498.73709  20383485.780    84747872.85707
  23466424.780   125221350.72108  23466435.900    97394427.51907
  21010716.360   112511524.75808  21010717.060    87509010.58008
  23692349.340   126515771.04405  23692357.860    98401155.39406
  21660370.860   115461981.88007  21660377.340    89803790.72306
  22664352.340   121111427.72308  22664355.940    94197793.03807
  23331149.180   124849688.50407  23331150.660    97105324.67006
  21087095.500   112801992.91009  21087099.660    87734994.83606
  20356969.880   108857949.81108  20356970.060    84667327.88707
 15 03 26 00 12 30.0000000  0 16G04G16G18G19G21G22G27R01R02R08R13R14
                                R15R17R23R24
  23518484.500   123590496.23708  23518484.440    96304300.25145
  20805601.700   109334210.55509  20805599.040    85195499.05148
  21857459.160   114862025.50509  21857456.420    89502997.99947
  22162516.280   116464843.97009  22162512.960    90751825.11348
  23948781.740   125852083.85208  23948778.900    98066717.42845
  20684390.880   108697317.67909  20684386.120    84699232.92748
  20689685.780   108725093.93609  20689685.520    84720870.65049
  20369394.820   108886200.03209  20369399.520    84689307.24307
  23441335.840   125087475.20408  23441347.120    97290302.94106
  21019303.700   112557508.98008  21019304.380    87544776.09208
  23715048.300   126636979.76805  23715057.020    98495428.27006
  21672702.540   115527715.97607  21672708.900    89854917.18806
  22659060.400   121083149.18408  22659064.060    94175798.62307
  23316740.440   124772584.78207  23316741.860    97045355.15006
  21094805.340   112843235.01509  21094809.440    87767072.01106
  20351504.500   108828723.46308  20351504.680    84644596.28907
 15 03 26 00 13  0.0000000  0 16G04G16G18G19G21G22G27R01R02R08R13R14
                                R15R17R23R24
  23502587.580   123506957.56108  23502587.500    96239205.18745
  20812880.280   109372459.65109  20812877.580    85225303.52748
  21866058.380   114907214.78009  21866055.640    89538210.41747
  22149695.000   116397467.44509  22149691.580    90699323.93948
  23961827.760   125920640.83708  23961824.900    98120138.42746
  20680415.160   108676424.89009  20680410.360    84682952.85248
  20682942.720   108689658.74909  20682942.400    84693258.82049
  20355429.780   108811548.38709  20355434.280    84631244.89407
  23416250.200   124953617.04808  23416261.460    97186191.79506
  21028031.040   112604243.23208  21028031.720    87581124.95208
  23737743.520   126758168.77405  23737752.340    98589685.74206
  21685147.740   115594055.56407  21685153.960    89906514.58906
  22653908.080   121055616.97808  22653911.840    94154384.68907
  23302324.340   124695441.65307  23302325.740    96985354.99906
  21102550.500   112884666.17409  21102554.640    87799296.20806
  20346068.640   108799655.53008  20346068.820    84621987.90507
 15 03 26 00 13 30.0000000  0 16G04G16G18G19G21G22G27R01R02R08R13R14
                                R15R17R23R24
  23486725.340   123423601.39308  23486725.260    96174252.35745
  20820263.500   109411258.77309  20820260.820    85255536.59148
  21874738.520   114952829.14709  21874735.740    89573754.07747
  22136899.020   116330224.04509  22136895.620    90646926.51148
  23974874.420   125989201.35908  23974871.680    98173562.16746
  20676539.560   108656058.30209  20676534.740    84667082.79948
  20676248.880   108654482.36909  20676248.520    84665848.65249
  20341586.760   108737549.10809  20341591.120    84573689.95207
  23391168.900   124819782.08908  23391180.080    97082098.63906
  21036898.440   112651727.51808  21036899.020    87618057.17508
  23760434.440   126879335.78405  23760443.780    98683926.04206
  21697706.140   115660998.94607  21697712.400    89958581.60406
  22648895.960   121028834.09408  22648899.700    94133553.57007
  23287901.220   124618261.40607  23287902.740    96925325.98706
  21110331.620   112926289.50709  21110335.740    87831669.87606
  20340662.900   108770748.92508  20340663.060    84599504.98707
 15 03 26 00 14  0.0000000  0 15G04G16G18G19G21G22G27R01R02R08R14R15
                                R17R23R24
  23470897.260   123340424.87008  23470897.320    96109439.52145
  20827750.480   109450603.35509  20827747.840    85286194.68648
  21883498.500   114998863.02209  21883495.560    89609624.62947
  22124128.020   116263111.57509  22124124.420    90594631.09248
  23987921.180   126057762.47408  23987918.560    98226986.38246
  20672763.560   108636215.36609  20672758.740    84651620.78649
  20669603.940   108619563.04709  20669603.540    84638638.79149
  20327865.860   108664202.61509  20327870.060    84516642.72007
  23366092.280   124685971.02208  23366103.240    96978023.98106
  21045904.900   112699956.26408  21045905.400    87655568.42108
  21710376.380   115728538.61207  21710382.880    90011112.38506
  22644023.520   121002797.60208  22644027.300    94113302.97907
  23273470.480   124541040.74107  23273472.200    96865265.52606
  21118148.000   112968101.99009  21118152.100    87864190.68006
  20335286.920   108742001.62508  20335287.220    84577145.97907
 15 03 26 00 14 30.0000000  0 15G04G16G18G19G21G22G27R01R02R08R14R15
                                R17R23R24
  23455104.080   123257431.54608  23455104.280    96044769.44545
  20835341.700   109490495.43309  20835339.100    85317279.40848
  21892338.720   115045318.80409  21892335.700    89645823.93647
  22111382.820   116196134.53709  22111379.060    90542441.21348
  24000968.460   126126326.37308  24000965.960    98280412.76446
  20669087.820   108616899.00209  20669082.960    84636569.09248
  20663008.740   108584905.05809  20663008.300    84611632.56749
  20314268.260   108591515.21709  20314272.220    84460108.12307
  23341021.500   124552190.66008  23341032.180    96873973.12806
  21055050.480   112748930.19608  21055050.940    87693659.26608
  21723158.400   115796674.14507  21723165.100    90064106.64006
  22639291.360   120977510.88908  22639295.300    94093635.54507
  23259032.840   124463782.34208  23259034.540    96805175.69106
  21126000.500   113010107.69609  21126004.580    87896861.76506
  20329941.320   108713416.93608  20329941.740    84554913.44707
 15 03 26 00 15  0.0000000  0  7G04G16G18G19G21G22G27
  23439345.160   123174618.21708  23439345.320    95980239.63445
  20843036.160   109530930.12509  20843033.560    85348786.93948
  21901258.080   115092190.82509  21901255.200    89682347.58447
  22098662.820   116129289.91009  22098658.980    90490354.50948
  24014015.380   126194888.41808  24014012.880    98333837.70246
  20665511.800   108598106.64309  20665506.920    84621925.71849
  20656462.960   108550506.28709  20656462.400    84584828.33649
 15 03 26 00 15 30.0000000  0  7G04G16G18G19G21G22G27
  23423621.580   123091990.47708  23423621.640    95915854.44045
  20850834.600   109571911.40309  20850832.100    85380720.38548
  21910257.400   115139482.73609  21910254.640    89719198.41647
  22085969.260   116062584.33209  22085965.220    90438376.15748
  24027062.900   126263453.60108  24027060.460    98387265.06646
  20662036.460   108579843.68109  20662031.580    84607694.85149
  20649967.800   108516373.46009  20649967.160    84558231.32849
 15 03 26 00 16  0.0000000  0  7G04G16G18G19G21G22G27
  23407932.280   123009542.76808  23407932.340    95851609.53045
  20858735.740   109613432.39809  20858733.340    85413074.38848
  21919335.240   115187186.96009  21919332.500    89756370.54347
  22073301.240   115996012.84109  22073296.860    90386502.28048
  24040109.920   126332015.98608  24040107.460    98440690.29345
  20658660.740   108562104.52909  20658655.920    84593872.15349
  20643522.340   108482502.16809  20643521.740    84531838.12049
 15 03 26 00 16 30.0000000  0  7G04G16G18G19G21G22G27
  23392278.120   122927279.49408  23392278.180    95787508.32746
  20866740.040   109655495.27009  20866737.640    85445850.63448
  21928491.980   115235305.66209  21928489.280    89793865.63347
  22060659.700   115929580.54309  22060655.160    90334736.86348
  24053156.980   126400578.67808  24053154.380    98494115.72845
  20655385.400   108544892.85009  20655380.620    84580460.47048
  20637127.520   108448897.49409  20637127.020    84505652.65949
 15 03 26 00 17  0.0000000  0  7G04G16G18G19G21G22G27
  23376658.680   122845198.38608  23376658.560    95723549.09445
  20874846.820   109698096.49209  20874844.360    85479046.36948
  21937726.800   115283834.92409  21937724.220    89831680.64047
  22048044.300   115863286.25009  22048039.740    90283078.99548
  24066203.460   126469138.48308  24066200.800    98547538.91745
  20652210.240   108528207.04609  20652205.380    84567458.56148
  20630783.160   108415558.42709  20630782.740    84479674.16849
 15 03 26 00 17 30.0000000  0  7G04G16G18G19G21G22G27
  23361074.520   122763302.81008  23361074.300    95659734.41745
  20883056.380   109741237.60609  20883053.860    85512662.80748
  21947039.840   115332775.46109  21947037.320    89869816.12047
  22035455.780   115797133.71209  22035451.320    90231531.58748
  24079249.860   126537697.99008  24079247.280    98600961.88046
  20649135.740   108512050.03709  20649130.820    84554868.70549
  20624490.160   108382489.29809  20624489.800    84453906.02149
 15 03 26 00 18  0.0000000  0  7G04G16G18G19G21G22G27
  23345525.740   122681593.24808  23345525.480    95596064.66846
  20891368.400   109784917.19809  20891365.880    85546698.82448
  21956430.920   115382125.74109  21956428.340    89908270.88147
  22022894.520   115731124.27009  22022890.280    90180095.67748
  24092296.160   126606256.79908  24092293.740    98654384.28545
  20646161.960   108496422.38209  20646156.980    84542691.31748
  20618248.880   108349691.59109  20618248.580    84428349.36149
 15 03 26 00 18 30.0000000  0  7G04G16G18G19G21G22G27
  23330011.840   122600067.47408  23330011.640    95532538.15246
  20899782.080   109829131.46609  20899779.680    85581151.48048
  21965899.160   115431881.38609  21965896.460    89947041.51847
  22010360.280   115665256.66509  22010356.000    90128770.29148
  24105341.760   126674811.86308  24105339.400    98707803.77945
  20643288.160   108481320.72909  20643283.220    84530923.81448
  20612059.120   108317164.37209  20612058.880    84403003.48249
 15 03 26 00 19  0.0000000  0  7G04G16G18G19G21G22G27
  23314533.280   122518727.57908  23314533.160    95469156.47246
  20908297.560   109873880.61609  20908295.200    85616020.93348
  21975444.620   115482042.94109  21975441.840    89986128.44447
  21997853.540   115599533.42109  21997849.300    90077557.40448
  24118386.860   126743364.19208  24118384.560    98761221.14545
  20640515.120   108466748.53909  20640510.160    84519568.87549
  20605921.340   108284910.46209  20605921.120    84377870.57149
 15 03 26 00 19 30.0000000  0  7G04G16G18G19G21G22G27
  23299090.160   122437573.81108  23299090.140    95405919.82146
  20916914.620   109919163.37509  20916912.240    85651306.17748
  21985066.820   115532608.17709  21985064.000    90025529.92047
  21985374.540   115533955.69209  21985370.340    90026457.89348
  24131431.440   126811913.58108  24131429.040    98814636.22545
  20637842.740   108452705.24209  20637837.820    84508626.06149
  20599835.800   108252931.31209  20599835.680    84352951.75749
 15 03 26 00 20  0.0000000  0  7G04G16G18G19G21G22G27
  23283682.260   122356604.84508  23283682.340    95342827.18846
  20925632.580   109964976.30109  20925630.100    85687004.53848
  21994765.080   115583573.15309  21994762.280    90065242.88547
  21972923.140   115468523.01709  21972918.920    89975471.41048
  24144475.060   126880457.65008  24144472.580    98868047.16345
  20635270.700   108439189.46709  20635265.800    84498094.30248
  20593802.500   108221226.57909  20593802.460    84328246.77249
 15 03 26 00 20 30.0000000  0  7G04G16G18G19G21G22G27
  23268310.220   122275824.59208  23268310.340    95279881.59546
  20934451.940   110011321.93309  20934449.360    85723117.99548
  22004540.000   115634940.76209  22004537.280    90105269.58547
  21960500.300   115403240.61009  21960496.140    89924602.01648
  24157518.260   126948999.72408  24157515.800    98921456.53245
  20632799.640   108426204.22209  20632794.720    84487975.94448
  20587822.460   108189801.59609  20587822.440    84303759.76849
 15 03 26 00 21  0.0000000  0  7G04G16G18G19G21G22G27
  23252973.820   122195231.67308  23252973.840    95217081.99246
  20943372.000   110058196.49409  20943369.320    85759643.61348
  22014390.840   115686707.14209  22014388.160    90145607.02147
  21948105.800   115338107.31209  21948101.600    89873848.82848
  24170560.560   127017537.62508  24170558.200    98974862.64845
  20630429.420   108413748.70309  20630424.500    84478270.36748
  20581895.560   108158655.72109  20581895.560    84279490.25749
 15 03 26 00 21 30.0000000  0  7G04G16G18G19G21G22G27
  23237673.040   122114826.14908  23237673.040    95154428.42546
  20952392.420   110105598.67209  20952389.720    85796580.34848
  22024317.160   115738870.05909  22024314.360    90186253.45047
  21935739.880   115273124.30009  21935735.600    89823212.72948
  24183601.880   127086070.77908  24183599.600    99028265.08945
  20628159.940   108401822.55709  20628155.100    84468977.27749
  20576022.120   108127790.29909  20576022.120    84255439.28349
 15 03 26 00 22  0.0000000  0  8G04G16G18G19G21G22G27G32
  23222408.300   122034610.51008  23222408.480    95091922.83746
  20961513.260   110153528.94209  20961510.600    85833928.58248
  22034318.980   115791429.80709  22034316.100    90227209.09447
  21923403.200   115208295.04809  21923398.980    89772696.44948
  24196642.640   127154600.77408  24196640.400    99081665.05345
  20625991.540   108390427.89309  20625986.800    84460098.33649
  20570202.800   108097208.92509  20570202.720    84231609.64749
  24485330.880   128671289.61508  24485337.020   100263352.32745
 15 03 26 00 22 30.0000000  0  8G04G16G18G19G21G22G27G32
  23207178.140   121954576.36508  23207178.460    95029558.66646
  20970732.640   110201977.30809  20970730.040    85871680.53348
  22044394.200   115844375.59809  22044391.360    90268465.55047
  21911094.280   115143611.82009  21911090.160    89722293.95648
  24209681.160   127223118.54608  24209679.000    99135055.49645
  20623922.520   108379555.63009  20623917.840    84451626.45749
  20564436.120   108066904.21209  20564435.960    84207995.59049
  24462678.180   128552251.16708  24462684.480   100170595.90645
 15 03 26 00 23  0.0000000  0  8G04G16G18G19G21G22G27G32
  23191984.680   121874734.74008  23191985.080    94967344.48946
  20980052.340   110250952.70109  20980049.760    85909843.15448
  22054544.720   115897717.13209  22054541.840    90310030.38047
  21898815.440   115079086.59009  21898811.420    89672014.57348
  24222719.380   127291634.42908  24222717.200    99188444.46945
  20621955.020   108369217.06209  20621950.440    84443570.44649
  20558724.380   108036888.34609  20558724.180    84184606.61549
  24440034.640   128433260.73908  24440040.800   100077876.82945
 15 03 26 00 23 30.0000000  0  8G04G16G18G19G21G22G27G32
  23176827.180   121795082.00208  23176827.520    94905277.50546
  20989471.280   110300449.63809  20989468.760    85948412.16848
  22064769.380   115951448.21409  22064766.520    90351898.75247
  21886566.240   115014716.72809  21886562.240    89621856.24948
  24235756.340   127360143.86708  24235754.160    99241828.41345
  20620088.280   108359408.02909  20620083.840    84435927.05249
  20553067.120   108007158.78909  20553066.860    84161440.71949
  24417399.860   128314316.87607  24417406.060    99985194.00245
 15 03 26 00 24  0.0000000  0  8G04G16G18G19G21G22G27G32
  23161706.120   121715620.60608  23161706.420    94843359.62545
  20998989.640   110350468.65609  20998987.120    85987388.00748
  22075068.140   116005568.72409  22075065.400    90394070.56947
  21874347.200   114950505.46309  21874343.180    89571821.51148
  24248792.460   127428648.92408  24248790.120    99295208.97445
  20618322.900   108350130.94409  20618318.520    84428698.16949
  20547464.980   107977719.09509  20547464.700    84138500.70149
  24394774.700   128195424.15308  24394781.080    99892550.97744
 15 03 26 00 24 30.0000000  0  8G04G16G18G19G21G22G27G32
  23146620.640   121636345.94708  23146620.740    94781587.23545
  21008606.120   110401003.02609  21008603.540    86026765.41448
  22085439.860   116060072.43009  22085437.180    90436540.98247
  21862157.740   114886449.18109  21862153.680    89521907.53448
  24261826.640   127497143.92608  24261824.420    99348581.68045
  20616657.840   108341380.58509  20616653.420    84421879.71949
  20541917.280   107948565.78009  20541917.020    84115783.83449
  24372158.820   128076580.43808  24372165.260    99799946.05845
 15 03 26 00 25  0.0000000  0  8G04G16G18G19G21G22G27G32
  23131571.620   121557263.03408  23131571.540    94719964.28746
  21018321.320   110452056.02709  21018318.600    86066546.95948
  22095885.060   116114962.40309  22095882.380    90479312.38147
  21849998.900   114822553.99309  21849994.640    89472119.09648
  24274859.680   127565633.22408  24274857.700    99401949.93945
  20615093.880   108333161.72509  20615089.400    84415475.43449
  20536425.220   107919704.98009  20536424.920    84093294.90649
  24349553.820   127957792.88108  24349560.220    99707384.81245
 15 03 26 00 25 30.0000000  0  8G04G16G18G19G21G22G27G32
  23116558.480   121478369.01308  23116558.340    94658488.50646
  21028134.220   110503623.11709  21028131.480    86106729.08448
  22106402.800   116170233.40009  22106400.080    90522380.68047
  21837870.320   114758817.60509  21837865.980    89422454.38648
  24287890.960   127634113.27808  24287889.180    99455310.98446
  20613630.380   108325470.99609  20613625.860    84409482.67549
  20530988.540   107891135.03109  20530988.200    84071032.61049
  24326959.600   127839061.13808  24326965.760    99614867.02344
 15 03 26 00 26  0.0000000  0  8G04G16G18G19G21G22G27G32
  23101581.600   121399665.41108  23101581.560    94597161.10646
  21038044.740   110555703.43309  21038042.040    86147311.12448
  22116993.000   116225884.64609  22116990.160    90565745.28947
  21825772.480   114695242.75309  21825768.100    89372915.55348
  24300920.760   127702585.26008  24300919.000    99508665.73646
  20612267.580   108318309.64709  20612263.080    84403902.41749
  20525607.780   107862858.57609  20525607.340    84048999.00749
  24304376.800   127720389.14708  24304382.660    99522395.82345
 15 03 26 00 26 30.0000000  0  8G04G16G18G19G21G22G27G32
  23086640.860   121321151.82508  23086640.900    94535981.78746
  21048052.380   110608294.36709  21048049.820    86188291.05448
  22127655.060   116281913.73409  22127652.200    90609404.31747
  21813705.460   114631829.92709  21813701.180    89323502.97648
  24313948.820   127771047.97508  24313946.940    99562013.26545
  20611005.360   108311676.36809  20611000.760    84398733.64849
  20520282.960   107834876.37409  20520282.480    84027194.69549
  24281805.780   127601778.72108  24281811.340    99429972.64945
 15 03 26 00 27  0.0000000  0  8G04G16G18G19G21G22G27G32
  23071736.780   121242830.56708  23071736.920    94474952.31246
  21058157.320   110661396.50809  21058154.880    86229669.32148
  22138388.880   116338320.57809  22138386.080    90653357.69647
  21801669.800   114568582.21009  21801665.660    89274219.05848
  24326975.320   127839502.77907  24326973.340    99615354.62245
  20609844.060   108305573.36909  20609839.420    84393978.08349
  20515014.680   107807191.64709  20515014.260    84005622.17849
  24259247.280   127483234.35208  24259252.620    99337600.96445
 15 03 26 00 27 30.0000000  0  8G04G16G18G19G21G22G27G32
  23056869.480   121164702.31708  23056869.640    94414073.23146
  21068359.380   110715008.29009  21068356.860    86271444.70848
  22149194.300   116395103.60909  22149191.520    90697604.20347
  21789665.900   114505501.67309  21789661.800    89225065.39948
  24340000.360   127907950.13908  24339998.340    99668690.20845
  20608783.760   108300001.40309  20608779.100    84389636.30149
  20509803.460   107779806.40109  20509803.080    83984283.02249
  24236701.900   127364759.10408  24236707.000    99245283.14245
 15 03 26 00 28  0.0000000  0  8G04G16G18G19G21G22G27G32
  23042038.320   121086763.98508  23042038.360    94353342.14746
  21078657.560   110769125.12709  21078654.940    86313613.64848
  22160070.380   116452258.02909  22160067.680    90742140.10647
  21777693.380   114442586.06609  21777689.440    89176040.26548
  24353023.440   127976386.52908  24353021.340    99722017.23745
  20607823.700   108294956.38709  20607819.020    84385705.13149
  20504648.880   107752718.73209  20504648.540    83963175.74749
  24214169.540   127246352.24308  24214174.440    99153018.58045
 15 03 26 00 28 30.0000000  0  8G04G16G18G19G21G22G27G32
  23027243.820   121009018.12108  23027243.660    94292761.02846
  21089051.880   110823747.32909  21089049.180    86356176.38148
  22171017.180   116509783.71209  22171014.460    90786965.31447
  21765752.940   114379838.98709  21765749.040    89127146.45648
  24366044.820   128044813.42308  24366042.580    99775336.84945
  20606964.320   108290440.54409  20606959.660    84382186.31249
  20499551.620   107725932.38909  20499551.280    83942303.28149
  24191651.040   127128018.60508  24191655.880    99060811.09345
 15 03 26 00 29  0.0000000  0  8G04G16G18G19G21G22G27G32
  23012485.800   120931464.45208  23012485.600    94232329.66946
  21099541.880   110878872.50409  21099539.140    86399131.04648
  22182034.200   116567678.44809  22182031.460    90832078.09347
  21753844.680   114317260.88709  21753840.780    89078384.31348
  24379064.260   128113230.04108  24379061.740    99828648.46545
  20606205.560   108286452.96009  20606200.840    84379079.12249
  20494511.860   107699448.10909  20494511.480    83921666.18349
  24169146.780   127009760.21708  24169151.520    98968662.24045
 15 03 26 00 29 30.0000000  0  8G04G16G18G19G21G22G27G32
  22997764.440   120854103.72708  22997764.320    94172048.66746
  21110127.200   110934498.88809  21110124.520    86442476.24848
  22193121.120   116625940.64609  22193118.420    90877477.19647
  21741968.940   114254853.82609  21741965.020    89029755.44848
  24392081.680   128181636.49508  24392078.980    99881952.15345
  20605547.400   108282993.85409  20605542.540    84376383.72149
  20489529.880   107673267.73209  20489529.520    83901265.88349
  24146657.480   126891580.09808  24146662.180    98876574.32745
 15 03 26 00 30  0.0000000  0  8G04G16G18G19G21G22G27G32
  22983079.700   120776935.42608  22983079.640    94111917.60746
  21120807.480   110990624.42809  21120804.920    86486210.41248
  22204277.480   116684567.67109  22204274.820    90923160.58647
  21730125.980   114192618.40109  21730122.020    88981260.32648
  24405096.960   128250031.70708  24405094.040    99935247.10245
  20604989.500   108280062.07509  20604984.620    84374099.22649
  20484605.820   107647392.04009  20484605.500    83881103.01549
  24124183.460   126773480.15208  24124188.020    98784548.88445
 15 03 26 00 30 30.0000000  0  8G04G16G18G19G21G22G27G32
  22968431.800   120699960.51208  22968431.700    94051937.23046
  21131582.500   111047247.89709  21131580.060    86530332.56548
  22215503.020   116743558.37609  22215500.360    90969127.36847
  21718316.120   114130556.55609  21718311.980    88932900.45948
  24418110.180   128318416.19308  24418107.200    99988533.68845
  20604532.000   108277658.57909  20604527.260    84372226.39149
  20479740.120   107621823.30809  20479739.880    83861179.32949
  24101725.360   126655463.86808  24101729.680    98692588.61745
 15 03 26 00 31  0.0000000  0  8G04G16G18G19G21G22G27G32
  22953821.240   120623181.59308  22953821.100    93992109.57146
  21142452.380   111104369.69109  21142449.940    86574843.01548
  22226797.900   116802913.29809  22226795.280    91015377.94147
  21706539.960   114068671.75009  21706535.620    88884678.53248
  24431121.660   128386791.87408  24431118.500   100041813.42345
  20604175.360   108275784.86209  20604170.720    84370766.35249
  20474933.540   107596565.09009  20474933.380    83841497.59549
  24079284.060   126537535.96708  24079288.220    98600697.17145
 15 03 26 00 31 30.0000000  0  9G04G11G16G18G19G21G22G27G32
  22939247.400   120546596.07308  22939247.380    93932432.63646
  24617320.660   129364894.67008  24617319.800   100803806.21044
  21153416.200   111161984.82809  21153413.720    86619737.91148
  22238161.100   116862627.45609  22238158.480    91061908.46347
  21694797.160   114006962.38609  21694792.680    88836593.33248
  24444130.880   128455155.51108  24444127.740   100095083.79644
  20603919.080   108274438.12809  20603914.440    84369716.97149
  20470185.880   107571616.00309  20470185.780    83822056.76049
  24056859.480   126419696.33208  24056863.680    98508874.51945
 15 03 26 00 32  0.0000000  0  9G04G11G16G18G19G21G22G27G32
  22924711.220   120470208.26208  22924711.100    93872909.74746
  24600436.340   129276166.92808  24600435.440   100734667.77344
  21164474.340   111220095.71209  21164471.820    86665019.09448
  22249593.060   116922703.14809  22249590.540    91108720.68647
  21683088.860   113945434.51309  21683084.320    88788649.54548
  24457138.520   128523511.14108  24457135.440   100148347.90944
  20603763.780   108273622.06509  20603759.080    84369081.09249
  20465498.140   107546981.68609  20465498.060    83802861.18949
  24034453.040   126301951.73908  24034457.200    98417125.89945
 15 03 26 00 32 30.0000000  0  9G04G11G16G18G19G21G22G27G32
  22910211.100   120394009.79108  22910210.820    93813534.39046
  24583560.940   129187485.97908  24583559.660   100665565.79444
  21175624.740   111278691.99809  21175622.360    86710678.50748
  22261091.680   116983129.26109  22261089.280    91155805.96347
  21671413.560   113884080.45709  21671409.100    88740841.20448
  24470142.860   128591849.88508  24470140.100   100201598.84945
  20603707.740   108273327.36009  20603702.960    84368851.47349
  20460868.940   107522654.81609  20460868.760    83783905.18249
  24012063.580   126184296.08808  24012067.680    98325446.56645
 15 03 26 00 33  0.0000000  0  9G04G11G16G18G19G21G22G27G32
  22895748.600   120318009.36108  22895748.260    93754313.35146
  24566696.020   129098860.47308  24566694.500   100596506.99344
  21186868.700   111337779.64609  21186866.420    86756720.79848
  22272658.280   117043912.56909  22272655.820    91203169.57147
  21659773.040   113822909.82709  21659768.680    88693175.79648
  24483145.520   128660179.77608  24483142.940   100254842.89045
  20603752.440   108273562.04009  20603747.600    84369034.34449
  20456300.140   107498645.20809  20456299.860    83765196.39649
  23989693.100   126066740.43708  23989697.240    98233845.16445
 15 03 26 00 33 30.0000000  0  9G04G11G16G18G19G21G22G27G32
  22881323.160   120242203.86108  22881322.980    93695244.20046
  24549841.060   129010287.78007  24549839.680   100527489.40244
  21198205.360   111397353.72609  21198203.040    86803142.13448
  22284291.940   117105048.02809  22284289.520    91250807.58547
  21648167.000   113761920.61309  21648162.820    88645651.75248
  24496145.860   128728497.09808  24496143.500   100308077.14645
  20603897.120   108274322.63809  20603892.340    84369627.03049
  20451791.360   107474951.06009  20451790.980    83746733.41849
  23967341.540   125949284.17808  23967345.720    98142321.20145
 15 03 26 00 34  0.0000000  0  9G04G11G16G18G19G21G22G27G32
  22866934.720   120166592.37108  22866934.640    93636326.24946
  24532995.880   128921766.67408  24532994.580   100458512.01544
  21209634.020   111457411.10409  21209631.620    86849940.06648
  22295992.020   117166532.25809  22295989.600    91298717.37147
  21636595.640   113701113.37809  21636591.540    88598269.50648
  24509143.580   128796800.64507  24509141.240   100361300.65345
  20604141.500   108275607.32809  20604136.800    84370628.10449
  20447342.580   107451572.61309  20447342.200    83728516.45849
  23945009.140   125831928.76008  23945013.380    98050875.82445
 15 03 26 00 34 30.0000000  0  9G04G11G16G18G19G21G22G27G32
  22852583.740   120091177.39408  22852583.560    93577561.38946
  24516161.100   128833299.93607  24516159.780   100389576.94645
  21221154.680   111517951.97609  21221152.200    86897114.74648
  22307758.520   117228365.62309  22307756.140    91346899.20347
