     2.11           OBSERVATION DATA    G                   RINEX VERSION / TYPE
SPIDER V4,0,0,3554                      2015 04 15 05:55    PGM / RUN BY / DATE 
CABS                                                        MARKER NAME         
CABS                                                        MARKER NUMBER       
                                                            OBSERVER / AGENCY   
462287              LEICA GRX1200PRO    8.10/2.127          REC # / TYPE / VERS 
103298              LEIAT504                                ANT # / TYPE        
  5116912.3402   671231.6412  3737143.4301                  APPROX POSITION XYZ 
        0.0600        0.0000        0.0000                  ANTENNA: DELTA H/E/N
     1     1                                                WAVELENGTH FACT L1/2
     4    C1    L1    P2    L2                              # / TYPES OF OBSERV 
    30.000                                                  INTERVAL            
  2015    01    30    00    00    0.0000000     GPS         TIME OF FIRST OBS   
  2015    01    30    23    59   30.0000000     GPS         TIME OF LAST OBS    
    16                                                      LEAP SECONDS        
    30                                                      # OF SATELLITES     
   G 1   805   805   805   805                              PRN / # OF OBS      
   G 2   934   934   934   934                              PRN / # OF OBS      
   G 3   847   847   847   847                              PRN / # OF OBS      
   G 4   831   831   831   831                              PRN / # OF OBS      
   G 5   636   636   636   636                              PRN / # OF OBS      
   G 6   827   827   827   827                              PRN / # OF OBS      
   G 7   672   672   672   672                              PRN / # OF OBS      
   G 9   808   808   808   808                              PRN / # OF OBS      
   G10   747   747   746   746                              PRN / # OF OBS      
   G11   771   771   771   771                              PRN / # OF OBS      
   G12   816   816   816   816                              PRN / # OF OBS      
   G13   791   791   791   791                              PRN / # OF OBS      
   G14   936   936   936   936                              PRN / # OF OBS      
   G15   694   694   694   694                              PRN / # OF OBS      
   G16   658   658   658   658                              PRN / # OF OBS      
   G17   942   942   942   942                              PRN / # OF OBS      
   G18   898   898   898   898                              PRN / # OF OBS      
   G19   751   751   751   751                              PRN / # OF OBS      
   G20   818   818   818   818                              PRN / # OF OBS      
   G21   742   742   742   742                              PRN / # OF OBS      
   G22   656   656   656   656                              PRN / # OF OBS      
   G23   755   755   755   755                              PRN / # OF OBS      
   G24   817   817   817   817                              PRN / # OF OBS      
   G25   856   856   856   856                              PRN / # OF OBS      
   G27   793   793   793   793                              PRN / # OF OBS      
   G28   876   876   876   876                              PRN / # OF OBS      
   G29   757   757   757   757                              PRN / # OF OBS      
   G30   718   718   718   718                              PRN / # OF OBS      
   G31   869   869   869   869                              PRN / # OF OBS      
   G32   770   770   770   770                              PRN / # OF OBS      
BIT 2 OF LLI FLAGS DATA COLLECTED UNDER A/S CONDITION       COMMENT             
SNR is mapped to RINEX snr flag value [2-9]                 COMMENT             
Lx:     = 25dBHz -> 1; 26-27dBHz -> 2; 28-31dBHz -> 3       COMMENT             
       32-35dBHz -> 4; 36-38dBHz -> 5; 39-41dBHz -> 6       COMMENT             
       42-44dBHz -> 7; 45-48dBHz -> 8; >=49dBHz -> 9        COMMENT             
                                                            END OF HEADER       
 15 01 30 00 00  0.0000000  0  5G12G21G25G29G31
  24363119.440   128029268.62106  24363121.300    99763178.01745
  21850588.200   114825762.45008  21850589.560    89474668.61947
  21403842.060   112478054.14308  21403846.320    87645307.34348
  20741177.080   108995903.67308  20741178.820    84932015.17349
  20980700.120   110254332.75809  20980700.900    85912472.60249
 15 01 30 00 00 30.0000000  0  5G12G21G25G29G31
  24378561.040   128110414.62906  24378562.980    99826408.67345
  21838232.820   114760834.46108  21838234.180    89424075.39347
  21412919.420   112525755.92608  21412923.700    87682477.54448
  20750061.040   109042589.48008  20750062.820    84968393.71549
  20978550.780   110243037.86609  20978551.580    85903671.37949
 15 01 30 00 01  0.0000000  0  5G12G21G25G29G31
  24394029.520   128191702.04806  24394031.420    99889749.53145
  21825948.180   114696278.29708  21825949.520    89373771.91747
  21422053.280   112573754.72308  21422057.620    87719879.19048
  20758989.800   109089510.44108  20758991.600    85004955.49749
  20976508.900   110232307.79109  20976509.720    85895310.27149
 15 01 30 00 01 30.0000000  0  5G12G21G25G29G31
  24409524.060   128273126.72106  24409526.100    99953197.28745
  21813733.860   114632091.94108  21813735.200    89323756.59147
  21431243.020   112622047.02308  21431247.360    87757509.53448
  20767962.440   109136661.76908  20767964.220    85041696.79449
  20974573.900   110222139.44109  20974574.740    85887386.86649
 15 01 30 00 02  0.0000000  0  5G12G21G25G29G31
  24425044.160   128354685.54106  24425046.380   100016749.57045
  21801589.680   114568274.03608  21801590.980    89274028.37647
  21440488.040   112670629.74408  21440492.360    87795366.18448
  20776977.940   109184038.40708  20776979.680    85078613.65149
  20972745.280   110212530.28609  20972746.160    85879899.21049
 15 01 30 00 02 30.0000000  0  5G12G21G25G29G31
  24440589.860   128436378.59406  24440592.120   100080406.44945
  21789516.140   114504827.08708  21789517.360    89224589.21147
  21449788.520   112719503.82608  21449792.780    87833449.86848
  20786036.200   109231639.70908  20786037.900    85115705.57049
  20971023.340   110203481.46209  20971024.220    85872848.16649
 15 01 30 00 03  0.0000000  0  5G12G21G25G29G31
  24456161.140   128518205.23406  24456163.180   100144167.42945
  21777513.360   114441752.13408  21777514.520    89175439.91847
  21459144.460   112768669.22808  21459148.580    87871760.55748
  20795136.840   109279463.64008  20795138.500    85152970.96749
  20969408.100   110194993.31809  20969409.000    85866234.01849
 15 01 30 00 03 30.0000000  0  5G12G21G25G29G31
  24471758.320   128600168.09106  24471760.040   100208034.58145
  21765582.120   114379053.03908  21765583.260    89126583.50148
  21468556.300   112818128.33408  21468560.320    87910300.10148
  20804280.040   109327511.23609  20804281.660    85190410.64849
  20967900.220   110187069.17109  20967901.120    85860059.34649
 15 01 30 00 04  0.0000000  0  5G12G21G25G29G31
  24487381.160   128682266.30706  24487382.640   100272007.18045
  21753722.660   114316731.22708  21753723.840    89078021.07248
  21478023.960   112867881.09208  21478027.960    87949068.46648
  20813465.440   109375780.53109  20813466.980    85228023.08049
  20966499.540   110179708.35909  20966500.420    85854323.64249
 15 01 30 00 04 30.0000000  0  5G12G21G25G29G31
  24503029.460   128764498.73606  24503031.020   100336084.36745
  21741935.040   114254786.69208  21741936.240    89029752.62848
  21487547.280   112917926.71308  21487551.340    87988065.02948
  20822692.660   109424269.67109  20822694.120    85265806.82549
  20965206.080   110172910.96509  20965206.940    85849026.96549
 15 01 30 00 05  0.0000000  0  5G12G21G25G29G31
  24518702.960   128846863.24806  24518704.500   100400264.45345
  21730219.400   114193220.33408  21730220.600    88981778.86148
  21497125.980   112968263.75208  21497130.160    88027288.68148
  20831961.020   109472975.09208  20831962.440    85303759.09549
  20964019.620   110166676.07309  20964020.500    85844168.59849
 15 01 30 00 05 30.0000000  0  5G12G21G25G29G31
  24534402.400   128929364.55906  24534403.980   100464551.17345
  21718576.880   114132038.36508  21718578.080    88934104.62448
  21506761.100   113018897.01708  21506765.340    88066743.15748
  20841271.140   109521900.10308  20841272.600    85341882.47649
  20962941.120   110161008.69109  20962942.040    85839752.44549
 15 01 30 00 06  0.0000000  0  5G12G21G25G29G31
  24550127.140   129011999.04106  24550128.780   100528941.64944
  21707007.040   114071238.50408  21707008.280    88886728.12548
  21516452.000   113069823.12208  21516456.240    88106425.81448
  20850622.080   109571039.85808  20850623.640    85380173.19249
  20961969.960   110155905.42609  20961970.960    85835775.86549
 15 01 30 00 06 30.0000000  0  5G12G21G25G29G31
  24565877.380   129094767.80206  24565879.160   100593436.72045
  21695510.600   114010824.48008  21695511.880    88839652.28548
  21526199.060   113121044.16308  21526203.340    88146338.28848
  20860013.960   109620394.65209  20860015.560    85418631.46749
  20961106.660   110151368.86509  20961107.720    85832240.88249
 15 01 30 00 07  0.0000000  0  5G12G21G25G29G31
  24581652.820   129177668.95005  24581654.740   100658035.00144
  21684087.440   113950795.37908  21684088.700    88792876.38348
  21536002.000   113172558.51908  21536006.320    88186479.32548
  20869446.220   109669961.51808  20869447.820    85457254.99549
  20960351.000   110147397.64709  20960352.060    85829146.42349
 15 01 30 00 07 30.0000000  0  5G12G21G25G29G31
  24597452.660   129260697.63506  24597454.620   100722732.65144
  21672736.940   113891148.35408  21672738.220    88746398.20648
  21545859.800   113224361.45008  21545864.200    88226845.22048
  20878917.540   109719733.65708  20878919.120    85496038.47549
  20959702.120   110143987.64709  20959703.160    85826489.27449
 15 01 30 00 08  0.0000000  0  5G12G21G25G29G31
  24613277.800   129343858.90506  24613279.740   100787533.61845
  21661460.440   113831890.20408  21661461.720    88700223.04748
  21555773.500   113276458.32608  21555778.020    88267440.17748
  20888428.800   109769715.50009  20888430.340    85534985.36449
  20959161.060   110141144.19709  20959162.060    85824273.59249
 15 01 30 00 08 30.0000000  0  5G12G21G25G29G31
  24629128.120   129427152.56006  24629130.060   100852437.69845
  21650258.220   113773022.53208  21650259.520    88654352.15448
  21565743.160   113328849.45608  21565747.800    88308264.41348
  20897979.660   109819905.50509  20897981.200    85574094.45949
  20958727.860   110138867.54809  20958728.840    85822499.57449
 15 01 30 00 09  0.0000000  0  5G12G21G25G29G31
  24645003.700   129510579.48806  24645005.800   100917445.64645
  21639130.780   113714547.49508  21639132.060    88608787.20748
  21575769.080   113381536.31308  21575773.820    88349319.08848
  20907570.160   109870303.75209  20907571.700    85613365.81249
  20958402.840   110137159.53009  20958403.800    85821168.64449
 15 01 30 00 09 30.0000000  0  5G12G21G25G29G31
  24660903.560   129594132.97306  24660905.540   100982552.23944
  21628077.280   113656461.04808  21628078.540    88563525.06248
  21585850.100   113434512.48008  21585854.840    88390599.19448
  20917198.740   109920902.28708  20917200.320    85652793.23449
  20958184.880   110136014.07909  20958185.840    85820276.08349
 15 01 30 00 10  0.0000000  0  5G12G21G25G29G31
  24676828.780   129677819.17106  24676830.500   101047762.22144
  21617099.180   113598770.90308  21617100.420    88518571.71948
  21595987.580   113487784.76108  21595992.200    88432110.04048
  20926866.380   109971706.23608  20926868.020    85692380.71649
  20958075.260   110135438.04809  20958076.220    85819827.22049
 15 01 30 00 10 30.0000000  0  5G12G21G25G29G31
  24692778.800   129761635.68106  24692780.280   101113073.75845
  21606196.240   113541475.97108  21606197.520    88473926.33848
  21606180.960   113541350.68108  21606185.440    88473849.70348
  20936572.360   110022711.72308  20936574.060    85732125.24548
  20958073.560   110135429.27309  20958074.540    85819820.37649
 15 01 30 00 11  0.0000000  0  5G12G21G25G29G31
  24708753.480   129845581.97706  24708754.780   101178486.40745
  21595368.900   113484578.19408  21595370.220    88429590.42648
  21616430.260   113595210.66908  21616434.660    88515818.49948
  20946316.400   110073917.09108  20946318.120    85772025.52048
  20958179.900   110135988.16709  20958180.900    85820255.87349
 15 01 30 00 11 30.0000000  0  5G12G21G25G29G31
  24724753.000   129929659.79306  24724754.420   101244001.53846
  21584617.800   113428080.77708  21584619.120    88385566.48548
  21626735.860   113649366.91808  21626740.280    88558018.16148
  20956098.780   110125323.91808  20956100.500    85812082.78248
  20958394.700   110137117.01909  20958395.720    85821135.49749
 15 01 30 00 12  0.0000000  0  5G12G21G25G29G31
  24740776.900   130013866.57906  24740778.540   101309617.14745
  21573942.680   113371982.59508  21573944.020    88341853.63748
  21637097.220   113703816.69508  21637101.720    88600446.55248
  20965918.720   110176928.16708  20965920.460    85852293.87248
  20958717.540   110138813.41309  20958718.560    85822457.35849
 15 01 30 00 12 30.0000000  0  4G21G25G29G31
  21563372.140   113316433.88608  21563373.480    88298568.94448
  21647542.960   113758709.67608  21647547.480    88643220.29148
  20975804.340   110228877.67908  20975806.120    85892773.99548
  20959176.840   110141226.84809  20959177.840    85824337.94949
 15 01 30 00 13  0.0000000  0  4G21G25G29G31
  21552844.400   113261109.84708  21552845.660    88255459.32048
  21658011.040   113813719.92808  21658015.540    88686085.40748
  20985693.420   110280845.01908  20985695.200    85933268.01648
  20959710.620   110144031.59509  20959711.580    85826523.46149
 15 01 30 00 13 30.0000000  0  4G21G25G29G31
  21542396.700   113206206.66108  21542397.920    88212677.63148
  21668538.300   113869040.83208  21668542.700    88729192.58648
  20995622.360   110333021.73308  20995624.120    85973925.18848
  20960355.620   110147420.93509  20960356.560    85829164.50249
 15 01 30 00 14  0.0000000  0  4G21G25G29G31
  21532024.140   113151698.52408  21532025.340    88170203.78348
  21679119.740   113924646.29608  21679124.040    88772521.49948
  21005586.040   110385381.09108  21005587.800    86014724.67548
  20961106.960   110151368.95609  20961107.840    85832240.87249
 15 01 30 00 14 30.0000000  0  4G21G25G29G31
  21521733.020   113097618.52808  21521734.220    88128063.54748
  21689761.280   113980567.81208  21689765.500    88816096.68548
  21015590.220   110437953.15408  21015591.920    86055689.91548
  20961970.580   110155907.09209  20961971.400    85835777.07349
 15 01 30 00 15  0.0000000  0  4G21G25G29G31
  21511521.160   113043955.23108  21511522.360    88086248.01348
  21700460.480   114036792.73708  21700464.740    88859908.29948
  21025632.180   110490723.73708  21025633.820    86096809.84148
  20962944.060   110161022.86709  20962944.880    85839763.38349
 15 01 30 00 15 30.0000000  0  4G21G25G29G31
  21501384.080   112990684.80008  21501385.300    88044738.61348
  21711212.780   114093296.84908  21711217.160    88903937.46048
  21035706.960   110543666.93408  21035708.560    86138064.27148
  20964022.840   110166692.12009  20964023.700    85844180.97049
 15 01 30 00 16  0.0000000  0  4G21G25G29G31
  21491322.980   112937813.65408  21491324.220    88003540.34048
  21722019.080   114150084.33808  21722023.480    88948187.43448
  21045815.200   110596786.03608  21045816.780    86179455.77448
  20965207.680   110172918.77709  20965208.580    85849032.89749
 15 01 30 00 16 30.0000000  0  4G21G25G29G31
  21481341.760   112885362.00408  21481342.960    87962668.94148
  21732882.900   114207174.15808  21732887.300    88992672.99648
  21055960.200   110650098.51008  21055961.840    86220997.95448
  20966502.240   110179721.85109  20966503.140    85854333.98549
 15 01 30 00 17  0.0000000  0  4G21G25G29G31
  21471438.660   112833321.00708  21471439.880    87922117.53348
  21743802.340   114264556.10008  21743806.740    89037386.17348
  21066139.760   110703592.68808  21066141.460    86262681.73348
  20967904.560   110187091.11609  20967905.460    85860076.25849
 15 01 30 00 17 30.0000000  0  4G21G25G29G31
  21461613.360   112781689.04908  21461614.660    87881884.85948
  21754776.900   114322227.56608  21754781.340    89082324.95548
  21076353.180   110757264.69008  21076354.900    86304504.06848
  20969414.060   110195023.67909  20969415.000    85866257.46549
 15 01 30 00 18  0.0000000  0  4G21G25G29G31
  21451867.120   112730472.32008  21451868.460    87841975.74448
  21765807.620   114380193.96808  21765812.120    89127493.56148
  21086601.240   110811118.68508  21086602.940    86346468.22648
  20971031.820   110203524.87609  20971032.740    85872881.76449
 15 01 30 00 18 30.0000000  0  4G21G25G29G31
  21442198.560   112679663.88808  21442199.920    87802384.77748
  21776892.940   114438447.20508  21776897.460    89172885.68048
  21096882.160   110865145.36908  21096883.860    86388566.93648
  20972756.260   110212586.73809  20972757.180    85879942.94349
 15 01 30 00 19  0.0000000  0  4G21G25G29G31
  21432611.300   112629282.52308  21432612.640    87763126.59548
  21788036.060   114497004.29108  21788040.640    89218514.56248
  21107198.960   110919360.61008  21107200.680    86430812.58048
  20974590.540   110222225.92109  20974591.500    85887453.99049
 15 01 30 00 19 30.0000000  0  4G21G25G29G31
  21423102.320   112579312.40908  21423103.580    87724188.86248
  21799233.880   114555848.69708  21799238.460    89264367.33548
  21117548.180   110973746.42008  21117549.960    86473191.13348
  20976531.580   110232425.95809  20976532.540    85895402.05749
 15 01 30 00 20  0.0000000  0  4G21G25G29G31
  21413674.520   112529768.94708  21413675.720    87685583.58748
  21810488.920   114614994.07108  21810493.500    89310454.61748
  21127932.240   111028315.19508  21127934.060    86515712.24948
  20978581.820   110243199.95509  20978582.760    85903797.37149
 15 01 30 00 20 30.0000000  0  4G21G25G29G31
  21404326.000   112480642.09508  21404327.180    87647302.94048
  21821799.120   114674429.20508  21821803.640    89356767.69448
  21138348.720   111083054.21608  21138350.600    86558366.03348
  20980739.200   110254537.04209  20980740.140    85912631.45749
 15 01 30 00 21  0.0000000  0  4G21G25G29G31
  21395057.580   112431936.27208  21395058.780    87609350.36948
  21833165.180   114734157.98808  21833169.640    89403309.58248
  21148798.220   111137966.75408  21148800.180    86601155.02148
  20983004.400   110266440.73609  20983005.340    85921907.04849
 15 01 30 00 21 30.0000000  0  4G21G25G29G31
  21385871.020   112383660.49408  21385872.200    87571732.89848
  21844588.460   114794187.80608  21844592.880    89450086.04548
  21159281.960   111193058.88508  21159283.900    86644083.95448
  20985378.820   110278918.46309  20985379.760    85931629.94649
 15 01 30 00 22  0.0000000  0  4G21G25G29G31
  21376765.220   112335809.24508  21376766.400    87534446.22948
  21856067.640   114854511.69608  21856072.060    89497091.65748
  21169798.220   111248321.99508  21169800.160    86687146.11548
  20987861.000   110291962.32309  20987861.900    85941793.98649
 15 01 30 00 22 30.0000000  0  4G21G25G29G31
  21367738.640   112288374.40708  21367739.820    87497484.03648
  21867601.160   114915121.05408  21867605.600    89544319.71348
  21180345.300   111303746.93008  21180347.200    86730334.37748
  20990449.320   110305563.97809  20990450.220    85952392.67349
 15 01 30 00 23  0.0000000  0  4G21G25G29G31
  21358792.860   112241364.09508  21358794.020    87460852.64448
  21879190.340   114976022.61408  21879194.780    89591775.45748
  21190924.160   111359338.84708  21190925.980    86773652.75148
  20993144.980   110319729.72509  20993145.900    85963430.91549
 15 01 30 00 23 30.0000000  0  4G21G25G29G31
  21349928.500   112194781.57108  21349929.620    87424554.60048
  21890835.540   115037218.57408  21890840.000    89639460.61348
  21201534.980   111415099.03508  21201536.780    86817102.24648
  20995948.320   110334461.53609  20995949.280    85974910.24549
 15 01 30 00 24  0.0000000  0  4G21G25G29G31
  21341144.420   112148621.04508  21341145.520    87388585.37648
  21902535.400   115098701.74808  21902539.860    89687369.56948
  21212176.220   111471019.01308  21212178.020    86860676.24948
  20998857.980   110349752.05309  20998859.000    85986824.92649
 15 01 30 00 24 30.0000000  0  4G21G25G29G31
  21332441.860   112102888.89408  21332442.940    87352949.95048
  21914290.900   115160477.31808  21914295.420    89735506.37048
  21222848.640   111527102.96408  21222850.480    86904378.02148
  21001874.900   110365606.08209  21001875.940    85999178.71449
 15 01 30 00 25  0.0000000  0  4G21G25G29G31
  21323820.960   112057586.01408  21323822.040    87317649.02248
  21926102.020   115222545.34008  21926106.580    89783871.03748
  21233552.080   111583349.89908  21233553.940    86948206.79048
  21004999.040   110382023.39109  21005000.100    86011971.41249
 15 01 30 00 25 30.0000000  0  4G21G25G29G31
  21315281.340   112012710.32308  21315282.480    87282680.96648
  21937968.220   115284902.86008  21937972.820    89832461.29848
  21244285.680   111639755.14808  21244287.500    86992158.92448
  21008229.720   110399000.51909  21008230.760    86025200.33849
 15 01 30 00 26  0.0000000  0  4G21G25G29G31
  21306822.940   111968261.34408  21306824.120    87248045.40848
  21949889.300   115347548.61408  21949893.880    89881276.14647
  21255049.120   111696317.15808  21255050.880    87036233.20248
  21011566.680   110416536.27009  21011567.700    86038864.55049
 15 01 30 00 26 30.0000000  0  4G21G25G29G31
  21298447.680   111924249.14808  21298448.900    87213750.20548
  21961866.720   115410490.20208  21961871.200    89930321.51747
  21265843.640   111753042.54108  21265845.360    87080434.78748
  21015011.220   110434637.53409  21015012.220    86052969.42749
 15 01 30 00 27  0.0000000  0  4G21G25G29G31
  21290154.280   111880666.86008  21290155.480    87179789.99548
  21973899.160   115473720.76208  21973903.540    89979592.07347
  21276667.680   111809923.13908  21276669.360    87124757.31548
  21018562.040   110453297.18209  21018563.020    86067509.40249
 15 01 30 00 27 30.0000000  0  4G21G25G29G31
  21281943.520   111837518.87808  21281944.680    87146168.20548
  21985987.180   115537243.30008  21985991.460    90029090.13047
  21287521.580   111866960.85808  21287523.260    87169202.27448
  21022219.520   110472517.45109  21022220.500    86082486.23149
 15 01 30 00 28  0.0000000  0  4G21G25G29G31
  21273816.020   111794808.34608  21273817.120    87112887.29448
  21998131.080   115601059.55408  21998135.340    90078817.06947
  21298405.520   111924156.46508  21298407.180    87213770.26748
  21025984.060   110492300.22409  21025985.000    86097901.37049
 15 01 30 00 28 30.0000000  0  4G21G25G29G31
  21265770.840   111752530.43208  21265771.880    87079943.47948
  22010329.840   115665164.51008  22010334.160    90128768.96247
  21309318.420   111981504.28808  21309320.080    87258456.86748
  21029854.560   110512639.90709  21029855.520    86113750.46849
 15 01 30 00 29  0.0000000  0  4G21G25G29G31
  21257808.240   111710686.61108  21257809.220    87047337.92848
  22022583.520   115729558.17508  22022587.940    90178945.82847
  21320260.040   112039002.93408  21320261.660    87303260.99648
  21033830.920   110533535.89609  21033831.940    86130033.05249
 15 01 30 00 29 30.0000000  0  4G21G25G29G31
  21249928.080   111669276.40308  21249929.060    87015070.24848
  22034891.760   115794238.66808  22034896.260    90229346.19947
  21331229.880   112096649.86908  21331231.500    87348180.67548
  21037912.740   110554985.92809  21037913.800    86146747.36449
 15 01 30 00 30  0.0000000  0  5G16G21G25G29G31
  24572093.620   129127222.30706  24572095.800   100618624.69444
  21242131.640   111628306.09208  21242132.620    86983145.34748
  22047255.760   115859211.93708  22047260.300    90279974.69447
  21342228.780   112154449.79908  21342230.440    87393219.57848
  21042101.020   110576995.43309  21042102.100    86163897.62349
 15 01 30 00 30 30.0000000  0  5G16G21G25G29G31
  24554764.000   129036154.29206  24554766.180   100547662.62745
  21234402.800   111587691.02908  21234403.780    86951497.26848
  22059659.100   115924391.67108  22059663.640    90330764.07747
  21353240.200   112212315.58308  21353241.940    87438309.78948
  21046379.320   110599477.96509  21046380.400    86181416.47549
 15 01 30 00 31  0.0000000  0  5G16G21G25G29G31
  24537449.260   128945164.88505  24537451.140   100476761.83545
  21226775.940   111547611.74108  21226776.920    86920266.67248
  22072135.940   115989957.60308  22072140.440    90381854.39747
  21364298.160   112270425.82008  21364299.960    87483590.49148
  21050781.580   110622611.98109  21050782.660    86199442.97749
 15 01 30 00 31 30.0000000  0  5G16G21G25G29G31
  24520128.320   128854143.12706  24520130.300   100405835.82544
  21219229.780   111507956.32608  21219230.760    86889366.37248
  22084664.820   116055797.02308  22084669.340    90433157.81847
  21375381.180   112328667.46308  21375382.980    87528973.57948
  21055286.360   110646284.63109  21055287.380    86217889.18549
 15 01 30 00 32  0.0000000  0  5G16G21G25G29G31
  24502804.180   128763104.44105  24502806.260   100334896.63644
  21211767.340   111468740.79708  21211768.300    86858808.84048
  22097248.520   116121924.82608  22097253.160    90484685.94648
  21386491.900   112387054.47208  21386493.660    87574469.94648
  21059896.420   110670510.44209  21059897.380    86236766.43449
 15 01 30 00 32 30.0000000  0  5G16G21G25G29G31
  24485477.260   128672050.88806  24485479.360   100263945.85745
  21204388.940   111429966.87308  21204389.860    86828595.40848
  22109887.080   116188341.50308  22109891.900    90536439.18947
  21397630.200   112445586.19808  21397631.900    87620079.08048
  21064611.700   110695289.24009  21064612.600    86256074.58349
 15 01 30 00 33  0.0000000  0  5G16G21G25G29G31
  24468147.420   128580982.27705  24468149.600   100192983.32945
  21197094.440   111391634.00108  21197095.340    86798725.65648
  22122580.300   116255045.22708  22122585.180    90588416.10047
  21408795.460   112504259.63808  21408797.120    87665798.64248
  21069431.780   110720618.95009  21069432.680    86275812.00749
 15 01 30 00 33 30.0000000  0  5G16G21G25G29G31
  24450814.800   128489899.12505  24450816.960   100122009.49645
  21189883.580   111353740.76208  21189884.480    86769198.47048
  22135328.060   116322035.34708  22135332.900    90640616.18147
  21419987.540   112563074.00608  21419989.120    87711628.02048
  21074356.420   110746498.05509  21074357.300    86295977.53949
 15 01 30 00 34  0.0000000  0  5G16G21G25G29G31
  24433479.560   128398802.27105  24433481.680   100051024.98145
  21182756.840   111316289.54908  21182757.760    86740015.72848
  22148130.300   116389311.25408  22148134.980    90693038.95247
  21431206.100   112622027.73408  21431207.640    87757565.98248
  21079385.380   110772925.22909  21079386.240    86316570.13649
 15 01 30 00 34 30.0000000  0  5G16G21G25G29G31
  24416142.040   128307693.52405  24416144.120    99980031.19444
  21175714.300   111279280.95308  21175715.300    86711177.87848
  22160987.040   116456873.39308  22160991.560    90745684.74547
  21442450.980   112681120.06908  21442452.560    87803611.95148
  21084518.600   110799900.28809  21084519.460    86337589.65649
 15 01 30 00 35  0.0000000  0  5G16G21G25G29G31
  24398802.400   128216573.23205  24398804.440    99909028.43645
  21168755.860   111242714.28608  21168756.900    86682684.39248
  22173898.100   116524720.91608  22173902.500    90798552.92947
  21453722.020   112740349.75308  21453723.580    87849764.94548
  21089755.740   110827421.79909  21089756.700    86359034.98849
 15 01 30 00 35 30.0000000  0  5G16G21G25G29G31
  24381461.140   128125443.95206  24381463.160    99838018.65244
  21161882.100   111206592.45208  21161883.160    86654537.52448
  22186863.580   116592854.70008  22186867.960    90851644.17547
  21465019.040   112799716.33008  21465020.660    87896024.61148
  21095096.960   110855490.25209  21095098.000    86380906.51249
 15 01 30 00 36  0.0000000  0  5G16G21G25G29G31
  24364118.400   128034307.14906  24364120.420    99767002.99044
  21155093.100   111170916.03208  21155094.140    86626737.73148
  22199883.460   116661274.89208  22199887.960    90904958.59247
  21476342.120   112859219.89208  21476343.840    87942391.01848
  21100542.100   110884105.03509  21100543.240    86403203.74049
 15 01 30 00 36 30.0000000  0  5G16G21G25G29G31
  24346774.340   127943163.24606  24346776.280    99695981.79445
  21148388.880   111135685.17308  21148389.900    86599285.12848
  22212957.600   116729980.39008  22212962.260    90958495.33947
  21487690.940   112918858.59908  21487692.760    87988862.73348
  21106090.900   110913264.35709  21106092.060    86425925.28849
 15 01 30 00 37  0.0000000  0  5G16G21G25G29G31
  24329429.240   127852013.93306  24329431.200    99624956.39244
  21141769.520   111100900.50608  21141770.560    86572180.21348
  22226086.040   116798971.16208  22226090.840    91012254.36447
  21499065.300   112978631.33808  21499067.140    88035438.89148
  21111743.160   110942967.32809  21111744.340    86449070.45249
 15 01 30 00 37 30.0000000  0  5G16G21G25G29G31
  24312082.900   127760858.52705  24312084.900    99553926.24545
  21135234.980   111066561.48508  21135236.000    86545422.55348
  22239268.500   116868245.37508  22239273.300    91066234.26747
  21510464.700   113038535.47908  21510466.520    88082117.43848
  21117498.480   110973211.60009  21117499.620    86472637.40949
 15 01 30 00 38  0.0000000  0  5G16G21G25G29G31
  24294735.740   127669698.52306  24294737.780    99482892.53746
  21128785.300   111032668.40808  21128786.320    86519012.38248
  22252504.940   116937802.97208  22252509.620    91120434.98147
  21521889.020   113098570.53308  21521890.820    88128898.00048
  21123356.660   111003996.46409  21123357.780    86496625.61349
 15 01 30 00 38 30.0000000  0  5G16G21G25G29G31
  24277388.120   127578536.42506  24277390.180    99411857.17044
  21122420.860   110999223.15508  21122421.880    86492951.16448
  22265795.480   117007644.80008  22265800.040    91174857.16247
  21533338.280   113158736.81408  21533340.120    88175780.80448
  21129317.760   111035322.01509  21129318.840    86521035.12549
 15 01 30 00 39  0.0000000  0  5G16G21G25G29G31
  24260040.320   127487373.77506  24260042.500    99340821.38245
  21116141.780   110966226.52208  21116142.800    86467239.52248
  22279140.020   117077770.71008  22279144.500    91229500.69847
  21544812.320   113219033.38508  21544814.160    88222765.13548
  21135381.540   111067187.19109  21135382.600    86545865.12849
 15 01 30 00 39 30.0000000  0  5G16G21G25G29G31
  24242692.500   127396210.67506  24242694.780    99269785.26645
  21109947.940   110933677.79408  21109948.980    86441876.90048
  22292538.300   117148179.40708  22292542.780    91284364.60747
  21556310.800   113279458.15808  21556312.580    88269849.37048
  21141547.620   111099590.02909  21141548.700    86571114.09549
 15 01 30 00 40  0.0000000  0  5G16G21G25G29G31
  24225344.840   127305048.40406  24225347.100    99198749.78145
  21103839.580   110901578.14608  21103840.600    86416864.20748
  22305990.300   117218870.48008  22305994.860    91339448.54647
  21567833.500   113340010.33408  21567835.260    88317032.87748
  21147815.800   111132529.54809  21147816.920    86596781.25449
 15 01 30 00 40 30.0000000  0  5G16G21G25G29G31
  24207997.420   127213887.84506  24207999.640    99127715.60845
  21097816.540   110869926.92508  21097817.540    86392200.93748
  22319495.900   117289843.10308  22319500.560    91394751.87847
  21579380.120   113400688.12108  21579381.860    88364314.26248
  21154185.740   111166003.97909  21154186.920    86622865.22149
 15 01 30 00 41  0.0000000  0  5G16G21G25G29G31
  24190650.200   127122728.00106  24190652.360    99056681.99445
  21091878.660   110838723.28908  21091879.640    86367886.43448
  22333054.740   117361095.00208  22333059.460    91450272.82647
  21590950.160   113461488.93208  21590951.880    88411691.50848
  21160656.840   111200010.08909  21160658.080    86649363.48649
 15 01 30 00 41 30.0000000  0  5G16G21G25G29G31
  24173303.600   127031571.09806  24173305.720    98985650.69244
  21086026.020   110807967.51108  21086026.980    86343920.90748
  22346666.860   117432626.42108  22346671.540    91506011.59047
  21602543.540   113522412.42908  21602545.280    88459164.35948
  21167229.160   111234547.78209  21167230.400    86676275.97649
 15 01 30 00 42  0.0000000  0  5G16G21G25G29G31
  24155958.140   126940419.75606  24155960.120    98914623.69645
  21080259.040   110777661.92108  21080260.020    86320306.18248
  22360332.320   117504438.17308  22360336.840    91561968.79747
  21614160.260   113583458.74408  21614162.000    88506732.91048
  21173902.600   111269616.71709  21173903.800    86703602.41749
 15 01 30 00 42 30.0000000  0  5G16G21G25G29G31
  24138614.120   126849275.73506  24138615.940    98843602.39345
  21074577.940   110747807.53408  21074578.940    86297043.04348
  22374051.140   117576530.78808  22374055.520    91618144.84847
  21625800.280   113644627.71408  21625802.080    88554397.04348
  21180677.080   111305216.65809  21180678.220    86731342.62949
 15 01 30 00 43  0.0000000  0  5G16G21G25G29G31
  24121271.740   126758140.60106  24121273.500    98772588.02945
  21068982.840   110718405.11108  21068983.860    86274132.07748
  22387823.280   117648903.95108  22387827.540    91674539.51547
  21637463.560   113705918.96908  21637465.420    88602156.45248
  21187552.360   111341346.26509  21187553.400    86759495.56549
 15 01 30 00 43 30.0000000  0  5G16G21G25G29G31
  24103931.240   126667015.67406  24103932.980    98701581.59845
  21063473.820   110689455.05508  21063474.860    86251573.60848
  22401648.680   117721557.36708  22401652.900    91731152.55047
  21649149.920   113767331.43908  21649151.840    88650010.31748
  21194528.220   111378004.59609  21194529.220    86788060.50049
 15 01 30 00 44  0.0000000  0  5G16G21G25G29G31
  24086592.580   126575900.32206  24086594.200    98630582.65345
  21058050.440   110660955.16908  21058051.500    86229365.92349
  22415526.940   117794488.46508  22415531.180    91787981.96347
  21660858.840   113828862.16608  21660860.760    88697956.33348
  21201604.000   111415188.27609  21201605.040    86817034.79649
 15 01 30 00 44 30.0000000  0  5G16G21G25G29G31
  24069255.920   126484795.45906  24069257.580    98559591.87645
  21052712.780   110632905.69708  21052713.820    86207509.20648
  22429457.900   117867696.38308  22429462.220    91845027.07347
  21672590.080   113890509.99608  21672591.940    88745993.59948
  21208779.340   111452895.37509  21208780.440    86846416.94849
 15 01 30 00 45  0.0000000  0  5G16G21G25G29G31
  24051921.620   126393703.44206  24051923.440    98488611.09545
  21047461.160   110605308.39808  21047462.200    86186004.83148
  22443441.780   117941181.75608  22443446.200    91902288.38447
  21684343.560   113952274.86608  21684345.400    88794122.06848
  21216054.300   111491125.74009  21216055.460    86876206.84249
 15 01 30 00 45 30.0000000  0  5G16G21G25G29G31
  24034589.840   126302624.35506  24034591.740    98417640.40144
  21042295.240   110578161.54408  21042296.260    86164851.45348
  22457478.080   118014942.35908  22457482.620    91959764.16047
  21696118.740   114014153.93308  21696120.620    88842339.52148
  21223428.280   111529876.23209  21223429.460    86906402.03149
 15 01 30 00 46  0.0000000  0  5G16G21G25G29G31
  24017261.020   126211560.71706  24017262.900    98346681.75545
  21037215.500   110551467.45108  21037216.480    86144050.87548
  22471567.040   118088979.94608  22471571.720    92017455.77547
  21707915.900   114076148.58808  21707917.780    88890647.04048
  21230901.420   111569147.80109  21230902.600    86937003.24948
 15 01 30 00 46 30.0000000  0  6G16G18G21G25G29G31
  23999936.100   126120517.53006  23999937.960    98275739.03045
  24502150.880   128759670.98505  24502155.740   100332225.99043
  21032222.660   110525229.71808  21032223.540    86123605.90148
  22485709.140   118163297.21508  22485713.960    92075365.31647
  21719735.540   114138261.29908  21719737.420    88939046.54348
  21238474.100   111608942.30809  21238475.260    86968011.94648
 15 01 30 00 47  0.0000000  0  6G16G18G21G25G29G31
  23982614.500   126029492.26006  23982616.400    98204810.26645
  24487093.680   128680546.38105  24487098.580   100270570.88344
  21027315.920   110499444.30008  21027316.720    86103513.38649
  22499903.580   118237889.64308  22499908.440    92133489.26747
  21731576.680   114200486.78108  21731578.560    88987533.92548
  21246145.140   111649253.74109  21246146.260    86999423.45448
 15 01 30 00 47 30.0000000  0  6G16G18G21G25G29G31
  23965296.200   125938484.22806  23965298.140    98133894.94644
  24472024.320   128601357.51005  24472029.960   100208865.73843
  21022495.040   110474110.28408  21022495.800    86083772.61249
  22514149.920   118312754.96908  22514154.760    92191825.87547
  21743438.940   114262822.96108  21743440.740    89036107.57348
  21253913.980   111690079.16309  21253915.080    87031235.46749
 15 01 30 00 48  0.0000000  0  6G16G18G21G25G29G31
  23947980.920   125847492.05406  23947982.780    98062991.96645
  24456943.040   128522100.12505  24456948.700   100147114.26343
  21017759.400   110449224.24308  21017760.180    86064380.90949
  22528447.500   118387889.70607  22528452.320    92250372.40547
  21755321.460   114325265.65708  21755323.200    89084764.21248
  21261779.800   111731414.17309  21261780.860    87063444.56648
 15 01 30 00 48 30.0000000  0  6G16G18G21G25G29G31
  23930671.540   125756530.67006  23930673.320    97992113.00344
  24441851.480   128442797.86405  24441857.000   100085320.71544
  21013111.720   110424800.47808  21013112.500    86045349.41849
  22542798.900   118463306.87707  22542803.620    92309139.01347
  21767226.680   114387827.56408  21767228.340    89133513.74748
  21269744.800   111773270.70209  21269745.900    87096060.03548
 15 01 30 00 49  0.0000000  0  6G16G18G21G25G29G31
  23913365.320   125665585.57006  23913366.920    97921246.72545
  24426748.560   128363433.32306  24426754.140   100023478.62144
  21008548.860   110400822.71308  21008549.680    86026665.45549
  22557200.920   118538989.77708  22557205.540    92368112.67347
  21779151.360   114450491.62608  21779152.920    89182342.87448
  21277805.780   111815631.37709  21277806.860    87129068.35748
 15 01 30 00 49 30.0000000  0  6G16G18G21G25G29G31
  23896064.000   125574666.22806  23896065.420    97850400.51745
  24411635.860   128284017.54305  24411641.340    99961596.64944
  21004072.480   110377299.44808  21004073.340    86008335.64449
  22571655.060   118614946.56207  22571659.660    92427299.75747
  21791096.940   114513265.72308  21791098.440    89231257.74548
  21285964.020   111858503.22009  21285965.100    87162474.98448
 15 01 30 00 50  0.0000000  0  6G16G18G21G25G29G31
  23878767.640   125483773.26906  23878768.940    97779574.87045
  24396513.660   128204552.33105  24396519.120    99899676.10644
  20999682.560   110354230.47308  20999683.440    85990359.83249
  22586160.980   118691175.59407  22586165.600    92486698.98947
  21803063.100   114576148.15508  21803064.600    89280257.03948
  21294219.040   111901883.52509  21294220.100    87196277.81348
 15 01 30 00 50 30.0000000  0  6G16G18G21G25G29G31
  23861475.840   125392904.57806  23861477.220    97708768.14044
  24381382.300   128125036.46805  24381387.520    99837716.08544
  20995378.360   110331611.90108  20995379.220    85972734.98549
  22600717.840   118767672.70107  22600722.640    92546307.11447
  21815048.900   114639134.02708  21815050.460    89329336.93948
  21302569.780   111945766.97009  21302570.840    87230472.69948
 15 01 30 00 51  0.0000000  0  6G16G18G21G25G29G31
  23844189.900   125302066.73606  23844191.340    97637985.44845
  24366242.720   128045478.04805  24366247.700    99775722.97042
  20991160.940   110309449.42008  20991161.800    85955465.54049
  22615326.620   118844442.92807  22615331.620    92606128.06246
  21827055.320   114702228.52108  21827056.960    89378501.47848
  21311017.040   111990157.67109  21311018.080    87265062.85248
 15 01 30 00 51 30.0000000  0  6G16G18G21G25G29G31
  23826909.240   125211256.62806  23826910.760    97567224.35944
  24351094.760   127965874.57905  24351099.020    99713694.67344
  20987029.400   110287738.14108  20987030.240    85938547.67549
  22629986.280   118921480.48207  22629991.360    92666157.33547
  21839081.200   114765425.59408  21839082.940    89427745.94448
  21319559.560   112035048.93009  21319560.600    87300043.05548
 15 01 30 00 52  0.0000000  0  6G16G18G21G25G29G31
  23809634.680   125120478.44206  23809636.200    97496488.13745
  24335939.200   127886231.40805  24335943.140    99651635.45944
  20982984.300   110266480.98908  20982985.080    85921983.67249
  22644697.280   118998787.86807  22644702.460    92726396.84547
  21851126.960   114828727.17308  21851128.780    89477071.84648
  21328197.620   112080442.37609  21328198.700    87335414.56948
 15 01 30 00 52 30.0000000  0  6G16G18G21G25G29G31
  23792366.320   125029732.55006  23792367.780    97425777.07745
  24320776.400   127806549.94905  24320779.720    99589546.34044
  20979025.380   110245676.68208  20979026.120    85905772.53649
  22659459.320   119076363.23807  22659464.440    92786845.15847
  21863192.360   114892131.54608  21863194.200    89526477.85248
  21336930.560   112126334.60009  21336931.700    87371174.73848
 15 01 30 00 53  0.0000000  0  6G16G18G21G25G29G31
  23775104.900   124939023.29906  23775106.400    97355094.58344
  24305607.020   127726835.84805  24305610.300    99527431.85144
  20975153.240   110225328.34408  20975153.940    85889916.69749
  22674272.980   119154209.06607  22674277.880    92847504.21446
  21875277.840   114955640.85108  21875279.560    89575965.61348
  21345758.780   112172727.26709  21345759.960    87407324.86848
 15 01 30 00 53 30.0000000  0  6G16G18G21G25G29G31
  23757849.960   124848347.94107  23757851.440    97284438.49245
  24290431.160   127647087.45306  24290434.440    99465290.61144
  20971367.180   110205432.35908  20971367.860    85874413.35049
  22689137.320   119232320.60107  22689141.860    92908370.32346
  21887382.380   115019250.08408  21887383.980    89625531.25148
  21354681.100   112219614.30409  21354682.300    87443860.22048
 15 01 30 00 54  0.0000000  0  6G16G18G21G25G29G31
  23740602.380   124757711.66707  23740603.940    97213812.85945
  24275249.740   127567310.95206  24275253.140    99403127.41544
  20967667.720   110185991.86308  20967668.440    85859264.92449
  22704052.800   119310700.74307  22704057.060    92969445.73946
  21899506.440   115082962.15808  21899508.000    89675177.01248
  21363697.840   112266997.44309  21363699.020    87480782.15548
 15 01 30 00 54 30.0000000  0  6G16G18G21G25G29G31
  23723362.020   124667113.26307  23723363.740    97143216.73945
  24260062.960   127487506.14606  24260066.340    99340942.16144
  20964054.460   110167004.14808  20964055.200    85844469.31649
  22719018.620   119389346.08207  22719022.760    93030727.81046
  21911649.280   115146773.25508  21911650.860    89724899.93948
  21372808.220   112314872.63709  21372809.380    87518087.49648
 15 01 30 00 55  0.0000000  0  6G16G18G21G25G29G31
  23706128.980   124576553.03706  23706130.800    97072650.36645
  24244871.220   127407674.90306  24244874.660    99278736.29044
  20960527.200   110148468.10608  20960527.900    85830025.66349
  22734034.480   119468254.99907  22734038.780    93092215.26547
  21923810.620   115210681.63308  21923812.200    89774698.66948
  21382011.600   112363236.77308  21382012.760    87555773.84048
 15 01 30 00 55 30.0000000  0  6G16G18G21G25G29G31
  23688904.040   124486035.25906  23688905.820    97002117.05645
  24229675.360   127327822.36905  24229679.200    99216513.80344
  20957086.360   110130386.44308  20957087.060    85815936.06249
  22749100.840   119547429.74407  22749105.480    93153909.86346
  21935990.880   115274689.61008  21935992.560    89824575.00248
  21391308.220   112412091.21108  21391309.420    87593842.22748
 15 01 30 00 56  0.0000000  0  6G16G18G21G25G29G31
  23671686.980   124395559.30006  23671688.720    96931616.32044
  24214475.560   127247948.52805  24214479.680    99154274.72544
  20953731.520   110112756.67708  20953732.220    85802198.59249
  22764217.220   119626867.20307  22764222.140    93215809.18546
  21948189.480   115338793.93508  21948191.240    89874526.42048
  21400697.320   112461431.67208  21400698.560    87632289.34048
 15 01 30 00 56 30.0000000  0  6G16G18G21G25G29G31
  23654478.440   124305128.00406  23654480.040    96861150.39944
  24199272.600   127168057.73006  24199276.380    99092022.39644
  20950463.000   110095580.48608  20950463.700    85788814.55749
  22779383.820   119706568.11407  22779388.880    93277913.77247
  21960406.560   115402995.28908  21960408.380    89924553.44748
  21410178.820   112511257.48208  21410180.080    87671114.63848
 15 01 30 00 57  0.0000000  0  6G16G18G21G25G29G31
  23637278.560   124214742.47406  23637280.020    96790720.14745
  24184066.720   127088151.76505  24184070.740    99029758.22745
  20947280.660   110078857.29208  20947281.380    85775783.51149
  22794600.420   119786531.27207  22794605.400    93340222.70846
  21972641.820   115467292.04908  21972643.660    89974654.81847
  21419752.380   112561566.56508  21419753.560    87710316.51448
 15 01 30 00 57 30.0000000  0  6G16G18G21G25G29G31
  23620087.600   124124403.48206  23620089.000    96720326.15045
  24168858.420   127008232.93905  24168862.640    98967484.09944
  20944184.360   110062586.10408  20944185.100    85763104.67949
  22809866.700   119866755.24807  22809871.480    93402734.88446
  21984895.060   115531683.43308  21984896.920    90024829.92348
  21429417.420   112612356.23308  21429418.500    87749892.87148
 15 01 30 00 58  0.0000000  0  6G16G18G21G25G29G31
  23602906.240   124034115.19606  23602907.680    96649971.65644
  24153648.520   126928306.27405  24153652.840    98905203.78644
  20941174.560   110046769.37008  20941175.280    85750779.96749
  22825182.960   119947242.18307  22825187.560    93465451.95046
  21997166.620   115596171.22308  21997168.580    90075080.14948
  21439174.100   112663627.50908  21439175.120    87789844.50748
 15 01 30 00 58 30.0000000  0  6G16G18G21G25G29G31
  23585733.940   123943874.50806  23585735.360    96579654.26944
  24138436.940   126848369.82006  24138441.340    98842915.88645
  20938250.280   110031402.05708  20938250.960    85738805.44549
  22840548.060   120027986.57807  22840552.600    93528369.64046
  22009455.520   115660749.91308  22009457.540    90125401.19047
  21449021.080   112715373.58608  21449022.080    87830166.11748
 15 01 30 00 59  0.0000000  0  6G16G18G21G25G29G31
  23568571.860   123853687.47406  23568573.380    96509378.67245
  24123224.720   126768430.72205  24123229.100    98780625.92144
  20935412.360   110016488.84408  20935413.040    85727184.77249
  22855962.760   120108992.29807  22855967.340    93591490.96646
  22021762.480   115725423.20908  22021764.460    90175795.95348
  21458958.920   112767597.19808  21458959.900    87870859.83948
 15 01 30 00 59 30.0000000  0  6G16G18G21G25G29G31
  23551419.400   123763551.05106  23551420.940    96439142.51945
  24108011.740   126688486.64305  24108015.940    98718331.99344
  20932659.900   110002024.84208  20932660.600    85715914.13849
  22871426.080   120190253.84607  22871430.840    93654811.64146
  22034086.480   115790185.74508  22034088.340    90226260.25847
  21468986.340   112820291.61408  21468987.360    87911920.41248
 15 01 30 01 00  0.0000000  0  6G16G18G21G25G29G31
  23534277.680   123673470.57806  23534279.220    96368949.97345
  24092799.000   126608544.15805  24092803.140    98656039.38644
  20929993.580   109988013.62508  20929994.320    85704996.31649
  22886938.680   120271774.35807  22886943.660    93718334.10946
  22046428.000   115855040.25308  22046429.740    90276796.22747
  21479103.700   112873458.82608  21479104.760    87953349.40048
 15 01 30 01 00 30.0000000  0  6G16G18G21G25G29G31
  23517145.920   123583442.34806  23517147.460    96298798.12645
  24077586.340   126528600.51506  24077590.200    98593745.82845
  20927412.320   109974449.48208  20927413.100    85694426.86749
  22902499.600   120353547.72607  22902504.720    93782053.60246
  22058786.000   115919981.50908  22058787.660    90327399.78547
  21489309.600   112927091.49208  21489310.740    87995141.07848
 15 01 30 01 01  0.0000000  0  6G16G18G21G25G29G31
  23500025.920   123493475.86506  23500027.460    96228694.40045
  24062375.340   126448666.48606  24062379.140    98531459.80944
  20924917.720   109961340.35508  20924918.480    85684211.97149
  22918110.180   120435581.18607  22918115.280    93845975.76946
  22071161.760   115985016.44008  22071163.380    90378076.34747
  21499605.260   112981195.70308  21499606.440    88037300.19548
 15 01 30 01 01 30.0000000  0  6G16G18G21G25G29G31
  23482916.580   123403565.94206  23482918.240    96158634.76545
  24047165.560   126368737.63306  24047168.960    98469177.76444
  20922508.400   109948679.26908  20922509.160    85674346.20649
  22933768.860   120517867.18307  22933773.900    93910094.71746
  22083553.880   116050137.25008  22083555.420    90428819.83247
  21509989.000   113035762.55908  21509990.160    88079819.81548
 15 01 30 01 02  0.0000000  0  6G16G18G21G25G29G31
  23465819.180   123313718.69606  23465820.940    96088623.96446
  24031958.120   126288821.29706  24031961.300    98406905.51045
  20920185.140   109936470.16408  20920185.840    85664832.62849
  22949476.240   120600409.23307  22949481.180    93974413.19046
  22095963.080   116115348.03808  22095964.600    90479633.42647
  21520461.160   113090794.04508  21520462.320    88122701.49248
 15 01 30 01 02 30.0000000  0  7G16G18G21G25G27G29G31
  23448733.900   123223935.44006  23448735.760    96018663.03345
  24016753.500   126208919.75206  24016756.320    98344644.73344
  20917947.720   109924712.05608  20917948.360    85655670.47649
  22965232.100   120683206.29307  22965237.000    94038930.36646
  24621085.840   129384679.90305  24621090.080   100819252.05044
  22108389.200   116180647.65308  22108390.740    90530516.24047
  21531021.340   113146288.11008  21531022.500    88165943.61748
 15 01 30 01 03  0.0000000  0  7G16G18G21G25G27G29G31
  23431659.840   123134211.01106  23431661.700    95948747.91945
  24001550.760   126129028.62506  24001553.220    98282392.10444
  20915794.880   109913398.45908  20915795.480    85646854.69649
  22981035.080   120766251.02707  22981039.900    94103640.52646
  24606300.280   129306980.89005  24606304.760   100758707.45744
  22120830.740   116246028.66008  22120832.380    90581462.46347
  21541667.960   113202236.40008  21541669.140    88209539.68348
 15 01 30 01 03 30.0000000  0  7G16G18G21G25G27G29G31
  23414598.740   123044554.37807  23414600.600    95878885.64446
  23986351.780   126049157.86906  23986354.080    98220155.30445
  20913727.840   109902535.91408  20913728.420    85638390.39049
  22996886.320   120849549.84207  22996891.000    94168548.67246
  24591531.580   129229366.76405  24591535.480   100698228.31844
  22133289.160   116311498.10508  22133290.780    90632477.61347
  21552401.960   113258643.81608  21552403.140    88253493.50448
 15 01 30 01 04  0.0000000  0  7G16G18G21G25G27G29G31
  23397551.120   122954968.48607  23397552.920    95809078.48445
  23971157.300   125969311.89006  23971159.600    98157937.80044
  20911746.880   109892126.08808  20911747.520    85630278.84849
  23012785.960   120933103.11907  23012790.460    94233655.10946
  24576779.520   129151844.67605  24576783.780   100637821.56744
  22145764.460   116377056.15108  22145766.100    90683561.79747
  21563223.160   113315509.45408  21563224.300    88297804.37848
 15 01 30 01 04 30.0000000  0  7G16G18G21G25G27G29G31
  23380516.900   122865453.08207  23380518.600    95739326.26045
  23955967.520   125889491.41506  23955969.900    98095740.18244
  20909851.540   109882166.28008  20909852.220    85622517.97049
  23028733.600   121016908.30507  23028737.840    94298957.82246
  24562043.980   129074415.00405  24562048.660   100577476.92744
  22158256.180   116442700.50908  22158257.840    90734713.23247
  21574130.820   113372829.61508  21574131.960    88342469.43048
 15 01 30 01 05  0.0000000  0  7G16G18G21G25G27G29G31
  23363495.740   122776006.43507  23363497.380    95669627.61545
  23940782.320   125809695.38306  23940784.800    98033561.58344
  20908041.120   109872652.76408  20908041.800    85615104.85349
  23044728.420   121100961.14107  23044732.420    94364453.53146
  24547324.400   128997064.41105  24547329.200   100517203.80945
  22170763.600   116508427.16708  22170765.200    90785928.79347
  21585123.900   113430598.68808  21585125.060    88387484.28048
 15 01 30 01 05 30.0000000  0  7G16G18G21G25G27G29G31
  23346487.940   122686629.99807  23346489.500    95599983.65645
  23925602.400   125729926.01206  23925605.000    97971403.80644
  20906315.520   109863585.19208  20906316.240    85608039.22349
  23060770.120   121185260.45207  23060774.100    94430141.28946
  24532620.860   128919797.39605  24532625.780   100456995.81144
  22183286.460   116574235.20308  22183288.020    90837207.76247
  21596201.940   113488814.10708  21596203.120    88432846.94048
 15 01 30 01 06  0.0000000  0  7G16G18G21G25G27G29G31
  23329494.420   122597328.52307  23329495.940    95530398.11845
  23910428.800   125650189.20406  23910431.300    97909271.36644
  20904675.280   109854965.90908  20904676.000    85601322.91149
  23076859.120   121269808.58107  23076863.220    94496022.93446
  24517933.920   128842617.38205  24517939.080   100396855.59345
  22195825.260   116640126.95008  22195826.760    90888551.96247
  21607365.080   113547476.84608  21607366.320    88478558.16348
 15 01 30 01 06 30.0000000  0  7G16G18G21G25G27G29G31
  23312515.060   122508101.70207  23312516.580    95460870.76045
  23895261.580   125570485.48805  23895264.120    97847164.73945
  20903119.920   109846792.47108  20903120.620    85594954.00449
  23092994.800   121354602.34407  23092999.120    94562095.99046
  24503263.180   128765522.10205  24503268.440   100336781.37544
  22208379.480   116706099.75608  22208380.960    90939959.33347
  21618612.520   113606582.54508  21618613.780    88524614.55048
 15 01 30 01 07  0.0000000  0  7G16G18G21G25G27G29G31
  23295550.420   122418952.22807  23295551.920    95391403.66544
  23880101.580   125490819.24406  23880104.020    97785087.28744
  20901649.600   109839065.68008  20901650.240    85588933.14049
  23109177.360   121439642.42607  23109181.860    94628360.98046
  24488608.880   128688513.03605  24488614.220   100276774.41745
  22220949.220   116772154.47408  22220950.740    90991430.53847
  21629944.160   113666130.53408  21629945.380    88571015.57848
 15 01 30 01 07 30.0000000  0  7G16G18G21G25G27G29G31
  23278600.840   122329881.54707  23278602.300    95321997.97745
  23864948.960   125411192.16206  23864951.460    97723040.36344
  20900264.020   109831784.47608  20900264.660    85583259.48149
  23125406.520   121524927.31107  23125411.180    94694816.72246
  24473970.840   128611589.72105  24473976.280   100216834.24445
  22233534.280   116838289.61908  22233535.840    91042964.40647
  21641359.420   113726117.98508  21641360.580    88617759.03948
 15 01 30 01 08  0.0000000  0  7G16G18G21G25G27G29G31
  23261666.420   122240890.49507  23261667.920    95252654.34245
  23849804.200   125331606.12106  23849806.680    97661025.38344
  20898963.000   109824947.78608  20898963.680    85577932.20049
  23141681.940   121610455.47507  23141686.740    94761462.03146
  24459348.960   128534751.41205  24459354.360   100156960.32144
  22246134.460   116904504.26108  22246136.060    91094560.23247
  21652857.720   113786541.88908  21652858.840    88664842.58948
 15 01 30 01 08 30.0000000  0  7G16G18G21G25G27G29G31
  23244747.820   122151982.59407  23244749.340    95183375.49046
  23834668.160   125252065.90206  23834670.520    97599046.09144
  20897746.860   109818557.09008  20897747.580    85572952.44549
  23158003.840   121696227.78507  23158008.620    94828297.56946
  24444743.560   128457999.88805  24444748.920   100097154.00045
  22258749.960   116970799.48908  22258751.640    91146218.84947
  21664438.980   113847402.00208  21664440.080    88712266.03248
 15 01 30 01 09  0.0000000  0  7G16G18G21G25G27G29G31
  23227845.120   122063158.56907  23227846.680    95114162.02045
  23819541.040   125172572.77806  23819543.520    97537103.49644
  20896615.220   109812610.55508  20896615.980    85568318.79049
  23174371.780   121782242.09307  23174376.480    94895321.68446
  24430154.460   128381334.01005  24430159.760   100037414.43044
  22271380.440   117037173.20408  22271382.140    91197938.61947
  21676102.600   113908694.81008  21676103.700    88760026.65348
 15 01 30 01 09 30.0000000  0  7G16G18G21G25G27G29G31
  23210958.640   121974419.81007  23210960.260    95045014.96745
  23804423.400   125093129.23806  23804425.760    97475199.49644
  20895567.940   109807107.14008  20895568.700    85564030.42549
  23190785.540   121868497.21507  23190790.140    94962533.42746
  24415581.600   128304753.49705  24415586.920    99977741.36345
  22284025.760   117103624.77508  22284027.500    91249719.05647
  21687848.080   113970417.83908  21687849.200    88808122.50848
 15 01 30 01 10  0.0000000  0  7G16G18G21G25G27G29G31
  23194088.880   121885768.96707  23194090.500    94975936.42545
  23789315.860   125013739.08606  23789318.360    97413337.15745
  20894605.120   109802047.58908  20894605.880    85560087.93249
  23207245.140   121954993.26007  23207249.680    95029932.92246
  24401025.220   128228259.43005  24401030.400    99918135.66244
  22296686.060   117170155.04608  22296687.820    91301560.81247
  21699675.180   114032569.69808  21699676.340    88856552.52648
 15 01 30 01 10 30.0000000  0  7G16G18G21G25G27G29G31
  23177235.680   121797204.94507  23177237.200    94906925.52345
  23774218.580   124934401.98706  23774220.920    97351516.12144
  20893726.140   109797428.54208  20893726.900    85556488.68249
  23223749.880   122041726.52207  23223754.480    95097517.24546
  24386484.800   128151849.05205  24386489.760    99858595.18744
  22309360.660   117236760.24208  22309362.400    91353460.94947
  21711582.940   114095145.25708  21711584.100    88905312.70048
 15 01 30 01 11  0.0000000  0  7G16G18G21G25G27G29G31
  23160399.920   121708732.28907  23160401.340    94837985.82145
  23759132.300   124855123.17206  23759134.720    97289740.54545
  20892931.360   109793252.10008  20892932.140    85553234.32649
  23240300.180   122128698.74907  23240304.740    95165287.79946
  24371960.900   128075525.00905  24371965.620    99799121.95845
  22322049.920   117303442.57208  22322051.640    91405421.18047
  21723571.380   114158144.96608  21723572.600    88954403.37648
 15 01 30 01 11 30.0000000  0  7G16G18G21G25G27G29G31
  23143581.740   121620352.27807  23143583.100    94769118.31445
  23744057.620   124775904.97306  23744059.900    97228012.18545
