     2.11           OBSERVATION DATA    M                   RINEX VERSION / TYPE
SPIDER V4,0,0,3554                      2015 03 24 05:36    PGM / RUN BY / DATE 
CNAJ                                                        MARKER NAME         
CNAJ                                                        MARKER NUMBER       
                                                            OBSERVER / AGENCY   
496642              LEICA GRX1200+GNSS  8.10/4.007          REC # / TYPE / VERS 
10321018            LEIAR25         NONE                    ANT # / TYPE        
  5206098.7325   612081.0247  3621806.3029                  APPROX POSITION XYZ 
        0.0720        0.0000        0.0000                  ANTENNA: DELTA H/E/N
     1     1                                                WAVELENGTH FACT L1/2
     4    C1    L1    P2    L2                              # / TYPES OF OBSERV 
    30.000                                                  INTERVAL            
  2015    01    13    00    00    0.0000000     GPS         TIME OF FIRST OBS   
  2015    01    13    23    59   30.0000000     GPS         TIME OF LAST OBS    
    16                                                      LEAP SECONDS        
    36                                                      # OF SATELLITES     
   G 1   765   764   764   764                              PRN / # OF OBS      
   G 2   888   887   886   886                              PRN / # OF OBS      
   G 3   831   831   831   831                              PRN / # OF OBS      
   G 4   821   821   819   819                              PRN / # OF OBS      
   G 5   608   608   608   608                              PRN / # OF OBS      
   G 6   781   780   773   772                              PRN / # OF OBS      
   G 7   560   560   560   560                              PRN / # OF OBS      
   G 9   781   780   779   778                              PRN / # OF OBS      
   G10   712   712   712   712                              PRN / # OF OBS      
   G11   749   749   749   749                              PRN / # OF OBS      
   G12   829   829   828   828                              PRN / # OF OBS      
   G13   759   759   759   759                              PRN / # OF OBS      
   G14   948   948   947   947                              PRN / # OF OBS      
   G15   705   705   704   704                              PRN / # OF OBS      
   G16   665   665   664   664                              PRN / # OF OBS      
   G17   924   921   921   921                              PRN / # OF OBS      
   G18   904   903   899   899                              PRN / # OF OBS      
   G19   759   759   758   758                              PRN / # OF OBS      
   G20   850   850   849   849                              PRN / # OF OBS      
   G21   743   742   742   741                              PRN / # OF OBS      
   G22   655   655   653   653                              PRN / # OF OBS      
   G23   756   756   756   756                              PRN / # OF OBS      
   G24   838   838   838   838                              PRN / # OF OBS      
   G25   861   861   861   861                              PRN / # OF OBS      
   G27   801   799   800   799                              PRN / # OF OBS      
   G28   869   869   868   868                              PRN / # OF OBS      
   G29   785   785   776   776                              PRN / # OF OBS      
   G30   628   628   618   618                              PRN / # OF OBS      
   G31   848   848   843   843                              PRN / # OF OBS      
   G32   774   774   765   765                              PRN / # OF OBS      
   R11    90    90    90    90                              PRN / # OF OBS      
   R12    90    90    90    90                              PRN / # OF OBS      
   R13    90    90    89    89                              PRN / # OF OBS      
   R21    90    90    90    90                              PRN / # OF OBS      
   R22    90    90    90    90                              PRN / # OF OBS      
   R23    90    90    90    90                              PRN / # OF OBS      
BIT 2 OF LLI FLAGS DATA COLLECTED UNDER A/S CONDITION       COMMENT             
SNR is mapped to RINEX snr flag value [2-9]                 COMMENT             
Lx:     = 25dBHz -> 1; 26-27dBHz -> 2; 28-31dBHz -> 3       COMMENT             
       32-35dBHz -> 4; 36-38dBHz -> 5; 39-41dBHz -> 6       COMMENT             
       42-44dBHz -> 7; 45-48dBHz -> 8; >=49dBHz -> 9        COMMENT             
                                                            END OF HEADER       
 15 01 13 00 00  0.0000000  0  8G02G12G14G21G24G25G29G31
  23681306.200   124446137.62608  23681299.360    96970988.99544
  22612161.600   118827870.34908  22612158.940    92593221.13145
  22779966.760   119709541.15007  22779964.480    93280129.78145
  23951584.840   125866474.35107  23951584.440    98077746.53744
  23989162.060   126063982.10807  23989164.400    98231695.62443
  20742207.400   109001048.52409  20742204.860    84935919.59447
  20080485.240   105523773.31408  20080482.920    82226369.75148
  22230583.880   116822507.89808  22230580.320    91030528.04747
 15 01 13 00 00 30.0000000  0  8G02G12G14G21G24G25G29G31
  23692291.660   124503866.41408  23692285.020    97015972.43744
  22623592.800   118887943.05308  22623590.840    92640030.98946
  22791171.920   119768428.06607  22791170.300    93326015.63445
  23933512.280   125771503.72407  23933511.500    98003743.73944
  24009252.120   126169554.54407  24009254.180    98313959.78243
  20744330.000   109012202.58108  20744327.400    84944611.05747
  20080786.040   105525353.76908  20080783.500    82227601.27648
  22216107.760   116746436.36208  22216104.280    90971251.54246
 15 01 13 00 01  0.0000000  0  8G02G12G14G21G24G25G29G31
  23703352.520   124561991.88308  23703345.940    97061265.00944
  22635047.940   118948141.08708  22635046.580    92686938.49146
  22802445.440   119827672.67108  22802444.400    93372180.20445
  23915452.940   125676603.55307  23915452.140    97929795.86644
  24029369.920   126275273.84706  24029371.780    98396338.34141
  20746493.900   109023573.98708  20746491.460    84953471.88247
  20081169.940   105527371.11409  20081167.260    82229173.23548
  22201688.920   116670664.96208  22201685.320    90912208.89646
 15 01 13 00 01 30.0000000  0  8G02G12G14G21G24G25G29G31
  23714487.720   124620508.44808  23714481.060    97106862.31745
  22646526.420   119008461.28008  22646525.400    92733941.20146
  22813786.260   119887268.21008  22813785.280    93418618.24945
  23897406.720   125581772.34207  23897405.760    97855901.70444
  24049514.420   126381134.10107  24049516.120    98478826.82042
  20748698.420   109035159.24808  20748696.220    84962499.35547
  20081635.940   105529820.49908  20081633.440    82231081.85748
  22187327.020   116595192.17708  22187323.040    90853398.93246
 15 01 13 00 02  0.0000000  0  8G02G12G14G21G24G25G29G31
  23725697.840   124679419.03508  23725691.400    97152766.66345
  22658029.140   119068908.15508  22658028.200    92781042.61247
  22825194.520   119947216.37508  22825193.080    93465331.07745
  23879375.000   125487017.32907  23879373.980    97782066.91743
  24069686.320   126487137.81508  24069688.320    98561427.02643
  20750944.640   109046963.54008  20750942.680    84971697.51247
  20082184.740   105532705.21108  20082182.560    82233329.69748
  22173023.360   116520025.10608  22173018.840    90794827.17846
 15 01 13 00 02 30.0000000  0  8G02G12G14G21G24G25G29G31
  23736982.180   124738719.78208  23736976.300    97198975.02545
  22669555.880   119129480.24808  22669554.660    92828241.59447
  22836669.080   120007511.95608  22836666.600    93512314.60744
  23861357.860   125392338.43507  23861356.640    97708291.42844
  24089884.680   126593280.87607  24089887.000    98644135.81344
  20753232.100   109058984.79308  20753230.540    84981064.70847
  20082815.660   105536021.56708  20082813.780    82235913.86648
  22158777.780   116445163.48708  22158772.800    90736493.44746
 15 01 13 00 03  0.0000000  0  8G02G12G14G21G24G25G29G31
  23748341.240   124798413.09607  23748335.980    97245489.26545
  22681107.300   119190181.38108  22681105.640    92875541.15147
  22848210.060   120068156.55208  22848206.300    93559570.11444
  23843356.600   125297742.31807  23843355.420    97634580.43643
  24110109.820   126699565.13007  24110112.300    98726954.57944
  20755561.840   109071227.73309  20755560.680    84990604.66047
  20083529.280   105539772.42509  20083527.460    82238836.61348
  22144591.520   116370613.85609  22144586.220    90678402.80545
 15 01 13 00 03 30.0000000  0  8G02G12G14G21G24G25G29G31
  23759774.100   124858494.11408  23759769.020    97292305.61645
  22692682.760   119251008.44009  22692680.660    92922938.83147
  22859816.220   120129144.14508  22859811.580    93607092.92044
  23825371.120   125203228.56807  23825369.760    97560933.56444
  24130360.840   126805985.67507  24130363.820    98809879.54044
  20757933.380   109083689.89809  20757932.440    85000315.42747
  20084324.760   105543953.65908  20084322.940    82242094.72048
  22130464.540   116296375.82809  22130459.080    90620554.98746
 15 01 13 00 04  0.0000000  0  8G02G12G14G21G24G25G29G31
  23771280.820   124918962.70908  23771275.740    97339424.00845
  22704282.620   119311963.71409  22704280.120    92970436.43947
  22871487.260   120190473.95408  22871482.420    93654882.37344
  23807402.140   125108801.47707  23807400.360    97487354.23944
  24150637.700   126912542.34507  24150641.140    98892910.54344
  20760347.080   109096373.29909  20760346.300    85010198.59847
  20085202.280   105548565.67008  20085200.400    82245688.50348
  22116397.740   116222453.72509  22116392.120    90562953.33246
 15 01 13 00 04 30.0000000  0  8G02G12G14G21G24G25G29G31
  23782860.580   124979815.18907  23782855.600    97386841.52345
  22715906.400   119373045.40409  22715903.660    93018032.54647
  22883222.200   120252140.78808  22883217.760    93702934.43845
  23789449.460   125014460.78407  23789447.100    97413842.25044
  24170939.560   127019230.65807  24170943.220    98976044.12845
  20762802.620   109109276.28709  20762801.900    85020252.87748
  20086161.420   105553605.64909  20086159.400    82249615.77148
  22102391.140   116148847.55209  22102385.440    90505597.87046
 15 01 13 00 05  0.0000000  0  8G02G12G14G21G24G25G29G31
  23794514.120   125041055.59407  23794509.320    97434561.29645
  22727555.160   119434258.79509  22727552.200    93065731.27247
  22895021.560   120314147.38208  22895018.000    93751251.22545
  23771514.720   124920214.64207  23771512.000    97340403.90943
  24191267.360   127126054.77007  24191271.220    99059283.53244
  20765301.020   109122405.08409  20765300.380    85030483.10448
  20087202.960   105559077.40209  20087200.800    82253879.46648
  22088446.180   116075565.21009  22088440.600    90448494.74347
 15 01 13 00 05 30.0000000  0  8G02G12G14G21G24G25G29G31
  23806240.280   125102677.66907  23806235.620    97482578.47745
  22739228.160   119495599.90709  22739225.080    93113529.52947
  22906884.100   120376486.69608  22906881.540    93799827.26145
  23753597.600   124826061.40407  23753595.120    97267037.92443
  24211619.860   127233007.55107  24211623.320    99142623.18944
  20767841.440   109135755.57008  20767840.940    85040886.07447
  20088325.700   105564975.14409  20088323.340    82258475.09748
  22074562.480   116002605.01209  22074557.220    90391642.64946
 15 01 13 00 06  0.0000000  0  8G02G12G14G21G24G25G29G31
  23818038.280   125164676.99008  23818033.600    97530889.64645
  22750924.920   119557066.38309  22750921.840    93161425.47447
  22918808.880   120439153.65908  22918807.240    93848658.61945
  23735698.380   124732001.25607  23735696.060    97193744.53743
  24231996.180   127340084.59208  24231999.080    99226059.71044
  20770423.580   109149325.93409  20770423.260    85051460.37247
  20089528.900   105571295.46709  20089526.180    82263400.03748
  22060739.940   115929966.55209  22060735.020    90335041.26947
 15 01 13 00 06 30.0000000  0  8G02G12G14G21G24G25G29G31
  23829908.140   125227053.43007  23829903.080    97579494.65345
  22762645.620   119618659.38209  22762642.520    93209420.00546
  22930795.580   120502146.09007  22930794.700    93897743.57546
  23717817.720   124638037.80107  23717815.460    97120526.46343
  24252396.060   127447285.31607  24252398.540    99309592.56144
  20773047.980   109163117.89809  20773047.720    85062207.34147
  20090812.260   105578038.04509  20090809.220    82268653.99248
  22046979.220   115857653.59308  22046974.680    90278693.51347
 15 01 13 00 07  0.0000000  0  8G02G12G14G21G24G25G29G31
  23841849.540   125289805.65107  23841844.160    97628392.46245
  22774390.520   119680379.69709  22774387.540    93257513.75946
  22942843.780   120565461.76807  22942843.440    93947080.41846
  23699956.180   124544174.01007  23699954.140    97047386.05844
  24272819.200   127554608.49307  24272821.280    99393220.83544
  20775714.740   109177132.46009  20775714.540    85073127.76448
  20092175.580   105585202.25609  20092172.400    82274236.49248
  22033280.880   115785669.11608  22033276.740    90222601.74647
 15 01 13 00 07 30.0000000  0  8G02G12G14G21G24G25G29G31
  23853862.160   125352931.72507  23853856.480    97677581.60945
  22786159.640   119742228.05708  22786156.820    93305707.26945
  22954952.980   120629097.84407  22954953.020    93996666.90945
  23682113.920   124450412.06207  23682112.260    96974324.99443
  24293265.060   127662051.20107  24293266.920    99476942.27442
  20778423.860   109191370.04609  20778423.820    85084221.98147
  20093618.760   105592786.97809  20093615.520    82280146.64648
  22019645.420   115714015.44108  22019641.600    90166767.72347
 15 01 13 00 08  0.0000000  0  8G02G12G14G21G24G25G29G31
  23865945.720   125416430.06307  23865939.840    97727060.82345
  22797953.020   119804204.85508  22797950.500    93354000.87245
  22967122.560   120693051.64907  22967122.740    94046500.99446
  23664291.620   124356755.06407  23664289.760    96901345.67943
  24313733.500   127769612.68607  24313736.100    99560756.28543
  20781175.500   109205831.59408  20781175.700    85095490.72548
  20095141.720   105600791.28208  20095138.460    82286383.78148
  22006073.520   115642695.34208  22006069.880    90111193.63546
 15 01 13 00 08 30.0000000  0  8G02G12G14G21G24G25G29G31
  23878099.940   125480299.46708  23878093.680    97776829.16645
  22809770.860   119866310.51108  22809768.400    93402394.90244
  22979352.200   120757320.98707  22979352.400    94096580.92645
  23646489.780   124263205.54807  23646488.040    96828450.10443
  24334224.160   127877291.09807  24334227.020    99644661.39543
  20783969.820   109220517.85208  20783970.440    85106934.54648
  20096744.260   105609214.13208  20096741.140    82292947.02248
  21992565.740   115571711.45009  21992562.140    90055881.51746
 15 01 13 00 09  0.0000000  0  8G02G12G14G21G24G25G29G31
  23890323.460   125544532.90408  23890316.840    97826881.16945
  22821612.060   119928539.51907  22821609.820    93450885.04144
  22991640.500   120821897.28307  22991640.480    94146900.07545
  23628707.700   124169761.03107  23628705.760    96755636.28242
  24354735.760   127985078.90908  24354738.500    99728651.75044
  20786806.120   109235424.16708  20786807.040    85118549.84948
  20098425.140   105618048.68708  20098422.240    82299831.09548
  21979121.520   115501060.86209  21979117.840    90000829.11746
 15 01 13 00 09 30.0000000  0  8G02G12G14G21G24G25G29G31
  23902617.220   125609135.55608  23902610.300    97877220.89845
  22833477.780   119990899.52807  22833475.900    93499477.24944
  23003988.260   120886785.31307  23003988.160    94197462.12344
  23610947.300   124076430.95407  23610945.440    96682911.66642
  24375269.200   128092981.13308  24375271.540    99812731.28543
  20789685.820   109250558.13108  20789687.020    85130342.54448
  20100185.520   105627300.80308  20100182.900    82307040.53548
  21965742.640   115430753.30909  21965738.740    89946044.02346
 15 01 13 00 10  0.0000000  0  8G02G12G14G21G24G25G29G31
  23914980.940   125674106.59707  23914973.980    97927847.65945
  22845368.720   120053391.24306  22845367.540    93548172.07945
  23016395.020   120951982.82007  23016394.780    94248265.32745
  23593209.260   123983218.93807  23593207.360    96610279.03943
  24395824.080   128200996.75507  24395826.200    99896899.11443
  20792609.280   109265921.14808  20792610.540    85142313.71248
  20102025.440   105636970.04908  20102023.040    82314575.01448
  21952429.680   115360791.94409  21952425.540    89891528.68446
 15 01 13 00 10 30.0000000  0  8G02G12G14G21G24G25G29G31
  23927413.840   125739441.59407  23927407.060    97978758.03245
  22857284.740   120116013.17307  22857284.520    93596968.33945
  23028859.580   121017483.88607  23028859.260    94299305.08344
  23575493.680   123890124.76007  23575491.960    96537738.27844
  24416399.540   128309121.06507  24416401.540    99981151.61244
  20795576.060   109281511.09608  20795577.180    85154461.71948
  20103944.320   105647052.64209  20103941.920    82322431.58548
  21939182.560   115291176.66309  21939178.120    89837283.01946
 15 01 13 00 11  0.0000000  0  8G02G12G14G21G24G25G29G31
  23939915.460   125805137.52507  23939908.800    98029949.63645
  22869225.720   120178763.80107  22869225.880    93645864.91246
  23041381.040   121083285.05207  23041380.960    94350578.69045
  23557800.720   123797149.76107  23557799.740    96465290.39344
  24436995.100   128417351.12407  24436996.820   100065486.52444
  20798586.020   109297327.55808  20798586.940    85166786.22048
  20105941.560   105657546.25909  20105939.040    82330608.45048
  21926001.500   115221908.71909  21925996.580    89783307.99146
 15 01 13 00 11 30.0000000  0  8G02G12G14G21G24G25G29G31
  23952485.780   125871194.06208  23952479.120    98081422.26645
  22881192.060   120241645.06907  22881192.160    93694863.30545
  23053959.140   121149384.82206  23053959.640    94402084.93645
  23540131.180   123704297.50707  23540130.680    96392938.15945
  24457610.440   128525686.01906  24457612.280   100149903.12044
  20801639.520   109313372.47908  20801640.140    85179288.75248
  20108016.980   105668450.86009  20108014.340    82339105.55848
  21912887.220   115152991.91909  21912881.660    89729606.58446
 15 01 13 00 12  0.0000000  0  8G02G12G14G21G24G25G29G31
  23965123.800   125937606.70607  23965117.360    98133172.36845
  22893182.880   120304654.11908  22893182.540    93743961.22746
  23066592.780   121215777.27606  23066593.820    94453819.28845
  23522485.120   123611568.35707  23522484.920    96320681.85345
  24478244.680   128634121.41107  24478246.760   100234397.96344
  20804735.960   109329643.68208  20804736.460    85191967.60348
  20110169.600   105679762.15008  20110166.860    82347919.57148
  21899839.760   115084426.40209  21899833.520    89676178.89945
 15 01 13 00 12 30.0000000  0  8G02G12G14G21G24G25G29G31
  23977828.980   126004373.15607  23977823.000    98185198.15145
  22905198.240   120367791.06008  22905197.320    93793158.81346
  23079281.540   121282459.29106  23079283.280    94505779.24645
  23504862.960   123518963.89607  23504862.740    96248522.69645
  24498897.840   128742654.40208  24498899.880   100318968.94544
  20807875.320   109346141.09108  20807875.820    85204822.72148
  20112398.980   105691478.52508  20112396.300    82357049.22448
  21886859.360   115016213.17009  21886852.580    89623025.71545
 15 01 13 00 13  0.0000000  0  8G02G12G14G21G24G25G29G31
  23990601.000   126071491.52507  23990595.740    98237498.16445
  22917237.880   120431055.39408  22917236.500    93842455.69146
  23092025.200   121349427.85006  23092027.240    94557962.50045
  23487265.200   123426487.23707  23487264.680    96176463.08745
  24519569.500   128851283.13208  24519571.000   100403614.58343
  20811057.800   109362865.40908  20811058.280    85217854.65548
  20114704.940   105703598.84408  20114702.540    82366493.63948
  21873946.480   114948354.98609  21873939.520    89570149.20446
 15 01 13 00 13 30.0000000  0  8G02G12G14G21G24G25G29G31
  24003440.180   126138963.05407  24003435.480    98290073.35546
  22929302.360   120494451.59108  22929300.580    93891855.29146
  23104823.800   121416682.87407  23104825.460    94610368.93844
  23469692.700   123334143.45507  23469692.200    96104507.04745
  24540259.700   128960009.08008  24540260.560   100488335.96643
  20814284.180   109379820.28208  20814284.580    85231066.23648
  20117087.920   105716124.46508  20117085.940    82376253.86348
  21861102.160   114880857.41909  21861095.420    89517553.70346
 15 01 13 00 14  0.0000000  0  8G02G12G14G21G24G25G29G31
  24016346.220   126206784.89107  24016341.820    98342921.54845
  22941391.460   120557977.91208  22941389.140    93941356.34146
  23117676.260   121484220.50007  23117677.280    94662995.60344
  23452145.720   123241933.85207  23452144.960    96032655.51544
  24560967.620   129068828.61508  24560968.340   100573130.23144
  20817554.280   109397004.88108  20817554.640    85244456.82348
  20119547.760   105729052.87208  20119546.040    82386327.92448
  21848326.540   114813721.57709  21848320.360    89465240.09046
 15 01 13 00 14 30.0000000  0  8G02G12G14G21G24G25G29G31
  24029318.800   126274956.37207  24029314.740    98396042.16245
  22953505.480   120621636.50208  22953502.900    93990960.40146
  23130582.340   121552039.59907  23130582.580    94715841.64243
  23434625.060   123149862.81707  23434624.240    95960911.97844
  24581693.240   129177741.30608  24581694.260   100657997.02644
  20820868.580   109414421.67908  20820868.900    85258028.34248
  20122084.600   105742384.18508  20122082.780    82396715.95448
  21835620.520   114746951.76109  21835614.940    89413211.68146
 15 01 13 00 15  0.0000000  0  8G02G12G14G21G24G25G29G31
  24042357.680   126343476.51707  24042353.980    98449434.47445
  22965644.840   120685428.35508  22965641.920    94040668.34746
  23143541.600   121620137.95107  23143541.160    94768905.26043
  23417131.160   123057933.44607  23417130.660    95889278.80343
  24602436.380   129286745.94508  24602437.760   100742935.49444
  20824227.420   109432071.94109  20824227.700    85271781.80048
  20124698.180   105756117.96308  20124696.120    82407417.59448
  21822984.780   114680551.10109  21822979.640    89361470.93346
 15 01 13 00 15 30.0000000  0  8G02G12G14G21G24G25G29G31
  24055461.660   126412339.05907  24055458.340    98503093.59245
  22977808.560   120749349.13508  22977805.460    94090476.72246
  23156552.460   121688507.79207  23156551.220    94822180.41544
  23399663.660   122966143.60506  23399663.600    95817754.38844
  24623195.740   129395835.90407  24623197.200   100827940.43244
  20827630.000   109449951.67809  20827630.220    85285714.05348
  20127387.320   105770248.70608  20127385.020    82418428.55548
  21810418.880   114614517.14509  21810414.100    89310015.92346
 15 01 13 00 16  0.0000000  0  8G02G12G14G21G24G25G29G31
  24068630.760   126481544.69607  24068627.780    98557020.06345
  22989997.260   120813401.26008  22989994.020    94140387.46645
  23169615.100   121757149.12008  23169612.520    94875667.12543
  23382223.560   122874498.47207  23382223.960    95746342.75044
  24643971.480   129505012.16408  24643972.660   100913012.56644
  20831076.900   109468064.14609  20831076.980    85299827.64848
  20130152.000   105784777.07608  20130149.620    82429749.36148
  21797923.820   114548855.25909  21797919.120    89258850.81346
 15 01 13 00 16 30.0000000  0  8G02G12G14G21G24G25G29G31
  24081864.120   126551087.68707  24081861.440    98611209.41645
  23002210.360   120877581.48908  23002207.040    94190398.03845
  23182728.040   121826055.02608  23182724.660    94929360.03344
  23364811.020   122782997.04607  23364811.880    95675043.04744
  24664762.580   129614268.73908  24664763.720   100998147.28745
  20834567.440   109486406.05409  20834567.420    85314120.04248
  20132991.160   105799697.57208  20132988.920    82441375.72648
  21785499.240   114483563.78409  21785494.420    89207974.34746
 15 01 13 00 17  0.0000000  0  8G02G12G14G21G24G25G29G31
  24095162.500   126620972.48807  24095159.960    98665665.08545
  23014449.140   120941896.55408  23014445.700    94240513.67045
  23195891.760   121895228.54308  23195887.720    94983261.43243
  23347427.640   122691647.61607  23347428.480    95603861.77844
  24685569.840   129723609.51408  24685570.880   101083347.61445
  20838102.880   109504983.92609  20838102.780    85328596.29748
  20135905.940   105815015.68008  20135904.100    82453311.91248
  21773146.700   114418650.80309  21773141.520    89157392.79646
 15 01 13 00 17 30.0000000  0  8G02G12G14G21G24G25G29G31
  24108524.080   126691188.75807  24108521.540    98720379.06045
  23026712.120   121006338.03708  23026708.640    94290727.80445
  23209104.240   121964658.77008  23209099.940    95037362.89744
  23330072.100   122600444.17407  23330072.920    95532794.29444
  24706391.240   129833024.27308  24706392.000   101168605.59244
  20841681.740   109523790.28709  20841681.680    85343250.60748
  20138894.520   105830721.48608  20138893.160    82465550.20248
  21760865.140   114354110.83809  21760859.480    89107101.90846
 15 01 13 00 18  0.0000000  0  8G02G12G14G21G24G25G29G31
  24121949.700   126761740.56807  24121947.060    98775354.47945
  23039000.340   121070912.28108  23038997.040    94341045.36445
  23222366.000   122034348.87007  23222361.760    95091666.82644
  23312746.180   122509396.07807  23312746.500    95461847.79144
  24727227.420   129942517.05508  24727227.540   101253924.38243
  20845305.300   109542831.96109  20845305.320    85358088.26248
  20141957.760   105846819.34108  20141956.760    82478093.96948
  21748656.160   114289952.39109  21748650.200    89057108.30046
 15 01 13 00 18 30.0000000  0  8G02G12G14G21G24G25G29G31
  24135438.860   126832625.35307  24135436.000    98830589.38345
  23051313.940   121135619.04108  23051310.580    94391466.23245
  23235676.260   122104294.87107  23235672.280    95146170.17344
  23295450.080   122418504.57507  23295449.980    95391023.34144
  24748077.840   130052085.26908  24748077.200   101339302.03841
  20848973.540   109562108.56609  20848973.660    85373108.99348
  20145095.260   105863307.21508  20145094.540    82490941.65848
  21736520.060   114226177.10209  21736513.900    89007413.27046
 15 01 13 00 19  0.0000000  0  8G02G12G14G21G24G25G29G31
  24148991.120   126903841.23307  24148987.720    98886082.24645
  23063652.460   121200458.33008  23063649.380    94441990.32345
  23249034.580   122174493.84207  23249031.120    95200870.63144
  23278184.260   122327771.90507  23278184.000    95320322.67644
  24768942.160   130161726.92808  24768942.340   101424736.84744
  20852686.620   109581620.67009  20852686.740    85388313.21448
  20148306.680   105880183.80608  20148306.140    82504092.24148
  21724457.220   114162787.17009  21724450.820    88958018.50146
 15 01 13 00 19 30.0000000  0  8G02G12G14G21G24G25G29G31
  24162606.240   126975388.34707  24162602.480    98941833.21945
  23076016.620   121265432.24308  23076013.400    94492619.34244
  23262440.800   122244944.72107  23262437.780    95255767.37544
  23260949.760   122237203.13707  23260949.160    95249749.68645
  24789820.360   130271441.90808  24789821.560   101510228.74144
  20856445.000   109601370.96209  20856445.140    85403703.03747
  20151592.040   105897449.54608  20151591.700    82517546.05848
  21712468.400   114099786.91709  21712461.920    88908927.38745
 15 01 13 00 20  0.0000000  0  7G02G12G14G21G25G29G31
  24176282.340   127047256.11207  24176278.220    98997834.04044
  23088404.840   121330532.46808  23088401.220    94543346.81744
  23275892.600   122315636.19107  23275890.460    95310851.57445
  23243745.340   122146792.09308  23243744.580    95179299.63145
  20860247.120   109621351.40509  20860247.340    85419272.20647
  20154949.360   105915094.00808  20154949.240    82531294.97748
  21700552.400   114037170.00109  21700546.120    88860134.96045
 15 01 13 00 20 30.0000000  0  7G02G12G14G21G25G29G31
  24190021.680   127119456.49507  24190017.220    99054094.05645
  23100819.800   121395773.36108  23100815.560    94594183.89244
  23289391.880   122386579.20206  23289391.040    95366131.80745
  23226574.040   122056554.65808  23226573.060    95108984.84145
  20864095.760   109641576.50209  20864096.020    85435032.01848
  20158381.300   105933130.28508  20158381.300    82545349.21748
  21688712.480   113974952.83209  21688706.620    88811654.05446
 15 01 13 00 21  0.0000000  0  7G02G12G14G21G25G29G31
  24203822.220   127191978.62707  24203817.500    99110604.77444
  23113259.920   121461146.27308  23113254.920    94645123.84843
  23302936.320   122457761.95206  23302936.960    95421598.73844
  23209434.640   121966485.02408  23209433.440    95038800.80045
  20867989.420   109662037.98409  20867989.580    85450976.02147
  20161886.040   105951547.91308  20161885.960    82559700.61548
  21676947.620   113913128.85909  21676942.280    88763479.52046
 15 01 13 00 21 30.0000000  0  7G02G12G14G21G25G29G31
  24217683.280   127264818.96807  24217678.320    99167363.45944
  23125724.700   121526649.40708  23125719.500    94696165.23944
  23316525.960   122529179.39006  23316527.600    95477248.59144
  23192327.140   121876583.78208  23192325.860    94968747.99745
  20871927.860   109682734.93609  20871927.880    85467103.50047
  20165462.920   105970343.35908  20165462.580    82574346.41948
  21665257.960   113851698.65609  21665253.220    88715611.81947
 15 01 13 00 22  0.0000000  0  7G02G12G14G21G25G29G31
  24231604.440   127337974.61107  24231599.420    99224367.83344
  23138214.040   121592282.64308  23138209.360    94747308.02044
  23330160.420   122600828.04306  23330161.980    95533078.66845
  23175251.960   121786852.43808  23175250.520    94898827.56344
  20875910.920   109703666.87209  20875910.720    85483414.09347
  20169111.480   105989514.60608  20169110.720    82589285.04748
  21653643.760   113790663.93109  21653639.520    88668052.28747
 15 01 13 00 22 30.0000000  0  7G02G12G14G21G25G29G31
  24245585.700   127411445.78207  24245580.600    99281618.07844
  23150728.460   121658048.14008  23150724.640    94798553.83845
  23343839.280   122672707.14407  23343840.200    95589088.29745
  23158209.900   121697295.78708  23158208.240    94829043.24444
  20879939.340   109724836.73009  20879938.880    85499910.08047
  20172831.820   106009062.65708  20172830.660    82604517.29148
  21642105.700   113730029.12709  21642101.880    88620804.39047
 15 01 13 00 23  0.0000000  0  7G02G12G14G21G25G29G31
  24259627.060   127485232.83907  24259622.200    99339114.44944
  23163268.420   121723948.48608  23163264.880    94849904.73245
  23357561.920   122744815.77107  23357562.080    95645276.80345
  23141201.920   121607918.42008  23141199.920    94759398.59644
  20884013.620   109746247.12609  20884013.000    85516593.49247
  20176623.820   106028987.10109  20176622.260    82620042.82348
  21630644.520   113669798.29909  21630640.880    88573871.27347
 15 01 13 00 23 30.0000000  0  7G02G12G14G21G25G29G31
  24273728.020   127559333.35307  24273723.380    99396855.07345
  23175833.980   121789983.11807  23175831.140    94901360.29145
  23371327.480   122817150.68807  23371327.000    95701641.60946
  23124228.500   121518722.91908  23124226.280    94689895.67344
  20888133.740   109767898.49509  20888133.100    85533464.68247
  20180487.380   106049287.51609  20180485.440    82635861.32648
  21619260.480   113609973.65109  21619256.960    88527254.66948
 15 01 13 00 24  0.0000000  0  7G02G12G14G21G25G29G31
  24287887.960   127633744.35107  24287883.620    99454837.65645
  23188425.100   121856152.02008  23188422.920    94952920.38945
  23385135.140   122889707.74008  23385134.160    95758179.49945
  23107289.820   121429710.13808  23107287.480    94620535.13444
  20892299.700   109789790.39209  20892298.980    85550523.29147
  20184421.820   106069960.75209  20184419.560    82651970.34548
  21607953.920   113550556.67209  21607950.440    88480955.72747
 15 01 13 00 24 30.0000000  0  7G02G12G14G21G25G29G31
  24302106.440   127708463.65307  24302102.400    99513060.45645
  23201042.040   121922454.73707  23201039.800    95004584.86645
  23398984.360   122962483.76708  23398983.140    95814888.04245
  23090386.380   121340882.34208  23090384.000    94551318.74844
  20896511.540   109811923.21409  20896510.720    85567769.65447
  20188426.760   106091005.01109  20188424.280    82668368.47448
  21596725.140   113491549.15109  21596721.720    88434975.85048
 15 01 13 00 25  0.0000000  0  7G02G12G14G21G25G29G31
  24316383.340   127783489.71807  24316379.180    99571522.30544
  23213684.500   121988891.87508  23213682.400    95056354.03045
  23412874.660   123035476.11508  23412873.320    95871765.15545
  23073518.700   121252242.88408  23073516.540    94482249.13145
  20900769.340   109834297.93409  20900768.480    85585204.49847
  20192501.980   106112419.26309  20192499.320    82685054.89148
  21585574.760   113432953.82409  21585571.420    88389317.14748
 15 01 13 00 25 30.0000000  0  7G02G12G14G21G25G29G31
  24330717.180   127858814.55908  24330712.660    99630216.97944
  23226351.820   122055457.63808  23226349.560    95108223.42345
  23426804.380   123108675.96408  23426802.840    95928803.94545
  23056686.180   121163787.96808  23056684.080    94413323.29944
  20905072.040   109856909.19809  20905071.420    85602823.66147
  20196646.120   106134196.11409  20196643.320    82702023.85848
  21574502.060   113374766.97309  21574498.800    88343976.74647
 15 01 13 00 26  0.0000000  0  7G02G12G14G21G25G29G31
  24345109.120   127934444.60108  24345104.500    99689149.49244
  23239045.100   122122160.83807  23239042.680    95160199.88945
  23440774.500   123182088.57508  23440772.720    95986008.53045
  23039890.840   121075528.43008  23039888.880    94344549.70345
  20909421.400   109879765.95309  20909421.020    85620634.11047
  20200860.400   106156341.93209  20200857.420    82719280.32548
  21563509.140   113316999.35409  21563505.920    88298963.02348
 15 01 13 00 26 30.0000000  0  7G02G12G14G21G25G29G31
  24359558.060   128010374.55607  24359553.440    99748315.67644
  23251764.080   122188998.49108  23251760.820    95212281.19244
  23454783.860   123255707.91508  23454782.000    96043374.20545
  23023132.540   120987463.69208  23023130.560    94275927.91745
  20913816.980   109902865.87009  20913816.800    85638634.03147
  20205144.080   106178852.98009  20205140.900    82736821.40148
  21552595.800   113259649.95609  21552592.600    88254275.19748
 15 01 13 00 27  0.0000000  0  7G02G12G14G21G25G29G31
  24374063.620   128086602.11607  24374058.940    99807713.74344
  23264508.500   122255970.46307  23264504.360    95264467.10744
  23468831.820   123329530.25407  23468829.920    96100898.06044
  23006411.520   120899595.15608  23006409.580    94207458.99645
  20918258.840   109926208.57709  20918258.780    85656823.14947
  20209496.620   106201726.22609  20209493.220    82754644.72448
  21541762.360   113202720.36209  21541759.140    88209914.49147
 15 01 13 00 27 30.0000000  0  7G02G12G14G21G25G29G31
  24388625.620   128163126.70807  24388620.960    99867343.25144
  23277278.920   122323078.37207  23277274.660    95316758.97244
  23482918.080   123403554.59106  23482915.860    96158579.32344
  22989728.760   120811927.49608  22989726.860    94139146.59744
  20922747.440   109949796.74209  20922747.420    85675203.52147
  20213918.200   106224962.51309  20213914.700    82772750.93548
  21531009.600   113146214.72909  21531006.220    88165884.14047
 15 01 13 00 28  0.0000000  0  7G02G12G14G21G25G29G31
  24403242.880   128239941.17407  24403238.100    99927198.65544
  23290074.140   122390317.68908  23290069.380    95369153.18743
  23497041.040   123477772.80506  23497038.480    96216411.64443
  22973083.740   120724458.22908  22973081.660    94070988.79444
  20927281.860   109973625.92409  20927281.880    85693771.70247
  20218407.500   106248555.05309  20218404.060    82791134.74448
  21520337.020   113090130.24209  21520333.320    88122181.94247
 15 01 13 00 28 30.0000000  0  7G02G12G14G21G25G29G31
  24417916.340   128317050.76607  24417911.200    99987284.02344
  23302895.800   122457695.47008  23302890.160    95421655.40444
  23511201.260   123552188.67906  23511197.780    96274398.00043
  22956478.180   120637196.46808  22956475.920    94002992.66844
  20931863.640   109997703.71309  20931863.620    85712533.60847
  20222965.640   106272509.47509  20222962.360    82809800.52148
  21509746.400   113034475.90309  21509742.060    88078814.92147
 15 01 13 00 29  0.0000000  0  7G02G12G14G21G25G29G31
  24432644.660   128394448.09307  24432639.140   100047593.59744
  23315742.660   122525206.55907  23315737.160    95474261.43144
  23525397.240   123626793.71305  23525393.800    96332531.82843
  22939911.660   120550139.38308  22939908.860    93935156.03644
  20936491.860   110022025.03709  20936491.700    85731485.28247
  20227591.280   106296818.28109  20227588.200    82828742.44848
  21499237.120   112979248.48409  21499231.940    88035780.55847
 15 01 13 00 29 30.0000000  0  7G02G12G14G21G25G29G31
  24447428.040   128472134.34107  24447421.960   100108128.34444
  23328615.640   122592854.71708  23328610.260    95526974.23444
  23539629.320   123701588.84305  23539627.460    96390813.68444
  22923385.320   120463293.03008  22923381.540    93867483.59444
  20941167.340   110046594.37709  20941167.000    85750630.19847
  20232284.920   106321483.87809  20232281.960    82847962.38048
  21488810.220   112924453.90609  21488804.200    87993083.46346
 15 01 13 00 30  0.0000000  0  7G02G12G14G21G25G29G31
  24462265.180   128550103.08207  24462258.480   100168883.18344
  23341514.080   122660635.48608  23341508.360    95579790.43844
  23553896.440   123776566.58305  23553896.560    96449237.87743
  22906898.760   120376655.19108  22906894.260    93799973.60844
  20945889.220   110071407.63509  20945888.740    85769965.21147
  20237045.300   106346499.65409  20237042.360    82867455.20548
  21478465.260   112870089.87309  21478458.580    87950721.86747
 15 01 13 00 30 30.0000000  0  7G02G12G14G21G25G29G31
  24477155.900   128628352.93007  24477148.080   100229857.07044
  23354437.720   122728549.82808  23354431.940    95632710.66643
  23568198.160   123851724.01405  23568199.380    96507801.94744
  22890452.480   120290228.50808  22890447.260    93732628.15744
  20950657.660   110096465.93009  20950657.060    85789491.12247
  20241872.320   106371865.30309  20241869.400    82887220.64348
  21468202.680   112816159.01309  21468195.780    87908697.80047
 15 01 13 00 31  0.0000000  0  7G02G12G14G21G25G29G31
  24492099.780   128706881.77607  24492091.040   100291048.33744
  23367387.020   122796598.03908  23367380.740    95685735.28444
  23582533.900   123927058.29505  23582535.240    96566503.88345
  22874047.040   120204016.06708  22874041.740    93665449.64044
  20955472.880   110121770.01709  20955472.040    85809208.57147
  20246765.500   106397579.16209  20246762.680    82907257.41248
  21458022.880   112762663.28209  21458016.040    87867012.78647
 15 01 13 00 31 30.0000000  0  7G02G12G14G21G25G29G31
  24507096.560   128785688.72807  24507087.240   100352456.34844
  23380361.880   122864781.50708  23380356.000    95738865.24544
  23596903.400   124002567.68905  23596904.300    96625342.36245
  22857682.800   120118020.99808  22857677.900    93598440.57145
  20960335.440   110147321.71709  20960334.080    85829119.00447
  20251724.720   106423640.73709  20251722.120    82927565.14848
  21447926.480   112709606.15009  21447919.960    87825669.56747
 15 01 13 00 32  0.0000000  0  7G02G12G14G21G25G29G31
  24522145.800   128864771.56307  24522136.620   100414079.32644
  23393362.340   122933099.84508  23393357.120    95792100.29344
  23611305.840   124078248.76606  23611305.920    96684314.46245
  22841360.240   120032245.55008  22841356.100    93531602.60045
  20965245.200   110173121.21209  20965243.320    85849222.50047
  20256749.660   106450048.11609  20256747.340    82948142.32148
  21437913.900   112656989.65609  21437907.880    87784669.68847
 15 01 13 00 32 30.0000000  0  7G02G12G14G21G25G29G31
  24537247.180   128944129.68707  24537238.520   100475916.80344
  23406388.800   123001554.61708  23406383.840    95845441.66644
  23625740.800   124154099.72206  23625740.060    96743419.04145
  22825080.060   119946693.14208  22825076.620    93464938.45645
  20970202.360   110199170.19909  20970200.140    85869520.40847
  20261840.340   106476800.88909  20261838.180    82968988.64248
  21427985.740   112604816.96509  21427980.260    87744015.63747
 15 01 13 00 33  0.0000000  0  7G02G12G14G21G25G29G31
  24552400.720   129023762.13006  24552392.740   100537968.03743
  23419441.380   123070147.72808  23419436.900    95898890.80245
  23640207.780   124230119.47706  23640206.600    96802655.13345
  22808843.160   119861368.16408  22808840.280    93398451.52745
  20975207.420   110225471.32809  20975205.020    85890014.79247
  20266996.880   106503899.45409  20266994.700    82990104.40348
  21418142.680   112553091.87109  21418137.760    87703710.35947
 15 01 13 00 33 30.0000000  0  7G02G12G14G21G25G29G31
  24567605.900   129103665.79607  24567598.680   100600230.59244
  23432520.200   123138878.07208  23432516.200    95952446.88745
  23654705.780   124306303.56306  23654703.980    96862019.26745
  22792649.800   119776271.60108  22792647.300    93332142.57745
  20980260.220   110252023.61409  20980257.900    85910704.88347
  20272218.640   106531340.65009  20272216.320    83011487.15848
  21408384.920   112501815.27209  21408380.560    87663754.56148
 15 01 13 00 34  0.0000000  0  7G02G12G14G21G25G29G31
  24582861.740   129183835.43706  24582855.360   100662700.40844
  23445624.640   123207742.98608  23445620.900    96006107.82544
  23669233.820   124382645.96707  23669231.520    96921506.74744
  22776499.920   119691402.91708  22776497.460    93266011.19245
  20985360.360   110278824.68909  20985358.240    85931588.83447
  20277504.760   106559119.66409  20277502.300    83033133.14648
  21398712.240   112450986.03009  21398708.360    87624147.36448
 15 01 13 00 34 30.0000000  0  7G02G12G14G21G25G29G31
  24598168.260   129264271.54807  24598162.420   100725377.86445
  23458755.180   123276744.41108  23458751.620    96059875.14444
  23683791.660   124459145.58407  23683788.700    96981116.77444
  22760394.280   119606766.42208  22760391.600    93200060.70945
  20990508.360   110305877.25209  20990506.420    85952668.74947
  20282855.360   106587236.89909  20282852.840    83055042.68548
  21389125.460   112400608.12809  21389121.960    87584891.86048
 15 01 13 00 35  0.0000000  0  7G02G12G14G21G25G29G31
  24613525.260   129344974.25207  24613520.060   100788263.07845
  23471912.120   123345885.30108  23471908.920    96113751.12444
  23698379.160   124535801.76407  23698375.740    97040848.76444
  22744333.740   119522366.84208  22744330.580    93134294.84045
  20995704.780   110333184.45009  20995703.160    85973947.06647
  20288270.700   106615693.86809  20288268.240    83077216.94648
  21379625.540   112350686.66609  21379622.320    87545992.01948
 15 01 13 00 35 30.0000000  0  7G02G12G14G21G25G29G31
  24628932.000   129425939.21207  24628927.620   100851352.66545
  23485095.200   123415163.57108  23485092.200    96167734.14945
  23712995.400   124612609.99007  23712991.900    97100699.32044
  22728318.240   119438204.51208  22728314.460    93068713.86044
  21000949.340   110360744.55409  21000948.040    85995422.46648
  20293749.960   106644486.82709  20293747.660    83099653.02248
  21370212.500   112301221.37909  21370209.400    87507447.65948
 15 01 13 00 36  0.0000000  0  7G02G12G14G21G25G29G31
  24644388.160   129507164.50607  24644384.600   100914645.09445
  23498304.680   123484579.66808  23498301.500    96221824.60345
  23727639.860   124689566.89207  23727636.440    97160665.63444
  22712348.260   119354282.19708  22712344.180    93003319.86145
  21006242.240   110388558.53209  21006241.240    86017095.68748
  20299292.760   106673614.28809  20299290.660    83122349.74748
  21360886.780   112252214.61609  21360883.680    87469260.57348
 15 01 13 00 36 30.0000000  0  7G02G12G14G21G25G29G31
  24659893.000   129588645.93307  24659890.320   100978137.09845
  23511539.980   123554131.46608  23511536.420    96276020.77244
  23742311.620   124766667.60807  23742308.260    97220744.05544
  22696423.760   119270599.85908  22696419.560    92938112.89444
  21011583.080   110416624.82009  21011582.380    86038965.51448
  20304898.300   106703072.38509  20304896.520    83145304.10648
  21351648.340   112203666.37009  21351645.180    87431430.78548
 15 01 13 00 37  0.0000000  0  7G02G12G14G21G25G29G31
  24675446.140   129670381.34106  24675444.480   101041827.01445
  23524801.580   123623819.77808  23524797.440    96330323.32545
  23757010.080   124843909.09107  23757007.040    97280932.15243
  22680545.440   119187160.29308  22680541.160    92873095.08345
  21016972.040   110444944.23509  21016971.640    86061032.57048
  20310566.500   106732859.58409  20310564.860    83168514.90848
  21342497.520   112155578.27409  21342494.260    87393959.54548
 15 01 13 00 37 30.0000000  0  7G02G12G14G21G25G29G31
  24691047.720   129752371.53106  24691047.020   101105715.45645
  23538089.620   123693646.63808  23538085.100    96384733.85944
  23771735.100   124921290.79207  23771732.520    97341229.52843
  22664714.280   119103967.96808  22664709.960    92808269.93744
  21022409.640   110473519.57809  21022409.440    86083299.05948
  20316297.560   106762976.48909  20316295.920    83191982.62548
  21333435.180   112107954.87509  21333431.760    87356850.40148
 15 01 13 00 38  0.0000000  0  7G02G12G14G21G25G29G31
  24706697.180   129834613.02006  24706697.460   101169799.69045
  23551403.820   123763611.30508  23551398.760    96439251.73244
  23786485.680   124998808.37406  23786484.100    97401632.70043
  22648930.500   119021023.82308  22648926.060    92743638.17145
  21027895.680   110502350.13009  21027895.640    86105764.39748
  20322090.920   106793420.23409  20322089.220    83215705.01948
  21324461.460   112060796.93509  21324457.940    87320103.94448
 15 01 13 00 38 30.0000000  0  7G02G12G14G21G25G29G31
  24722394.420   129917104.41306  24722395.480   101234078.70345
  23564744.480   123833714.51909  23564739.040    96493877.59044
  23801261.200   125076459.43205  23801260.440    97462139.95844
  22633194.640   118938331.01108  22633189.940    92679202.25845
  21033430.540   110531437.19509  21033430.600    86128429.64548
  20327946.360   106824189.86409  20327944.520    83239681.36548
  21315576.820   112014107.25409  21315573.320    87283722.37448
 15 01 13 00 39  0.0000000  0  7G02G12G14G21G25G29G31
  24738135.480   129999824.74307  24738136.580   101298536.07345
  23578107.920   123903937.79408  23578102.360    96548597.00945
  23816057.960   125154222.68804  23816050.920    97522763.72943
  22617503.520   118855873.25308  22617498.620    92614949.50345
  21039010.800   110560762.78109  21039010.940    86151280.74548
  20333860.020   106855265.44809  20333858.040    83263896.10448
  21306778.020   111967869.15509  21306774.740    87247692.68748
 15 01 13 00 39 30.0000000  0  7G02G12G14G21G25G29G31
  24753924.380   130082794.38807  24753925.020   101363187.74045
  23591498.340   123974303.68108  23591492.900    96603427.53145
  23830880.460   125232117.28805  23830877.520    97583448.72041
  22601861.820   118773675.33908  22601856.740    92550899.20945
  21044640.920   110590349.88909  21044641.100    86174335.61848
  20339835.880   106886668.07109  20339833.760    83288365.67448
  21298069.720   111922107.04309  21298066.780    87212033.90448
 15 01 13 00 40  0.0000000  0  7G02G12G14G21G25G29G31
  24769761.620   130166016.52507  24769761.200   101428036.12845
  23604916.800   124044817.59909  23604911.600    96658373.41745
  23845729.180   125310145.29507  23845726.060    97644249.60042
  22586270.780   118691744.66208  22586265.840    92487057.16845
  21050321.920   110620204.21109  21050322.140    86197598.70148
  20345874.500   106918400.68509  20345872.180    83313092.37948
  21289453.220   111876827.90509  21289450.580    87176751.46148
 15 01 13 00 40 30.0000000  0  7G02G12G14G21G25G29G31
  24785642.420   130249466.69307  24785640.720   101493062.25545
  23618359.080   124115457.43608  23618354.260    96713417.41545
  23860598.860   125388281.48907  23860595.720    97705134.87143
  22570726.760   118610061.21808  22570722.320    92423407.77245
  21056049.820   110650304.33409  21056050.060    86221053.32448
  20351971.440   106950439.99509  20351968.860    83338058.06948
  21280924.760   111832011.41209  21280922.240    87141829.52948
 15 01 13 00 41  0.0000000  0  7G02G12G14G21G25G29G31
  24801568.700   130333155.08207  24801565.540   101558273.95945
  23631827.560   124186235.66408  23631823.320    96768569.24245
  23875490.920   125466535.07407  23875488.080    97766111.58444
  22555232.560   118528639.85108  22555228.720    92359962.59444
  21061826.980   110680662.80809  21061827.100    86244709.25748
  20358128.640   106982795.96009  20358125.840    83363270.50448
  21272487.120   111787671.49609  21272484.420    87107278.93747
 15 01 13 00 41 30.0000000  0  6G12G14G21G25G29G31
  23645320.840   124257144.16208  23645317.160    96823822.60144
  23890403.040   125544895.10208  23890400.280    97827171.27244
  22539787.140   118447474.39308  22539783.700    92296716.82245
  21067651.920   110711272.08109  21067651.860    86268560.62348
  20364344.220   107015459.13809  20364341.400    83388722.33748
  21264139.160   111743802.58809  21264136.060    87073095.36747
 15 01 13 00 42  0.0000000  0  6G12G14G21G25G29G31
  23658843.180   124328206.75308  23658840.180    96879195.99644
  23905339.180   125623382.69008  23905336.440    97888330.32744
  22524395.480   118366591.00308  22524392.320    92233690.83845
  21073529.260   110742156.70509  21073528.980    86292626.54948
  20370622.460   107048452.04509  20370619.820    83414431.09548
  21255885.620   111700430.19309  21255882.100    87039298.68447
 15 01 13 00 42 30.0000000  0  6G12G14G21G25G29G31
  23672392.360   124399411.17808  23672389.860    96934679.93644
  23920296.260   125701981.41508  23920293.280    97949575.98043
  22509055.640   118285978.95608  22509052.420    92170876.27845
  21079456.540   110773304.24109  21079456.020    86316897.34448
  20376960.520   107081759.53708  20376958.100    83440384.97748
  21247724.400   111657543.02309  21247720.420    87005880.09847
 15 01 13 00 43  0.0000000  0  6G12G14G21G25G29G31
  23685966.860   124470747.85308  23685964.760    96990266.95044
  23935272.000   125780678.93207  23935268.760    98010898.63743
  22493766.180   118205631.46308  22493762.760    92108267.86945
  21085432.180   110804705.91309  21085431.260    86341366.17348
  20383356.400   107115371.28508  20383354.260    83466575.93948
  21239654.040   111615133.41309  21239649.860    86972833.62447
 15 01 13 00 43 30.0000000  0  6G12G14G21G25G29G31
  23699567.920   124542224.59708  23699565.900    97045963.07344
  23950267.380   125859479.60708  23950263.540    98072301.66843
  22478528.900   118125558.08308  22478525.200    92045873.04645
  21091457.640   110836369.73809  21091456.300    86366039.27147
  20389811.200   107149292.72608  20389809.220    83493008.23748
  21231676.360   111573210.98908  21231672.260    86940166.80547
 15 01 13 00 44  0.0000000  0  6G12G14G21G25G29G31
  23713194.520   124613835.78208  23713192.260    97101763.98644
  23965280.940   125938375.44708  23965276.480    98133778.86843
  22463342.860   118045755.17808  22463339.040    91983689.00745
  21097531.980   110868290.66509  21097530.180    86390912.71347
  20396323.500   107183516.16508  20396321.440    83519675.86448
  21223790.740   111531771.88409  21223786.720    86907876.59747
 15 01 13 00 44 30.0000000  0  6G12G14G21G25G29G31
  23726846.480   124685578.27008  23726843.560    97157667.23644
  23980311.440   126017359.88807  23980306.960    98195325.08443
  22448208.140   117966222.52808  22448204.420    91921715.55145
  21103654.720   110900466.20409  21103652.620    86415984.55147
  20402892.540   107218037.69908  20402890.380    83546575.76548
  21215996.880   111490814.73408  21215992.960    86875961.92047
 15 01 13 00 45  0.0000000  0  6G12G14G21G25G29G31
  23740524.780   124757457.92508  23740521.500    97213677.33644
  23995359.320   126096435.88807  23995355.040    98256942.61943
  22433126.160   117886967.45508  22433122.760    91859958.40645
  21109826.940   110932902.39009  21109824.920    86441259.49947
  20409518.980   107252861.07508  20409516.820    83573710.87148
  21208296.120   111450347.04808  21208292.220    86844428.65947
 15 01 13 00 45 30.0000000  0  6G12G14G21G25G29G31
  23754230.280   124829479.33708  23754226.560    97269797.89044
  24010424.680   126175604.38507  24010420.660    98318632.26944
  22418098.260   117807996.54508  22418095.060    91798422.67544
  21116049.760   110965604.09009  21116047.860    86466741.34747
  20416203.280   107287988.94208  20416201.320    83601083.23848
  21200689.560   111410374.77108  21200685.800    86813281.42147
 15 01 13 00 46  0.0000000  0  6G12G14G21G25G29G31
  23767962.160   124901638.25708  23767958.020    97326025.60444
  24025506.040   126254857.91406  24025502.660    98380388.08743
  22403123.940   117729307.52308  22403120.920    91737106.60545
  21122322.460   110998567.44309  21122320.620    86492427.07147
  20422944.300   107323414.91508  20422942.700    83628687.87648
  21193176.620   111370895.33208  21193173.180    86782518.21647
 15 01 13 00 46 30.0000000  0  6G12G14G21G25G29G31
  23781720.960   124973938.23108  23781716.980    97382363.25644
  24040603.720   126334197.81606  24040601.120    98442211.21244
  22388204.420   117650906.56908  22388201.520    91676014.96545
  21128645.960   111031797.03909  21128644.020    86518320.26947
  20429742.740   107359141.59708  20429741.340    83656526.84248
  21185758.500   111331914.46408  21185755.500    86752143.51047
 15 01 13 00 47  0.0000000  0  6G12G14G21G25G29G31
  23795505.900   125046376.14908  23795502.560    97438808.34044
  24055716.500   126413617.26707  24055714.560    98504096.39244
  22373339.620   117572792.36608  22373336.480    91615146.79444
  21135019.580   111065289.71409  21135017.420    86544418.45047
  20436597.620   107395163.89308  20436596.200    83684596.15448
  21178434.840   111293430.14408  21178432.420    86722155.72448
 15 01 13 00 47 30.0000000  0  6G12G14G21G25G29G31
  23809317.760   125118955.84008  23809314.980    97495363.91945
  24070844.740   126493117.00507  24070843.100    98566044.05743
  22358530.740   117494970.82708  22358526.980    91554506.62344
  21141444.020   111099049.73009  21141441.700    86570724.95347
  20443509.080   107431483.10608  20443507.540    83712896.83548
  21171206.680   111255447.92008  21171204.960    86692559.17548
 15 01 13 00 48  0.0000000  0  6G12G14G21G25G29G31
  23823155.520   125191671.98608  23823153.100    97552025.84745
  24085986.700   126572688.50707  24085984.640    98628047.67143
  22343777.100   117417438.52208  22343772.960    91494091.84344
  21147918.320   111133072.18809  21147915.860    86597235.94747
  20450476.000   107468093.46708  20450474.280    83741424.38148
  21164073.460   111217964.03808  21164072.340    86663350.97648
 15 01 13 00 48 30.0000000  0  6G12G14G21G25G29G31
  23837020.440   125264532.09408  23837018.520    97608799.93445
  24101143.400   126652336.99108  24101140.760    98690111.34543
  22329080.600   117340205.93608  22329076.220    91433910.61945
  21154444.040   111167365.62209  21154441.700    86623958.10347
  20457499.600   107505000.64008  20457497.560    83770183.21748
  21157037.120   111180988.05808  21157036.280    86634538.51248
 15 01 13 00 49  0.0000000  0  6G12G14G21G25G29G31
  23850910.580   125337526.07608  23850909.280    97665678.32545
  24116312.100   126732048.37508  24116308.200    98752224.06543
  22314439.380   117263263.90908  22314435.100    91373955.80345
  21161019.220   111201919.45909  21161017.220    86650883.15447
  20464577.400   107542191.84009  20464574.940    83799163.36048
  21150095.880   111144510.68208  21150094.980    86606114.58448
 15 01 13 00 49 30.0000000  0  6G12G14G21G25G29G31
  23864826.820   125410657.80108  23864826.060    97722664.06845
  24131493.060   126811823.99408  24131486.920    98814386.86841
  22299854.640   117186618.85608  22299850.560    91314232.42245
  21167644.980   111236738.45709  21167643.340    86678014.83747
  20471709.800   107579669.40509  20471706.820    83828366.66448
  21143250.820   111108537.78308  21143249.660    86578083.77547
 15 01 13 00 50  0.0000000  0  6G12G14G21G25G29G31
  23878769.200   125483927.56807  23878768.780    97779757.37645
  24146685.640   126891660.62308  24146679.260    98876597.23141
  22285326.700   117110272.81008  22285322.800    91254742.02545
  21174321.440   111271823.09409  21174320.040    86705353.50948
  20478896.320   107617431.96909  20478892.820    83857792.04248
  21136502.160   111073070.76608  21136500.520    86550447.14248
 15 01 13 00 50 30.0000000  0  6G12G14G21G25G29G31
  23892737.500   125557334.03108  23892737.160    97836957.20844
  24161889.040   126971554.30707  24161884.320    98938851.96241
  22270855.640   117034226.76408  22270852.080    91195485.41146
  21181048.340   111307172.75109  21181047.120    86732898.68448
  20486136.380   107655476.89709  20486132.380    83887437.44748
  21129849.860   111038110.18908  21129847.720    86523205.12848
 15 01 13 00 51  0.0000000  0  6G12G14G21G25G29G31
  23906732.100   125630877.85508  23906731.820    97894264.06645
  24177102.740   127051502.47207  24177099.540    99001149.08843
  22256442.040   116958483.34908  22256438.820    91136464.60145
  21187825.920   111342788.35409  21187824.740    86760651.09648
  20493429.700   107693802.95509  20493425.340    83917301.90048
  21123294.380   111003658.20308  21123291.680    86496359.43948
 15 01 13 00 51 30.0000000  0  6G12G14G21G25G29G31
  23920753.460   125704561.54808  23920753.380    97951679.91845
  24192326.640   127131504.80106  24192325.320    99063488.36444
  22242086.780   116883047.27908  22242083.900    91077683.30045
  21194654.740   111378672.98109  21194653.620    86788613.12948
  20500776.520   107732410.83109  20500771.940    83947385.95948
  21116836.380   110969718.63808  21116833.220    86469913.03148
 15 01 13 00 52  0.0000000  0  6G12G14G21G25G29G31
  23934801.040   125778381.73008  23934800.860    98009202.11545
  24207559.580   127211554.92506  24207558.980    99125864.92043
  22227789.720   116807917.24808  22227787.240    91019140.47045
  21201534.060   111414823.73409  21201533.160    86816782.52848
  20508176.040   107771295.66309  20508171.380    83977685.82848
  21110475.520   110936289.74408  21110472.060    86443864.55048
 15 01 13 00 52 30.0000000  0  6G12G14G21G25G29G31
  23948875.120   125852340.60008  23948874.840    98066832.37045
  24222801.380   127291651.96807  24222801.520    99188278.04944
  22213551.800   116733097.49308  22213549.460    90960839.37946
  21208464.500   111451243.27909  21208463.800    86845161.38448
  20515628.400   107810458.05309  20515623.820    84008201.97647
  21104212.520   110903375.71708  21104208.800    86418217.25548
 15 01 13 00 53  0.0000000  0  6G12G14G21G25G29G31
  23962975.420   125926437.38008  23962974.900    98124570.09545
  24238051.340   127371792.26007  24238051.720    99250724.85843
