     2.11           OBSERVATION DATA    G                   RINEX VERSION / TYPE
SPIDER V4,0,0,3554                      2015 04 16 13:10    PGM / RUN BY / DATE 
CABS                                                        MARKER NAME         
CABS                                                        MARKER NUMBER       
                                                            OBSERVER / AGENCY   
462287              LEICA GRX1200PRO    8.10/2.127          REC # / TYPE / VERS 
103298              LEIAT504                                ANT # / TYPE        
  5116912.3402   671231.6412  3737143.4301                  APPROX POSITION XYZ 
        0.0600        0.0000        0.0000                  ANTENNA: DELTA H/E/N
     1     1                                                WAVELENGTH FACT L1/2
     4    C1    L1    P2    L2                              # / TYPES OF OBSERV 
    30.000                                                  INTERVAL            
  2015    02    20    00    00    0.0000000     GPS         TIME OF FIRST OBS   
  2015    02    20    23    59   30.0000000     GPS         TIME OF LAST OBS    
    16                                                      LEAP SECONDS        
    29                                                      # OF SATELLITES     
   G 1   804   804   804   804                              PRN / # OF OBS      
   G 2   942   942   942   942                              PRN / # OF OBS      
   G 3   847   847   847   847                              PRN / # OF OBS      
   G 4   831   831   831   831                              PRN / # OF OBS      
   G 5   652   652   652   652                              PRN / # OF OBS      
   G 6   838   838   838   838                              PRN / # OF OBS      
   G 7   673   673   673   673                              PRN / # OF OBS      
   G 9   808   808   808   808                              PRN / # OF OBS      
   G10   752   752   752   752                              PRN / # OF OBS      
   G12   830   830   830   830                              PRN / # OF OBS      
   G13   792   792   792   792                              PRN / # OF OBS      
   G14   941   941   941   941                              PRN / # OF OBS      
   G15   701   701   701   701                              PRN / # OF OBS      
   G16   664   664   664   664                              PRN / # OF OBS      
   G17   941   941   941   941                              PRN / # OF OBS      
   G18   904   904   904   904                              PRN / # OF OBS      
   G19   750   750   750   750                              PRN / # OF OBS      
   G20   784   784   784   784                              PRN / # OF OBS      
   G21   741   741   741   741                              PRN / # OF OBS      
   G22   658   658   657   657                              PRN / # OF OBS      
   G23   756   756   756   756                              PRN / # OF OBS      
   G24   816   816   816   816                              PRN / # OF OBS      
   G25   855   855   855   855                              PRN / # OF OBS      
   G27   801   801   801   801                              PRN / # OF OBS      
   G28   877   877   877   877                              PRN / # OF OBS      
   G29   782   782   782   782                              PRN / # OF OBS      
   G30   719   719   719   719                              PRN / # OF OBS      
   G31   871   871   871   871                              PRN / # OF OBS      
   G32   769   769   769   769                              PRN / # OF OBS      
BIT 2 OF LLI FLAGS DATA COLLECTED UNDER A/S CONDITION       COMMENT             
SNR is mapped to RINEX snr flag value [2-9]                 COMMENT             
Lx:     = 25dBHz -> 1; 26-27dBHz -> 2; 28-31dBHz -> 3       COMMENT             
       32-35dBHz -> 4; 36-38dBHz -> 5; 39-41dBHz -> 6       COMMENT             
       42-44dBHz -> 7; 45-48dBHz -> 8; >=49dBHz -> 9        COMMENT             
                                                            END OF HEADER       
 15 02 20 00 00  0.0000000  0  7G16G18G21G25G27G29G31
  22725565.700   119423660.71807  22725567.100    93057397.91947
  23333499.240   122618456.72206  23333501.180    95546898.41145
  20918485.100   109927602.68608  20918485.960    85657987.38049
  23707233.500   124582537.42706  23707238.100    97077411.73344
  23955171.160   125885283.06106  23955175.800    98092447.62846
  22792841.660   119777655.24907  22792843.880    93333458.73447
  22097794.200   116124699.51908  22097795.700    90486792.42048
 15 02 20 00 00 30.0000000  0  7G16G18G21G25G27G29G31
  22709299.360   119338181.08107  22709300.860    92990790.42646
  23318899.700   122541736.35206  23318901.620    95487116.33345
  20920443.540   109937894.62808  20920444.460    85666007.07949
  23725025.600   124676035.48006  23725030.100    97150267.33044
  23941135.640   125811525.85305  23941140.160    98034974.52046
  22806083.980   119847243.80007  22806086.180    93387683.56247
  22111893.560   116198791.63008  22111894.860    90544526.50848
 15 02 20 00 01  0.0000000  0  7G16G18G21G25G27G29G31
  22693060.560   119252846.03407  22693062.140    92924295.59546
  23304326.200   122465153.24107  23304328.300    95427441.21645
  20922480.740   109948600.22308  20922481.660    85674349.10349
  23742857.020   124769739.72606  23742861.460    97223283.60745
  23927116.160   125737853.23305  23927120.600    97977567.32646
  22819337.100   119916889.29207  22819339.320    93441952.76147
  22126058.920   116273230.97808  22126060.060    90602531.16948
 15 02 20 00 01 30.0000000  0  7G16G18G21G25G27G29G31
  22676849.580   119167656.74907  22676851.200    92857914.34846
  23289779.200   122388709.45906  23289781.460    95367874.66445
  20924596.280   109959717.48508  20924597.200    85683011.90649
  23760727.320   124863648.08706  23760731.580    97296458.92545
  23913112.660   125664264.40205  23913117.040    97920225.39045
  22832600.880   119986590.68507  22832603.100    93496265.50347
  22140289.600   116348013.75608  22140290.680    90660803.43748
 15 02 20 00 02  0.0000000  0  7G16G18G21G25G27G29G31
  22660667.120   119082617.09507  22660668.700    92791649.68947
  23275259.720   122312410.08606  23275262.140    95308420.64345
  20926790.400   109971247.50008  20926791.240    85691996.33649
  23778636.560   124957761.29806  23778640.980    97369793.87045
  23899125.360   125590761.20905  23899129.780    97862950.21646
  22845875.640   120056349.39207  22845877.780    93550622.91347
  22154585.560   116423139.56008  22154586.680    90719342.99148
 15 02 20 00 02 30.0000000  0  7G16G18G21G25G27G29G31
  22644513.600   118997729.44907  22644515.100    92725503.47747
  23260768.280   122236257.42007  23260770.820    95249080.93445
  20929062.880   109983189.35508  20929063.700    85701301.68249
  23796584.500   125052078.29606  23796589.240    97443287.60445
  23885154.380   125517343.78905  23885158.880    97805741.84945
  22859161.160   120126164.95307  22859163.240    93605024.60747
  22168946.280   116498605.30808  22168947.460    90778147.44648
 15 02 20 00 03  0.0000000  0  7G16G18G21G25G27G29G31
  22628389.020   118912994.07007  22628390.500    92659475.90747
  23246304.960   122160252.08107  23246307.540    95189856.03645
  20931413.080   109995539.82408  20931413.920    85710925.41949
  23814570.660   125146596.02906  23814575.620    97516937.76745
  23871199.440   125444010.51005  23871204.060    97748599.06046
  22872457.060   120196035.46007  22872459.180    93659469.12647
  22183370.920   116574406.90408  22183372.200    90837213.59748
 15 02 20 00 03 30.0000000  0  7G16G18G21G25G27G29G31
  22612293.800   118828413.43607  22612295.360    92593568.92347
  23231870.480   122084397.44407  23231872.940    95130748.57045
  20933840.980   110008298.49008  20933841.800    85720867.24049
  23832595.000   125241313.81306  23832600.060    97590743.79146
  23857260.540   125370761.66105  23857265.300    97691522.06046
  22885763.500   120265961.41307  22885765.720    93713956.85947
  22197858.980   116650542.03108  22197860.400    90896539.63848
 15 02 20 00 04  0.0000000  0  7G16G18G21G25G27G29G31
  22596228.500   118743989.68607  22596230.100    92527784.19147
  23217465.360   122008696.97607  23217467.620    95071761.21345
  20936346.340   110021464.15708  20936347.120    85731126.20449
  23850657.260   125336230.47606  23850662.280    97664704.80146
  23843337.800   125297597.50005  23843342.700    97634511.04747
  22899080.340   120335942.32107  22899082.680    93768487.40647
  22212410.000   116727008.20708  22212411.540    90956123.64048
 15 02 20 00 04 30.0000000  0  7G16G18G21G25G27G29G31
  22580193.180   118659723.46008  22580194.760    92462122.19547
  23203089.740   121933151.76407  23203091.900    95012894.82446
  20938928.680   110035034.43208  20938929.420    85741700.44549
  23868756.860   125431343.54906  23868761.860    97738818.85946
  23829431.100   125224516.69105  23829435.900    97577564.98346
  22912407.300   120405976.70507  22912409.860    93823059.62246
  22227023.160   116803801.21008  22227024.840    91015962.31748
 15 02 20 00 05  0.0000000  0  7G16G18G21G25G27G29G31
  22564188.800   118575619.63708  22564190.320    92396586.75247
  23188744.480   121857766.75107  23188746.760    94954153.29645
  20941588.340   110049011.03408  20941589.060    85752591.29849
  23886893.940   125526654.33506  23886898.960    97813086.96145
  23815540.740   125151521.72306  23815545.380    97520685.82046
  22925745.000   120476066.62807  22925747.660    93877675.12147
  22241698.540   116880920.97308  22241700.260    91076055.61048
 15 02 20 00 05 30.0000000  0  7G16G18G21G25G27G29G31
  22548215.520   118491679.34208  22548217.000    92331178.72247
  23174429.980   121782543.93707  23174432.420    94895538.14345
  20944325.000   110063392.22208  20944325.700    85763797.41849
  23905068.220   125622161.02306  23905073.220    97887507.72745
  23801666.700   125078612.16306  23801671.120    97463873.20746
  22939093.100   120546211.19107  22939095.800    93932333.20147
  22256435.460   116958364.12308  22256437.160    91136400.88348
 15 02 20 00 06  0.0000000  0  7G16G18G21G25G27G29G31
  22532273.700   118407904.62008  22532275.220    92265899.72447
  23160146.860   121707486.38607  23160149.400    94837051.76946
  20947138.360   110078176.72508  20947139.100    85775317.81449
  23923279.420   125717862.25006  23923284.340    97962080.07044
  23787808.880   125005787.86306  23787813.100    97407127.03046
  22952451.600   120616410.52507  22952454.320    93987033.95247
  22271233.460   117036127.98808  22271235.080    91196996.07048
 15 02 20 00 06 30.0000000  0  7G16G18G21G25G27G29G31
  22516363.800   118324297.40208  22516365.320    92200751.24747
  23145895.700   121632596.39207  23145898.260    94778695.96045
  20950028.160   110093362.79008  20950028.900    85787151.10949
  23941527.200   125813756.46105  23941532.240    98036802.82645
  23773967.180   124933048.59206  23773971.220    97350447.12646
  22965820.340   120686663.65907  22965823.060    94041776.61947
  22286091.940   117114209.44908  22286093.500    91257838.73248
 15 02 20 00 07  0.0000000  0  7G16G18G21G25G27G29G31
  22500486.020   118240859.10508  22500487.540    92135734.40347
  23131676.780   121557875.72607  23131679.220    94720472.09745
  20952994.020   110108948.53108  20952994.800    85799295.84549
  23959811.400   125909841.55006  23959816.480    98111674.29544
  23760141.320   124860393.42606  23760145.260    97293832.73746
  22979199.220   120756969.47807  22979201.800    94096560.35247
  22301010.120   117192604.83008  22301011.700    91318926.01048
 15 02 20 00 07 30.0000000  0  7G16G18G21G25G27G29G31
  22484640.840   118157592.00208  22484642.320    92070850.94747
  23117490.680   121483327.29607  23117492.860    94662382.43845
  20956035.860   110124933.35608  20956036.640    85811751.55149
  23978131.980   126006116.66106  23978136.820    98186693.82145
  23746331.560   124787822.87806  23746335.380    97237284.28745
  22992588.140   120827328.19207  22992590.580    94151385.29046
  22315987.600   117271311.80608  22315989.200    91380256.09648
 15 02 20 00 08  0.0000000  0  7G16G18G21G25G27G29G31
  22468828.760   118074498.86108  22468830.180    92006103.04547
  23103338.060   121408954.49507  23103339.920    94604429.64145
  20959153.500   110141316.71008  20959154.280    85824517.80449
  23996488.760   126102581.09506  23996493.380    98261860.89845
  23732537.880   124715337.43106  23732541.720    97180802.13445
  23005987.140   120897740.41207  23005989.500    94206251.91146
  22331024.000   117350328.21208  22331025.600    91441827.29248
 15 02 20 00 08 30.0000000  0  7G16G18G21G25G27G29G31
  22453049.780   117991580.05308  22453051.180    91941490.99947
  23089219.080   121334758.85407  23089220.780    94546614.89545
  20962346.480   110158095.91408  20962347.280    85837592.51149
  24014881.140   126199232.12606  24014885.480    98337173.36145
  23718760.140   124642935.80905  23718764.080    97124385.31346
  23019395.960   120968204.01307  23019398.240    94261158.57446
  22346118.440   117429649.82708  22346120.040    91503636.31747
 15 02 20 00 09  0.0000000  0  7G16G18G21G25G27G29G31
  22437304.780   117908839.84508  22437306.140    91877018.11447
  23075134.600   121260744.54407  23075136.240    94488941.42645
  20965614.880   110175271.42208  20965615.660    85850976.02049
  24033309.160   126296070.22406  24033313.300    98412631.59345
  23704998.700   124570619.79206  23705002.740    97068035.21545
  23032814.820   121038720.57507  23032817.100    94316106.51547
  22361270.780   117509275.77408  22361272.320    91565682.46647
 15 02 20 00 09 30.0000000  0  7G16G18G21G25G27G29G31
  22421593.840   117826278.32408  22421595.100    91812684.46847
  23061084.780   121186912.31507  23061086.480    94431409.85845
  20968958.080   110192840.05208  20968958.840    85864665.86349
  24051772.120   126393092.33106  24051776.260    98488233.17345
  23691253.220   124498387.49605  23691257.320    97011750.33546
  23046243.480   121109288.38107  23046245.720    94371094.36946
  22376480.180   117589201.29108  22376481.600    91627962.05947
 15 02 20 00 10  0.0000000  0  7G16G18G21G25G27G29G31
  22405917.760   117743899.85508  22405918.920    91748493.45347
  23047070.520   121113266.93907  23047072.340    94374023.87245
  20972376.240   110210802.52708  20972376.980    85878662.59349
  24070270.020   126490299.10206  24070274.400    98563978.69545
  23677524.060   124426240.99006  23677528.220    96955532.31445
  23059682.240   121179909.04007  23059684.400    94426123.42746
  22391746.380   117669425.55508  22391747.700    91690474.43247
 15 02 20 00 10 30.0000000  0  7G16G18G21G25G27G29G31
  22390276.800   117661705.87408  22390277.960    91684446.20747
  23033092.280   121039810.66407  23033094.220    94316785.23646
  20975869.100   110229157.51208  20975869.840    85892965.17949
  24088802.500   126587688.55106  24088807.240    98639866.53845
  23663811.220   124354179.66406  23663815.380    96899380.69046
  23073130.900   121250581.96707  23073133.120    94481193.21446
  22407068.760   117749945.29008  22407070.100    91753217.03747
 15 02 20 00 11  0.0000000  0  7G16G18G21G25G27G29G31
  22374671.140   117579697.52708  22374672.340    91620543.61247
  23019150.340   120966545.18207  23019152.420    94259695.27346
  20979436.160   110247902.67108  20979436.940    85907571.79849
  24107369.280   126685258.48206  24107374.340    98715895.02544
  23650114.520   124282202.54906  23650118.640    96843294.65546
  23086589.220   121321305.77207  23086591.500    94536302.62547
  22422446.660   117830756.56808  22422448.000    91816186.82647
 15 02 20 00 11 30.0000000  0  7G16G18G21G25G27G29G31
  22359101.360   117497877.96508  22359102.640    91556788.12147
  23005245.420   120893474.08807  23005247.580    94202756.78645
  20983077.440   110267037.86808  20983078.260    85922482.33949
  24125970.180   126783008.68405  24125975.700    98792063.97345
  23636434.120   124210310.88606  23636438.160    96787275.20546
  23100057.320   121392081.23307  23100059.560    94591452.29746
  22437879.740   117911857.72508  22437881.120    91879382.49747
 15 02 20 00 12  0.0000000  0  7G16G18G21G25G27G29G31
  22343567.820   117416248.66708  22343569.120    91493180.89447
  22991377.880   120820599.44707  22991380.080    94145971.36745
  20986792.440   110286560.56908  20986793.300    85937694.83149
  24144604.980   126880937.11705  24144610.940    98868371.79545
  23622769.780   124138503.98806  23622773.860    96731321.81846
  23113535.100   121462907.31907  23113537.300    94646641.43046
  22453367.300   117993245.28708  22453368.780    91942801.34648
 15 02 20 00 12 30.0000000  0  7G16G18G21G25G27G29G31
  22328070.720   117334810.87008  22328072.040    91429722.88347
  22977547.940   120747922.76407  22977550.180    94089340.22246
  20990580.800   110306468.48508  20990581.660    85953207.48949
  24163273.420   126979041.54505  24163279.500    98944816.77645
  23609121.240   124066780.87506  23609125.500    96675433.70346
  23127022.360   121533783.10207  23127024.540    94701869.26746
  22468908.660   118074915.53208  22468910.220    92006440.46347
 15 02 20 00 13  0.0000000  0  7G16G18G21G25G27G29G31
  22312610.560   117253567.24608  22312611.860    91366416.17547
  22963756.280   120675447.43207  22963758.500    94032865.95245
  20994442.380   110326761.39308  20994443.300    85969020.13749
  24181975.380   127077320.98205  24181981.420    99021398.09845
  23595488.800   123995142.09306  23595493.080    96619611.31246
  23140519.200   121604708.90707  23140521.300    94757136.08846
  22484503.360   118156866.10308  22484505.000    92070298.00847
 15 02 20 00 13 30.0000000  0  7G16G18G21G25G27G29G31
  22297187.760   117172520.06908  22297189.120    91303262.54747
  22950003.380   120603175.99407  22950005.560    93976550.57446
  20998377.060   110347438.37908  20998378.040    85985132.07149
  24200710.540   127175774.31305  24200716.260    99098114.91645
  23581872.360   123923587.66706  23581876.720    96563854.63947
  23154025.540   121675684.78507  23154027.600    94812441.90946
  22500150.800   118239094.12308  22500152.520    92134371.74947
 15 02 20 00 14  0.0000000  0  7G16G18G21G25G27G29G31
  22281802.780   117091671.60608  22281804.180    91240263.76347
  22936289.820   120531111.44607  22936291.980    93920396.41746
  21002384.460   110368497.48708  21002385.460    86001541.76249
  24219478.720   127274400.12005  24219483.900    99174966.14943
  23568272.060   123852117.84506  23568276.440    96508163.87246
  23167541.220   121746710.26007  23167543.380    94867786.38846
  22515850.580   118321596.97908  22515852.280    92198659.64647
 15 02 20 00 14 30.0000000  0  7G16G18G21G25G27G29G31
  22266456.040   117011024.08008  22266457.480    91177421.54547
  22922616.120   120459256.38507  22922618.240    93864405.47745
  21006464.340   110389937.48808  21006465.360    86018248.25449
  24238279.480   127373197.25106  24238284.200    99251950.87745
  23554687.820   123780732.72506  23554692.240    96452539.12947
  23181066.380   121817785.52407  23181068.520    94923169.67446
  22531602.140   118404371.96408  22531603.740    92263159.58747
 15 02 20 00 15  0.0000000  0  7G16G18G21G25G27G29G31
  22251148.080   116930579.95508  22251149.460    91114737.81347
  22908982.840   120387613.67207  22908984.920    93808580.01745
  21010616.600   110411757.68008  21010617.600    86035251.00149
  24257112.660   127472164.46206  24257116.820    99329068.18644
  23541119.780   123709432.48306  23541124.120    96396980.50946
  23194600.980   121888910.39307  23194603.100    94978591.60746
  22547404.900   118487416.06308  22547406.440    92327869.23547
 15 02 20 00 15 30.0000000  0  8G16G18G21G22G25G27G29G31
  22235880.840   116850349.92508  22235882.160    91052220.91347
  22895392.160   120316194.48407  22895394.160    93752928.72746
  21014842.580   110433965.24908  21014843.540    86052555.60349
  24559009.060   129058456.26305                                
  24275979.420   127571308.87206  24275983.240    99406323.52845
  23527569.620   123638225.67006  23527573.800    96341494.70546
  23208146.600   121960093.17207  23208148.720    95034058.67946
  22563260.040   118570735.31008  22563261.500    92392793.27547
 15 02 20 00 16  0.0000000  0  8G16G18G21G22G25G27G29G31
  22220648.180   116770302.02208  22220649.460    90989845.92847
  22881838.040   120244967.12407  22881840.020    93697426.93046
  21019135.500   110456524.56808  21019136.400    86070134.29449
  24540910.380   128963348.24005  24540917.180   100490949.94444
  24294873.000   127670594.95605  24294876.920    99483689.25844
  23514030.740   123567078.15506  23514034.760    96286055.12346
  23221696.720   122031299.52007  23221698.840    95089544.09346
  22579160.460   118654292.49908  22579161.940    92457902.72847
 15 02 20 00 16 30.0000000  0  8G16G18G21G22G25G27G29G31
  22205459.120   116690483.12508  22205460.320    90927649.39546
  22868329.580   120173979.24607  22868331.480    93642111.72146
  21023503.680   110479479.38208  21023504.520    86088021.15949
  24522801.440   128868185.76505  24522808.300   100416797.96745
  24313801.620   127770066.15905  24313805.940    99561199.20445
  23500511.660   123496034.79706  23500515.600    96230696.69546
  23235259.860   122102574.43807  23235262.040    95145082.96446
  22595114.200   118738129.76708  22595115.680    92523230.42647
 15 02 20 00 17  0.0000000  0  8G16G18G21G22G25G27G29G31
  22190310.020   116610874.08008  22190311.160    90865616.37347
  22854863.100   120103211.90607  22854864.920    93586968.36845
  21027942.680   110502806.31108  21027943.460    86106197.98549
  24504678.100   128772949.72106  24504685.460   100342588.69645
  24332761.100   127869699.59505  24332765.720    99638835.59746
  23487008.280   123425074.16606  23487012.200    96175402.71646
  23248831.940   122173896.20807  23248834.260    95200658.33246
  22611116.520   118822222.23908  22611118.060    92588756.98547
 15 02 20 00 17 30.0000000  0  8G16G18G21G22G25G27G29G31
  22175202.000   116531480.70508  22175203.060    90803751.41447
  22841439.800   120032671.31607  22841441.620    93532001.69345
  21032452.900   110526507.66708  21032453.660    86124666.57749
  24486541.920   128677646.27606  24486549.440   100268326.89444
  24351751.840   127969497.49805  24351756.880    99716600.14845
  23473521.380   123354199.95006  23473525.260    96120176.07845
  23262413.600   122245268.10507  23262416.080    95256272.76746
  22627167.620   118906571.11108  22627169.200    92654483.32947
 15 02 20 00 18  0.0000000  0  8G16G18G21G22G25G27G29G31
  22160135.000   116452303.04608  22160136.100    90742054.53947
  22828059.780   119962358.03507  22828061.660    93477212.12846
  21037033.740   110550580.18608  21037034.520    86143424.38249
  24468392.900   128582275.56006  24468400.740   100194012.67445
  24370773.320   128069456.32305  24370778.680    99794490.04545
  23460050.560   123283409.98906  23460054.420    96065015.10746
  23276004.240   122316687.69507  23276006.880    95311924.38346
  22643266.640   118991171.59608  22643268.220    92720405.74247
 15 02 20 00 18 30.0000000  0  8G16G18G21G22G25G27G29G31
  22145109.580   116373344.33108  22145110.820    90680528.26947
  22814723.620   119892275.80707  22814725.600    93422602.61645
  21041685.200   110575023.81008  21041686.000    86162471.36649
  24450231.700   128486841.61706  24450239.780   100119649.23645
  24389825.480   128169575.78405  24389831.120    99872505.16744
  23446595.980   123212705.52606  23446599.800    96009920.73546
  23289604.220   122388156.51607  23289607.040    95367614.32346
  22659413.180   119076021.57408  22659414.700    92786522.56347
 15 02 20 00 19  0.0000000  0  8G16G18G21G22G25G27G29G31
  22130126.000   116294605.40408  22130127.320    90619173.26747
  22801431.600   119822425.88607  22801433.720    93368174.12746
  21046406.660   110599835.36508  21046407.500    86181805.04849
  24432058.760   128391345.07806  24432067.000   100045236.96444
  24408907.680   128269852.84405  24408913.340    99950643.05145
  23433157.320   123142084.99606  23433161.120    95954891.78146
  23303213.240   122459672.52007  23303216.160    95423341.04446
  22675606.380   119161116.65508  22675607.800    92852830.37347
 15 02 20 00 19 30.0000000  0  8G16G18G21G22G25G27G29G31
  22115184.840   116216089.31808  22115186.200    90557991.90547
  22788184.260   119752811.34407  22788186.480    93313929.03246
  21051198.020   110625014.30008  21051198.900    86201424.99749
  24413874.540   128295789.51305  24413882.860    99970778.73745
  24428019.780   128370287.16105  24428025.500   100028903.49445
  23419734.760   123071549.52206  23419738.640    95899929.07446
  23316831.400   122531236.64706  23316834.380    95479105.24546
  22691845.760   119246454.76308  22691847.120    92919327.55147
 15 02 20 00 20  0.0000000  0  8G16G18G21G22G25G27G29G31
  22100286.580   116137798.60108  22100287.980    90496986.15647
  22774982.240   119683435.43207  22774984.520    93259869.90546
  21056059.060   110650559.22408  21056059.940    86221330.13149
  24395679.640   128200177.73405  24395688.040    99896276.73446
  24447161.520   128470877.50706  24447167.360   100107285.51545
  23406328.460   123001099.40806  23406332.400    95845032.89346
  23330458.560   122602848.79606  23330461.660    95534906.89446
  22708130.880   119332033.56708  22708132.220    92986012.28047
 15 02 20 00 20 30.0000000  0  8G16G18G21G22G25G27G29G31
  22085431.500   116059734.57108  22085432.900    90436157.04847
  22761826.040   119614299.68407  22761828.180    93205997.92046
  21060989.380   110676468.34108  21060990.260    86241519.05149
  24377474.420   128104511.02806  24377482.560    99821731.93245
  24466332.500   128571621.30605  24466338.300   100185787.15844
  23392938.220   122930733.47606  23392942.200    95790202.30546
  23344094.640   122674507.77106  23344097.860    95590745.01946
  22724460.900   119417848.80608  22724462.380    93052881.24047
 15 02 20 00 21  0.0000000  0  8G16G18G21G22G25G27G29G31
  22070620.200   115981900.50408  22070621.580    90375507.13647
  22748716.220   119545407.37508  22748718.140    93152315.63846
  21065988.840   110702740.76808  21065989.740    86261991.06549
  24359259.300   128008792.80305  24359267.340    99747146.99045
  24485532.680   128672518.10505  24485538.280   100264408.00845
  23379564.240   122860452.79006  23379568.240    95735438.13246
  23357739.860   122746214.62706  23357743.180    95646620.44046
  22740835.440   119503898.50608  22740837.140    93119932.91047
 15 02 20 00 21 30.0000000  0  8G16G18G21G22G25G27G29G31
  22055852.780   115904296.81208  22055854.160    90315036.73747
  22735652.900   119476758.96508  22735654.540    93098823.41245
  21071056.860   110729373.42108  21071057.760    86282743.78549
  24341034.640   127913023.97506  24341042.480    99672522.63044
  24504761.360   128773564.81505  24504766.760   100343145.62245
  23366206.200   122790255.77606  23366210.200    95680739.16546
  23371393.900   122817967.49606  23371397.240    95702531.72246
  22757253.880   119590178.42208  22757255.740    93187163.96247
 15 02 20 00 22  0.0000000  0  8G16G18G21G22G25G27G29G31
  22041129.820   115826927.29508  22041131.280    90254748.81447
  22722637.120   119408359.81707  22722638.480    93045525.40145
  21076193.500   110756366.69408  21076194.400    86303777.50249
  24322801.100   127817208.64006  24322808.700    99597862.03045
  24524018.660   128874761.77405  24524023.920   100422000.30944
  23352864.460   122720144.32006  23352868.420    95626106.85946
  23385057.240   122889768.06006  23385060.380    95758480.18046
  22773715.980   119676687.29908  22773717.920    93254573.42147
 15 02 20 00 22 30.0000000  0  8G16G18G21G22G25G27G29G31
  22026451.760   115749793.80908  22026453.260    90194644.80947
  22709669.020   119340211.79507  22709670.220    92992423.06545
  21081398.260   110783718.09708  21081399.200    86325090.27949
  24304558.960   127721349.03406  24304566.460    99523166.96645
  24543304.220   128976106.94605  24543309.080   100500970.50544
  23339538.880   122650117.89606  23339542.800    95571540.81846
  23398729.580   122961615.61207  23398732.580    95814465.25946
  22790221.120   119763421.69608  22790222.960    93322158.61747
 15 02 20 00 23  0.0000000  0  8G16G18G21G22G25G27G29G31
  22011819.160   115672899.05808  22011820.640    90134726.83447
  22696749.000   119272316.80207  22696750.160    92939517.88245
  21086671.160   110811427.27108  21086672.080    86346681.84349
  24286308.900   127625448.09006  24286316.480    99448439.69245
  24562617.700   129077599.27005  24562622.320   100580055.33044
  23326229.540   122580176.87607  23326233.460    95517041.33946
  23412411.020   123033510.62407  23412413.940    95870487.31646
  22806768.720   119850378.84908  22806770.360    93389917.38447
 15 02 20 00 23 30.0000000  0  8G16G18G21G22G25G27G29G31
  21997232.120   115596243.47208  21997233.520    90074995.21847
  22683877.420   119204676.73907  22683878.720    92886811.35246
  21092011.480   110839490.81308  21092012.400    86368549.53249
  24268050.940   127529506.20006  24268058.420    99373680.48945
  24581958.600   129179235.47905  24581962.940   100659252.29744
  23312936.140   122510319.66107  23312940.040    95462607.17246
  23426101.200   123105451.03507  23426103.940    95926544.76646
  22823357.880   119937554.34108  22823359.380    93457846.27747
 15 02 20 00 24  0.0000000  0  8G16G18G21G22G25G27G29G31
  21982691.560   115519832.14508  21982692.880    90015453.92947
  22671055.240   119137296.47207  22671056.860    92834307.25446
  21097419.460   110867909.79308  21097420.360    86390694.19449
  24249786.240   127433528.78906  24249794.080    99298893.68645
  24601327.020   129281016.65006  24601331.300   100738562.19244
  23299659.160   122440548.84707  23299663.120    95408240.32046
  23439800.500   123177439.40607  23439803.020    95982639.59346
  22839988.420   120024947.65708  22839989.860    93525944.90147
 15 02 20 00 24 30.0000000  0  8G16G18G21G22G25G27G29G31
  21968197.780   115443666.80208  21968199.080    89956104.31947
  22658282.960   119070178.12907  22658284.900    92782007.25246
  21102894.720   110896682.22608  21102895.580    86413114.27249
  24231515.200   127337517.97006  24231523.100    99224080.79045
  24620722.560   129382941.02705  24620727.060   100817983.72744
  23286398.580   122370864.20207  23286402.600    95353940.63646
  23453508.660   123249475.08807  23453511.020    96038771.28146
  22856659.700   120112555.71108  22856661.160    93594210.86846
 15 02 20 00 25  0.0000000  0  8G16G18G21G22G25G27G29G31
  21953751.180   115367749.59308  21953752.480    89896948.05247
  22645561.040   119003324.04608  22645563.200    92729913.18046
  21108436.960   110925806.61008  21108437.780    86435808.60349
  24213238.400   127241476.25605  24213246.360    99149243.85645
  24640144.920   129485006.93205  24640149.700   100897515.49544
  23273154.380   122301265.58207  23273158.420    95299707.97146
  23467225.700   123321558.10807  23467228.080    96094939.84146
  22873371.140   120200375.11008  22873372.680    93662641.51247
 15 02 20 00 25 30.0000000  0  8G16G18G21G22G25G27G29G31
  21939351.980   115292081.46708  21939353.280    89837985.89747
  22632889.760   118936735.55008  22632891.840    92678026.06346
  21114045.660   110955280.33908  21114046.460    86458775.14149
  24194956.200   127145405.06606  24194963.840    99074383.89745
  24659593.720   129587211.54705  24659598.720   100977155.34444
  23259926.340   122231751.79207  23259930.440    95245541.41046
  23480951.400   123393687.18207  23480953.840    96151144.30845
  22890121.920   120288401.75507  22890123.660    93731233.64747
 15 02 20 00 26  0.0000000  0  8G16G18G21G22G25G27G29G31
  21925000.960   115216666.41408  21925002.220    89779220.92247
  22620269.920   118870417.12108  22620271.740    92626349.38946
  21119720.740   110985102.89908  21119721.540    86482013.50349
  24176669.100   127049308.04606  24176676.520    98999503.83745
  24679068.960   129689555.19205  24679074.280   101056903.54044
  23246714.780   122162324.72007  23246719.000    95191442.42246
  23494685.980   123465863.40707  23494688.300    96207385.49445
  22906912.080   120376634.76008  22906913.880    93799986.58047
 15 02 20 00 26 30.0000000  0  8G16G18G21G22G25G27G29G31
  21910698.240   115141505.32908  21910699.520    89720653.85547
  22607701.560   118804369.38908  22607703.180    92574883.64846
  21125461.780   111015272.26008  21125462.560    86505522.09449
  24158377.540   126953186.72606  24158384.580    98924604.81845
  24698569.960   129792034.71005  24698575.560   101136757.61645
  23233519.420   122092982.80307  23233523.720    95137409.77647
  23508429.300   123538085.77706  23508431.480    96263662.66146
  22923740.640   120465069.24708  22923742.460    93868896.49947
 15 02 20 00 27  0.0000000  0  8G16G18G21G22G25G27G29G31
  21896444.080   115066599.12508  21896445.340    89662285.38747
  22595184.880   118738593.77008  22595186.360    92523629.95046
  21131268.240   111045785.57108  21131269.040    86529298.70049
  24140081.680   126857042.47806  24140088.280    98849687.89245
  24718096.280   129894647.64605  24718102.300   101216715.62545
  23220340.080   122023725.11706  23220344.460    95083442.76847
  23522181.240   123610352.98306  23522183.260    96319974.76146
  22940606.920   120553701.59808  22940608.640    93937960.60146
 15 02 20 00 27 30.0000000  0  8G16G18G21G22G25G27G29G31
  21882238.900   114991950.63708  21882240.240    89604117.74447
  22582720.480   118673093.35808  22582722.000    92472590.69746
  21137139.900   111076641.38608  21137140.680    86553342.18749
  24121782.000   126760878.27406  24121788.140    98774755.44045
  24737647.960   129997392.68905  24737654.100   101296776.56645
  23207176.840   121954552.05707  23207181.240    95029541.69947
  23535941.880   123682665.11907  23535943.680    96376321.85845
  22957510.260   120642528.79508  22957511.860    94007176.53146
 15 02 20 00 28  0.0000000  0  8G16G18G21G22G25G27G29G31
  21868083.460   114917563.14308  21868084.800    89546153.46347
  22570309.100   118607871.78408  22570310.720    92421768.71346
  21143076.680   111107839.38908  21143077.440    86577652.31949
  24103479.100   126664697.73006  24103485.000    98699810.22145
  24757224.980   130100269.47804  24757230.960   101376940.18546
  23194029.880   121885464.80507  23194034.360    94975707.48946
  23549711.320   123755023.43907  23549712.900    96432704.93445
  22974450.340   120731549.17707  22974451.840    94076542.98946
 15 02 20 00 28 30.0000000  0  8G16G18G21G22G25G27G29G31
  21853978.140   114843439.19408  21853979.500    89488394.54647
  22557951.280   118542931.59508  22557953.020    92371165.97946
  21149078.320   111139378.18308  21149079.040    86602228.00049
  24085173.420   126568503.38406  24085179.040    98624854.22445
  24776826.860   130203276.71205  24776832.580   101457205.42844
  23180899.320   121816463.66707  23180903.800    94921940.37446
  23563489.560   123827427.95907  23563490.980    96489124.02246
  22991426.660   120820760.03808  22991428.100    94146057.87446
 15 02 20 00 29  0.0000000  0  8G16G18G21G22G25G27G29G31
  21839923.480   114769581.25508  21839924.780    89430842.90547
  22545647.580   118478275.46208  22545649.440    92320784.58946
  21155144.600   111171256.84908  21155145.360    86627068.51749
  24066865.640   126472298.54806  24066871.300    98549890.06044
  24796453.420   130306413.13405  24796458.820   101537571.37044
  23167785.260   121747549.03707  23167789.660    94868240.68346
  23577276.500   123899878.72606  23577278.060    96545579.12846
  23008438.700   120910158.74607  23008440.180    94215719.13146
 15 02 20 00 29 30.0000000  0  8G16G18G21G22G25G27G29G31
  21825919.800   114695991.47708  21825921.120    89373500.22147
  22533398.340   118413905.25608  22533400.280    92270625.99546
  21161275.180   111203473.29608  21161275.960    86652172.23648
  24048556.200   126376085.00806  24048561.800    98474919.03745
  24816104.300   130409676.95905  24816109.640   101618036.51743
  23154687.640   121678720.72707  23154692.000    94814608.24646
  23591072.080   123972375.75306  23591074.040    96602070.27946
  23025485.840   120999742.05107  23025487.420    94285524.23246
 15 02 20 00 30  0.0000000  0  7G16G18G21G22G27G29G31
  21811967.720   114622672.87108  21811969.060    89316368.84547
  22521204.260   118349824.44108  22521206.240    92220692.90146
  21167469.900   111236026.54108  21167470.680    86677538.39748
  24030245.960   126279866.31206  24030251.240    98399944.01346
  23141606.560   121609979.31607  23141610.820    94761043.53146
  23604876.500   124044919.30706  23604878.800    96658597.70146
  23042567.680   121089507.58707  23042569.380    94355471.31747
 15 02 20 00 30 30.0000000  0  7G16G18G21G22G27G29G31
  21798067.580   114549627.04508  21798068.940    89259450.02648
  22509065.660   118286034.93208  22509067.520    92170986.80846
  21173728.380   111268914.92608  21173729.140    86703165.70749
  24011935.160   126183644.89206  24011940.280    98324966.87746
  23128542.100   121541324.76907  23128546.180    94707546.49946
  23618689.680   124117509.04406  23618692.320    96715161.09546
  23059683.680   121179452.11408  23059685.460    94425557.88046
 15 02 20 00 31  0.0000000  0  7G16G18G21G22G27G29G31
  21784219.200   114476853.13308  21784220.520    89202743.09248
  22496982.380   118222536.48608  22496984.100    92121507.50646
  21180049.540   111302132.98208  21180050.320    86729049.90349
  23993623.820   126087419.66906  23993628.560    98249986.71245
  23115493.560   121472753.66307  23115497.480    94654114.49646
  23632511.060   124190141.72706  23632514.060    96771757.97546
  23076832.520   121269569.13307  23076834.360    94495778.86447
 15 02 20 00 31 30.0000000  0  7G16G18G21G22G27G29G31
  21770423.420   114404355.72708  21770424.700    89146251.61348
  22484955.220   118159333.40008  22484956.840    92072258.37246
  21186433.680   111335682.08808  21186434.500    86755192.05748
  23975312.700   125991195.40806  23975317.040    98175007.30945
  23102461.340   121404268.39107  23102465.140    94600749.38947
  23646341.160   124262819.56906  23646344.300    96828390.03146
  23094014.080   121359858.09707  23094015.920    94566133.81046
 15 02 20 00 32  0.0000000  0  7G16G18G21G22G27G29G31
  21756680.740   114332137.50708  21756682.020    89089977.68348
  22472984.700   118096428.61208  22472986.340    92023241.68346
  21192880.520   111369560.57908  21192881.340    86781590.87948
  23957002.420   125894975.24406  23957006.220    98100031.04146
  23089445.520   121335869.41207  23089449.260    94547451.51246
  23660179.980   124335542.61506  23660183.160    96885057.31746
  23111227.860   121450316.48807  23111229.660    94636620.76846
 15 02 20 00 32 30.0000000  0  7G16G18G21G22G27G29G31
  21742991.720   114260201.37308  21742993.000    89033923.55748
  22461071.460   118033824.89708  22461073.120    91974459.58846
  21199390.040   111403768.20608  21199390.800    86808246.17548
  23938693.480   125798762.78606  23938696.880    98025060.79646
  23076446.260   121267557.70507  23076449.960    94494221.64646
  23674027.680   124408311.89907  23674030.720    96941760.62946
  23128473.440   121540942.14707  23128475.180    94707238.07846
 15 02 20 00 33  0.0000000  0  7G16G18G21G22G27G29G31
  21729356.720   114188548.94608  21729357.980    88978090.50648
  22449215.840   117971523.98608  22449217.520    91925913.44446
  21205961.580   111438301.75308  21205962.300    86835155.43148
  23920386.240   125702559.55806  23920389.360    97950097.72345
  23063463.420   121199332.42307  23063467.100    94441059.12547
  23687884.060   124481126.38306  23687886.860    96998499.14946
  23145750.060   121631731.04007  23145751.700    94777982.56846
 15 02 20 00 33 30.0000000  0  7G16G18G21G22G27G29G31
  21715776.340   114117183.57308  21715777.620    88922481.13048
  22437418.580   117909529.47908  22437420.340    91877606.05046
  21212595.140   111473161.16208  21212595.800    86862318.61148
  23902081.380   125606369.40806  23902084.360    97875144.80046
  23050497.200   121131194.86107  23050500.880    94387964.94946
  23701749.200   124553987.10007  23701751.860    97055273.68946
  23163057.400   121722681.42107  23163058.980    94848852.89946
 15 02 20 00 34  0.0000000  0  7G16G18G21G22G27G29G31
  21702251.260   114046108.76908  21702252.520    88867098.17848
  22425680.360   117847844.68808  22425682.200    91829539.99446
  21219290.600   111508345.88408  21219291.240    86889735.28448
  23883779.480   125510195.75606  23883782.420    97800204.72145
  23037547.880   121063146.12407  23037551.600    94334939.98247
  23715623.200   124626894.95807  23715625.800    97112084.96346
  23180395.060   121813791.50207  23180396.700    94919847.65546
 15 02 20 00 34 30.0000000  0  7G16G18G21G22G27G29G31
  21688781.460   113975324.45308  21688782.680    88811941.57848
  22414001.220   117786469.91208  22414003.120    91781715.51147
  21226047.240   111543852.10408  21226047.860    86917402.47048
  23865480.700   125414038.88006  23865483.780    97725277.66545
  23024615.040   120995183.93807  23024618.760    94281982.46647
  23729505.760   124699847.92507  23729508.180    97168931.37445
  23197762.020   121905055.80907  23197763.840    94990962.60047
 15 02 20 00 35  0.0000000  0  7G16G18G21G22G27G29G31
  21675367.580   113904833.97208  21675368.740    88757013.93748
  22402381.800   117725408.84108  22402383.740    91734135.47446
  21232865.040   111579679.80108  21232865.680    86945320.16048
  23847185.900   125317903.21706  23847189.040    97650367.13545
  23011698.960   120927310.08107  23011702.740    94229093.75647
  23743397.040   124772847.41706  23743399.520    97225814.09746
  23215158.140   121996473.00707  23215160.140    95062196.67046
 15 02 20 00 35 30.0000000  0  7G16G18G21G22G27G29G31
  21662009.840   113834638.57408  21662011.000    88702316.23148
  22390822.280   117664662.64308  22390824.220    91686800.80246
  21239743.460   111615825.99508  21239744.100    86973486.02348
  23828895.520   125221790.31506  23828898.880    97575474.34244
  22998799.500   120859523.44007  22998803.300    94176273.00946
  23757296.780   124845892.15506  23757299.560    97282732.03246
  23232582.580   122088039.01507  23232584.760    95133546.70046
 15 02 20 00 36  0.0000000  0  7G16G18G21G22G27G29G31
  21648708.500   113764739.60308  21648709.640    88647849.51048
  22379322.880   117604232.54408  22379324.720    91639712.42147
  21246681.880   111652287.77208  21246682.560    87001897.79448
  23810609.920   125125700.95106  23810613.280    97500599.85545
  22985916.420   120791822.65507  22985920.260    94123519.17547
  23771204.740   124918980.66006  23771207.920    97339684.09146
  23250034.520   122179749.29007  23250036.820    95205009.13746
 15 02 20 00 36 30.0000000  0  7G16G18G21G22G27G29G31
  21635463.800   113695138.57108  21635465.000    88593614.95648
  22367883.820   117544119.84908  22367885.540    91592871.36846
  21253679.840   111689062.30808  21253680.560    87030553.27448
  23792329.380   125029637.08206  23792332.700    97425745.24445
  22973049.640   120724207.25607  22973053.500    94070831.87447
  23785121.080   124992112.30806  23785124.360    97396669.73845
  23267513.260   122271600.19207  23267515.700    95276581.15046
 15 02 20 00 37  0.0000000  0  7G16G18G21G22G27G29G31
  21622276.040   113625836.53508  21622277.280    88539613.38248
  22356505.440   117484326.42208  22356507.080    91546279.10146
  21260736.820   111726147.07008  21260737.580    87059450.48748
  23774054.360   124933601.04906  23774057.340    97350912.28445
  22960199.020   120656676.56707  22960202.940    94018210.56147
  23799045.780   125065286.36506  23799048.940    97453688.51646
  23285018.100   122363587.92707  23285020.620    95348259.79446
 15 02 20 00 37 30.0000000  0  7G16G18G21G22G27G29G31
  21609146.180   113556838.72308  21609147.460    88485848.86848
  22345188.840   117424857.45808  22345190.320    91499939.66346
  21267853.300   111763544.38508  21267854.040    87088591.25048
  23755785.700   124837598.19606  23755788.300    97276105.16545
  22947365.060   120589233.56007  22947369.020    93965657.58147
  23812979.220   125138505.49706  23812982.160    97510742.32645
  23302549.040   122455712.76907  23302551.540    95420045.25446
 15 02 20 00 38  0.0000000  0  7G16G18G21G22G27G29G31
  21596075.180   113488150.22008  21596076.480    88432325.36348
  22333934.820   117365716.95508  22333936.120    91453856.16946
  21275029.320   111801254.76708  21275030.100    87117975.96348
  23737524.260   124741633.27406  23737526.560    97201327.58845
  22934548.200   120521880.54007  22934552.220    93913174.72547
  23826921.640   125211771.58007  23826924.360    97567832.73945
  23320105.880   122547973.77207  23320108.340    95491936.81746
 15 02 20 00 38 30.0000000  0  7G16G18G21G22G27G29G31
  21583062.800   113419769.79108  21583064.100    88379041.92648
  22322743.200   117306904.05408  22322744.380    91408027.95746
  21282263.860   111839272.63908  21282264.660    87147600.27748
  23719269.880   124645705.73306  23719272.000    97126579.13845
  22921747.900   120454614.55907  22921751.940    93860759.69447
  23840872.540   125285081.90207  23840874.900    97624957.63745
  23337687.420   122640364.70707  23337689.820    95563929.61546
 15 02 20 00 39  0.0000000  0  7G16G18G21G22G27G29G31
  21570110.020   113351702.79608  21570111.400    88326002.72948
  22311615.080   117248424.84508  22311616.180    91362459.75446
  21289557.280   111877599.96408  21289558.100    87177465.72348
  23701023.580   124549821.33407  23701025.740    97051864.29445
  22908964.760   120387438.66807  22908968.780    93808414.85047
  23854832.340   125358439.55907  23854834.460    97682119.38845
  23355293.600   122732885.57907  23355295.940    95636023.64946
 15 02 20 00 39 30.0000000  0  7G16G18G21G22G27G29G31
  21557217.400   113283951.72608  21557218.760    88273209.69848
  22300550.760   117190281.49808  22300551.920    91317153.27546
  21296909.320   111916235.10608  21296910.120    87207571.02448
  23682785.980   124453982.98706  23682788.220    96977185.31146
  22896198.860   120320353.44007  22896202.860    93756140.66247
  23868800.820   125431844.65406  23868803.020    97739318.09746
  23372923.980   122825533.82807  23372926.300    95708216.94246
 15 02 20 00 40  0.0000000  0  7G16G18G21G22G27G29G31
  21544385.000   113216517.11108  21544386.320    88220663.25748
  22289550.300   117132474.27608  22289551.660    91272108.70747
  21304319.200   111955174.26908  21304319.980    87237913.23048
  23664557.300   124358191.40006  23664559.640    96902542.74946
  22883449.860   120253357.04507  22883453.800    93703935.69247
  23882777.660   125505294.70206  23882780.220    97796551.91446
  23390577.800   122918304.71007  23390580.000    95780505.78846
 15 02 20 00 40 30.0000000  0  7G16G18G21G22G27G29G31
  21531613.000   113149399.75908  21531614.280    88168364.03448
  22278613.880   117075004.09208  22278615.500    91227326.75947
  21311786.300   111994414.04808  21311787.080    87268489.67848
  23646337.760   124262447.92206  23646340.160    96827937.67346
  22870717.540   120186448.25707  22870721.420    93651798.97847
  23896762.720   125578788.95606  23896765.720    97853820.10245
  23408254.080   123011193.63707  23408256.260    95852886.62546
 15 02 20 00 41  0.0000000  0  7G16G18G21G22G27G29G31
  21518902.040   113082603.21308  21518903.260    88116314.79048
  22267742.220   117017874.23108  22267744.100    91182809.99747
  21319310.800   112033955.53308  21319311.600    87299301.21948
  23628128.120   124166756.33806  23628130.540    96753373.04645
  22858002.180   120119628.51107  22858006.020    93599731.64547
  23910756.520   125652328.78706  23910759.760    97911123.85246
  23425952.500   123104199.09407  23425954.740    95925358.23746
 15 02 20 00 41 30.0000000  0  7G16G18G21G22G27G29G31
  21506252.040   113016126.78008  21506253.220    88064514.98048
  22256935.240   116961084.12208  22256937.280    91138557.98246
  21326891.640   112073793.11608  21326892.440    87330343.48148
  23609928.340   124071116.26607  23609930.640    96678848.55645
  22845303.180   120052894.81807  22845306.980    93547731.37347
  23924758.680   125725910.86806  23924761.880    97968460.49846
  23443671.880   123197314.80407  23443674.280    95997915.75846
 15 02 20 00 42  0.0000000  0  7G16G18G21G22G27G29G31
  21493663.660   112949974.26008  21493664.840    88012967.57748
  22246193.720   116904637.30008  22246195.680    91094573.46046
  21334528.700   112113926.10808  21334529.520    87361615.93548
  23591739.080   123975531.66907  23591741.200    96604367.26545
  22832620.820   119986248.79507  22832624.660    93495799.41147
  23938769.500   125799536.70507  23938772.540    98025831.23346
  23461412.040   123290539.45907  23461414.600    96070558.16246
 15 02 20 00 42 30.0000000  0  7G16G18G21G22G27G29G31
  21481137.580   112884149.17408  21481138.800    87961675.31148
  22235518.420   116848537.76808  22235520.120    91050859.55346
  21342222.100   112154355.18008  21342222.940    87393119.09948
  23573561.280   123880007.21607  23573563.180    96529932.84946
  22819955.440   119919692.16007  22819959.320    93443937.10647
  23952789.100   125873207.64907  23952791.840    98083237.14546
  23479172.760   123383871.59307  23479175.400    96143284.31346
 15 02 20 00 43  0.0000000  0  7G16G18G21G22G27G29G31
  21468674.700   112818656.41808  21468676.000    87910642.00048
  22224910.140   116792790.35508  22224911.580    91007420.02746
  21349971.960   112195080.85608  21349972.820    87424853.38848
  23555395.780   123784547.84206  23555397.560    96455549.12446
  22807307.600   119853227.71707  22807311.480    93392146.64847
  23966817.720   125946926.76406  23966820.200    98140680.58446
  23496953.940   123477310.94007  23496956.580    96216094.00446
 15 02 20 00 43 30.0000000  0  7G16G18G21G22G27G29G31
  21456275.140   112753496.25609  21456276.440    87859867.85448
  22214368.800   116737394.78208  22214370.080    90964254.65846
  21357777.560   112236099.34008  21357778.380    87456815.83748
  23537242.680   123689153.95006  23537244.380    96381216.40845
  22794676.900   119786853.34007  22794680.800    93340426.36447
  23980854.860   126020691.28906  23980857.120    98198159.36745
  23514754.380   123570851.81107  23514757.000    96288982.78646
 15 02 20 00 44  0.0000000  0  7G16G18G21G22G27G29G31
  21443939.260   112688670.65109  21443940.500    87809354.40548
  22203894.720   116682352.98908  22203895.980    90921364.97147
  21365638.460   112277408.57808  21365639.300    87489004.84748
  23519102.480   123593828.22406  23519104.180    96306936.79946
  22782063.400   119720569.05807  22782067.320    93288776.29047
  23994900.460   126094501.26306  23994902.760    98255673.61045
  23532573.640   123664491.66907  23532576.260    96361948.68146
 15 02 20 00 44 30.0000000  0  7G16G18G21G22G27G29G31
  21431667.600   112624182.65108  21431668.800    87759104.02548
  22193488.380   116627667.66808  22193489.740    90878753.05047
  21373554.620   112319008.31108  21373555.500    87521420.21948
  23500975.860   123498573.96706  23500977.560    96232712.87945
  22769467.260   119654375.82207  22769471.220    93237197.16647
  24008954.600   126168357.51006  24008957.260    98313223.89445
  23550411.200   123758228.19407  23550413.880    96434989.88146
 15 02 20 00 45  0.0000000  0  7G16G18G21G22G27G29G31
  21419460.260   112560032.61708  21419461.420    87709116.98448
  22183149.920   116573339.09108  22183151.400    90836419.10647
  21381525.140   112360893.82608  21381526.040    87554058.28548
  23482863.000   123403391.61707  23482864.600    96158544.97945
  22756888.140   119588271.63207  22756892.060    93185687.42447
  24023017.140   126242257.79707  24023020.100    98370808.48345
  23568266.160   123852056.16607  23568268.900    96508102.33546
 15 02 20 00 45 30.0000000  0  7G16G18G21G22G27G29G31
  21407317.580   112496222.60509  21407318.740    87659394.89748
  22172879.860   116519369.79508  22172881.420    90794365.12147
  21389549.860   112403064.18708  21389550.760    87586918.30348
  23464764.500   123308284.06106  23464765.820    96084435.35846
  22744326.000   119522256.66307  22744329.860    93134247.20147
  24037088.180   126316202.20206  24037091.160    98428427.53645
  23586137.880   123945972.39206  23586140.640    96581283.48046
 15 02 20 00 46  0.0000000  0  7G16G18G21G22G27G29G31
  21395240.260   112432755.79709  21395241.400    87609940.24248
  22162678.800   116465762.52408  22162680.300    90752593.23447
  21397628.600   112445518.60208  21397629.540    87619999.65948
  23446681.020   123213254.65107  23446681.980    96010386.64346
  22731781.040   119456332.10108  22731784.840    93082877.43747
  24051167.840   126390191.69105  24051170.820    98486081.65445
  23604026.200   124039975.28106  23604028.880    96654532.14345
 15 02 20 00 46 30.0000000  0  7G16G18G21G22G27G29G31
  21383229.280   112369637.67109  21383230.400    87560757.28848
  22152547.640   116412522.31708  22152549.000    90711107.36947
  21405761.580   112488258.05008  21405762.580    87653303.11748
  23428613.660   123118309.49507  23428614.300    95936403.57445
  22719253.880   119390501.09707  22719257.600    93031580.55347
  24065256.540   126464229.22306  24065259.560    98543773.16644
  23621931.140   124134064.75207  23621933.760    96727848.21646
 15 02 20 00 47  0.0000000  0  7G16G18G21G22G27G29G31
  21371284.240   112306865.99709  21371285.320    87511844.29548
  22142485.940   116359647.15708  22142487.140    90669905.95946
  21413947.700   112531276.64808  21413948.720    87686824.09448
  23410561.940   123023446.84507  23410562.380    95862484.78246
  22706743.680   119324759.65507  22706747.420    92980353.45947
  24079353.660   126538310.44906  24079356.840    98601498.79044
  23639851.280   124228233.35306  23639853.800    96801225.83946
 15 02 20 00 47 30.0000000  0  7G16G18G21G22G27G29G31
  21359405.740   112244444.02109  21359406.780    87463203.79548
  22132494.180   116307140.03008  22132495.360    90628991.32747
  21422186.800   112574573.41108  21422187.800    87720561.82348
  23392526.500   122928670.24207  23392526.860    95788633.02646
  22694250.760   119259108.79407  22694254.520    92929196.95047
  24093459.300   126612436.28406  24093462.300    98659259.21845
  23657786.240   124322479.44807  23657788.640    96874663.88646
 15 02 20 00 48  0.0000000  0  7G16G18G21G22G27G29G31
  21347594.160   112182373.83609  21347595.200    87414837.41748
  22122572.780   116255002.98908  22122574.040    90588365.08247
  21430478.560   112618146.67708  21430479.520    87754515.01648
  23374507.800   122833982.29307  23374508.220    95714850.34046
  22681775.060   119193548.80007  22681778.880    92878111.25747
  24107573.540   126686607.09006  24107576.060    98717054.62545
  23675735.360   124416799.91707  23675737.740    96948159.80746
 15 02 20 00 48 30.0000000  0  7G16G18G21G22G27G29G31
  21335850.180   112120658.96209  21335851.280    87366747.90548
  22112722.320   116203238.98208  22112723.720    90548029.49847
  21438822.860   112661996.08908  21438823.780    87788683.38448
  23356506.600   122739386.72307  23356507.220    95641139.65246
  22669316.880   119128080.75607  22669320.700    92827097.20547
  24121696.640   126760823.58507  24121699.060    98774885.57444
  23693698.220   124511193.01607  23693700.780    97021712.57045
 15 02 20 00 49  0.0000000  0  7G16G18G21G22G27G29G31
  21324174.080   112059300.68509  21324175.200    87318936.26248
  22102943.060   116151849.21008  22102944.640    90507985.53247
  21447219.120   112706118.58008  21447220.000    87823064.54648
  23338523.380   122644885.33107  23338524.200    95567502.34746
  22656876.020   119062704.00507  22656879.880    92776154.29747
  24135828.340   126835084.80907  24135830.640    98832751.48144
  23711674.040   124605654.86707  23711676.760    97095318.85546
 15 02 20 00 49 30.0000000  0  7G16G18G21G22G27G29G31
  21312566.660   111998303.30709  21312567.800    87271405.83648
  22093235.900   116100837.97108  22093237.560    90468236.53147
  21455667.620   112750515.61108  21455668.480    87857659.63148
  23320559.040   122550482.99107  23320560.000    95493942.21146
  22644452.980   118997420.90507  22644456.840    92725284.35447
  24149968.940   126909392.94407  24149971.140    98890653.93445
  23729662.720   124700184.68106  23729665.660    97168978.11446
 15 02 20 00 50  0.0000000  0  7G16G18G21G22G27G29G31
  21301028.100   111937667.81009  21301029.260    87224157.40048
  22083600.980   116050205.92008  22083602.600    90428782.99547
  21464167.640   112795183.36208  21464168.480    87892465.66748
  23302613.840   122456180.98507  23302614.860    95420460.24146
  22632047.600   118932230.40807  22632051.420    92674486.58547
  24164118.200   126983747.01706  24164120.440    98948592.17945
  23747663.400   124794777.80706  23747666.500    97242686.62846
 15 02 20 00 50 30.0000000  0  7G16G18G21G22G27G29G31
  21289559.180   111877398.56209  21289560.380    87177194.35048
  22074038.860   115999956.49008  22074040.380    90389627.61647
  21472719.180   112840121.91908  21472720.060    87927482.71648
  23284688.660   122361983.88807  23284689.680    95347060.02046
  22619660.260   118867134.58107  22619664.020    92623762.57047
  24178276.240   127058148.77106  24178278.900    99006567.51445
  23765675.980   124889433.27706  23765679.200    97316443.63646
 15 02 20 00 51  0.0000000  0  7G16G18G21G22G27G29G31
  21278159.600   111817493.76409  21278160.880    87130515.28748
  22064549.360   115950088.77908  22064550.800    90350769.67747
  21481321.360   112885326.46208  21481322.220    87962707.03548
  23266783.300   122267891.12207  23266784.440    95273741.09946
  22607290.340   118802130.23407  22607294.080    92573109.84947
  24192442.580   127132594.63006  24192445.720    99064577.19946
  23783699.360   124984145.31206  23783702.740    97390244.77946
 15 02 20 00 51 30.0000000  0  7G16G18G21G22G27G29G31
  21266829.940   111757956.17009  21266831.240    87084122.35248
  22055132.880   115900604.89508  22055134.280    90312210.82747
  21489973.800   112930795.32508  21489974.660    87998137.31448
  23248898.280   122173905.22007  23248899.440    95200505.43545
  22594937.920   118737217.67408  22594941.640    92522528.64547
  24206617.560   127207084.84206  24206620.840    99122621.51146
  23801732.840   125078910.77506  23801736.340    97464087.59046
 15 02 20 00 52  0.0000000  0  7G16G18G21G22G27G29G31
  21255571.240   111698791.47309  21255572.600    87038019.99148
  22045790.500   115851510.45908  22045791.880    90273955.44347
  21498676.740   112976529.75208  21498677.640    88033774.52648
  23231034.680   122080032.57507  23231036.020    95127358.02846
  22582603.660   118672400.63208  22582607.380    92472021.88647
  24220801.640   127281622.87706  24220805.180    99180703.03046
  23819776.480   125173730.01506  23819780.240    97537972.22346
 15 02 20 00 52 30.0000000  0  7G16G18G21G22G27G29G31
  21244383.140   111639997.63209  21244384.520    86992206.61648
  22036521.700   115802802.82808  22036523.100    90236001.45747
  21507429.300   113022524.92008  21507430.240    88069614.91248
  23213192.380   121986271.91407  23213193.920    95054297.88746
  22570286.840   118607675.30308  22570290.580    92421586.57947
  24234994.100   127356204.46906  24234997.260    99238818.53345
