     2.11           OBSERVATION DATA    G                   RINEX VERSION / TYPE
SPIDER V4,0,0,3554                      2015 03 24 00:01    PGM / RUN BY / DATE 
CBEJ                                                        MARKER NAME         
CBEJ                                                        MARKER NUMBER       
                                                            OBSERVER / AGENCY   
496519              LEICA GRX1200+GNSS  8.10/4.007          REC # / TYPE / VERS 
                    LEIAR25         NONE                    ANT # / TYPE        
  5095766.4657   453329.2088  3797108.6657                  APPROX POSITION XYZ 
        0.0730        0.0000        0.0000                  ANTENNA: DELTA H/E/N
     1     1                                                WAVELENGTH FACT L1/2
     4    C1    L1    P2    L2                              # / TYPES OF OBSERV 
    30.000                                                  INTERVAL            
  2015    02    20    00    00    0.0000000     GPS         TIME OF FIRST OBS   
  2015    02    20    23    59   30.0000000     GPS         TIME OF LAST OBS    
    16                                                      LEAP SECONDS        
    29                                                      # OF SATELLITES     
   G 1   812   812   812   812                              PRN / # OF OBS      
   G 2   860   860   859   859                              PRN / # OF OBS      
   G 3   834   834   834   834                              PRN / # OF OBS      
   G 4   831   831   831   831                              PRN / # OF OBS      
   G 5   646   646   646   646                              PRN / # OF OBS      
   G 6   693   692   692   691                              PRN / # OF OBS      
   G 7   651   651   649   649                              PRN / # OF OBS      
   G 9   786   786   786   786                              PRN / # OF OBS      
   G10   760   760   760   760                              PRN / # OF OBS      
   G12   819   819   818   818                              PRN / # OF OBS      
   G13   799   799   799   799                              PRN / # OF OBS      
   G14   857   857   856   856                              PRN / # OF OBS      
   G15   711   711   710   710                              PRN / # OF OBS      
   G16   666   666   666   666                              PRN / # OF OBS      
   G17   855   855   855   855                              PRN / # OF OBS      
   G18   848   848   848   848                              PRN / # OF OBS      
   G19   758   758   758   758                              PRN / # OF OBS      
   G20   792   792   792   792                              PRN / # OF OBS      
   G21   659   659   650   650                              PRN / # OF OBS      
   G22   697   697   695   695                              PRN / # OF OBS      
   G23   715   715   705   705                              PRN / # OF OBS      
   G24   822   822   822   822                              PRN / # OF OBS      
   G25   847   847   847   847                              PRN / # OF OBS      
   G27   809   809   809   809                              PRN / # OF OBS      
   G28   804   804   804   804                              PRN / # OF OBS      
   G29   748   748   747   747                              PRN / # OF OBS      
   G30   667   666   657   656                              PRN / # OF OBS      
   G31   760   755   748   746                              PRN / # OF OBS      
   G32   741   741   740   740                              PRN / # OF OBS      
BIT 2 OF LLI FLAGS DATA COLLECTED UNDER A/S CONDITION       COMMENT             
SNR is mapped to RINEX snr flag value [2-9]                 COMMENT             
Lx:     = 25dBHz -> 1; 26-27dBHz -> 2; 28-31dBHz -> 3       COMMENT             
       32-35dBHz -> 4; 36-38dBHz -> 5; 39-41dBHz -> 6       COMMENT             
       42-44dBHz -> 7; 45-48dBHz -> 8; >=49dBHz -> 9        COMMENT             
                                                            END OF HEADER       
 15 02 20 00 00  0.0000000  0  7G16G18G21G25G27G29G31
  22564647.000   118578023.21908  22564641.880    92398446.15946
  23489973.240   123440716.92508  23489971.740    96187588.86946
  20957513.460   110132479.28008  20957509.580    85817503.45048
  23898094.180   125585321.55608  23898094.860    97858692.10946
  23748068.700   124796933.42307  23748067.620    97244379.85845
  22942142.400   120561750.97707  22942140.680    93944223.17146
  22036120.520   115800585.19309  22036117.220    90234208.54948
 15 02 20 00 00 30.0000000  0  7G16G18G21G25G27G29G31
  22548847.400   118494999.15308  22548842.740    92333752.04846
  23475514.340   123364734.37808  23475512.300    96128381.74045
  20959538.020   110143118.30408  20959534.360    85825793.59448
  23915898.920   125678886.19908  23915899.680    97931599.58246
  23734091.440   124723486.92908  23734090.740    97187148.82246
  22955974.000   120634436.94406  22955972.080    94000861.59646
  22050497.740   115876137.49409  22050494.020    90293080.42848
 15 02 20 00 01  0.0000000  0  7G16G18G21G25G27G29G31
  22533075.240   118412119.16108  22533071.020    92269170.22046
  23461077.720   123288869.36408  23461074.920    96069266.20345
  20961642.000   110154174.57508  20961638.340    85834408.86348
  23933739.460   125772636.89908  23933739.760    98004652.02046
  23720132.840   124650136.66308  23720132.620    97129992.79545
  22969813.120   120707164.80905  22969811.120    94057532.67244
  22064940.220   115952033.01009  22064936.240    90352219.74848
 15 02 20 00 01 30.0000000  0  6G16G18G21G25G27G31
  22517331.140   118329385.27308  22517327.720    92204702.24546
  23446663.760   123213124.88608  23446661.100    96010244.57345
  20963825.180   110165647.05108  20963821.400    85843348.46448
  23951615.280   125866572.58908  23951615.180    98077848.63146
  23706193.380   124576882.79308  23706192.920    97072911.91546
  22079447.240   116028268.88509  22079443.640    90411624.32148
 15 02 20 00 02  0.0000000  0  7G16G18G21G25G27G29G31
  22501617.880   118246812.54008  22501615.180    92140359.85846
  23432276.040   123137517.29308  23432273.940    95951329.60845
  20966089.900   110177548.19308  20966085.920    85852622.08348
  23969528.160   125960705.29308  23969527.960    98151198.79345
  23692275.360   124503738.47508  23692273.680    97015916.37945
  22997515.280   120852756.41505  22997515.880    94170983.19744
  22094021.040   116104856.08209  22094018.000    90471302.63448
 15 02 20 00 02 30.0000000  0  7G16G18G21G25G27G29G31
  22485933.200   118164389.62609  22485930.660    92076134.21546
  23417912.280   123062035.18308  23417910.600    95892512.40045
  20968433.460   110189863.36009  20968429.200    85862218.32448
  23987475.440   126055020.31508  23987475.540    98224691.02046
  23678375.460   124430690.22908  23678372.820    96958995.69746
  23011381.980   120925620.34806  23011380.620    94227760.23743
  22108658.620   116181777.78009  22108655.860    90531241.58348
 15 02 20 00 03  0.0000000  0  7G16G18G21G25G27G29G31
  22470280.340   118082132.12309  22470277.420    92012037.48447
  23403575.500   122986694.57008  23403573.940    95833805.48646
  20970858.240   110202604.84308  20970853.760    85872146.76248
  24005459.860   126149530.27908  24005460.580    98298335.14146
  23664495.900   124357751.78408  23664493.140    96902160.57047
  23025259.160   120998537.84407  23025256.120    94284579.01744
  22123362.160   116259045.40709  22123359.440    90591450.08248
 15 02 20 00 03 30.0000000  0  7G16G18G21G25G27G29G31
  22454657.640   118000031.65009  22454653.880    91948063.08346
  23389264.000   122911488.05408  23389262.480    95775203.03945
  20973361.960   110215761.34709  20973357.300    85882398.58148
  24023479.520   126244223.57408  24023480.120    98372122.05945
  23650634.780   124284912.67608  23650632.380    96845402.82946
  23039144.160   121071498.33607  23039140.680    94341431.29844
  22138128.900   116336645.72509  22138126.240    90651917.83248
 15 02 20 00 04  0.0000000  0  7G16G18G21G25G27G29G31
  22439066.500   117918097.81409  22439062.340    91884218.57547
  23374980.180   122836426.71708  23374978.560    95716713.73345
  20975945.800   110229339.34709  20975941.080    85892978.85648
  24041535.380   126339106.79208  24041535.720    98446056.97845
  23636793.900   124212180.81508  23636792.080    96788728.65546
  23053038.220   121144508.99807  23053034.400    94398322.70243
  22152959.880   116414583.98609  22152957.400    90712648.93248
 15 02 20 00 04 30.0000000  0  7G16G18G21G25G27G29G31
  22423506.040   117836326.94008  22423502.240    91820500.99247
  23360723.600   122761507.19808  23360721.560    95658334.93445
  20978608.440   110243332.17708  20978603.860    85903882.35548
  24059626.100   126434173.12108  24059626.560    98520134.62546
  23622972.540   124139550.41508  23622971.200    96732133.56946
  23066940.200   121217563.79607  23066935.860    94455248.51943
  22167853.640   116492851.58009  22167851.080    90773636.63348
 15 02 20 00 05  0.0000000  0  7G16G18G21G25G27G29G31
  22407976.540   117754720.22309  22407973.380    91756911.33647
  23346494.280   122686730.96008  23346491.480    95600067.79945
  20981349.520   110257738.00308  20981345.340    85915107.67448
  24077751.340   126529420.43408  24077751.460    98594353.25645
  23609170.560   124067020.55708  23609168.880    96675616.81446
  23080850.200   121290661.31907  23080844.240    94512207.55643
  22182809.500   116571444.97709  22182806.680    90834878.20448
 15 02 20 00 05 30.0000000  0  7G16G18G21G25G27G29G31
  22392479.540   117673283.34309  22392476.900    91693454.05548
  23332293.300   122612104.58808  23332290.400    95541917.43445
  20984169.860   110272559.73109  20984166.000    85926657.08148
  24095911.300   126624851.56308  24095911.540    98668715.16246
  23595388.660   123994595.34808  23595385.200    96619181.64145
  23094768.820   121363805.04606  23094762.740    94569202.59243
  22197827.680   116650365.38009  22197824.540    90896374.60648
 15 02 20 00 06  0.0000000  0  7G16G18G21G25G27G29G31
  22377015.820   117592021.19809  22377013.400    91630132.92048
  23318121.920   122537634.17708  23318119.740    95483888.56146
  20987069.800   110287799.05009  20987066.060    85938531.88149
  24114106.240   126720468.25308  24114107.040    98743221.65346
  23581627.160   123922277.67308  23581622.700    96562830.28247
  23108696.300   121436998.09405  23108691.120    94626236.08544
  22212908.220   116729613.14109  22212904.740    90958126.06948
 15 02 20 00 06 30.0000000  0  7G16G18G21G25G27G29G31
  22361585.280   117510933.01809  22361582.600    91566947.34248
  23303980.200   122463319.26008  23303978.300    95425980.85846
  20990048.460   110303451.57009  20990044.700    85950728.65048
  24132335.740   126816266.29808  24132336.400    98817869.44845
  23567885.200   123850064.63708  23567881.980    96506560.37546
  23122632.220   121510236.53605  23122629.320    94683304.97844
  22228049.900   116809182.45309  22228046.300    91020128.09548
 15 02 20 00 07  0.0000000  0  7G16G18G21G25G27G29G31
  22346187.040   117430014.36909  22346184.020    91503893.88847
  23289867.500   122389155.86908  23289865.540    95368191.26446
  20993104.360   110319509.71009  20993100.440    85963241.49448
  24150598.540   126912237.94408  24150598.980    98892652.49745
  23554161.880   123777949.50108  23554159.620    96450366.84946
  23136576.120   121583513.69405  23136575.060    94740404.05644
  22243250.900   116889063.89509  22243247.480    91082373.37248
 15 02 20 00 07 30.0000000  0  7G16G18G21G25G27G29G31
  22330823.100   117349275.33609  22330819.960    91440980.38947
  23275785.740   122315154.80408  23275783.980    95310528.12746
  20996238.740   110335980.74108  20996234.680    85976076.06448
  24168895.840   127008390.22208  24168896.260    98967576.30945
  23540458.500   123705940.77507  23540456.640    96394256.14547
  23150529.300   121656837.42705  23150528.820    94797539.37345
  22258512.560   116969263.08809  22258509.120    91144866.21548
 15 02 20 00 08  0.0000000  0  7G16G18G21G25G27G29G31
  22315493.540   117268717.79209  22315490.200    91378208.28047
  23261735.240   122241318.61508  23261733.460    95252993.43745
  20999451.400   110352863.26508  20999447.200    85989231.26148
  24187226.940   127104721.64307  24187227.240    99042639.70544
  23526775.220   123634038.12708  23526774.160    96338228.07946
  23164491.260   121730207.46006  23164491.160    94854710.68844
  22273834.280   117049777.03609  22273830.640    91207604.30248
 15 02 20 00 08 30.0000000  0  7G16G18G21G25G27G29G31
  22300196.640   117188332.81809  22300192.820    91315570.64847
  23247714.640   122167639.63609  23247711.820    95195581.29745
  21002739.980   110370145.47108  21002735.780    86002697.89348
  24205589.540   127201220.38508  24205589.820    99117833.49345
  23513110.700   123562230.87808  23513109.480    96282274.41546
  23178460.160   121803612.24706  23178459.340    94911909.15244
  22289213.260   117130592.32509  22289209.460    91270577.20548
 15 02 20 00 09  0.0000000  0  7G16G18G21G25G27G29G31
  22284934.300   117108128.53009  22284930.120    91253073.82547
  23233725.660   122094125.90709  23233721.640    95138297.96145
  21006105.480   110387831.73208  21006101.360    86016479.39148
  24223985.140   127297890.98508  24223985.880    99193161.21146
  23499465.680   123490524.86308  23499463.780    96226399.62346
  23192436.980   121877057.32406  23192434.920    94969139.04744
  22304649.700   117211711.97709  22304646.260    91333787.30948
 15 02 20 00 09 30.0000000  0  7G16G18G21G25G27G29G31
  22269707.820   117028111.61309  22269703.740    91190722.99347
  23219769.600   122020784.89509  23219765.400    95081149.18046
  21009548.640   110405925.57808  21009544.440    86030578.49848
  24242414.520   127394737.07708  24242415.880    99268625.68746
  23485840.860   123418924.95008  23485838.240    96170607.53845
  23206421.800   121950547.58105  23206419.940    95026404.22445
  22320144.220   117293137.97909  22320141.280    91397236.11748
 15 02 20 00 10  0.0000000  0  7G16G18G21G25G27G29G31
  22254517.540   116948286.63609  22254513.980    91128521.71347
  23205847.320   121947621.61409  23205843.240    95024138.88146
  21013069.620   110424428.00609  21013065.300    86044995.97648
  24260877.760   127491759.67508  24260879.140    99344227.68146
  23472236.180   123347433.50008  23472233.340    96114899.91546
  23220414.860   122024084.70605  23220414.000    95083705.87745
  22335697.020   117374869.79509  22335694.480    91460923.22648
 15 02 20 00 10 30.0000000  0  7G16G18G21G25G27G29G31
  22239362.360   116868646.94409  22239358.780    91066464.81447
  23191957.280   121874630.43808  23191953.440    94967262.68445
  21016666.540   110443329.70408  21016662.160    86059724.57448
  24279372.800   127588948.91008  24279373.740    99419959.51446
  23458650.600   123276041.84608  23458648.280    96059270.05946
  23234415.400   122097660.20505  23234415.140    95141037.45045
  22351306.120   117456896.17709  22351303.880    91524839.85448
 15 02 20 00 11  0.0000000  0  7G16G18G21G25G27G29G31
  22224243.240   116789195.67409  22224239.320    91004554.75647
  23178100.380   121801815.00308  23178097.340    94910523.38546
  21020339.400   110462630.40908  21020335.060    86074764.08448
  24297899.380   127686304.67908  24297900.040    99495821.10146
  23445084.480   123204751.12908  23445082.940    96003718.87346
  23248423.660   122171274.61506  23248423.280    95198399.29744
  22366970.940   117539215.24909  22366968.940    91588984.54148
 15 02 20 00 11 30.0000000  0  7G16G18G21G25G27G29G31
  22209160.980   116709937.47109  22209157.200    90942795.12147
  23164278.160   121729180.47308  23164276.060    94853925.08846
  21024088.380   110482331.54508  21024084.220    86090115.61348
  24316457.540   127783828.34808  24316458.120    99571813.54545
  23431538.080   123133564.03508  23431536.980    95948248.45146
  23262440.460   122244930.15407  23262439.200    95255793.18644
  22382691.220   117621826.87309  22382689.480    91653357.21748
 15 02 20 00 12  0.0000000  0  7G16G18G21G25G27G29G31
  22194115.920   116630874.81408  22194112.500    90881187.85447
  23150491.200   121656730.00308  23150489.600    94797470.18146
  21027913.220   110502431.69008  21027909.260    86105778.05748
  24335047.300   127881519.03908  24335047.900    99647936.11345
  23418011.240   123062481.03108  23418010.580    95892859.06046
  23276465.600   122318626.79807  23276463.160    95313219.07344
  22398466.720   117704728.76309  22398464.900    91717956.05147
 15 02 20 00 12 30.0000000  0  7G16G18G21G25G27G29G31
  22179108.020   116552009.70608  22179104.840    90819734.50947
  23136739.880   121584465.91108  23136738.300    94741160.53646
  21031813.600   110522929.39208  21031809.920    86121750.29148
  24353668.460   127979375.41908  24353669.120    99724187.80145
  23404504.060   122991502.06808  23404504.260    95837550.77847
  23290498.480   122392364.38307  23290495.020    95370676.86645
  22414297.040   117787917.99009  22414294.820    91782778.78648
 15 02 20 00 13  0.0000000  0  7G16G18G21G25G27G29G31
  22164137.800   116473341.26308  22164134.600    90758434.43547
  23123024.040   121512388.16009  23123022.360    94684996.07746
  21035789.000   110543821.00408  21035785.580    86138029.46548
  24372320.380   128077393.17408  24372321.000    99800565.22345
  23391016.440   122920624.06208  23391017.040    95782321.19846
  23304538.040   122466139.64007  23304534.500    95428164.02645
  22430180.980   117871388.79409  22430178.740    91847820.93048
 15 02 20 00 13 30.0000000  0  7G16G18G21G25G27G29G31
  22149206.160   116394874.97609  22149203.100    90697291.86547
  23109344.900   121440502.52309  23109342.700    94628981.33346
  21039839.920   110565108.81108  21039836.560    86154617.35848
  24391003.600   128175574.40708  24391004.180    99877070.01145
  23377548.820   122849850.45608  23377549.080    95727172.96846
  23318584.960   122539955.80706  23318581.920    95485683.10145
  22446118.560   117955141.52909  22446116.640    91913082.76348
 15 02 20 00 14  0.0000000  0  7G16G18G21G25G27G29G31
  22134313.980   116316615.52909  22134310.860    90636310.49147
  23095703.260   121368814.59309  23095700.380    94573120.64746
  21043966.500   110586793.48109  21043963.100    86171514.51448
  24409718.340   128273920.50408  24409718.980    99953703.29645
  23364101.480   122779183.93408  23364100.900    95672108.21946
  23332639.520   122613814.82005  23332637.220    95543235.59544
  22462109.860   118039176.14109  22462108.160    91978564.24448
 15 02 20 00 14 30.0000000  0  7G16G18G21G25G27G29G31
  22119462.220   116238568.04709  22119458.840    90575494.25747
  23082100.180   121297329.86408  23082097.120    94517418.29646
  21048168.980   110608876.67709  21048165.380    86188722.21348
  24428464.720   128372433.13908  24428465.300   100030466.35745
  23350674.560   122708627.61307  23350673.820    95617129.25346
  23346702.060   122687719.79205  23346701.180    95600823.79344
  22478155.100   118123492.87009  22478152.900    92044265.53847
 15 02 20 00 15  0.0000000  0  7G16G18G21G25G27G29G31
  22104648.760   116160720.87709  22104645.000    90514834.15347
  23068533.580   121226037.20708  23068530.720    94461865.60846
  21052444.460   110631343.78308  21052440.560    86206229.06548
  24447240.080   128471097.22008  24447240.120   100107347.42145
  23337266.180   122638167.55608  23337265.760    95562225.36446
  23360770.480   122761656.41205  23360770.860    95658436.76444
  22494250.700   118208074.74209  22494247.920    92110173.47548
 15 02 20 00 15 30.0000000  0  7G16G18G21G25G27G29G31
  22089874.620   116083080.52109  22089870.620    90454335.17647
  23055004.800   121154943.67708  23055001.640    94406468.09046
  21056793.480   110654197.76408  21056789.420    86224037.37248
  24466044.940   128569915.81108  24466044.540   100184348.84845
  23323877.220   122567808.20908  23323877.040    95507399.94646
  23374846.280   122835628.88205  23374847.080    95716077.65644
  22510396.980   118292923.65609  22510393.900    92176289.49448
 15 02 20 00 16  0.0000000  0  7G16G18G21G25G27G29G31
  22075140.160   116005649.12309  22075135.880    90393999.03047
  23041514.300   121084051.76708  23041510.980    94351227.70246
  21061215.760   110677437.24408  21061211.740    86242146.04248
  24484878.780   128668887.62708  24484878.240   100261469.66045
  23310507.500   122497549.74608  23310507.180    95452653.08246
  23388929.480   122909636.96806  23388929.740    95773746.24745
  22526593.480   118378036.64609  22526590.380    92242611.25547
 15 02 20 00 16 30.0000000  0  7G16G18G21G25G27G29G31
  22060446.400   115928432.47809  22060442.100    90333830.22847
  23028063.240   121013368.13708  23028060.680    94296149.56146
  21065711.920   110701064.97408  21065707.880    86260557.25848
  24503742.060   128768015.15608  24503742.060   100338711.84746
  23297157.880   122427395.89508  23297157.240    95397987.77646
  23403020.720   122983684.46206  23403020.360    95831445.52745
  22542840.520   118463414.80809  22542837.520    92309139.65648
 15 02 20 00 17  0.0000000  0  7G16G18G21G25G27G29G31
  22045792.840   115851428.69309  22045789.120    90273827.27147
  23014651.720   120942891.12209  23014649.640    94241232.43446
  21070280.800   110725074.87308  21070276.780    86279266.26248
  24522633.980   128867292.92908  24522633.940   100416071.06545
  23283827.740   122357342.63608  23283826.480    95343400.85146
  23417118.800   123057766.90406  23417117.860    95889172.04845
  22559136.600   118549050.60309  22559133.860    92375868.81548
 15 02 20 00 17 30.0000000  0  7G16G18G21G25G27G29G31
  22031180.720   115774642.22309  22031177.400    90213993.68247
  23001280.600   120872625.74609  23001278.480    94186480.23146
  21074922.680   110749468.02308  21074918.720    86298273.91148
  24541554.640   128966721.98907  24541554.460   100493548.17945
  23270517.380   122287392.25208  23270514.860    95288894.13446
  23431223.860   123131886.24707  23431222.480    95946927.37244
  22575481.640   118634944.02909  22575478.860    92442798.71248
 15 02 20 00 18  0.0000000  0  8G16G18G21G22G25G27G29G31
  22016610.940   115698078.29809  22016607.480    90154333.47347
  22987950.960   120802577.71809  22987948.680    94131897.38946
  21079637.900   110774246.33209  21079633.980    86317581.69148
  24550700.880   129014806.03408  24550702.740   100531028.37445
  24560504.480   129066304.00708  24560505.000   100571144.50346
  23257226.720   122217547.94308  23257224.260    95234470.04347
  23445336.460   123206045.21007  23445333.840    96004713.53244
  22591875.500   118721095.44308  22591872.760    92509929.63548
 15 02 20 00 18 30.0000000  0  8G16G18G21G22G25G27G29G31
  22002083.100   115621734.84509  22002079.540    90094845.07847
  22974662.360   120732745.68508  22974660.020    94077482.84546
  21084425.500   110799404.60708  21084421.480    86337185.54148
  24532822.880   128920858.41208  24532825.120   100457823.12745
  24579482.540   129166033.74708  24579483.400   100648855.91945
  23243954.200   122147805.78207  23243953.560    95180125.47347
  23459455.900   123280240.12307  23459451.400    96062527.64045
  22608316.940   118807497.65408  22608314.580    92577255.98848
 15 02 20 00 19  0.0000000  0  8G16G18G21G22G25G27G29G31
  21987599.760   115545625.77009  21987596.440    90035539.30147
  22961417.540   120663143.98608  22961415.340    94023247.75946
  21089287.260   110824952.77608  21089283.060    86357093.21048
  24514932.720   128826848.41008  24514935.140   100384569.28745
  24598490.580   129265921.25408  24598491.260   100726690.28145
  23230703.280   122078177.23507  23230703.900    95125869.46247
  23473583.840   123354481.97407  23473578.380    96120378.36544
  22624807.920   118894159.33409  22624806.000    92644784.53147
 15 02 20 00 19 30.0000000  0  8G16G18G21G22G25G27G29G31
  21973158.420   115469736.64109  21973155.140    89976404.91947
  22948213.800   120593758.27908  22948211.660    93969180.99746
  21094219.760   110850872.93108  21094215.380    86377290.73348
  24497028.100   128732762.35808  24497030.820   100311256.20445
  24617525.500   129365948.89407  24617525.920   100804633.80845
  23217471.740   122008645.92908  23217472.560    95071689.25746
  23487716.800   123428754.08406  23487711.860    96178252.76145
  22641344.840   118981061.08309  22641342.980    92712500.12247
 15 02 20 00 20  0.0000000  0  8G16G18G21G22G25G27G29G31
  21958760.700   115394076.51409  21958757.280    89917449.00747
  22935053.100   120524598.53108  22935050.780    93915290.31446
  21099223.980   110877170.24808  21099219.580    86397782.14748
  24479110.760   128638609.54208  24479114.440   100237891.10545
  24636587.680   129466122.17707  24636587.620   100882690.84344
  23204260.640   121939218.83108  23204261.560    95017590.28547
  23501856.760   123503063.04707  23501852.800    96236155.78344
  22657928.340   119068207.17809  22657926.480    92780406.12347
 15 02 20 00 20 30.0000000  0  8G16G18G21G22G25G27G29G31
  21944407.300   115318649.27409  21944403.840    89858674.54847
  22921936.320   120455668.82209  22921933.780    93861578.88846
  21104299.960   110903845.61708  21104295.800    86418568.13948
  24461181.240   128544393.83008  24461186.180   100164476.97245
  24655677.440   129566441.15307  24655677.760   100960861.37945
  23191069.800   121869897.50108  23191070.700    94963573.67447
  23516004.280   123577410.19006  23516001.300    96294088.56545
  22674558.080   119155595.99309  22674556.180    92848501.26948
 15 02 20 00 21  0.0000000  0  8G16G18G21G22G25G27G29G31
  21930098.860   115243456.39809  21930095.120    89800082.71147
  22908863.680   120386970.77109  22908860.920    93808047.95546
  21109447.280   110930896.45908  21109443.520    86439646.70048
  24443240.240   128450117.04008  24443245.900   100091015.24645
  24674794.240   129666903.74507  24674795.440   101039143.88144
  23177898.780   121800681.22208  23177899.400    94909638.92746
  23530158.740   123651794.69706  23530156.980    96352050.53944
  22691233.320   119243223.92009  22691231.100    92916782.70947
 15 02 20 00 21 30.0000000  0  8G16G18G21G22G25G27G29G31
  21915834.420   115168494.26809  21915830.300    89741670.68347
  22895834.360   120318500.96109  22895831.020    93754694.88745
  21114664.680   110958315.69208  21114661.280    86461012.32248
  24425287.260   128355775.86608  24425292.760   100017503.37745
  24693937.380   129767503.03008  24693938.240   101117532.82644
  23164746.600   121731564.46208  23164746.040    94855781.77046
  23544319.500   123726210.76306  23544318.760    96410037.05144
  22707952.440   119331082.67409  22707949.580    92985244.02247
 15 02 20 00 22  0.0000000  0  8G16G18G21G22G25G27G29G31
  21901614.140   115093766.57409  21901610.040    89683441.29647
  22882849.380   120250264.58309  22882845.720    93701523.69446
  21119952.380   110986103.62008  21119949.120    86482665.25348
  24407322.920   128261374.51408  24407326.760    99943944.66044
  24713107.100   129868239.34608  24713107.940   101196028.55945
  23151613.400   121662549.05708  23151611.440    94802003.59746
  23558487.040   123800659.93606  23558486.140    96468049.32644
  22724715.200   119419170.99409  22724711.900    93053884.20447
 15 02 20 00 22 30.0000000  0  8G16G18G21G22G25G27G29G31
  21887440.120   115019281.71709  21887436.100    89625401.15047
  22869910.640   120182270.21509  22869906.600    93648541.10645
  21125311.140   111014264.42809  21125307.800    86504608.73348
  24389349.080   128166921.78108  24389351.020    99870345.92044
  24732304.140   129969117.37408  24732305.240   101274634.73045
  23138499.860   121593641.09307  23138498.460    94748309.07246
  23572661.980   123875147.96906  23572660.020    96526091.84543
  22741522.260   119507492.06809  22741518.880    93122705.78347
 15 02 20 00 23  0.0000000  0  8G16G18G21G22G25G27G29G31
  21873312.360   114945039.04109  21873308.060    89567549.75347
  22857017.780   120114516.51209  22857013.020    93595746.08146
  21130740.300   111042794.47809  21130736.900    86526839.94148
  24371365.340   128072417.35908  24371366.540    99796706.90245
  24751527.300   130070132.83208  24751528.420   101353347.97045
  23125406.000   121524837.68908  23125405.920    94694696.00746
  23586843.820   123949672.12107  23586841.420    96584162.59643
  22758372.440   119596039.92809  22758369.020    93191704.07747
 15 02 20 00 23 30.0000000  0  8G16G18G21G22G25G27G29G31
  21859230.500   114871039.23709  21859226.120    89509887.55947
  22844170.980   120047005.62609  22844166.520    93543140.22046
  21136239.200   111071690.67009  21136235.680    86549356.44448
  24353371.380   127977861.85608  24353373.300    99723028.05845
  24770775.820   130171282.75308  24770777.400   101432166.00246
  23112332.340   121456137.40108  23112332.700    94641163.33646
  23601032.360   124024230.46906  23601030.460    96642259.99045
  22775264.920   119684810.39909  22775261.400    93260875.80347
 15 02 20 00 24  0.0000000  0  8G16G18G21G22G25G27G29G31
  21845195.340   114797285.46509  21845191.560    89452417.08048
  22831370.720   119979740.69108  22831367.100    93490725.98146
  21141807.700   111100952.23709  21141804.000    86572157.65348
  24335368.220   127883258.84508  24335371.220    99649312.22145
  24790049.820   130272566.61208  24790051.740   101511088.41045
  23099279.060   121387541.13508  23099279.520    94587711.74347
  23615226.880   124098823.66106  23615225.900    96700384.59244
  22792199.240   119773801.21609  22792196.020    93330219.25047
 15 02 20 00 24 30.0000000  0  8G16G18G21G22G25G27G29G31
  21831208.280   114723783.52909  21831205.020    89395142.84647
  22818618.160   119912728.03208  22818615.320    93438508.30846
  21147446.080   111130581.39009  21147442.240    86595245.30948
  24317357.220   127788614.75708  24317360.980    99575564.36345
  24809349.600   130373986.84407  24809350.940   101590117.01544
  23086246.360   121319052.78608  23086246.640    94534344.21446
  23629428.200   124173455.18407  23629427.280    96758539.04243
  22809175.880   119863013.47609  22809173.160    93399735.25547
 15 02 20 00 25  0.0000000  0  7G16G18G21G22G27G29G31
  21817267.740   114650526.62109  21817264.840    89338059.53947
  22805912.520   119845961.01209  22805909.940    93386482.08346
  21153152.360   111160567.69008  21153148.480    86618611.24448
  24299337.280   127693922.95708  24299340.900    99501779.36645
  23073232.360   121250663.29708  23073232.060    94481053.72046
  23643635.780   124248116.23408  23643633.280    96816716.37944
  22826192.500   119952434.89909  22826189.860    93469414.22347
 15 02 20 00 25 30.0000000  0  7G16G18G21G22G27G29G31
  21803375.420   114577523.13509  21803372.580    89281173.71047
  22793255.440   119779448.53809  22793252.660    93334654.19846
  21158927.500   111190916.05508  21158923.440    86642259.31348
  24281309.860   127599192.51908  24281313.200    99427964.26145
  23060238.180   121182379.00308  23060238.340    94427845.19047
  23657850.160   124322812.82508  23657847.080    96874921.43244
  22843249.500   120042068.88309  22843246.480    93539258.82247
 15 02 20 00 26  0.0000000  0  7G16G18G21G22G27G29G31
  21789532.220   114504776.83609  21789529.500    89224488.29647
  22780648.000   119713194.94509  22780644.680    93283028.07546
  21164771.340   111221625.86009  21164767.200    86666189.03148
  24263275.720   127504426.94808  24263278.560    99354121.79245
  23047264.480   121114201.62108  23047265.200    94374719.96347
  23672071.180   124397545.83508  23672068.380    96933154.93945
  22860346.500   120131914.42909  22860343.340    93609268.29647
 15 02 20 00 26 30.0000000  0  7G16G18G21G22G27G29G31
  21775737.020   114432282.54909  21775734.520    89167999.23248
  22768088.880   119647194.87309  22768085.420    93231599.49746
  21170682.480   111252689.00009  21170678.220    86690394.08148
  24245234.140   127409621.68308  24245236.480    99280248.40445
  23034309.860   121046123.50908  23034310.020    94321672.11447
  23686297.980   124472308.20508  23686295.600    96991411.27245
  22877481.540   120221960.65709  22877478.560    93679434.13747
 15 02 20 00 27  0.0000000  0  7G16G18G21G22G27G29G31
  21761990.740   114360044.66709  21761988.040    89111709.97747
  22755578.420   119581453.44708  22755575.380    93180372.40546
  21176660.960   111284106.22409  21176656.720    86714875.04448
  24227186.140   127314781.57808  24227187.840    99206347.88345
  23021374.600   120978147.38108  23021374.300    94268703.70146
  23700531.000   124547102.13408  23700529.000    97049692.22945
  22894654.940   120312207.54409  22894651.800    93749756.31447
 15 02 20 00 27 30.0000000  0  7G16G18G21G22G27G29G31
  21748294.940   114288072.10609  21748291.620    89055627.48448
  22743118.960   119515979.79309  22743115.940    93129354.00046
  21182707.740   111315882.24409  21182703.600    86739635.57048
  24209133.180   127219915.93308  24209134.320    99132427.43645
  23008459.800   120910279.72008  23008459.440    94215819.82347
  23714771.340   124621933.80008  23714769.780    97108002.60346
  22911867.220   120402658.28409  22911863.620    93820237.33247
 15 02 20 00 28  0.0000000  0  7G16G18G21G22G27G29G31
  21734648.980   114216363.36309  21734645.580    88999750.53847
  22730710.420   119450772.83009  22730707.380    93078543.43946
  21188821.880   111348011.91709  21188817.800    86764671.67748
  24191075.300   127125023.40608  24191076.300    99058486.04145
  22995564.760   120842516.94408  22995563.460    94163017.70546
  23729018.200   124696799.64708  23729016.740    97166339.60046
  22929117.260   120493306.36609  22929113.220    93890872.14247
 15 02 20 00 28 30.0000000  0  7G16G18G21G22G27G29G31
  21721054.240   114144922.96109  21721050.880    88944082.69047
  22718353.600   119385837.23708  22718350.760    93027944.30247
  21195003.380   111380496.01308  21194999.400    86789983.95648
  24173013.140   127030108.73208  24173014.260    98984527.36746
  22982690.240   120774861.44708  22982688.720    94110299.17546
  23743271.420   124771701.67207  23743270.100    97224704.80946
  22946404.920   120584151.30709  22946400.380    93961660.32047
 15 02 20 00 29  0.0000000  0  7G16G18G21G22G27G29G31
  21707510.820   114073750.15009  21707507.220    88888623.37747
  22706048.340   119321172.67009  22706045.920    92977556.31347
  21201251.380   111413330.50209  21201247.700    86815569.24548
  24154946.520   126935172.07508  24154948.140    98910551.50346
  22969835.720   120707310.59908  22969834.840    94057662.15146
  23757530.500   124846636.80708  23757529.800    97283095.81946
  22963728.940   120675187.33709  22963724.080    94032597.39647
 15 02 20 00 29 30.0000000  0  7G16G18G21G22G27G29G31
  21694017.340   114002841.54209  21694013.760    88833369.91447
  22693794.040   119256775.36909  22693791.860    92927376.61247
  21207564.660   111446507.69309  21207561.220    86841421.59848
  24136875.080   126840209.58508  24136876.960    98836555.53646
  22957000.240   120639858.53508  22956999.660    94005102.12346
  23771795.260   124921599.46208  23771795.040    97341508.26946
  22981087.560   120766405.68009  22981082.760    94103676.54147
 15 02 20 00 30  0.0000000  0  7G16G18G21G22G27G29G31
  21680575.880   113932208.01709  21680572.480    88778330.80847
  22681592.880   119192656.85709  22681590.400    92877414.17346
  21213944.600   111480034.58309  21213941.240    86867546.45948
  24118801.040   126745232.83108  24118802.560    98762548.44045
  22944185.280   120572513.81008  22944184.920    93952625.73346
  23786067.000   124996597.80408  23786066.980    97399948.50946
  22998481.800   120857811.94009  22998477.300    94174902.12247
 15 02 20 00 30 30.0000000  0  7G16G18G21G22G27G29G31
  21667187.160   113861851.83109  21667183.980    88723507.80247
  22669445.160   119128819.82708  22669442.140    92827671.06746
  21220390.960   111513910.23409  21220387.500    86893943.07048
  24100724.680   126650244.99808  24100725.580    98688532.68545
  22931390.640   120505277.25008  22931390.520    93900233.58547
  23800345.460   125071632.07508  23800345.180    97458416.76646
  23015911.000   120949403.60609  23015906.920    94246272.19447
 15 02 20 00 31  0.0000000  0  7G16G18G21G22G27G29G31
  21653850.760   113791769.09909  21653847.780    88668897.90147
  22657350.280   119065261.15008  22657347.220    92778144.85446
  21226902.020   111548126.27909  21226898.440    86920604.92048
  24082645.320   126555242.04208  24082645.900    98614505.12845
  22918615.440   120438142.30608  22918615.280    93847920.66747
  23814629.780   125146696.17908  23814628.900    97516908.23145
  23033373.440   121041171.34209  23033370.040    94317779.44947
 15 02 20 00 31 30.0000000  0  7G16G18G21G22G27G29G31
  21640567.020   113721961.77509  21640564.180    88614502.59648
  22645308.620   119001982.50908  22645305.560    92728836.81247
  21233477.620   111582681.44308  21233473.900    86947531.02248
  24064563.600   126460225.99208  24064564.120    98540467.35246
  22905859.520   120371108.80608  22905859.080    93795686.78747
  23828919.940   125221789.58007  23828918.440    97575422.52445
  23050868.660   121133111.96308  23050865.960    94389421.41848
 15 02 20 00 32  0.0000000  0  7G16G18G21G22G27G29G31
  21627337.720   113652439.60809  21627334.860    88560329.45848
  22633322.500   118938993.90709  22633319.140    92679754.84046
  21240118.860   111617581.20609  21240115.000    86974725.64648
  24046481.620   126365207.28108  24046482.100    98466427.47645
  22893124.180   120304184.36608  22893123.300    93743537.88346
  23843216.900   125296919.37708  23843214.900    97633965.17644
  23068397.720   121225230.11508  23068395.180    94461201.69647
 15 02 20 00 32 30.0000000  0  7G16G18G21G22G27G29G31
  21614162.640   113583200.89509  21614159.180    88506377.22347
  22621391.240   118876293.77709  22621387.740    92630897.63646
  21246824.780   111652820.81909  21246820.880    87002185.08748
  24028399.180   126270184.88908  24028399.440    98392384.70045
  22880408.780   120237365.46808  22880408.140    93691471.22547
  23857519.980   125372082.15908  23857517.360    97692533.50244
  23085959.480   121317519.14009  23085957.020    94533115.14847
 15 02 20 00 33  0.0000000  0  7G16G18G21G22G27G29G31
  21601041.860   113514248.13509  21601037.640    88452647.81148
  22609515.020   118813884.85009  22609511.840    92582267.29747
  21253594.980   111688397.95909  21253591.180    87029907.53148
  24010316.440   126175161.27808  24010316.380    98318340.95646
  22867713.600   120170652.13108  22867713.380    93639486.79047
  23871829.020   125447277.64707  23871826.500    97751127.34146
  23103553.440   121409975.95809  23103551.140    94605159.32847
 15 02 20 00 33 30.0000000  0  7G16G18G21G22G27G29G31
  21587974.880   113445581.38809  21587970.900    88399141.26848
  22597694.240   118751767.43809  22597691.380    92533864.14247
  21260428.740   111724309.35809  21260425.040    87057890.43748
  23992233.540   126080137.15708  23992233.280    98244296.78946
  22855038.640   120104042.40409  22855038.040    93587583.15847
  23886143.780   125522503.62708  23886141.800    97809744.97445
  23121178.640   121502595.67209  23121176.260    94677330.44147
 15 02 20 00 34  0.0000000  0  7G16G18G21G22G27G29G31
  21574962.380   113377201.09809  21574959.020    88345857.90848
  22585928.920   118689941.95308  22585926.540    92485688.43546
  21267325.320   111760551.46409  21267321.700    87086131.04248
  23974150.300   125985112.91508  23974150.020    98170252.49445
  22842383.120   120037534.42809  22842382.220    93535758.78447
  23900464.260   125597757.98908  23900462.200    97868384.68945
  23138834.060   121595373.42309  23138831.360    94749624.68847
 15 02 20 00 34 30.0000000  0  7G16G18G21G22G27G29G31
  21562006.260   113309116.47709  21562003.280    88292804.96648
  22574221.060   118628418.05009  22574218.960    92437747.75447
  21274285.880   111797129.84508  21274282.340    87114633.67448
  23956068.840   125890098.17408  23956068.500    98096215.56846
  22829748.020   119971135.32409  22829747.140    93484019.23447
  23914791.660   125673047.97308  23914789.440    97927052.22546
  23156520.320   121688313.21609  23156517.380    94822045.19547
 15 02 20 00 35  0.0000000  0  7G16G18G21G22G27G29G31
  21549105.740   113241323.81609  21549102.720    88239979.53648
  22562570.040   118567192.52008  22562567.960    92390039.56946
  21281309.180   111834037.44409  21281305.560    87143392.83447
  23937989.020   125795090.38808  23937988.800    98022184.04745
  22817132.560   119904839.77508  22817131.440    93432360.40447
  23929124.740   125748367.96508  23929122.940    97985743.12245
  23174235.760   121781406.71109  23174232.860    94894585.47447
 15 02 20 00 35 30.0000000  0  7G16G18G21G22G27G29G31
  21536262.680   113173833.14909  21536259.580    88187389.42248
  22550977.820   118506275.37909  22550975.660    92342571.68846
  21288396.380   111871280.13708  21288392.420    87172413.13147
  23919912.800   125700099.86308  23919912.240    97948165.97245
  22804537.900   119838655.56708  22804537.040    93380788.32547
  23943464.700   125823725.54708  23943463.560    98044463.30846
  23191981.200   121874658.64709  23191978.600    94967249.24347
 15 02 20 00 36  0.0000000  0  7G16G18G21G22G27G29G31
  21523476.960   113106644.03909  21523474.060    88135034.28348
  22539444.480   118445666.18809  22539441.740    92295343.79046
  21295546.440   111908853.32808  21295542.280    87201690.95047
  23901839.780   125605125.75408  23901838.420    97874160.67445
  22791963.500   119772579.67808  22791963.120    93329300.61747
  23957811.180   125899117.43608  23957810.120    98103210.22445
  23209755.520   121968062.87209  23209753.220    95040031.66447
 15 02 20 00 36 30.0000000  0  7G16G18G21G22G27G29G31
  21510747.280   113039750.48809  21510744.800    88082909.43848
  22527968.600   118385358.84409  22527965.600    92248351.09146
  21302757.260   111946746.68808  21302753.240    87231218.23948
  23883768.740   125510162.53308  23883766.900    97800163.82846
  22779408.500   119706603.99009  22779407.860    93277891.02747
  23972162.820   125974535.43008  23972161.140    98161977.45745
  23227556.600   122061608.22309  23227554.280    95112924.04147
 15 02 20 00 37  0.0000000  0  7G16G18G21G22G27G29G31
  21498074.300   112973154.94409  21498072.140    88031016.81648
  22516550.760   118325356.76509  22516548.020    92201596.22446
  21310028.720   111984959.13808  21310025.000    87260994.16247
  23865700.460   125415214.08008  23865698.240    97726178.45646
  22766873.140   119640729.38009  22766871.800    93226560.22147
  23986519.660   126049980.31907  23986517.260    98220765.65244
  23245384.180   122155292.50209  23245381.180    95185924.64146
 15 02 20 00 37 30.0000000  0  7G16G18G21G22G27G29G31
  21485460.640   112906870.16009  21485458.500    87979366.34548
  22505193.260   118265672.71309  22505190.840    92155089.17747
  21317362.780   112023500.60108  21317359.320    87291026.45447
  23847637.480   125320293.27008  23847634.980    97652214.62546
  22754358.760   119574966.43708  22754357.620    93175316.40448
  24000883.420   126125462.21407  24000881.160    98279582.72345
  23263239.740   122249123.54409  23263235.900    95259039.60146
 15 02 20 00 38  0.0000000  0  7G16G18G21G22G27G29G31
  21472906.680   112840899.11309  21472904.800    87927960.32948
  22493896.540   118206308.69209  22493894.360    92108831.51147
  21324759.220   112062369.48308  21324755.880    87321313.89047
  23829580.300   125225402.75008  23829578.180    97578274.35246
  22741864.940   119509315.42108  22741865.100    93124159.71747
  24015254.240   126200980.92508  24015252.620    98338428.46445
  23281122.480   122343098.26608  23281118.420    95332266.54847
 15 02 20 00 38 30.0000000  0  7G16G18G21G22G27G29G31
  21460410.420   112775231.01509  21460408.660    87876790.39148
  22482658.780   118147254.43209  22482656.820    92062815.21747
  21332215.300   112101550.78908  21332211.740    87351844.78747
  23811526.960   125130532.55708  23811525.440    97504349.91746
  22729390.560   119443763.69309  22729391.220    93073080.49447
  24029629.820   126276524.31408  24029628.240    98397293.38745
  23299029.620   122437201.12609  23299026.080    95405593.33047
 15 02 20 00 39  0.0000000  0  7G16G18G21G22G27G29G31
  21447974.180   112709878.21109  21447972.100    87825866.11648
  22471482.520   118088523.07109  22471480.540    92017050.52747
  21339732.660   112141053.48408  21339728.620    87382626.10447
  23793479.900   125035695.52308  23793478.140    97430451.30046
  22716937.260   119378321.51508  22716938.040    93022086.58748
  24044011.940   126352102.35508  24044009.900    98456185.31444
  23316962.440   122531439.14408  23316959.700    95479025.41247
 15 02 20 00 39 30.0000000  0  7G16G18G21G22G27G29G31
  21435598.200   112644841.22509  21435595.720    87775187.94948
  22460367.720   118030114.97008  22460365.520    91971537.74846
  21347310.540   112180874.01508  21347306.100    87413655.11647
  23775439.060   124940892.62608  23775436.380    97356579.30146
  22704504.440   119312987.53508  22704505.260    92971176.97747
  24058400.280   126427713.19308  24058398.100    98515102.78444
  23334920.020   122625807.89408  23334918.100    95552559.39047
 15 02 20 00 40  0.0000000  0  7G16G18G21G22G27G29G31
  21423281.940   112580117.13109  21423278.860    87724753.59148
  22449313.600   117972027.05609  22449311.360    91926274.45746
  21354947.500   112221005.19108  21354942.740    87444926.17147
  23757404.000   124846121.17008  23757400.640    97282731.74545
  22692091.660   119247756.42709  22692091.820    92920347.56647
  24072793.700   126503351.05508  24072791.900    98574041.34344
  23352900.800   122720299.26508  23352899.720    95626188.91147
 15 02 20 00 40 30.0000000  0  7G16G18G21G22G27G29G31
  21411025.960   112515711.30609  21411022.780    87674567.23148
  22438321.720   117914264.82809  22438319.300    91881264.96847
  21362643.540   112261448.23108  21362638.860    87476440.21547
  23739376.500   124751387.11608  23739372.540    97208913.34246
  22679699.340   119182631.55309  22679698.620    92869600.97047
  24087192.880   126579019.59808  24087191.520    98633003.82444
  23370904.900   122814913.27008  23370904.600    95699913.98747
 15 02 20 00 41  0.0000000  0  7G16G18G21G22G27G29G31
  21398831.020   112451626.65909  21398827.820    87624631.13248
  22427392.600   117856831.09809  22427390.060    91836511.42447
  21370398.760   112302203.62707  21370394.600    87508197.65647
  23721356.880   124656693.77608  23721352.380    97135126.64346
  22667327.160   119117613.87408  22667325.620    92818937.87247
  24101598.120   126654719.74508  24101596.280    98691990.87344
  23388932.220   122909647.82808  23388932.080    95773732.99447
 15 02 20 00 41 30.0000000  0  7G16G18G21G22G27G29G31
  21386698.740   112387869.84909  21386695.400    87574950.51348
  22416527.340   117799732.81209  22416524.680    91792019.27647
  21378213.700   112343273.24508  21378210.120    87540199.92547
  23703346.380   124562048.10408  23703342.060    97061377.07446
  22654975.680   119052707.79608  22654974.100    92768361.72147
  24116010.060   126730455.43708  24116007.960    98751005.62345
  23406983.020   123004504.19008  23406982.180    95847646.89546
 15 02 20 00 42  0.0000000  0  7G16G18G21G22G27G29G31
  21374628.580   112324440.44909  21374625.120    87525525.02148
  22405725.840   117742969.37209  22405722.940    91747788.05947
  21386087.640   112384652.14108  21386084.340    87572443.20447
  23685344.680   124467450.01908  23685341.340    96987664.55347
  22642645.020   118987910.70908  22642644.500    92717870.52648
  24130428.140   126806223.96508  24130426.300    98810045.98945
  23425056.180   123099476.87708  23425054.180    95921651.42946
 15 02 20 00 42 30.0000000  0  7G16G18G21G22G27G29G31
  21362619.640   112261333.13009  21362615.940    87476350.49148
  22394986.940   117686536.05108  22394984.300    91703814.05647
  21394019.160   112426332.19208  21394015.620    87604921.16446
  23667351.060   124372895.27508  23667348.400    96913985.78546
  22630333.940   118923215.53908  22630334.100    92667458.70147
  24144851.200   126882017.87008  24144849.700    98869106.13846
  23443149.640   123194555.65109  23443146.420    95995738.60546
 15 02 20 00 43  0.0000000  0  7G16G18G21G22G27G29G31
  21350673.980   112198557.80609  21350670.100    87427434.67248
  22384312.680   117630442.81209  22384310.640    91660105.01847
  21402009.280   112468319.00308  21402005.460    87637638.17046
  23649367.660   124278394.00408  23649365.160    96840348.71046
  22618043.660   118858630.18908  22618043.640    92617132.46347
  24159280.900   126957845.23608  24159279.440    98928192.35446
  23461264.180   123289745.35209  23461260.080    96069912.21046
 15 02 20 00 43 30.0000000  0  7G16G18G21G22G27G29G31
  21338791.920   112136117.08309  21338787.980    87378779.55548
  22373703.840   117574691.70909  22373701.740    91616662.64648
  21410057.600   112510611.11608  21410053.400    87670593.07747
  23631395.040   124183948.93808  23631392.460    96766755.39147
  22605774.300   118794154.83708  22605774.260    92566891.94748
  24173716.880   127033705.66108  24173715.420    98987304.31747
  23479398.980   123385042.68008  23479394.820    96144169.67847
 15 02 20 00 44  0.0000000  0  7G16G18G21G22G27G29G31
  21326973.160   112074009.07209  21326969.320    87330383.69948
  22363159.580   117519281.09708  22363157.240    91573485.55747
  21418162.680   112553202.72608  21418158.340    87703781.33546
  23613432.920   124089558.97608  23613429.580    96693205.04446
  22593525.320   118729785.71408  22593525.540    92516734.22547
  24188158.200   127109595.38108  24188156.660    99046439.13045
  23497552.740   123480441.33808  23497549.380    96218506.13046
 15 02 20 00 44 30.0000000  0  7G16G18G21G22G27G29G31
  21315218.700   112012238.42909  21315215.040    87282250.73248
  22352680.580   117464215.35408  22352678.320    91530577.19446
  21426324.820   112596095.26407  21426320.440    87737204.07346
  23595482.240   123995229.24208  23595478.360    96619701.58746
  22581296.620   118665525.53408  22581297.240    92466661.35647
  24202605.480   127185516.90708  24202603.740    99105598.71846
  23515725.640   123575940.76908  23515723.180    96292921.08146
 15 02 20 00 45  0.0000000  0  7G16G18G21G22G27G29G31
  21303528.420   111950805.43309  21303524.920    87234380.87748
  22342267.260   117409494.76608  22342265.220    91487937.80247
  21434542.920   112639283.96207  21434539.060    87770857.58646
  23577543.040   123900959.97808  23577539.260    96546245.24046
  22569088.320   118601372.13508  22569089.060    92416671.71547
  24217058.400   127261467.87908  24217056.720    99164781.28246
  23533916.800   123671535.67908  23533915.200    96367410.43146
 15 02 20 00 45 30.0000000  0  7G16G18G21G22G27G29G31
  21291902.880   111889713.30709  21291899.420    87186776.64048
  22331920.620   117355123.17909  22331918.680    91445570.35947
  21442817.480   112682769.06507  21442814.060    87804742.05346
  23559616.340   123806755.43808  23559612.680    96472839.35346
  22556900.960   118537326.90808  22556901.720    92366766.39047
  24231517.100   127337449.60408  24231515.860    99223987.81246
  23552125.720   123767224.29908  23552124.800    96441972.81046
 15 02 20 00 46  0.0000000  0  7G16G18G21G22G27G29G31
  21280343.760   111828970.25209  21280340.320    87139444.39548
  22321642.080   117301108.38609  22321640.300    91403480.93147
  21451149.680   112726554.80607  21451146.040    87838860.81547
  23541703.680   123712623.99508  23541700.380    96399490.38147
  22544735.240   118473396.12808  22544736.620    92316950.19848
  24245982.760   127413467.92807  24245981.860    99283222.88847
  23570353.060   123863009.88808  23570352.620    96516610.74346
 15 02 20 00 46 30.0000000  0  7G16G18G21G22G27G29G31
  21268849.980   111768570.42709  21268846.620    87092379.60548
  22311430.380   117247444.32609  22311428.640    91361664.76147
  21459537.240   112770630.93807  21459533.340    87873205.82846
  23523803.880   123618560.51308  23523801.080    96326194.35246
  22532589.860   118409571.67008  22532591.660    92267216.83448
  24260454.000   127489514.71008  24260453.180    99342480.10946
  23588596.820   123958881.35808  23588596.420    96591315.55046
 15 02 20 00 47  0.0000000  0  7G16G18G21G22G27G29G31
  21257422.340   111708517.73909  21257419.120    87045585.31948
  22301286.320   117194135.21009  22301284.400    91320125.18347
  21467980.200   112814997.79907  21467976.180    87907777.40847
  23505917.700   123524569.49708  23505915.100    96252954.77646
  22520465.320   118345855.71009  22520466.620    92217568.07347
  24274931.140   127565591.80608  24274930.120    99401760.94446
  23606856.840   124054837.52208  23606856.120    96666086.36546
 15 02 20 00 47 30.0000000  0  7G16G18G21G22G27G29G31
  21246060.940   111648813.68909  21246057.880    86999062.68548
  22291210.160   117141182.37509  22291207.480    91278863.27347
  21476477.940   112859652.64507  21476473.800    87942573.37147
  23488045.740   123430652.84108  23488043.020    96179773.15047
  22508361.300   118282247.58908  22508362.000    92168003.33148
  24289413.900   127641698.23808  24289412.620    99461064.62546
  23625132.340   124150874.78008  23625130.880    96740920.35646
 15 02 20 00 48  0.0000000  0  7G16G18G21G22G27G29G31
  21234766.220   111589460.80709  21234763.360    86952813.67148
  22281201.880   117088588.46608  22281198.700    91237881.03746
  21485030.080   112904594.27307  21485026.000    87977592.81946
  23470188.760   123336813.60709  23470186.060    96106651.84747
  22496277.880   118218747.95009  22496278.720    92118523.11448
  24303902.260   127717834.80808  24303900.880    99520391.83046
  23643422.840   124246990.74808  23643420.600    96815815.67146
 15 02 20 00 48 30.0000000  0  7G16G18G21G22G27G29G31
  21223538.900   111530460.64209  21223535.840    86906839.54248
  22271261.680   117036354.63508  22271258.580    91197179.33946
  21493636.100   112949820.50107  21493632.380    88012834.00745
  23452347.200   123243053.60609  23452344.480    96033592.29046
  22484214.940   118155356.08408  22484215.840    92069126.89848
  24318396.200   127794000.57508  24318394.700    99579741.76446
  23661727.560   124343181.20008  23661725.260    96890769.01746
 15 02 20 00 49  0.0000000  0  7G16G18G21G22G27G29G31
  21212380.140   111471819.75909  21212376.740    86861145.37248
  22261391.320   116984487.38309  22261388.160    91156763.32246
  21502296.860   112995333.48807  21502293.320    88048298.67345
  23434521.920   123149380.07309  23434518.900    95960600.07846
  22472173.020   118092076.67308  22472173.620    92019818.26448
  24332896.600   127870199.71608  24332894.820    99639117.66946
  23680047.000   124439448.21108  23680045.080    96965781.99546
 15 02 20 00 49 30.0000000  0  7G16G18G21G22G27G29G31
  21201289.540   111413538.72809  21201286.240    86815731.58548
  22251591.040   116932987.39109  22251587.780    91116633.50446
  21511011.900   113041131.00407  21511008.380    88083985.05145
  23416713.200   123055794.14309  23416709.420    95887676.14846
  22460152.260   118028908.24308  22460152.740    91970596.12748
  24347402.960   127946430.65108  24347401.040    99698518.37946
  23698380.180   124535787.16808  23698378.460    97040851.02247
 15 02 20 00 50  0.0000000  0  7G16G18G21G22G27G29G31
  21190268.200   111355622.25709  21190265.240    86770601.86348
  22241861.800   116881859.21809  22241858.700    91076793.40747
  21519781.320   113087212.98307  21519777.680    88119893.10945
  23398921.920   122962300.93409  23398917.340    95814824.46646
  22448153.120   117965853.59608  22448153.820    91921462.64248
  24361915.760   128022696.16608  24361914.020    99757946.06047
  23716726.800   124632197.35708  23716725.000    97115975.55247
 15 02 20 00 50 30.0000000  0  7G16G18G21G22G27G29G31
  21179316.160   111298068.03409  21179313.000    86725754.42348
  22232202.860   116831099.70809  22232199.980    91037240.57147
  21528603.680   113133572.94507  21528599.440    88156017.79344
  23381147.960   122868898.46509  23381142.920    95742043.48446
  22436174.940   117902908.14008  22436175.520    91872414.22648
  24376434.160   128098991.36708  24376432.700    99817396.85747
  23735085.480   124728671.31908  23735083.980    97191149.75846
 15 02 20 00 51  0.0000000  0  7G16G18G21G22G27G29G31
  21168433.000   111240875.84809  21168429.400    86681189.10248
  22222614.060   116780709.70109  22222611.460    90997975.64747
  21537477.980   113180207.70606  21537473.400    88192356.59144
  23363391.160   122775587.74008  23363386.720    95669333.97246
  22424217.480   117840070.24909  22424217.820    91823449.66948
  24390957.900   128175314.30108  24390956.540    99876869.25946
  23753455.400   124825204.62008  23753454.720    97266370.20847
 15 02 20 00 51 30.0000000  0  7G16G18G21G22G27G29G31
  21157619.080   111184050.21809  21157615.540    86636909.39248
  22213096.020   116730693.17208  22213093.800    90959001.73347
  21546404.020   113227117.32205  21546399.940    88228909.53045
  23345652.420   122682373.16408  23345648.940    95596699.35046
  22412280.900   117777342.06808  22412280.980    91774570.59948
  24405487.300   128251667.02908  24405486.200    99936364.85246
  23771836.220   124921795.94808  23771836.240    97341635.86046
 15 02 20 00 52  0.0000000  0  7G16G18G21G22G27G29G31
  21146875.760   111127596.12309  21146872.620    86592919.19448
  22203649.800   116681055.19008  22203648.100    90920322.75947
  21555382.520   113274302.42205  21555378.960    88265677.11045
  23327933.540   122589260.49909  23327930.300    95524144.14247
  22400365.580   117714726.68308  22400365.600    91725779.37248
  24420022.840   128328052.30408  24420021.920    99995885.83646
  23790227.980   125018445.27508  23790227.820    97416946.66646
 15 02 20 00 52 30.0000000  0  7G16G18G21G22G27G29G31
  21136203.660   111071513.94309  21136200.700    86549218.81148
  22194275.660   116631795.63809  22194274.200    90881938.67847
  21564413.280   113321760.72106  21564409.760    88302657.50845
  23310234.680   122496250.92709  23310230.800    95451669.28646
  22388471.540   117652222.71108  22388471.460    91677075.00248
  24434564.300   128404468.40009  24434562.920   100055430.77445
  23808630.000   125115148.22808  23808629.100    97492299.23546
 15 02 20 00 53  0.0000000  0  7G16G18G21G22G27G29G31
  21125603.060   111015806.87309  21125600.080    86505810.72748
  22184974.520   116582917.61009  22184972.800    90843851.91347
  21573496.100   113369490.81506  21573492.660    88339849.80046
  23292555.800   122403348.00408  23292551.140    95379277.55346
  22376599.020   117589831.45609  22376598.800    91628458.43848
  24449111.960   128480916.64609  24449109.980   100115000.78046
  23827041.960   125211902.84508  23827040.320    97567692.02446
 15 02 20 00 53 30.0000000  0  7G16G18G21G22G27G29G31
  21115073.520   110960474.85709  21115070.620    86462694.86048
  22175746.220   116534420.87609  22175744.000    90806062.30047
  21582630.160   113417488.60706  21582626.460    88377250.70146
  23274896.820   122310551.96008  23274892.080    95306969.06046
  22364747.460   117527550.52009  22364747.040    91579927.85648
  24463665.440   128557394.65109  24463663.400   100174593.98246
  23845462.860   125308703.76208  23845460.600    97643120.84346
