     2.11           OBSERVATION DATA    G                   RINEX VERSION / TYPE
SPIDER V4,0,0,3554                      2015 03 24 00:10    PGM / RUN BY / DATE 
CFKZ                                                        MARKER NAME         
CFKZ                                                        MARKER NUMBER       
                                                            OBSERVER / AGENCY   
496632              LEICA GRX1200+GNSS  8.10/4.007          REC # / TYPE / VERS 
10301036            LEIAR25         NONE                    ANT # / TYPE        
  5212138.8290   540257.5452  3624418.8863                  APPROX POSITION XYZ 
        0.0720        0.0000        0.0000                  ANTENNA: DELTA H/E/N
     1     1                                                WAVELENGTH FACT L1/2
     4    C1    L1    P2    L2                              # / TYPES OF OBSERV 
    30.000                                                  INTERVAL            
  2015    02    20    00    00    0.0000000     GPS         TIME OF FIRST OBS   
  2015    02    20    23    59   30.0000000     GPS         TIME OF LAST OBS    
    16                                                      LEAP SECONDS        
    29                                                      # OF SATELLITES     
   G 1   820   820   819   819                              PRN / # OF OBS      
   G 2   939   939   939   939                              PRN / # OF OBS      
   G 3   855   855   855   855                              PRN / # OF OBS      
   G 4   844   844   844   844                              PRN / # OF OBS      
   G 5   654   654   654   654                              PRN / # OF OBS      
   G 6   813   813   812   812                              PRN / # OF OBS      
   G 7   668   668   668   668                              PRN / # OF OBS      
   G 9   809   809   809   809                              PRN / # OF OBS      
   G10   765   765   765   765                              PRN / # OF OBS      
   G12   834   834   834   834                              PRN / # OF OBS      
   G13   807   807   806   806                              PRN / # OF OBS      
   G14   938   938   938   938                              PRN / # OF OBS      
   G15   711   711   711   711                              PRN / # OF OBS      
   G16   673   673   673   673                              PRN / # OF OBS      
   G17   940   940   939   939                              PRN / # OF OBS      
   G18   914   914   914   914                              PRN / # OF OBS      
   G19   762   762   762   762                              PRN / # OF OBS      
   G20   799   799   799   799                              PRN / # OF OBS      
   G21   735   735   735   735                              PRN / # OF OBS      
   G22   653   653   653   653                              PRN / # OF OBS      
   G23   752   752   752   752                              PRN / # OF OBS      
   G24   831   831   831   831                              PRN / # OF OBS      
   G25   863   863   863   863                              PRN / # OF OBS      
   G27   815   815   815   815                              PRN / # OF OBS      
   G28   879   878   878   878                              PRN / # OF OBS      
   G29   770   770   770   770                              PRN / # OF OBS      
   G30   715   715   715   715                              PRN / # OF OBS      
   G31   847   847   847   847                              PRN / # OF OBS      
   G32   768   768   768   768                              PRN / # OF OBS      
BIT 2 OF LLI FLAGS DATA COLLECTED UNDER A/S CONDITION       COMMENT             
SNR is mapped to RINEX snr flag value [2-9]                 COMMENT             
Lx:     = 25dBHz -> 1; 26-27dBHz -> 2; 28-31dBHz -> 3       COMMENT             
       32-35dBHz -> 4; 36-38dBHz -> 5; 39-41dBHz -> 6       COMMENT             
       42-44dBHz -> 7; 45-48dBHz -> 8; >=49dBHz -> 9        COMMENT             
                                                            END OF HEADER       
 15 02 20 00 00  0.0000000  0  7G16G18G21G25G27G29G31
  22740066.800   119499861.88008  22740063.020    93116767.23847
  23291243.660   122396428.34408  23291241.660    95373892.06446
  20944796.680   110065652.22808  20944792.540    85765430.48048
  23721928.540   124659565.13508  23721929.120    97137320.63046
  23835038.940   125253993.27808  23835038.480    97600520.55146
  22968149.740   120698431.77508  22968147.220    94050714.20847
  21939424.320   115292443.71309  21939420.920    89838248.83448
 15 02 20 00 00 30.0000000  0  7G16G18G21G25G27G29G31
  22723986.640   119415359.86908  22723982.720    93050921.49447
  23277201.780   122322637.79808  23277199.720    95316393.02745
  20947551.360   110080128.37708  20947547.260    85776710.60448
  23739229.860   124750484.10108  23739230.460    97208166.53246
  23821610.420   125183426.77508  23821610.700    97545533.78646
  22981417.280   120768153.96508  22981415.080    94105043.16647
  21953066.140   115364132.09709  21953062.740    89894109.87648
 15 02 20 00 01  0.0000000  0  7G16G18G21G25G27G29G31
  22707930.200   119330982.80208  22707926.160    92985173.14747
  23263186.380   122248986.34808  23263184.260    95259002.31946
  20950384.140   110095014.71008  20950380.020    85788310.34648
  23756570.840   124841611.24608  23756571.360    97279174.65846
  23808199.160   125112950.72708  23808199.040    97490617.35047
  22994691.540   120837911.03408  22994689.460    94159399.29247
  21966776.480   115436180.88009  21966773.220    89950251.74648
 15 02 20 00 01 30.0000000  0  7G16G18G21G25G27G29G31
  22691897.920   119246732.89909  22691894.000    92919523.90447
  23249198.000   122175477.11708  23249195.580    95201722.46346
  20953294.800   110110310.24808  20953290.680    85800228.95148
  23773951.340   124932945.76208  23773951.820    97350344.38446
  23794805.440   125042565.25808  23794805.200    97435771.56546
  23007972.460   120907703.09708  23007970.600    94213782.68947
  21980554.920   115508587.44709  21980551.800    90006672.41548
 15 02 20 00 02  0.0000000  0  7G16G18G21G25G27G29G31
  22675891.480   119162618.54909  22675887.600    92853980.26446
  23235238.500   122102119.76208  23235236.060    95144560.95745
  20956284.340   110126020.54108  20956280.220    85812470.73248
  23791372.260   125024493.01508  23791372.700    97421679.84046
  23781429.840   124972276.64408  23781429.780    97381001.26147
  23021261.180   120977536.15508  23021259.600    94268198.03047
  21994402.300   115581355.97809  21994399.260    90063375.12748
 15 02 20 00 02 30.0000000  0  7G16G18G21G25G27G29G31
  22659910.380   119078637.42009  22659906.600    92788540.43946
  23221307.480   122028911.98908  23221305.080    95087515.99246
  20959351.700   110142139.97408  20959347.660    85825031.32748
  23808832.740   125116247.42908  23808833.060    97493176.75446
  23768071.580   124902080.34508  23768071.720    97326302.92046
  23034556.860   121047405.15908  23034555.240    94322641.38747
  22008317.160   115654478.87909  22008314.120    90120353.96448
 15 02 20 00 03  0.0000000  0  7G16G18G21G25G27G29G31
  22643954.560   118994789.19109  22643950.820    92723204.15547
  23207405.000   121955853.82709  23207402.380    95030587.63246
  20962496.180   110158664.68508  20962492.280    85837907.72748
  23826331.960   125208205.61008  23826332.060    97564832.44746
  23754730.920   124831974.12308  23754731.180    97271674.69947
  23047859.020   121117307.64408  23047857.340    94377110.83547
  22022298.640   115727951.57409  22022295.580    90177605.37648
 15 02 20 00 03 30.0000000  0  7G16G18G21G25G27G29G31
  22628025.240   118911080.25409  22628021.540    92657976.40647
  23193532.440   121882952.69309  23193529.800    94973781.61145
  20965718.460   110175598.13308  20965714.680    85851102.61848
  23843870.400   125300370.86608  23843870.680    97636649.46746
  23741408.240   124761962.17108  23741407.820    97217119.95646
  23061168.440   121187248.24808  23061166.840    94431609.94847
  22036347.040   115801775.78909  22036343.940    90235130.69348
 15 02 20 00 04  0.0000000  0  7G16G18G21G25G27G29G31
  22612122.640   118827511.64309  22612118.920    92592858.04046
  23179690.120   121810211.11509  23179687.640    94917099.92646
  20969018.140   110192938.02408  20969014.380    85864614.22548
  23861447.840   125392741.23608  23861448.180    97708626.34646
  23728103.180   124692043.66108  23728103.300    97162638.07046
  23074484.780   121257225.49408  23074483.220    94486137.63747
  22050461.700   115875948.15309  22050458.580    90292927.28948
 15 02 20 00 04 30.0000000  0  7G16G18G21G25G27G29G31
  22596246.740   118744083.46209  22596243.040    92527849.06147
  23165878.200   121737629.48308  23165875.620    94860542.85246
  20972394.640   110210681.30708  20972390.860    85878440.16248
  23879063.680   125485313.70108  23879064.260    97780760.67646
  23714815.660   124622216.56508  23714815.000    97108227.29546
  23087807.660   121327237.27208  23087805.860    94540692.24147
  22064641.680   115950463.84909  22064638.560    90350991.42148
 15 02 20 00 05  0.0000000  0  7G16G18G21G25G27G29G31
  22580398.580   118660800.88209  22580394.860    92462953.52447
  23152097.740   121665213.26008  23152095.020    94804114.67646
  20975848.360   110228830.05809  20975844.420    85892582.04848
  23896718.320   125578090.17808  23896719.000    97853053.98746
  23701545.980   124552483.78708  23701546.040    97053890.14546
  23101137.540   121397286.28808  23101135.700    94595275.82447
  22078887.100   116025323.42909  22078883.960    90409323.51848
 15 02 20 00 05 30.0000000  0  7G16G18G21G25G27G29G31
  22564578.100   118577663.78209  22564574.440    92398171.40647
  23138348.940   121592963.11709  23138346.140    94747815.90846
  20979378.620   110247381.17108  20979374.580    85907037.45948
  23914411.340   125671067.64908  23914412.160    97925503.91046
  23688293.680   124482843.45308  23688293.380    96999624.95147
  23114474.040   121467370.25808  23114472.060    94649886.68947
  22093197.040   116100522.21409  22093193.840    90467919.92548
 15 02 20 00 06  0.0000000  0  7G16G18G21G25G27G29G31
  22548785.700   118494674.21809  22548782.140    92333504.21547
  23124632.360   121520882.36508  23124629.540    94691649.12446
  20982985.200   110266333.38609  20982981.040    85921805.42048
  23932142.380   125764245.03508  23932143.260    97998109.62846
  23675058.940   124413295.57308  23675059.400    96945431.90146
  23127817.280   121537489.58308  23127815.320    94704525.09247
  22107571.000   116176057.75809  22107567.760    90526778.74148
 15 02 20 00 06 30.0000000  0  7G16G18G21G25G27G29G31
  22533021.020   118411830.39209  22533017.520    92268950.60647
  23110947.740   121448969.49608  23110944.840    94635613.17946
  20986667.040   110285681.19109  20986662.800    85936881.64348
  23949910.480   125857617.19708  23949911.380    98070867.10745
  23661841.400   124343836.14308  23661841.140    96891307.60847
  23141166.440   121607639.58508  23141164.460    94759187.42547
  22122007.700   116251923.34109  22122004.460    90585894.73948
 15 02 20 00 07  0.0000000  0  7G16G18G21G25G27G29G31
  22517286.020   118329142.45609  22517282.540    92204518.47347
  23097297.120   121377235.09808  23097294.200    94579716.30146
  20990425.340   110305431.38609  20990421.140    85952271.40648
  23967716.960   125951190.89608  23967717.980    98143781.59546
  23648641.680   124274472.77308  23648642.120    96837258.32346
  23154523.000   121677828.02008  23154520.840    94813879.67947
  22136508.180   116328124.08809  22136504.940    90645271.90448
 15 02 20 00 07 30.0000000  0  7G16G18G21G25G27G29G31
  22501579.620   118246604.65909  22501576.120    92140203.30347
  23083679.540   121305674.17208  23083676.600    94523954.57946
  20994258.520   110325575.31108  20994254.460    85967967.96348
  23985560.220   126044957.44308  23985561.040    98216846.38946
  23635458.820   124205198.03108  23635459.140    96783278.06446
  23167885.380   121748047.18009  23167883.260    94868595.84747
  22151070.520   116404649.82009  22151067.300    90704902.29548
 15 02 20 00 08  0.0000000  0  7G16G18G21G25G27G29G31
  22485902.340   118164219.80509  22485898.800    92076007.32747
  23070095.620   121234290.16409  23070092.740    94468330.72046
  20998166.520   110346112.38608  20998162.540    85983970.88148
  24003440.100   126138916.30808  24003440.840    98290061.03146
  23622293.560   124136012.60908  23622293.840    96729367.30146
  23181253.740   121818297.81608  23181251.600    94923336.54446
  22165694.300   116481498.48409  22165691.120    90764784.32148
 15 02 20 00 08 30.0000000  0  7G16G18G21G25G27G29G31
  22470256.060   118081998.01709  22470252.500    92011938.40147
  23056547.500   121163094.45009  23056544.540    94412853.58546
  21002150.720   110367049.73008  21002146.740    86000285.69648
  24021357.980   126233074.76408  24021358.700    98363431.20245
  23609146.340   124066924.62908  23609146.300    96675532.56047
  23194629.480   121888587.62308  23194627.240    94978107.80047
  22180380.660   116558675.79709  22180377.540    90824922.44148
 15 02 20 00 09  0.0000000  0  7G16G18G21G25G27G29G31
  22454639.560   117999932.82109  22454635.920    91947991.50547
  23043033.960   121092080.47308  23043031.100    94357518.05546
  21006209.140   110388376.92609  21006205.160    86016904.29148
  24039311.940   126327422.63608  24039312.540    98436948.97346
  23596016.140   123997925.23108  23596016.480    96621766.85746
  23208010.860   121958907.50708  23208008.940    95032902.48847
  22195127.360   116636170.16609  22195124.300    90885307.61248
 15 02 20 00 09 30.0000000  0  7G16G18G21G25G27G29G31
  22439053.760   117918028.87409  22439050.060    91884170.23747
  23029555.980   121021253.62008  23029553.220    94302328.34146
  21010342.060   110410095.39108  21010337.980    86033827.77848
  24057302.200   126421961.61508  24057302.880    98510615.63046
  23582903.600   123929017.14308  23582903.440    96568072.20647
  23221398.440   122029260.50608  23221396.480    95087722.98247
  22209934.380   116713981.55209  22209931.420    90945939.80648
 15 02 20 00 10  0.0000000  0  7G16G18G21G25G27G29G31
  22423499.500   117836290.87509  22423495.900    91820478.31947
  23016114.540   120950619.01408  23016111.960    94247288.43346
  21014549.600   110432206.12609  21014545.460    86051056.92748
  24075329.060   126516692.79408  24075329.800    98584432.06946
  23569808.560   123860202.52708  23569808.720    96514450.52446
  23234792.760   122099648.64508  23234790.620    95142570.81346
  22224801.660   116792109.58109  22224798.780    91006818.73648
 15 02 20 00 10 30.0000000  0  7G16G18G21G25G27G29G31
  22407976.060   117754714.83109  22407972.500    91756912.55647
  23002709.160   120880173.63509  23002706.800    94192395.97546
  21018830.440   110454702.28708  21018826.280    86068586.40948
  24093391.100   126611609.03408  24093392.020    98658392.69246
  23556730.360   123791475.54508  23556730.460    96460897.01447
  23248192.760   122170065.97608  23248190.600    95197441.44247
  22239727.600   116870545.61709  22239724.800    91067937.67048
 15 02 20 00 11  0.0000000  0  7G16G18G21G25G27G29G31
  22392484.400   117673305.90009  22392480.840    91693477.06047
  22989340.880   120809923.09409  22989338.540    94137655.35746
  21023184.920   110477585.54908  21023180.780    86086417.53248
  24111488.780   126706712.23608  24111489.440    98732499.04845
  23543669.480   123722839.16608  23543669.280    96407414.13246
  23261598.840   122240515.28308  23261596.340    95252336.98046
  22254712.200   116949289.87309  22254709.440    91129296.77048
 15 02 20 00 11 30.0000000  0  7G16G18G21G25G27G29G31
  22377026.100   117592072.32709  22377022.520    91630178.16647
  22976011.380   120739876.28208  22976009.040    94083073.45746
  21027614.000   110500860.78709  21027609.860    86104554.07348
  24129622.880   126802007.43208  24129623.860    98806754.94545
  23530626.740   123654299.52308  23530626.520    96354006.67346
  23275012.060   122311002.36408  23275009.680    95307261.91046
  22269756.200   117028345.85109  22269753.340    91190898.78048
 15 02 20 00 12  0.0000000  0  8G16G18G21G22G25G27G29G31
  22361600.240   117511009.14509  22361596.740    91567012.05747
  22962719.800   120670028.76609  22962717.460    94028646.87146
  21032116.040   110524519.02209  21032111.880    86122989.06048
  24545962.500   128989927.15607  24545972.060   100511657.63246
  24147791.860   126897486.34308  24147792.660    98881154.02546
  23517601.160   123585849.63008  23517601.040    96300669.11946
  23288431.080   122381519.99008  23288428.800    95362210.70346
  22284857.660   117107703.80209  22284854.700    91252736.08148
 15 02 20 00 12 30.0000000  0  8G16G18G21G22G25G27G29G31
  22346206.880   117430116.75509  22346203.480    91503979.05447
  22949466.280   120600381.30808  22949463.880    93974376.14246
  21036690.360   110548557.06308  21036686.200    86141719.99648
  24528315.040   128897186.39808  24528322.440   100439392.66344
  24165995.360   126993145.93108  24165996.340    98955693.87845
  23504592.280   123517487.53608  23504592.080    96247399.96947
  23301855.700   122452066.49708  23301853.400    95417181.96946
  22300015.680   117187359.20709  22300012.620    91314805.17048
 15 02 20 00 13  0.0000000  0  8G16G18G21G22G25G27G29G31
  22330846.980   117349400.06209  22330843.580    91441082.90947
  22936251.860   120530939.55108  22936249.520    93920265.72946
  21041337.320   110572976.93109  21041333.200    86160748.46948
  24510651.240   128804360.75008  24510657.820   100367061.58745
  24184233.540   127088987.72808  24184234.340    99030375.73246
  23491600.380   123449215.94108  23491600.320    96194201.41646
  23315286.360   122522644.53508  23315284.100    95472177.82247
  22315230.220   117267312.08809  22315227.140    91377106.05648
 15 02 20 00 13 30.0000000  0  8G16G18G21G22G25G27G29G31
  22315521.460   117268864.06109  22315518.080    91378327.58947
  22923077.580   120461708.83608  22923075.220    93866319.74446
  21046057.280   110597780.28609  21046053.140    86180075.76148
  24492972.140   128711455.77208  24492978.240   100294668.68744
  24202506.540   127185013.38508  24202507.600    99105200.82146
  23478626.280   123381037.67808  23478626.860    96141075.55047
  23328723.480   122593256.88509  23328721.440    95527200.37946
  22330501.300   117347562.33909  22330498.380    91439638.66648
 15 02 20 00 14  0.0000000  0  8G16G18G21G22G25G27G29G31
  22300229.720   117188505.35609  22300226.360    91315710.42347
  22909942.960   120392686.49108  22909940.560    93812536.13346
  21050848.760   110622959.52608  21050844.640    86199695.93748
  24475277.020   128618467.99008  24475282.620   100222211.27845
  24220813.340   127281216.08208  24220814.400    99180163.90845
  23465669.360   123312947.29308  23465668.740    96088018.03647
  23342165.960   122663897.59708  23342164.000    95582245.05546
  22345827.400   117428101.78009  22345824.620    91502396.61448
 15 02 20 00 14 30.0000000  0  8G16G18G21G22G25G27G29G31
  22284973.000   117108330.45209  22284969.620    91253236.47447
  22896849.400   120323879.52708  22896846.920    93758920.35246
  21055712.340   110648517.66108  21055708.200    86219611.35848
  24457567.280   128525404.55707  24457572.540   100149694.94544
  24239154.420   127377599.02708  24239155.680    99255267.40946
  23452729.840   123244948.98409  23452730.000    96035032.44946
  23355614.800   122734571.14508  23355612.840    95637315.32646
  22361208.900   117508932.10309  22361206.200    91565381.22048
 15 02 20 00 15  0.0000000  0  8G16G18G21G22G25G27G29G31
  22269751.680   117028341.64709  22269748.220    91190907.53347
  22883797.400   120255290.61209  22883794.880    93705474.47146
  21060647.840   110674453.74508  21060643.720    86239821.29848
  24439843.100   128432267.64007  24439849.020   100077121.49244
  24257529.440   127474160.97108  24257530.820    99330510.35846
  23439807.580   123177042.71108  23439807.340    95982118.47047
  23369069.880   122805277.35008  23369067.780    95692411.02946
  22376645.240   117590050.19709  22376642.540    91628590.05048
 15 02 20 00 15 30.0000000  0  8G16G18G21G22G25G27G29G31
  22254565.500   116948537.33809  22254561.960    91128722.35547
  22870786.720   120186918.69109  22870784.100    93652197.68846
  21065654.220   110700762.63609  21065650.140    86260321.73148
  24422105.000   128339056.33508  24422110.940   100004489.85545
  24275937.740   127570896.87208  24275939.300    99405888.89246
  23426902.200   123109224.81008  23426901.820    95929273.39946
  23382530.440   122876012.31908  23382528.100    95747529.15847
  22392135.240   117671449.89709  22392132.440    91692018.31948
 15 02 20 00 16  0.0000000  0  8G16G18G21G22G25G27G29G31
  22239414.760   116868919.26309  22239411.140    91066682.30747
  22857817.680   120118765.82809  22857815.020    93599091.59446
  21070731.200   110727442.38009  21070727.120    86281111.14048
  24404353.140   128245772.47708  24404359.160    99931801.74346
  24294379.040   127667805.04708  24294379.940    99481401.68645
  23414013.760   123041494.79708  23414013.640    95876496.78047
  23395996.560   122946775.50209  23395993.740    95802669.21946
  22407678.200   117753127.80209  22407675.260    91755663.37448
 15 02 20 00 16 30.0000000  0  8G16G18G21G22G25G27G29G31
  22224300.680   116789493.92109  22224296.960    91004792.45547
  22844891.680   120050839.30009  22844889.160    93546161.88146
  21075879.380   110754496.30109  21075875.360    86302192.11948
  24386588.880   128152423.10708  24386594.800    99859062.61746
  24312853.780   127764888.70808  24312854.560    99557051.19245
  23401142.740   122973856.99908  23401141.920    95823792.00446
  23409468.920   123017571.51909  23409465.880    95857834.96046
  22423274.420   117835085.75609  22423271.400    91819526.64347
 15 02 20 00 17  0.0000000  0  8G16G18G21G22G25G27G29G31
  22209223.380   116710261.98609  22209219.560    90943053.27447
  22832008.920   119983140.07609  22832006.320    93493409.27446
  21081098.120   110781920.79108  21081094.120    86323561.84848
  24368812.520   128059009.18608  24368818.220    99786273.13245
  24331361.220   127862144.94308  24331361.680    99632835.16445
  23388288.820   122906309.86108  23388288.280    95771157.93646
  23422947.080   123088398.72109  23422943.760    95913024.98646
  22438922.920   117917318.77609  22438919.920    91883604.25448
 15 02 20 00 17 30.0000000  0  8G16G18G21G22G25G27G29G31
  22194183.260   116631225.56609  22194179.400    90881466.46447
  22819169.840   119915670.65009  22819167.260    93440835.71946
  21086386.980   110809714.36408  21086383.060    86345219.18148
  24351024.280   127965533.04408  24351029.780    99713435.17845
  24349901.060   127959572.39908  24349901.620    99708752.53645
  23375452.280   122838853.29108  23375451.500    95718594.36547
  23436430.980   123159256.66608  23436427.520    95968238.94046
  22454623.260   117999824.43109  22454620.380    91947894.30248
 15 02 20 00 18  0.0000000  0  8G16G18G21G22G25G27G29G31
  22179180.520   116552385.72809  22179176.680    90820032.82547
  22806374.800   119848432.67609  22806372.260    93388442.53846
  21091745.640   110837874.78008  21091741.780    86367162.36348
  24333224.420   127871996.01108  24333229.380    99640549.70845
  24368472.980   128057168.73107  24368473.680    99784801.50345
  23362632.820   122771486.12708  23362632.080    95666100.51246
  23449920.420   123230144.08509  23449916.920    96023475.85846
  22470374.800   118082599.04109  22470371.940    92012393.91648
 15 02 20 00 18 30.0000000  0  8G16G18G21G22G25G27G29G31
  22164215.740   116473745.39609  22164211.880    90758754.66347
  22793624.540   119781429.70209  22793621.880    93336232.46946
  21097174.040   110866401.69808  21097170.280    86389391.12848
  24315413.540   127778401.91108  24315418.260    99567619.85145
  24387076.920   128154933.50807  24387077.840    99860981.74645
  23349830.520   122704209.22109  23349829.600    95613676.95946
  23463415.600   123301062.39508  23463412.420    96078736.86446
  22486177.040   118165640.34109  22486174.200    92077101.35948
 15 02 20 00 19  0.0000000  0  8G16G18G21G22G25G27G29G31
  22149289.960   116395309.96109  22149286.100    90697636.15547
  22780920.120   119714667.40909  22780917.320    93284209.95046
  21102672.420   110895296.29008  21102668.760    86411906.39048
  24297592.740   127684755.88608  24297597.580    99494649.52945
  24405713.180   128252868.34107  24405714.420    99937294.48245
  23337045.920   122637025.52609  23337044.880    95561326.09046
  23476916.860   123372014.08408  23476914.280    96134023.86347
  22502030.040   118248948.43909  22502027.200    92142016.67748
 15 02 20 00 19 30.0000000  0  8G16G18G21G22G25G27G29G31
  22134402.400   116317075.50809  22134398.580    90636674.23347
  22768260.820   119648142.04109  22768257.860    93232372.01646
  21108239.380   110924551.07508  21108235.780    86434702.32548
  24279761.540   127591054.77108  24279765.940    99421636.19845
  24424380.460   128350966.03808  24424381.700   100013734.09445
  23324277.800   122569929.07308  23324277.100    95509043.18447
  23490423.440   123442993.10908  23490421.220    96189332.12946
  22517932.100   118332514.44409  22517929.300    92207132.95848
 15 02 20 00 20  0.0000000  0  8G16G18G21G22G25G27G29G31
  22119553.860   116239046.03709  22119550.100    90575872.06747
  22755647.420   119581858.33409  22755644.520    93180722.41546
  21113874.940   110954166.05608  21113871.380    86457778.92548
  24261920.640   127497302.77808  24261924.960    99348583.25745
  24443078.960   128449227.05808  24443080.300   100090300.96545
  23311526.620   122502921.65408  23311525.740    95456829.61047
  23503935.660   123514001.10309  23503933.880    96244662.97946
  22533883.080   118416337.53809  22533880.340    92272449.57348
 15 02 20 00 20 30.0000000  0  8G16G18G21G22G25G27G29G31
  22104744.820   116161224.20609  22104741.100    90515231.70247
  22743080.520   119515819.25009  22743077.700    93129263.42146
  21119578.960   110984140.78308  21119575.400    86481135.85648
  24244070.560   127403502.63108  24244075.040    99275492.80245
  24461808.520   128547650.22308  24461809.720   100166994.23245
  23298792.460   122436003.47808  23298792.020    95404685.58947
  23517453.540   123585038.31008  23517451.780    96300016.62446
  22549882.540   118500414.98209  22549879.840    92337964.36648
 15 02 20 00 21  0.0000000  0  8G16G18G21G22G25G27G29G31
  22089975.640   116083611.66009  22089971.940    90454754.40547
  22730560.460   119450026.35009  22730557.760    93077996.25746
  21125350.940   111014472.66108  21125347.280    86504771.08148
  24226211.780   127309656.27908  24226216.080    99202366.30345
  24480568.660   128646233.55808  24480569.540   100243812.27245
  23286075.140   122369173.73309  23286074.480    95352610.47047
  23530977.000   123656104.21008  23530975.180    96355392.63546
  22565929.760   118584743.10109  22565927.000    92403674.50147
 15 02 20 00 21 30.0000000  0  8G16G18G21G22G25G27G29G31
  22075247.240   116006213.18609  22075243.540    90394443.92447
  22718088.240   119384484.63809  22718085.700    93026924.82646
  21131191.160   111045162.91208  21131187.380    86528685.56448
  24208345.140   127215768.91908  24208349.260    99129207.84546
  24499359.420   128744978.52607  24499360.320   100320756.23345
  23273375.140   122302435.21909  23273374.660    95300606.49647
  23544506.440   123727201.33408  23544504.840    96410792.97446
  22582024.740   118669322.16909  22582021.960    92469580.17248
 15 02 20 00 22  0.0000000  0  8G16G18G21G22G25G27G29G31
  22060559.460   115929028.15209  22060555.720    90334299.75247
  22705664.040   119319194.95609  22705661.560    92976049.77746
  21137098.800   111076207.47308  21137094.940    86552876.12948
  24190470.900   127121840.52808  24190474.660    99056017.42246
  24518179.980   128843881.23907  24518181.140   100397823.11245
  23260692.020   122235785.38908  23260691.840    95248671.60947
  23558041.360   123798327.10708  23558039.600    96466215.60247
  22598166.400   118754146.55009  22598163.600    92535677.00247
 15 02 20 00 22 30.0000000  0  8G16G18G21G22G25G27G29G31
  22045912.620   115852058.22009  22045908.760    90274323.19247
  22693288.120   119254159.04409  22693285.720    92925372.49746
  21143073.380   111107603.55908  21143069.400    86577340.62448
  24172589.160   127027873.00608  24172592.540    98982796.53446
  24537030.280   128942939.40608  24537031.480   100475011.16345
  23248025.800   122169223.43008  23248025.220    95196805.10747
  23571581.640   123869480.65809  23571579.460    96521659.88546
  22614354.000   118839212.64409  22614351.240    92601962.19048
 15 02 20 00 23  0.0000000  0  8G16G18G21G22G25G27G29G31
  22031307.700   115775308.54009  22031303.760    90214518.24947
  22680961.380   119189381.31009  22680958.900    92874896.37746
  21149115.180   111139353.24808  21149111.160    86602080.63348
  24154701.160   126933871.97708  24154704.460    98909549.49545
  24555910.460   129042154.62007  24555911.940   100552321.53145
  23235376.800   122102752.11108  23235376.240    95145009.30047
  23585127.760   123940665.03708  23585125.540    96577128.23646
  22630587.580   118924520.25209  22630584.860    92668435.54247
 15 02 20 00 23 30.0000000  0  8G16G18G21G22G25G27G29G31
  22016744.820   115698779.95309  22016740.740    90154885.57747
  22668684.200   119124864.06709  22668681.560    92824623.23846
  21155223.640   111171453.51109  21155219.640    86627093.81948
  24136806.920   126839838.20108  24136809.940    98836276.97045
  24574819.940   129141524.22708  24574821.380   100629752.19345
  23222744.680   122036370.18209  23222743.960    95093283.15147
  23598679.440   124011878.75308  23598677.300    96632619.41546
  22646866.380   119010065.41909  22646863.740    92735094.00747
 15 02 20 00 24  0.0000000  0  8G16G18G21G22G25G27G29G31
  22002224.440   115622474.68109  22002220.260    90095426.93347
  22656456.920   119060609.30109  22656454.080    92774554.62246
  21161398.420   111203902.41508  21161394.380    86652378.67748
  24118906.880   126745774.32808  24118909.620    98762980.98445
  24593758.560   129241046.47707  24593759.740   100707301.84145
  23210129.400   121970077.23209  23210128.880    95041626.35847
  23612236.600   124083121.41308  23612234.460    96688133.16847
  22663189.740   119095844.77409  22663187.140    92801934.95947
 15 02 20 00 24 30.0000000  0  8G16G18G21G22G25G27G29G31
  21987747.080   115546395.79809  21987742.920    90036144.70047
  22644280.240   118996620.61009  22644277.320    92724693.33746
  21167639.480   111236699.35609  21167635.400    86677934.73248
  24101001.660   126651683.98208  24101004.460    98689664.39646
  24612726.120   129340721.15007  24612727.200   100784970.22445
  23197531.300   121903874.42708  23197531.040    94990039.78047
  23625799.320   124154393.92008  23625797.180    96743670.12846
  22679557.320   119181856.74809  22679554.840    92868957.17247
 15 02 20 00 25  0.0000000  0  8G16G18G21G22G25G27G29G31
  21973313.000   115470544.30109  21973308.840    89977039.63147
  22632154.420   118932899.11209  22632151.500    92675040.24446
  21173946.260   111269841.57208  21173942.120    86703759.83148
  24083091.580   126557568.44108  24083094.340    98616328.19045
  24631722.220   129440545.44908  24631723.340   100862755.16945
  23184950.220   121837760.37608  23184949.760    94938522.35947
  23639367.400   124225695.28408  23639365.340    96799229.61746
  22695968.260   119268096.73809  22695965.860    92936157.04047
 15 02 20 00 25 30.0000000  0  8G16G18G21G22G25G27G29G31
  21958922.600   115394922.44309  21958918.520    89918113.51247
  22620079.960   118869447.48309  22620077.020    92625597.45546
  21180318.440   111303327.74408  21180314.340    86729852.95748
  24065177.120   126463430.61808  24065180.180    98542974.63046
  24650746.460   129540518.11108  24650747.600   100940655.73245
  23172386.080   121771735.14408  23172385.600    94887074.13047
  23652940.900   124297025.56708  23652938.760    96854811.62646
  22712422.020   119354562.08809  22712419.720    93003532.52247
 15 02 20 00 26  0.0000000  0  8G16G18G21G22G25G27G29G31
  21944576.660   115319534.36409  21944572.720    89859369.57347
  22608057.820   118806270.38509  22608054.740    92576368.57646
  21186755.960   111337157.41308  21186751.900    86756213.73448
  24047259.020   126369274.38508  24047262.420    98469606.71245
  24669799.220   129640639.55608  24669800.420   101018672.23845
  23159839.260   121705800.64208  23159838.540    94835696.62747
  23666520.260   124368386.09808  23666517.840    96910417.22346
  22728918.560   119441252.05909  22728916.380    93071083.03047
 15 02 20 00 26 30.0000000  0  8G16G18G21G22G25G27G29G31
  21930274.900   115244378.37309  21930271.100    89800806.46548
  22596087.540   118743365.88409  22596084.280    92527352.09846
  21193257.960   111371325.92108  21193253.940    86782838.55348
  24029337.300   126275098.71508  24029340.840    98396223.69846
  24688879.180   129740904.29008  24688880.420   101096800.35845
  23147308.880   121639952.68808  23147308.260    94784386.55347
  23680104.820   124439773.31109  23680102.420    96966043.60846
  22745456.540   119528159.26009  22745454.360    93138802.82747
 15 02 20 00 27  0.0000000  0  8G16G18G21G22G25G27G29G31
  21916018.260   115169459.48409  21916014.580    89742428.11847
  22584170.080   118680739.49309  22584166.800    92478552.34346
  21199824.720   111405834.48308  21199820.780    86809728.33548
  24011412.760   126180909.12008  24011416.700    98322829.82346
  24707986.760   129841313.96307  24707988.060   101175041.44145
  23134795.420   121574194.34309  23134794.520    94733146.30747
  23693695.140   124511190.21808  23693692.820    97021693.14046
  22762036.020   119615284.24609  22762033.820    93206692.31447
 15 02 20 00 27 30.0000000  0  8G16G18G21G22G25G27G29G31
  21901807.160   115094779.85509  21901803.560    89684236.19548
  22572305.960   118618393.64709  22572302.660    92429971.18746
  21206455.800   111440680.89409  21206451.880    86836881.38448
  23993486.180   126086708.05308  23993490.140    98249426.99445
  24727121.600   129941866.79107  24727123.020   101253394.00745
  23122298.920   121508525.29408  23122298.000    94681975.64647
  23707290.980   124582636.18008  23707288.800    97077365.28546
  22778656.220   119702623.34509  22778654.080    93274748.62647
 15 02 20 00 28  0.0000000  0  8G16G18G21G22G25G27G29G31
  21887641.420   115020338.74109  21887637.940    89626230.12648
  22560495.200   118556327.99409  22560491.880    92381608.37246
  21213150.300   111475860.77408  21213146.400    86864294.27648
  23975557.660   125992495.13108  23975561.440    98176014.92946
  24746282.840   130042558.45207  24746284.280   101331854.79644
  23109818.900   121442942.63308  23109818.220    94630872.30647
  23720891.800   124654108.62208  23720889.380    97133058.08346
  22795316.060   119790170.95909  22795313.980    93342967.40247
 15 02 20 00 28 30.0000000  0  8G16G18G21G22G25G27G29G31
  21873522.360   114946142.79309  21873518.920    89568415.11447
  22548738.980   118494549.12509  22548735.740    92333469.02646
  21219908.720   111511376.72108  21219904.860    86891969.03348
  23957628.180   125898277.01108  23957631.700    98102598.84546
  24765470.940   130143391.85507  24765472.680   101410425.95745
  23097356.240   121377450.72008  23097355.320    94579839.62547
  23734498.300   124725611.65108  23734496.000    97188774.72546
  22812015.780   119877928.47309  22812013.800    93411349.74547
 15 02 20 00 29  0.0000000  0  8G16G18G21G22G25G27G29G31
  21859450.220   114872193.46009  21859446.840    89510792.27448
  22537037.660   118433058.81709  22537034.480    92285554.54346
  21226730.780   111547226.78309  21226726.900    86919904.15348
  23939698.280   125804056.10708  23939701.560    98029180.61446
  24784685.620   130244364.83607  24784687.220   101489105.91244
  23084910.660   121312048.82408  23084910.140    94528877.14147
  23748110.400   124797144.52808  23748108.320    97244514.62546
  22828754.820   119965892.34309  22828752.860    93479892.88647
 15 02 20 00 29 30.0000000  0  8G16G18G21G22G25G27G29G31
  21845425.220   114798491.73809  21845421.860    89453362.35647
  22525391.360   118371857.74109  22525388.320    92237865.41246
  21233615.820   111583407.66309  21233611.900    86948097.04248
  23921767.880   125709832.99808  23921770.820    97955760.66046
  24803926.240   130345474.61407  24803928.240   101567892.42645
  23072481.880   121246735.51508  23072481.480    94477983.66847
  23761728.060   124868706.05608  23761725.820    97300276.79646
  22845532.340   120054058.16209  22845530.360    93548593.39147
 15 02 20 00 30  0.0000000  0  7G16G18G21G22G27G29G31
  21831448.120   114725041.44009  21831444.720    89396128.36248
  22513800.920   118310950.21409  22513798.020    92190405.02647
  21240563.780   111619919.11809  21240559.880    86976547.53348
  23903838.000   125615612.21108  23903840.340    97882342.49246
  23060070.120   121181512.13308  23060069.580    94427160.29647
  23775351.480   124940297.50608  23775349.360    97356062.34546
  22862348.020   120142424.42909  22862345.980    93617450.07547
 15 02 20 00 30 30.0000000  0  7G16G18G21G22G27G29G31
  21817518.500   114651840.81409  21817515.060    89339088.91948
  22502266.160   118250334.76509  22502263.300    92143172.23947
  21247573.600   111656756.04209  21247569.760    87005251.62548
  23885908.380   125521392.85208  23885910.360    97808925.47146
  23047674.800   121116375.19608  23047674.660    94376404.29247
  23788979.860   125011915.14008  23788977.960    97411868.27346
  22879200.660   120230984.57509  22879198.520    93686457.83347
 15 02 20 00 31  0.0000000  0  7G16G18G21G22G27G29G31
  21803637.360   114578894.93809  21803633.900    89282247.96948
  22490788.200   118190017.10809  22490785.200    92096171.49347
  21254645.460   111693918.88808  21254641.600    87034209.68748
  23867979.920   125427179.82408  23867981.660    97735513.37346
  23035296.520   121051327.18708  23035296.440    94325717.51847
  23802613.700   125083561.87608  23802612.200    97467696.82246
  22896090.080   120319738.11009  22896087.920    93755616.27647
 15 02 20 00 31 30.0000000  0  7G16G18G21G22G27G29G31
  21789805.160   114506206.28409  21789801.700    89225607.46548
  22479367.420   118129999.42609  22479364.220    92049404.50847
  21261779.180   111731406.81109  21261775.340    87063421.05248
  23850053.080   125332975.69108  23850054.620    97662108.20246
  23022935.340   120986368.24808  23022934.940    94275100.19047
  23816253.080   125155237.80308  23816251.560    97523548.16846
  22913015.740   120408682.37309  22913013.600    93824923.34447
 15 02 20 00 32  0.0000000  0  7G16G18G21G22G27G29G31
  21776021.760   114433773.89409  21776018.240    89169166.65248
  22468003.480   118070281.03809  22468000.260    92002870.73347
  21268973.700   111769214.50009  21268969.900    87092881.58248
  23832127.880   125238780.27308  23832129.420    97588709.83046
  23010590.540   120921495.16408  23010590.280    94224549.75747
  23829897.600   125226939.44108  23829895.800    97579419.56446
  22929976.440   120497811.26409  22929974.400    93894374.25647
 15 02 20 00 32 30.0000000  0  7G16G18G21G22G27G29G31
  21762288.460   114361604.66109  21762284.880    89112930.88448
  22456697.680   118010868.68109  22456694.480    91956575.40947
  21276229.760   111807345.55509  21276225.940    87122594.09148
  23814205.720   125144600.99608  23814207.080    97515324.01346
  22998262.980   120856712.77308  22998262.460    94174069.97447
  23843547.860   125298671.88608  23843546.140    97635314.90246
  22946972.600   120587126.62708  22946970.740    93963970.46547
 15 02 20 00 33  0.0000000  0  7G16G18G21G22G27G29G31
  21748605.280   114289698.81709  21748601.680    89056900.37348
  22445450.180   117951762.81409  22445447.000    91910518.91047
  21283546.600   111845795.42209  21283542.680    87152555.03148
  23796286.560   125050438.12808  23796287.900    97441951.04046
  22985952.180   120792018.78309  22985951.520    94123659.08947
  23857203.680   125370432.81908  23857201.820    97691232.53746
  22964003.280   120676623.12809  22964001.500    94033707.81747
 15 02 20 00 33 30.0000000  0  7G16G18G21G22G27G29G31
  21734973.320   114218062.25009  21734969.700    89001079.67948
  22434262.160   117892969.41709  22434259.020    91864705.90647
  21290924.540   111884566.38109  21290920.520    87182766.17348
  23778371.780   124956298.13008  23778372.920    97368595.83046
  22973658.860   120727416.92208  22973658.500    94073320.01147
  23870865.340   125442225.92408  23870863.580    97747175.10145
  22981068.620   120766301.52809  22981066.840    94103586.88847
 15 02 20 00 34  0.0000000  0  7G16G18G21G22G27G29G31
  21721391.420   114146689.08609  21721387.860    88945464.23548
  22423132.400   117834482.49609  22423129.360    91819131.71147
  21298361.640   111923648.52909  21298357.560    87213219.79348
  23760460.180   124862175.01708  23760461.040    97295253.76646
  22961381.460   120662898.88908  22961381.040    94023046.24447
  23884531.720   125514042.64708  23884529.640    97803136.21446
  22998166.500   120856150.64509  22998164.660    94173599.00147
 15 02 20 00 34 30.0000000  0  7G16G18G21G22G27G29G31
  21707861.660   114075590.03309  21707858.180    88890062.39048
  22412063.060   117776313.14209  22412060.000    91773804.96647
  21305859.240   111963048.76909  21305855.120    87243921.27948
  23742553.920   124768079.93908  23742554.640    97221933.53046
  22949121.580   120598473.12108  22949121.000    93972844.38647
  23898204.060   125585892.01108  23898202.080    97859122.68746
  23015297.940   120946175.89809  23015296.000    94243748.33047
 15 02 20 00 35  0.0000000  0  7G16G18G21G22G27G29G31
  21694383.340   114004761.12809  21694379.860    88834871.03748
  22401053.500   117718457.75809  22401050.460    91728722.87747
  21313415.940   112002759.67409  21313411.820    87274864.84348
  23724652.480   124674010.12908  23724653.100    97148632.99246
  22936878.200   120534133.97708  22936877.800    93922710.00847
  23911881.660   125657768.11108  23911879.520    97915129.98945
  23032461.300   121036368.63909  23032459.320    94314028.16547
 15 02 20 00 35 30.0000000  0  7G16G18G21G22G27G29G31
  21680957.520   113934208.02309  21680954.040    88779894.61048
  22390104.820   117660921.87809  22390101.660    91683889.74247
  21321032.100   112042782.58909  21321027.900    87306051.52648
  23706757.060   124579971.42708  23706757.500    97075356.67646
  22924651.860   120469884.58608  22924651.520    93872645.54647
  23925565.000   125729674.19108  23925562.480    97971160.65946
  23049656.620   121126729.16609  23049654.560    94384438.72747
 15 02 20 00 36  0.0000000  0  7G16G18G21G22G27G29G31
  21667584.120   113863930.39409  21667580.580    88725132.82648
  22379216.900   117603705.04709  22379213.620    91639305.22747
  21328706.800   112083112.92109  21328702.580    87337477.75348
  23688867.420   124485963.16008  23688867.660    97002104.07646
  22912442.040   120405721.93308  22912441.560    93822648.73047
  23939253.580   125801607.19508  23939251.320    98027212.31445
  23066882.680   121217251.37709  23066880.600    94454975.27147
 15 02 20 00 36 30.0000000  0  7G16G18G21G22G27G29G31
  21654264.120   113793933.52209  21654260.560    88670589.80648
  22368390.660   117546812.37209  22368387.240    91594973.28947
  21336440.100   112123751.52209  21336435.840    87369144.19148
  23670984.720   124391990.99408  23670984.720    96928879.59546
  22900249.380   120341649.17208  22900248.940    93772721.92047
  23952947.920   125873570.22308  23952945.580    98083287.38845
  23084139.480   121307935.33509  23084137.520    94525637.81147
 15 02 20 00 37  0.0000000  0  7G16G18G21G22G27G29G31
  21640997.380   113724216.45809  21640993.800    88616264.81848
  22357626.000   117490243.68609  22357622.540    91550893.80447
  21344231.180   112164693.78709  21344226.920    87401047.23848
  23653108.980   124298055.35908  23653108.760    96855683.53746
  22888073.360   120277663.59409  22888072.780    93722863.03547
  23966647.480   125945560.79308  23966645.140    98139383.89846
  23101425.920   121398775.13209  23101424.120    94596421.67147
 15 02 20 00 37 30.0000000  0  7G16G18G21G22G27G29G31
  21627785.460   113654787.22209  21627781.820    88562164.11848
  22346924.480   117434006.95809  22346921.100    91507073.01247
  21352081.040   112205944.75909  21352076.720    87433190.86148
  23635241.740   124204164.43408  23635241.400    96782522.34646
  22875915.040   120213770.82908  22875914.300    93673076.50147
  23980352.840   126017584.33608  23980350.700    98195506.15345
  23118742.720   121489773.93209  23118741.040    94667329.35946
 15 02 20 00 38  0.0000000  0  7G16G18G21G22G27G29G31
  21614627.740   113585643.02809  21614624.120    88508285.53648
  22336285.320   117378098.30209  22336282.120    91463507.85647
  21359988.200   112247497.00809  21359983.820    87465569.24748
  23617382.360   124110315.03108  23617381.900    96709393.48246
  22863773.300   120149965.19709  22863772.420    93623357.86447
  23994063.420   126089634.92708  23994061.560    98251649.44446
  23136088.220   121580923.10608  23136086.640    94738354.29346
 15 02 20 00 38 30.0000000  0  7G16G18G21G22G27G29G31
  21601524.980   113516787.63609  21601521.380    88454631.98548
  22325709.320   117322521.84809  22325706.240    91420201.56347
  21367952.480   112289349.88108  21367948.180    87498181.86548
  23599531.800   124016511.70208  23599531.160    96636300.48946
  22851648.560   120086248.67008  22851647.580    93573708.63447
  24007779.440   126161715.03708  24007778.280    98307815.64346
  23153462.080   121672221.42009  23153460.620    94809495.40347
 15 02 20 00 39  0.0000000  0  7G16G18G21G22G27G29G31
  21588477.380   113448222.05309  21588473.820    88401204.27148
  22315196.880   117267279.31509  22315193.860    91377155.45247
  21375973.480   112331500.91509  21375969.300    87531026.82648
  23581690.220   123922755.87608  23581689.460    96563244.49946
  22839540.380   120022619.82809  22839539.340    93524127.76047
  24021501.120   126233823.36508  24021499.980    98364003.98746
  23170863.340   121763663.52709  23170861.940    94880748.09847
 15 02 20 00 39 30.0000000  0  7G16G18G21G22G27G29G31
  21575485.580   113379949.48409  21575482.020    88348004.87248
  22304748.560   117212373.60109  22304745.520    91334371.81147
  21384051.040   112373949.14909  21384046.960    87564103.37348
  23563858.480   123829051.28208  23563857.600    96490228.42346
  22827449.120   119959079.88308  22827448.240    93474616.13047
  24035228.380   126305960.82908  24035227.680    98420214.88446
  23188291.960   121855249.06609  23188290.740    94952112.79847
 15 02 20 00 40  0.0000000  0  7G16G18G21G22G27G29G31
  21562550.140   113311972.88309  21562546.480    88295036.09348
  22294364.940   117157807.34709  22294361.840    91291852.66847
  21392184.920   112416693.10909  21392180.820    87597410.35648
  23546037.040   123735401.02408  23546035.840    96417254.66146
  22815374.780   119895629.32108  22815374.000    93425174.14447
  24048961.640   126378127.41408  24048960.780    98476448.57646
  23205747.300   121946974.77708  23205746.180    95023586.48347
 15 02 20 00 40 30.0000000  0  7G16G18G21G22G27G29G31
  21549670.960   113244292.07809  21549667.200    88242297.79948
  22284045.960   117103580.48309  22284042.760    91249597.98847
  21400374.240   112459728.33409  21400370.140    87630944.28948
  23528225.980   123641805.45508  23528224.640    96344323.49146
  22803316.980   119832265.81909  22803316.160    93375800.01447
  24062700.000   126450321.55908  24062697.880    98532703.74445
  23223228.440   122038835.78708  23223227.480    95095165.75247
 15 02 20 00 41  0.0000000  0  7G16G18G21G22G27G29G31
  21536848.760   113176910.78609  21536844.960    88189792.91448
  22273792.220   117049696.43209  22273788.940    91207610.44447
  21408619.240   112503056.03809  21408615.220    87664706.13548
  23510426.060   123548268.70408  23510424.700    96271438.14546
  22791276.100   119768990.93009  22791275.280    93326494.93247
  24076444.060   126522544.85908  24076441.660    98588981.64246
  23240735.160   122130831.36809  23240734.360    95166850.32447
 15 02 20 00 41 30.0000000  0  7G16G18G21G22G27G29G31
  21524085.400   113109838.86609  21524081.620    88137529.08148
  22263605.620   116996165.17809  22263602.240    91165897.79147
  21416920.820   112546681.10409  21416916.880    87698699.68448
  23492639.240   123454800.88808  23492637.900    96198606.50646
  22779253.480   119705812.06709  22779252.800    93277264.66347
  24090194.560   126594804.59508  24090192.500    98645287.85345
  23258268.060   122222964.91009  23258267.320    95238642.34646
 15 02 20 00 42  0.0000000  0  7G16G18G21G22G27G29G31
  21511378.820   113043065.19109  21511375.020    88085497.64748
  22253483.960   116942975.31209  22253480.500    91124451.15247
  21425276.000   112590587.76109  21425272.040    87732912.66048
  23474863.580   123361391.12108  23474862.140    96125820.08146
  22767246.660   119642715.87309  22767245.980    93228098.80247
  24103949.460   126667087.29008  24103947.460    98701612.04646
  23275824.000   122315220.16809  23275823.260    95310529.21046
 15 02 20 00 42 30.0000000  0  7G16G18G21G22G27G29G31
  21498731.800   112976604.58409  21498727.980    88033710.16348
  22243430.140   116890142.09409  22243426.600    91083282.44247
  21433687.100   112634788.01909  21433683.140    87767354.41548
  23457102.020   123268055.29908  23457100.460    96053091.24146
  22755258.040   119579715.23909  22755257.220    93179007.41147
  24117710.960   126739405.93708  24117709.640    98757964.11545
  23293404.900   122407606.94809  23293404.220    95382518.48047
 15 02 20 00 43  0.0000000  0  7G16G18G21G22G27G29G31
  21486142.380   112910446.70309  21486138.520    87982158.57648
  22233442.160   116837655.11509  22233438.640    91042383.51547
  21442151.240   112679267.00209  21442147.240    87802013.36548
  23439352.680   123174783.28508  23439351.100    95980412.11246
  22743285.180   119516797.62709  22743284.300    93129980.70447
  24131477.340   126811748.11108  24131475.960    98814334.68045
  23311007.880   122500109.84208  23311007.360    95454598.25447
 15 02 20 00 43 30.0000000  0  7G16G18G21G22G27G29G31
  21473612.480   112844601.67709  21473608.600    87930850.76948
  22223521.840   116785523.92009  22223518.480    91001761.82647
  21450669.520   112724030.76809  21450665.500    87836894.21848
  23421617.400   123081585.32308  23421615.840    95907790.69846
  22731329.540   119453970.65109  22731328.800    93081024.65847
  24145249.680   126884121.21108  24145247.480    98870729.30145
  23328633.780   122592732.92409  23328633.360    95526771.60547
 15 02 20 00 44  0.0000000  0  7G16G18G21G22G27G29G31
  21461142.060   112779069.21909  21461138.200    87879786.52948
  22213669.120   116733748.17109  22213665.920    90961417.11147
  21459241.180   112769074.87009  21459237.100    87871993.52448
  23403896.340   122988461.81208  23403894.720    95835227.26346
  22719390.700   119391232.03309  22719390.120    93032137.44447
  24159027.540   126956522.98208  24159025.080    98927146.20245
  23346281.600   122685471.05709  23346281.300    95599034.40847
 15 02 20 00 44 30.0000000  0  7G16G18G21G22G27G29G31
  21448732.040   112713854.08209  21448728.220    87828969.54948
  22203884.920   116682332.25509  22203881.840    90921352.77347
  21467866.440   112814400.71209  21467862.320    87907312.36448
  23386190.540   122895417.98808  23386188.760    95762725.92246
  22707469.200   119328584.28009  22707468.660    92983321.01347
  24172811.280   127028956.19508  24172807.900    98983587.61945
  23363951.360   122778324.17609  23363951.220    95671386.86947
 15 02 20 00 45  0.0000000  0  7G16G18G21G22G27G29G31
  21436382.700   112648957.71209  21436378.880    87778400.94448
  22194169.480   116631277.46809  22194166.540    90881569.83247
  21476544.500   112860004.56409  21476540.440    87942847.82548
  23368500.180   122802455.18908  23368498.280    95690287.67247
  22695564.860   119266026.38309  22695564.340    92934574.62248
  24186600.620   127101419.56508  24186597.160    99040052.54946
  23381642.200   122871288.20808  23381642.240    95743825.82047
 15 02 20 00 45 30.0000000  0  7G16G18G21G22G27G29G31
  21424094.140   112584380.53409  21424090.280    87728081.07048
  22184522.960   116580584.73909  22184520.040    90842069.03347
  21485274.980   112905883.85909  21485270.920    87978597.92548
  23350825.440   122709574.82008  23350823.400    95617913.67447
  22683677.320   119203556.81009  22683676.820    92885897.04548
  24200395.520   127173911.76808  24200392.560    99096539.94946
  23399353.200   122964358.23608  23399353.380    95816347.33246
 15 02 20 00 46  0.0000000  0  7G16G18G21G22G27G29G31
  21411867.820   112520130.69409  21411863.980    87678016.26448
  22174946.840   116530261.67909  22174943.800    90802856.28147
  21494058.580   112952042.59008  21494054.660    88014565.76748
  23333167.960   122616785.10808  23333165.880    95545610.29546
  22671807.700   119141181.53909  22671807.140    92837292.93548
  24214196.700   127246438.63808  24214194.100    99153054.36845
  23417085.040   123057537.82408  23417085.300    95888954.41246
 15 02 20 00 46 30.0000000  0  7G16G18G21G22G27G29G31
  21399703.020   112456204.34909  21399699.200    87628203.54448
  22165440.240   116480304.00609  22165437.040    90763928.24747
  21502893.760   112998472.36509  21502889.940    88050744.80948
  23315527.040   122524082.95908  23315524.820    95473375.14547
  22659954.840   119078894.27809  22659954.320    92788757.45147
  24228003.400   127318993.98008  24228001.140    99209591.01346
  23434835.900   123150817.30508  23434836.280    95961639.32246
 15 02 20 00 47  0.0000000  0  7G16G18G21G22G27G29G31
  21387600.460   112392605.14009  21387596.660    87578645.71548
  22156003.820   116430715.55209  22156000.580    90725287.90447
  21511780.500   113045173.13809  21511776.840    88087135.01548
  23297903.600   122431472.49708  23297901.380    95401211.42947
  22648119.080   119016696.86909  22648118.520    92740291.92747
  24241815.780   127391579.47808  24241814.060    99266151.09246
  23452605.460   123244195.08308  23452605.940    96034400.73347
 15 02 20 00 47 30.0000000  0  7G16G18G21G22G27G29G31
  21375560.560   112329335.07809  21375556.740    87529344.37448
  22146637.960   116381497.98609  22146634.660    90686936.57847
  21520718.440   113092142.56109  21520714.800    88123734.56148
  23280298.060   122338956.09408  23280295.820    95329120.99646
  22636300.320   118954588.89709  22636299.660    92691896.12347
  24255634.100   127464194.65408  24255632.200    99322734.38346
  23470393.180   123337667.98609  23470393.700    96107236.22046
 15 02 20 00 48  0.0000000  0  7G16G18G21G22G27G29G31
  21363583.840   112266397.02909  21363580.020    87480301.74748
  22137343.220   116332654.14209  22137339.920    90648876.45847
  21529707.380   113139379.69109  21529703.720    88160542.71548
  23262711.080   122246537.11808  23262708.720    95257106.46946
  22624498.760   118892571.32809  22624497.960    92643570.75548
  24269458.220   127536840.84208  24269456.240    99379341.75146
  23488198.740   123431234.29009  23488199.260    96180144.60247
 15 02 20 00 48 30.0000000  0  7G16G18G21G22G27G29G31
  21351671.040   112203794.97409  21351667.240    87431520.91848
  22128120.240   116284187.37309  22128116.980    90611110.15147
  21538747.300   113186884.53409  21538743.540    88197559.46348
  23245143.440   122154219.76008  23245141.060    95185171.11246
  22612714.660   118830645.62209  22612713.920    92595316.98348
  24283288.420   127609519.28608  24283286.760    99435974.27645
  23506021.620   123524891.81509  23506022.160    96253124.08947
 15 02 20 00 49  0.0000000  0  7G16G18G21G22G27G29G31
  21339822.120   112141528.38709  21339818.300    87383001.50448
  22118968.880   116236097.02709  22118965.760    90573637.17047
  21547837.200   113234652.13309  21547833.420    88234780.95948
  23227595.200   122062004.04608  23227592.640    95113314.95246
  22600947.560   118768809.18109  22600946.840    92547132.75548
  24297124.280   127682227.27408  24297122.520    99492629.85746
  23523860.820   123618635.37608  23523861.420    96326170.62446
 15 02 20 00 49 30.0000000  0  7G16G18G21G22G27G29G31
  21328037.900   112079601.94809  21328034.100    87334747.13848
  22109890.080   116188387.71909  22109887.080    90536461.12147
  21556977.420   113282684.23208  21556973.560    88272208.58348
  23210067.220   121969895.13708  23210064.600    95041542.03747
  22589198.000   118707064.63009  22589197.260    92499020.15247
  24310966.180   127754967.42508  24310964.620    99549310.42846
  23541716.280   123712464.51209  23541716.980    96399283.87547
 15 02 20 00 50  0.0000000  0  7G16G18G21G22G27G29G31
  21316317.700   112018012.10209  21316313.960    87286755.05948
  22100883.060   116141055.55609  22100880.020    90499578.91847
  21566166.300   113330972.39808  21566162.500    88309835.71148
  23192558.960   121877889.93708  23192556.260    94969849.87847
  22577464.820   118645406.21609  22577464.160    92450974.65847
  24324813.440   127827734.21108  24324811.980    99606011.81246
  23559586.160   123806369.89209  23559587.100    96472456.44147
 15 02 20 00 50 30.0000000  0  7G16G18G21G22G27G29G31
  21304664.180   111956772.91709  21304660.500    87239036.21748
  22091950.400   116094113.59609  22091947.180    90463000.78847
  21575405.760   113379526.33008  21575402.000    88347669.94248
  23175073.180   121786002.68009  23175070.480    94898249.66446
  22565750.240   118583845.67509  22565749.500    92403005.40748
  24338667.740   127900539.21708  24338666.260    99662742.95546
  23577472.300   123900360.56309  23577473.540    96545695.49147
 15 02 20 00 51  0.0000000  0  7G16G18G21G22G27G29G31
  21293075.360   111895873.80809  21293071.740    87191582.37448
  22083090.100   116047552.10909  22083086.820    90426719.11447
  21584693.280   113428332.31709  21584689.420    88385700.58148
  23157608.040   121694223.95408  23157605.300    94826733.99847
  22554051.880   118522370.79309  22554051.200    92355102.92047
  24352527.280   127973370.00208  24352525.420    99719494.23646
  23595371.800   123994421.77508  23595373.280    96618989.64746
 15 02 20 00 51 30.0000000  0  7G16G18G21G22G27G29G31
  21281553.260   111835325.11409  21281549.660    87144401.58048
  22074304.060   116001380.73409  22074300.660    90390741.44147
  21594029.860   113477396.21109  21594025.960    88423932.18448
  23140165.580   121602563.95909  23140162.780    94755310.83446
  22542371.320   118460989.44109  22542370.680    92307273.30348
  24366393.220   128046234.65208  24366391.240    99776271.83545
  23613285.440   124088557.78908  23613287.260    96692342.12846
 15 02 20 00 52  0.0000000  0  7G16G18G21G22G27G29G31
  21270098.440   111775129.84409  21270094.840    87097496.18148
  22065592.740   115955602.36509  22065589.260    90355069.99747
  21603415.140   113526716.49509  21603411.320    88462363.56248
  23122746.400   121511026.36808  23122743.460    94683983.04047
  22530708.720   118399702.42409  22530708.100    92259517.20148
  24380265.440   128119133.91308  24380263.340    99833076.42745
