     2.11           OBSERVATION DATA    G                   RINEX VERSION / TYPE
SPIDER V4,0,0,3554                      2015 03 18 01:29    PGM / RUN BY / DATE 
CKTS                                                        MARKER NAME         
CKTS                                                        MARKER NUMBER       
                                                            OBSERVER / AGENCY   
496659              LEICA GRX1200+GNSS  8.10/4.007          REC # / TYPE / VERS 
10321004            LEIAR25         NONE                    ANT # / TYPE        
  5190783.6897   517202.7561  3658836.0979                  APPROX POSITION XYZ 
        0.0720        0.0000        0.0000                  ANTENNA: DELTA H/E/N
     1     1                                                WAVELENGTH FACT L1/2
     4    C1    L1    P2    L2                              # / TYPES OF OBSERV 
    30.000                                                  INTERVAL            
  2015    02    20    00    00    0.0000000     GPS         TIME OF FIRST OBS   
  2015    02    20    23    59   30.0000000     GPS         TIME OF LAST OBS    
    16                                                      LEAP SECONDS        
    29                                                      # OF SATELLITES     
   G 1   819   819   818   818                              PRN / # OF OBS      
   G 2   779   779   778   778                              PRN / # OF OBS      
   G 3   852   852   852   852                              PRN / # OF OBS      
   G 4   841   841   841   841                              PRN / # OF OBS      
   G 5   539   539   539   539                              PRN / # OF OBS      
   G 6   663   663   662   662                              PRN / # OF OBS      
   G 7   667   667   667   667                              PRN / # OF OBS      
   G 9   806   806   806   806                              PRN / # OF OBS      
   G10   680   680   680   680                              PRN / # OF OBS      
   G12   830   830   830   830                              PRN / # OF OBS      
   G13   806   805   805   805                              PRN / # OF OBS      
   G14   776   776   776   776                              PRN / # OF OBS      
   G15   594   594   594   594                              PRN / # OF OBS      
   G16   546   546   546   546                              PRN / # OF OBS      
   G17   775   775   774   774                              PRN / # OF OBS      
   G18   726   725   722   722                              PRN / # OF OBS      
   G19   667   667   667   667                              PRN / # OF OBS      
   G20   798   798   798   798                              PRN / # OF OBS      
   G21   732   732   732   732                              PRN / # OF OBS      
   G22   651   650   650   650                              PRN / # OF OBS      
   G23   751   751   751   751                              PRN / # OF OBS      
   G24   830   830   830   830                              PRN / # OF OBS      
   G25   860   860   860   860                              PRN / # OF OBS      
   G27   815   815   815   815                              PRN / # OF OBS      
   G28   638   638   636   636                              PRN / # OF OBS      
   G29   773   773   772   772                              PRN / # OF OBS      
   G30   713   713   713   713                              PRN / # OF OBS      
   G31   690   690   690   690                              PRN / # OF OBS      
   G32   765   765   765   765                              PRN / # OF OBS      
BIT 2 OF LLI FLAGS DATA COLLECTED UNDER A/S CONDITION       COMMENT             
SNR is mapped to RINEX snr flag value [2-9]                 COMMENT             
Lx:     = 25dBHz -> 1; 26-27dBHz -> 2; 28-31dBHz -> 3       COMMENT             
       32-35dBHz -> 4; 36-38dBHz -> 5; 39-41dBHz -> 6       COMMENT             
       42-44dBHz -> 7; 45-48dBHz -> 8; >=49dBHz -> 9        COMMENT             
                                                            END OF HEADER       
 15 02 20 00 00  0.0000000  0  6G18G21G25G27G29G31
  23333109.160   122616435.48808  23333106.660    95545308.64345
  20947243.980   110078510.96108  20947239.680    85775448.94548
  23760647.300   124863034.34608  23760647.480    97295866.40546
  23811726.420   125131473.20108  23811725.840    97505055.97446
  22967317.660   120694062.07409  22967315.220    94047303.36247
  21954845.920   115373486.58109  21954843.000    89901401.95548
 15 02 20 00 00 30.0000000  0  6G18G21G25G27G29G31
  23318989.100   122542233.73809  23318986.500    95487489.17045
  20949862.900   110092273.55808  20949858.540    85786173.05048
  23778046.380   124954467.90708  23778046.520    97367113.28646
  23798194.060   125060360.33708  23798193.720    97449643.37046
  22980711.340   120764446.78709  22980708.760    94102148.56647
  21968637.200   115445960.36209  21968634.420    89957874.98248
 15 02 20 00 01  0.0000000  0  6G18G21G25G27G29G31
  23304895.960   122468173.07108  23304893.160    95429779.61445
  20952561.460   110106454.59708  20952557.080    85797223.21348
  23795485.540   125046111.52608  23795485.800    97438523.88046
  23784680.280   124989346.02908  23784680.240    97394307.61146
  22994113.320   120834873.95209  22994110.560    94157026.89347
  21982497.840   115518797.93109  21982495.120    90014631.50848
 15 02 20 00 01 30.0000000  0  6G18G21G25G27G29G31
  23290828.900   122394249.79608  23290826.000    95372177.11745
  20955338.160   110121046.26409  20955333.840    85808593.34348
  23812963.320   125137957.56008  23812963.660    97510092.19345
  23771184.000   124918423.65208  23771183.980    97339043.40946
  23007522.280   120905336.79209  23007519.100    94211933.00646
  21996425.960   115591989.81309  21996423.060    90071664.11748
 15 02 20 00 02  0.0000000  0  6G18G21G25G27G29G31
  23276789.240   122320471.47008  23276786.400    95314687.58246
  20958193.640   110136052.04408  20958189.440    85820286.16748
  23830480.280   125230009.24608  23830480.680    97581820.73946
  23757706.280   124847597.44008  23757706.260    97283854.19846
  23020938.380   120975839.23009  23020935.080    94266869.91847
  22010421.820   115665538.12809  22010418.700    90128974.44548
 15 02 20 00 02 30.0000000  0  6G18G21G25G27G29G31
  23262777.080   122246838.01308  23262774.280    95257310.93845
  20961127.280   110151468.59508  20961123.100    85832299.06548
  23848035.620   125322263.29108  23848036.220    97653706.96446
  23744246.460   124776865.12308  23744245.880    97228738.14346
  23034361.760   121046378.31008  23034358.360    94321835.41647
  22024484.420   115739437.50309  22024481.240    90186558.33348
 15 02 20 00 03  0.0000000  0  6G18G21G25G27G29G31
  23248794.100   122173357.53808  23248791.320    95200053.46645
  20964139.900   110167300.10908  20964135.760    85844635.30448
  23865630.280   125414724.34408  23865631.080    97725754.48446
  23730805.420   124706232.44108  23730804.200    97173699.68245
  23047792.700   121116959.75508  23047788.680    94376833.89246
  22038614.500   115813691.38809  22038611.380    90244418.46648
 15 02 20 00 03 30.0000000  0  6G18G21G25G27G29G31
  23234839.240   122100023.86208  23234836.320    95142910.38345
  20967229.560   110183536.47108  20967225.420    85857287.02148
  23883262.480   125507382.05508  23883263.200    97797955.26246
  23717381.580   124635690.04808  23717380.340    97118731.63546
  23061230.040   121187574.35708  23061226.960    94431858.25747
  22052809.780   115888287.90609  22052806.740    90302545.59148
 15 02 20 00 04  0.0000000  0  6G18G21G25G27G29G31
  23220914.280   122026847.21708  23220911.180    95085889.65445
  20970397.260   110200183.12508  20970393.200    85870258.44048
  23900933.300   125600242.22608  23900933.880    97870313.80446
  23703976.220   124565244.91008  23703975.440    97063839.34246
  23074675.260   121258228.50609  23074672.340    94486913.42447
  22067071.100   115963231.39909  22067068.100    90360943.06848
 15 02 20 00 04 30.0000000  0  7G16G18G21G25G27G29G31
  22558251.820   118544412.74505  22558248.000    92372262.43444
  23207018.800   121953826.25808  23207015.720    95028990.26645
  20973642.180   110217235.38208  20973638.100    85883545.91348
  23918641.720   125693300.10708  23918642.320    97942826.39446
  23690588.540   124494893.24108  23690588.460    97009019.92746
  23088127.100   121328918.37408  23088123.940    94541996.36546
  22081397.280   116038515.32609  22081394.200    90419605.84648
 15 02 20 00 05  0.0000000  0  7G16G18G21G25G27G29G31
  22542475.540   118461507.33805  22542471.300    92307660.88344
  23193154.400   121880969.40608  23193151.580    94972218.75745
  20976965.220   110234698.26708  20976961.160    85897153.36248
  23936388.480   125786560.50908  23936389.340    98015496.77645
  23677219.880   124424640.93708  23677219.940    96954277.87646
  23101586.460   121399649.47009  23101583.080    94597111.45246
  22095788.900   116114143.15909  22095785.760    90478536.57448
 15 02 20 00 05 30.0000000  0  7G16G18G21G25G27G29G31
  22526727.300   118378750.17206  22526723.120    92243174.79044
  23179320.620   121808273.19008  23179317.960    94915572.39546
  20980365.060   110252564.45508  20980361.020    85911075.07948
  23954172.420   125880016.30208  23954173.440    98088319.43045
  23663869.140   124354481.99108  23663868.880    96899608.59246
  23115052.820   121470415.32509  23115049.960    94652253.67547
  22110244.260   116190106.07609  22110241.040    90537728.41248
 15 02 20 00 06  0.0000000  0  7G16G18G21G25G27G29G31
  22511007.700   118296143.01907  22511003.480    92178805.57244
  23165518.080   121735740.68408  23165515.380    94859053.59646
  20983841.300   110270832.61608  20983837.320    85925310.00148
  23971993.400   125973666.21808  23971994.220    98161293.34245
  23650536.080   124284416.22508  23650535.960    96845011.95047
  23128525.840   121541216.21008  23128523.580    94707423.13447
  22124762.840   116266401.42709  22124759.500    90597179.28448
 15 02 20 00 06 30.0000000  0  7G16G18G21G25G27G29G31
  22495317.160   118213688.55908  22495312.960    92114555.35045
  23151747.240   121663374.75108  23151744.480    94802664.59545
  20987393.800   110289501.46808  20987389.900    85939857.15348
  23989851.320   126067509.31708  23989851.880    98234417.80045
  23637220.960   124214443.85608  23637220.700    96790488.03547
  23142005.460   121612051.66308  23142002.960    94762619.55646
  22139344.260   116343026.73309  22139340.760    90656887.29448
 15 02 20 00 07  0.0000000  0  7G16G18G21G25G27G29G31
  22479656.300   118131390.38408  22479652.260    92050426.90445
  23138008.840   121591179.47108  23138006.100    94746408.58445
  20991022.720   110308571.48009  20991018.800    85954716.88848
  24007746.080   126161546.03808  24007746.240    98307693.11345
  23623923.920   124144566.30708  23623923.620    96736038.02747
  23155491.840   121682922.96608  23155488.380    94817843.98746
  22153988.180   116419980.71809  22153984.640    90716851.38748
 15 02 20 00 07 30.0000000  0  7G16G18G21G25G27G29G31
  22464026.080   118049253.08409  22464022.140    91986423.82546
  23124303.920   121519160.18808  23124301.260    94690289.71146
  20994728.260   110328044.30009  20994724.360    85969890.53648
  24025677.860   126255777.93108  24025678.080    98381120.51345
  23610645.440   124074786.33608  23610644.980    96681664.05047
  23168985.320   121753832.77208  23168982.880    94873098.31247
  22168694.620   116497263.53509  22168691.060    90777071.72548
 15 02 20 00 08  0.0000000  0  7G16G18G21G25G27G29G31
  22448425.920   117967274.01909  22448422.060    91922544.03447
  23110632.200   121447314.88509  23110629.520    94634306.41546
  20998509.300   110347913.94108  20998505.460    85985373.37048
  24043645.640   126350199.01608  24043646.160    98454695.30545
  23597384.360   124005099.06308  23597383.980    96627362.33146
  23182485.200   121824776.26908  23182483.500    94928378.89947
  22183462.200   116574867.65709  22183458.640    90837542.41448
 15 02 20 00 08 30.0000000  0  7G16G18G21G25G27G29G31
  22432857.140   117885459.92209  22432853.360    91858792.80047
  23096995.160   121375651.58608  23096992.420    94578464.93445
  21002366.600   110368184.14208  21002362.820    86001168.33448
  24061650.140   126444813.18908  24061650.620    98528420.58745
  23584141.800   123935509.53708  23584141.360    96573136.75546
  23195992.580   121895757.74608  23195990.720    94983689.12946
  22198291.380   116652795.37409  22198287.860    90898265.27048
 15 02 20 00 09  0.0000000  0  7G16G18G21G25G27G29G31
  22417319.360   117803808.77809  22417315.660    91795168.53447
  23083392.320   121304168.18408  23083389.500    94522763.62246
  21006299.000   110388848.97008  21006295.160    86017270.79748
  24079690.280   126539614.74908  24079690.900    98602291.88546
  23570916.740   123866013.10408  23570916.260    96518983.74347
  23209506.220   121966772.70308  23209504.480    95039025.41647
  22213180.740   116731039.58909  22213177.300    90959234.74348
 15 02 20 00 09 30.0000000  0  7G16G18G21G25G27G29G31
  22401812.900   117722322.13509  22401809.260    91731672.46948
  23069824.040   121232866.99108  23069821.300    94467204.29546
  21010306.180   110409906.80108  21010302.260    86033679.49048
  24097765.760   126634602.30208  24097766.560    98676308.11846
  23557709.640   123796609.62008  23557709.020    96464903.09047
  23223026.220   122037820.97708  23223024.520    95094387.66447
  22228129.800   116809597.19609  22228126.420    91020448.41148
 15 02 20 00 10  0.0000000  0  7G16G18G21G25G27G29G31
  22386338.220   117641002.43708  22386334.680    91668306.51647
  23056290.960   121161750.94808  23056288.340    94411789.23345
  21014387.900   110431356.37708  21014383.920    86050393.45148
  24115876.520   126729774.71508  24115877.400    98750468.37245
  23544520.400   123727299.09408  23544519.860    96410894.88847
  23236552.660   122108902.22608  23236550.700    95149775.58947
  22243138.060   116888465.53009  22243134.640    91081904.20348
 15 02 20 00 10 30.0000000  0  7G16G18G21G25G27G29G31
  22370895.980   117559853.01609  22370892.440    91605073.21946
  23042793.940   121090824.29108  23042791.340    94356521.74846
  21018544.340   110453198.30108  21018540.320    86067413.12648
  24134022.600   126825132.16308  24134023.400    98824772.80645
  23531349.040   123658082.83308  23531348.620    96356960.19647
  23250085.800   122180017.90709  23250083.280    95205190.36846
  22258205.280   116967643.32309  22258201.720    91143601.13548
 15 02 20 00 11  0.0000000  0  7G16G18G21G25G27G29G31
  22355486.340   117478875.05309  22355482.720    91541973.48947
  23029333.320   121020088.61508  23029330.840    94301403.08046
  21022775.040   110475430.13808  21022770.920    86084736.64448
  24152203.520   126920672.49408  24152204.300    98899219.75545
  23518195.240   123588959.81208  23518195.020    96303098.15847
  23263625.260   122251166.64908  23263621.880    95260630.97846
  22273330.580   117047126.72509  22273326.880    91205536.21348
 15 02 20 00 11 30.0000000  0  7G16G18G21G25G27G29G31
  22340110.680   117398075.53209  22340106.940    91479012.81347
  23015910.580   120949551.59109  23015908.120    94246439.22446
  21027080.520   110498055.60408  21027076.460    86102366.88648
  24170419.920   127016399.52908  24170420.620    98973812.18245
  23505060.180   123519935.12608  23505059.980    96249312.71747
  23277171.720   122322353.23509  23277168.680    95316100.95347
  22288514.400   117126918.02709  22288510.720    91267711.19848
 15 02 20 00 12  0.0000000  0  7G16G18G21G25G27G29G31
  22324767.240   117317444.57209  22324763.320    91416183.52947
  23002523.960   120879203.90709  23002521.400    94191622.89546
  21031458.180   110521060.86208  21031454.220    86120293.05248
  24188669.260   127112300.05908  24188669.900    99048539.81546
  23491941.700   123450996.77808  23491941.220    96195594.54447
  23290723.340   122393565.26409  23290720.020    95371590.84346
  22303753.860   117207002.56609  22303750.400    91330114.69048
 15 02 20 00 12 30.0000000  0  7G16G18G21G25G27G29G31
  22309459.080   117236998.99209  22309455.200    91353498.64247
  22989176.680   120809062.73409  22989173.820    94136967.47046
  21035910.620   110544459.11508  21035906.780    86138525.45948
  24206954.080   127208387.57008  24206954.780    99123413.11246
  23478842.380   123382159.29708  23478841.620    96141955.00246
  23304282.040   122464817.64608  23304278.700    95427112.10246
  22319051.340   117287392.23609  22319048.180    91392755.92348
 15 02 20 00 13  0.0000000  0  8G16G18G21G22G25G27G29G31
  22294184.540   117156731.25208  22294180.920    91290952.35647
  22975867.460   120739121.31509  22975864.120    94082467.70246
  21040435.940   110568240.00608  21040432.140    86157056.01148
  24553959.400                                                  
  24225272.400   127304651.03608  24225273.160    99198423.52945
  23465760.180   123313412.97308  23465759.360    96088386.44847
  23317846.620   122536100.40809  23317843.200    95482657.07246
  22334404.560   117368074.58209  22334401.580    91455625.24548
 15 02 20 00 13 30.0000000  0  8G16G18G21G22G25G27G29G31
  22278944.080   117076642.67009  22278940.540    91228545.71347
  22962596.480   120669381.28509  22962592.980    94028124.85446
  21045033.760   110592401.53708  21045029.960    86175883.20948
  24536278.780   128939016.60908  24536284.280   100471971.73745
  24243623.840   127401088.45708  24243624.580    99273569.53545
  23452695.200   123244756.92608  23452694.860    96034888.27647
  23331416.840   122607412.73408  23331414.020    95538225.09247
  22349812.880   117449045.89509  22349809.960    91518719.73048
 15 02 20 00 14  0.0000000  0  8G16G18G21G22G25G27G29G31
  22263739.820   116996743.28209  22263736.140    91166286.42747
  22949365.740   120599853.39809  22949362.360    93973947.29846
  21049705.120   110616949.49908  21049701.260    86195011.46748
  24518583.340   128846028.38008  24518589.000   100399514.08145
  24262009.740   127497706.42208  24262010.260    99348856.19145
  23439649.180   123176199.13108  23439649.060    95981466.64847
  23344994.040   122678762.00308  23344991.300    95593821.89746
  22365277.240   117530311.29509  22365274.220    91582043.36548
 15 02 20 00 14 30.0000000  0  8G16G18G21G22G25G27G29G31
  22248570.660   116917028.09309  22248566.900    91104170.71447
  22936174.380   120530533.16308  22936171.200    93919931.58846
  21054448.460   110641875.52009  21054444.420    86214434.33448
  24500871.880   128752956.83108  24500877.540   100326991.51945
  24280428.300   127594496.72408  24280429.060    99424277.11045
  23426620.540   123107732.41208  23426620.080    95928115.98046
  23358577.000   122750141.33708  23358574.560    95649442.10146
  22380795.660   117611861.11909  22380792.660    91645588.61948
 15 02 20 00 15  0.0000000  0  8G16G18G21G22G25G27G29G31
  22233438.580   116837507.60109  22233434.540    91042206.68847
  22923024.640   120461431.48308  22923021.600    93866086.15646
  21059265.060   110667186.83208  21059260.900    86234157.44048
  24483146.660   128659812.54108  24483152.420   100254412.23645
  24298880.840   127691466.19408  24298881.960    99499837.65345
  23413610.500   123039364.93908  23413609.740    95874842.66046
  23372167.020   122821558.56209  23372165.000    95705091.84647
  22396369.080   117693700.38809  22396366.280    91709359.41248
 15 02 20 00 15 30.0000000  0  8G16G18G21G22G25G27G29G31
  22218341.300   116758171.69509  22218337.340    90980386.51647
  22909914.800   120392538.91409  22909911.780    93812403.65546
  21064152.400   110692869.86108  21064148.240    86254170.19348
  24465405.780   128566585.93408  24465411.400   100181768.78645
  24317365.040   127788601.50708  24317366.220    99575527.40345
  23400617.000   122971084.62608  23400616.180    95821637.25246
  23385762.660   122893001.33409  23385760.120    95760761.53646
  22411994.840   117775814.52609  22411992.200    91773344.40648
 15 02 20 00 16  0.0000000  0  8G16G18G21G22G25G27G29G31
  22203281.380   116679031.13609  22203277.520    90918718.55047
  22896846.880   120323866.34509  22896843.740    93758892.60146
  21069111.820   110718931.62909  21069107.700    86274478.04748
  24447651.140   128473287.73508  24447656.720   100109069.58745
  24335882.240   127885909.76608  24335883.380    99651351.93345
  23387641.880   122902899.81808  23387641.260    95768506.24946
  23399364.340   122964478.13208  23399361.200    95816457.70446
  22427674.060   117858209.01009  22427671.400    91837547.83648
 15 02 20 00 16 30.0000000  0  8G16G18G21G22G25G27G29G31
  22188258.300   116600084.16809  22188254.360    90857201.44147
  22883820.600   120255412.99409  22883817.440    93705552.35446
  21074142.340   110745367.31108  21074138.280    86295077.28648
  24429882.820   128379917.05508  24429888.420   100036313.84245
  24354431.620   127983386.09908  24354432.440    99727307.42945
  23374684.440   122834806.85509  23374683.520    95715446.81446
  23412971.480   123035985.33109  23412969.160    95872177.51147
  22443405.500   117940877.53109  22443402.680    91901964.81348
 15 02 20 00 17  0.0000000  0  8G16G18G21G22G25G27G29G31
  22173272.520   116521333.19509  22173268.560    90795837.02947
  22870836.500   120187181.40309  22870833.380    93652384.92046
  21079243.680   110772174.92309  21079239.600    86315966.32848
  24412101.220   128286476.23208  24412106.600    99963503.41945
  24373012.800   128081029.18808  24373012.980    99803392.88345
  23361744.380   122766805.78208  23361743.240    95662458.97746
  23426585.060   123107522.73309  23426582.820    95927920.93947
  22459188.440   118023816.76809  22459185.520    91966592.72648
 15 02 20 00 17 30.0000000  0  8G16G18G21G22G25G27G29G31
  22158325.600   116442787.23309  22158321.500    90734632.39047
  22857896.440   120119181.13909  22857893.340    93599397.73846
  21084416.820   110799360.07008  21084412.680    86337149.55448
  24394307.980   128192974.73108  24394313.340    99890645.77244
  24391626.640   128178844.73108  24391626.660    99879612.68145
  23348822.840   122698903.45108  23348821.720    95609548.10646
  23440205.240   123179097.15408  23440202.860    95983693.18946
  22475023.740   118107031.28209  22475020.800    92031435.12648
 15 02 20 00 18  0.0000000  0  8G16G18G21G22G25G27G29G31
  22143416.620   116364440.96809  22143412.820    90673583.37948
  22844999.580   120051407.44909  22844996.460    93546587.09946
  21089660.180   110826914.08708  21089656.000    86358620.22248
  24376502.280   128099407.49808  24376507.440    99817736.82744
  24410271.480   128276823.94808  24410271.560    99955959.99145
  23335918.640   122631092.42108  23335917.220    95556708.34746
  23453830.800   123250700.73308  23453828.700    96039488.16346
  22490909.460   118190510.97609  22490906.540    92096484.17747
 15 02 20 00 18 30.0000000  0  8G16G18G21G22G25G27G29G31
  22128546.380   116286297.85809  22128542.740    90612692.64247
  22832146.460   119983864.26508  22832143.420    93493956.09146
  21094973.780   110854837.09108  21094969.540    86380378.40948
  24358684.820   128005778.71508  24358690.060    99744779.95045
  24428947.380   128374966.87208  24428947.940   100032434.90345
  23323032.180   122563374.00508  23323030.820    95503940.76546
  23467462.500   123322335.26909  23467461.080    96095307.27447
  22506845.260   118274254.02309  22506842.420    92161738.44048
 15 02 20 00 19  0.0000000  0  8G16G18G21G22G25G27G29G31
  22113714.700   116208357.82009  22113711.220    90551960.19647
  22819337.160   119916552.04809  22819334.340    93441505.04246
  21100356.740   110883124.99908  21100352.560    86402420.93748
  24340855.660   127912088.27908  24340860.780    99671774.99745
  24447653.780   128473269.81208  24447654.380   100109034.48245
  23310162.980   122495745.85508  23310161.820    95451243.51946
  23481099.920   123393998.05209  23481097.860    96151148.33947
  22522830.180   118358255.25209  22522827.440    92227193.87448
 15 02 20 00 19 30.0000000  0  8G16G18G21G22G25G27G29G31
  22098923.320   116130627.89809  22098919.560    90491391.34947
  22806573.200   119849477.77909  22806570.480    93389239.41346
  21105809.700   110911781.14408  21105805.660    86424750.38648
  24323016.280   127818343.74608  24323021.180    99598727.90945
  24466391.360   128571736.32607  24466392.180   100185761.52445
  23297311.840   122428212.77208  23297311.140    95398620.37047
  23494743.180   123465693.80908  23494740.580    96207015.11846
  22538864.620   118442516.53009  22538861.920    92292851.94348
 15 02 20 00 20  0.0000000  0  8G16G18G21G22G25G27G29G31
  22084172.120   116053110.29709  22084168.460    90430988.07747
  22793855.260   119782644.64209  22793852.520    93337161.67946
  21111332.480   110940803.92209  21111328.520    86447365.54648
  24305167.140   127724547.79008  24305171.840    99525640.73545
  24485159.860   128670365.25108  24485160.980   100262615.11045
  23284478.680   122360774.89908  23284478.140    95346071.45647
  23508392.280   123537422.39708  23508389.780    96262907.50246
  22554948.080   118527035.47309  22554945.440    92358710.79647
 15 02 20 00 20 30.0000000  0  8G16G18G21G22G25G27G29G31
  22069461.060   115975803.43809  22069457.440    90370748.97547
  22781182.960   119716051.19909  22781180.140    93285270.70246
  21116924.220   110970188.50908  21116920.180    86470262.61948
  24287307.800   127630698.64007  24287312.360    99452512.07746
  24503958.300   128769151.12707  24503959.220   100339590.99845
  23271662.940   122293428.15108  23271662.640    95293593.48547
  23522047.060   123609179.70909  23522045.120    96318822.26646
  22571079.160   118611804.87309  22571076.480    92424764.78847
 15 02 20 00 21  0.0000000  0  8G16G18G21G22G25G27G29G31
  22054790.160   115898707.80109  22054786.800    90310674.46548
  22768556.340   119649697.94909  22768553.580    93233566.92146
  21122584.100   110999931.25008  21122580.080    86493438.79548
  24269438.540   127536797.29908  24269442.800    99379342.79746
  24522786.020   128868090.92208  24522787.160   100416686.79745
  23258864.540   122226170.79708  23258863.960    95241185.17547
  23535707.320   123680964.13008  23535705.300    96374758.15846
  22587257.020   118696820.10109  22587254.360    92491010.33847
 15 02 20 00 21 30.0000000  0  8G16G18G21G22G25G27G29G31
  22040161.940   115821836.67209  22040158.700    90250774.90247
  22755977.980   119583598.41109  22755975.200    93182060.81946
  21128314.000   111030041.91009  21128309.940    86516901.63548
  24251561.940   127442857.34708  24251565.680    99306143.36345
  24541644.860   128967194.43508  24541646.400   100493910.15845
  23246084.920   122159014.01808  23246084.620    95188855.23947
  23549374.420   123752786.75408  23549372.700    96430723.79446
  22603483.340   118782089.79909  22603480.760    92557454.19347
 15 02 20 00 22  0.0000000  0  8G16G18G21G22G25G27G29G31
  22025573.960   115745176.17509  22025570.700    90191039.47447
  22743445.500   119517740.11008  22743442.600    93130742.69346
  21134110.540   111060503.15708  21134106.500    86540637.66348
  24233675.520   127348865.48308  24233678.780    99232903.49045
  24560531.740   129066444.55008  24560533.260   100571247.77745
  23233321.460   122091941.97508  23233321.440    95136591.34848
  23563046.100   123824631.60508  23563044.320    96486706.73146
  22619754.560   118867595.12009  22619752.000    92624081.63048
 15 02 20 00 22 30.0000000  0  8G16G18G21G22G25G27G29G31
  22011028.500   115668739.17209  22011025.080    90131478.16547
  22730961.380   119452136.10709  22730958.340    93079622.72846
  21139975.480   111091323.48008  21139971.360    86564653.51748
  24215781.700   127254834.95508  24215784.840    99159633.55145
  24579448.160   129165850.37508  24579449.520   100648706.70445
  23220576.280   122024965.11908  23220576.280    95084401.62447
  23576723.980   123896509.03708  23576721.660    96542715.12845
  22636072.140   118953343.72709  22636069.620    92690898.64348
 15 02 20 00 23  0.0000000  0  8G16G18G21G22G25G27G29G31
  21996526.060   115592527.82809  21996522.580    90072092.69448
  22718525.920   119386787.73108  22718522.940    93028701.95546
  21145908.580   111122501.92609  21145904.440    86588948.39848
  24197881.000   127160768.21208  24197884.220    99086335.32845
  24598393.880   129265410.35407  24598395.440   100726285.73645
  23207849.260   121958083.33909  23207848.840    95032285.92747
  23590407.860   123968419.13408  23590405.320    96598748.94746
  22652435.400   119039332.35609  22652432.720    92757902.67348
 15 02 20 00 23 30.0000000  0  8G16G18G21G22G25G27G29G31
  21982064.940   115516534.34309  21982061.440    90012877.01648
  22706138.000   119321688.75909  22706135.180    92977975.54046
  21151907.660   111154026.95708  21151903.580    86613513.36848
  24179971.760   127066657.49508  24179975.120    99013002.92545
  24617366.900   129365113.21408  24617368.140   100803976.14344
  23195138.420   121891286.73008  23195137.360    94980236.61647
  23604096.300   124040351.64908  23604093.720    96654800.24846
  22668841.860   119125548.49109  22668839.160    92825083.98948
 15 02 20 00 24  0.0000000  0  8G16G18G21G22G25G27G29G31
  21967649.100   115440777.96209  21967645.600    89953846.06347
  22693801.300   119256858.20909  22693798.400    92927458.23946
  21157975.480   111185913.57708  21157971.420    86638360.08948
  24162057.860   126972522.38708  24162061.200    98939651.44945
  24636370.040   129464974.36208  24636371.060   100881789.82444
  23182446.760   121824591.88008  23182445.780    94928266.67247
  23617791.920   124112323.34008  23617789.540    96710882.05045
  22685294.060   119212005.76709  22685291.460    92892453.19447
 15 02 20 00 24 30.0000000  0  8G16G18G21G22G25G27G29G31
  21953275.900   115365245.60809  21953272.140    89894989.67847
  22681513.260   119192283.49209  22681510.100    92877140.30246
  21164108.920   111218145.08208  21164104.820    86663475.56648
  24144136.980   126878350.48608  24144140.380    98866271.39146
  24655400.260   129564977.21408  24655400.540   100959714.00344
  23169771.740   121757983.91409  23169770.760    94876364.36947
  23631492.360   124184318.89208  23631489.680    96766982.48546
  22701788.760   119298686.42609  22701786.300    92959996.48147
 15 02 20 00 25  0.0000000  0  8G16G18G21G22G25G27G29G31
  21938946.400   115289943.75108  21938942.760    89836312.94348
  22669275.100   119127971.28609  22669271.820    92827026.92146
  21170308.460   111250724.29208  21170304.320    86688861.92848
  24126210.500   126784148.46808  24126213.880    98792867.86045
  24674458.100   129665124.69508  24674458.420   101037750.79544
  23157114.120   121691466.91208  23157113.180    94824532.92747
  23645198.220   124256342.73208  23645195.500    96823104.92646
  22718326.260   119385591.44409  22718323.760    93027714.58047
 15 02 20 00 25 30.0000000  0  8G16G18G21G22G25G27G29G31
  21924662.220   115214880.02209  21924658.520    89777821.72647
  22657088.280   119063929.56409  22657085.120    92777124.32246
  21176575.000   111283655.16408  21176570.840    86714522.37248
  24108280.000   126689924.65408  24108283.140    98719447.30345
  24693544.060   129765420.77808  24693544.080   101115903.38245
  23144474.460   121625046.20208  23144473.640    94772776.57447
  23658910.240   124328400.28008  23658908.280    96879253.55946
  22734907.040   119472723.43909  22734904.480    93095609.55847
 15 02 20 00 26  0.0000000  0  8G16G18G21G22G25G27G29G31
  21910422.740   115140050.65609  21910418.660    89719513.09047
  22644952.240   119000155.16809  22644949.340    92727430.00846
  21182906.920   111316929.45708  21182902.700    86740450.37248
  24090344.420   126595674.98908  24090347.360    98646006.66645
  24712656.940   129865858.06907  24712657.440   101194166.01245
  23131852.100   121558716.05109  23131851.360    94721090.74247
  23672627.900   124400484.89209  23672625.440    96935423.39846
  22751529.460   119560073.88409  22751526.840    93163674.72347
 15 02 20 00 26 30.0000000  0  8G16G18G21G22G25G27G29G31
  21896228.460   115065459.79409  21896224.580    89661390.37947
  22632867.920   118936652.01409  22632865.140    92677947.06946
  21189304.400   111350548.38908  21189300.180    86766646.94148
  24072404.760   126501404.25808  24072407.540    98572549.60845
  24731796.420   129966436.90107  24731797.060   101272538.89145
  23119247.520   121492477.97408  23119246.800    94669476.69747
  23686351.200   124472598.97708  23686348.360    96991616.20046
  22768193.200   119647641.18909  22768190.500    93231908.88847
 15 02 20 00 27  0.0000000  0  8G16G18G21G22G25G27G29G31
  21882080.800   114991113.35509  21882077.060    89603458.12047
  22620836.520   118873426.56709  22620833.700    92628680.50146
  21195767.840   111384513.96908  21195763.620    86793113.64348
  24054462.320   126407118.94608  24054465.020    98499081.18445
  24750963.140   130067159.79307  24750964.440   101351024.02945
  23106661.180   121426336.05108  23106660.380    94617937.58947
  23700080.360   124544746.34108  23700077.900    97047834.84746
  22784898.440   119735426.78209  22784895.660    93300313.13447
 15 02 20 00 27 30.0000000  0  8G16G18G21G22G25G27G29G31
  21867979.340   114917009.83809  21867975.980    89545715.14448
  22608857.700   118810477.52209  22608854.720    92579629.33246
  21202296.120   111418820.50409  21202291.900    86819845.98948
  24036516.900   126312817.69408  24036519.480    98425600.38345
  24770156.440   130168021.32908  24770157.800   101429617.21844
  23094092.260   121360286.28208  23094091.100    94566470.25647
  23713814.940   124616922.67409  23713812.000    97104076.16246
  22801643.760   119823423.36609  22801641.020    93368881.78547
 15 02 20 00 28  0.0000000  0  8G16G18G21G22G25G27G29G31
  21853924.200   114843148.90809  21853920.660    89488161.14048
  22596931.620   118747804.98109  22596928.480    92530793.62146
  21208888.540   111453463.89708  21208884.420    86846840.84548
  24018568.520   126218500.54908  24018570.880    98352107.17145
  24789375.440   130269017.60607  24789377.440   101508315.31945
  23081540.440   121294326.12508  23081538.980    94515072.73547
  23727554.720   124689125.75308  23727551.780    97160338.32246
  22818428.200   119911625.68309  22818425.520    93437610.73947
 15 02 20 00 28 30.0000000  0  8G16G18G21G22G25G27G29G31
  21839916.060   114769534.88209  21839912.520    89430799.56748
  22585059.040   118685413.35509  22585055.800    92482176.79346
  21215545.160   111488444.64208  21215541.100    86874098.57148
  24000618.060   126124172.09408  24000620.060    98278605.13346
  24808620.280   130370149.24708  24808622.120   101587118.99544
  23069006.140   121228457.78508  23069004.940    94463746.77447
  23741300.000   124761357.47908  23741297.500    97216622.74946
  22835251.580   120000032.93709  22835249.020    93506499.40447
 15 02 20 00 29  0.0000000  0  7G16G18G21G22G27G29G31
  21825955.860   114696173.03609  21825952.080    89373634.49148
  22573240.760   118623308.08509  22573237.600    92433783.10846
  21222266.300   111523764.48709  21222262.280    86901620.49948
  23982666.560   126029838.32508  23982668.220    98205098.99945
  23056489.740   121162684.30208  23056488.800    94412494.75747
  23755051.120   124833620.75908  23755049.080    97272931.76246
  22852114.000   120088645.34509  22852111.560    93575547.91047
 15 02 20 00 29 30.0000000  0  7G16G18G21G22G27G29G31
  21812043.460   114623062.15009  21812039.500    89316664.94548
  22561476.440   118561487.71908  22561473.600    92385611.43346
  21229050.960   111559417.91908  21229046.960    86929402.45748
  23964713.680   125935497.67108  23964715.180    98131587.52446
  23043990.580   121097002.06108  23043989.620    94361313.82847
  23768807.720   124905912.28008  23768805.340    97329262.79746
  22869014.240   120177456.30609  22869011.780    93644751.14847
 15 02 20 00 30  0.0000000  0  7G16G18G21G22G27G29G31
  21798178.780   114550202.71509  21798174.640    89259891.38848
  22549766.520   118499953.33709  22549763.980    92337662.60546
  21235898.420   111595401.54808  21235894.440    86957441.61848
  23946759.600   125841151.36008  23946761.020    98058071.61545
  23031508.660   121031409.18408  23031507.440    94310202.51447
  23782569.420   124978229.90508  23782566.820    97385614.20546
  22885951.420   120266461.04409  22885948.800    93714105.37747
 15 02 20 00 30 30.0000000  0  7G16G18G21G22G27G29G31
  21784363.620   114477603.60209  21784359.420    89203320.65248
  22538112.940   118438713.98609  22538110.400    92289943.63746
  21242809.800   111631720.81909  21242805.700    86985742.31048
  23928806.200   125746809.03808  23928807.560    97984558.80545
  23019045.220   120965912.73909  23019043.960    94259166.29247
  23796337.240   125050580.52408  23796334.960    97441991.29646
  22902926.260   120355663.59709  22902923.500    93783613.70247
 15 02 20 00 31  0.0000000  0  7G16G18G21G22G27G29G31
  21770597.720   114405263.93709  21770593.700    89146952.08648
  22526515.600   118377769.53009  22526512.960    92242454.46246
  21249784.000   111668370.17508  21249779.780    87014300.27048
  23910853.420   125652469.76108  23910854.620    97911048.36845
  23006599.520   120900509.27409  23006598.480    94208202.61547
  23810110.520   125122961.12308  23810109.080    97498391.70447
  22919937.500   120445057.45509  22919934.580    93853271.12747
 15 02 20 00 31 30.0000000  0  7G16G18G21G22G27G29G31
  21756880.920   114333182.21309  21756877.080    89090784.53747
  22514974.060   118317118.18309  22514971.340    92195193.71647
  21256820.040   111705344.95708  21256815.800    87043111.79548
  23892901.080   125558132.16608  23892901.980    97837539.22345
  22994170.800   120835195.04009  22994169.860    94157308.41547
  23823889.080   125195367.79508  23823887.860    97554812.42346
  22936983.900   120534636.06609  22936980.880    93923072.51847
 15 02 20 00 32  0.0000000  0  7G16G18G21G22G27G29G31
  21743214.460   114261365.36909  21743210.880    89034823.37948
  22503489.680   118256767.18009  22503486.940    92148166.98946
  21263918.440   111742647.74208  21263914.260    87072178.90048
  23874950.520   125463803.78008  23874951.320    97764037.26045
  22981759.760   120769974.73708  22981758.400    94106487.38147
  23837673.420   125267804.86408  23837671.580    97611256.90145
  22954065.720   120624401.27609  22954062.740    93993019.27947
 15 02 20 00 32 30.0000000  0  7G16G18G21G22G27G29G31
  21729599.200   114189816.53409  21729595.780    88979071.04248
  22492063.080   118196719.45309  22492060.220    92101376.58346
  21271079.280   111780278.33608  21271075.200    87101501.44348
  23857002.380   125369488.39208  23857002.960    97690545.42646
  22969366.500   120704849.36908  22969365.200    94055740.38447
  23851463.640   125340273.71608  23851461.360    97667726.12246
  22971182.660   120714351.05909  22971179.860    94063109.89047
 15 02 20 00 33  0.0000000  0  7G16G18G21G22G27G29G31
  21716034.480   114118533.07909  21716030.760    88923525.48248
  22480693.720   118136972.66709  22480690.680    92054820.66147
  21278301.060   111818229.32709  21278297.020    87131073.64248
  23839056.100   125275183.31008  23839056.660    97617061.62646
  22956990.480   120639813.89908  22956989.440    94005063.38448
  23865258.860   125412769.13808  23865256.840    97724216.00246
  22988333.200   120804477.27709  22988330.560    94133337.96647
 15 02 20 00 33 30.0000000  0  7G16G18G21G22G27G29G31
  21702521.040   114047519.89609  21702517.440    88868190.53848
  22469382.560   118077531.91509  22469379.440    92008503.20547
  21285584.180   111856502.17408  21285580.140    87160896.64348
  23821112.920   125180894.15808  23821113.320    97543590.20846
  22944632.420   120574871.16708  22944631.500    93954458.69548
  23879059.660   125485293.75308  23879058.180    97780728.64446
  23005517.320   120894779.77209  23005514.740    94203703.38547
 15 02 20 00 34  0.0000000  0  7G16G18G21G22G27G29G31
  21689059.360   113976778.48209  21689055.820    88813067.36148
  22458129.760   118018398.49009  22458126.780    91962425.23446
  21292928.100   111895094.19809  21292923.980    87190968.32248
  23803173.080   125086622.27708  23803173.160    97470132.20446
  22932291.660   120510020.13808  22932291.140    93903925.46647
  23892866.140   125557846.53608  23892864.400    97837263.24546
  23022734.280   120985254.71709  23022731.680    94274203.17647
 15 02 20 00 34 30.0000000  0  7G16G18G21G22G27G29G31
  21675649.560   113906309.17109  21675645.860    88758156.18948
  22446935.540   117959573.12109  22446932.620    91916587.33246
  21300332.120   111934002.01508  21300327.880    87221286.12648
  23785236.720   124992368.39208  23785236.480    97396688.25045
  22919967.900   120445258.91508  22919967.200    93853462.20847
  23906677.780   125630425.87008  23906675.500    97893818.57646
  23039983.100   121075897.14509  23039980.540    94344833.48647
 15 02 20 00 35  0.0000000  0  7G16G18G21G22G27G29G31
  21662293.440   113836122.60409  21662290.000    88703465.38448
  22435802.160   117901066.94309  22435799.120    91870998.12446
  21307797.560   111973232.87808  21307793.320    87251855.62348
  23767306.040   124898144.37308  23767305.680    97323267.52546
  22907662.760   120380596.46808  22907662.420    93803075.89447
  23920496.020   125703040.69907  23920493.960    97950401.48446
  23057264.920   121166713.10209  23057262.460    94415598.97447
 15 02 20 00 35 30.0000000  0  7G16G18G21G22G27G29G31
  21648989.660   113766211.35409  21648986.340    88648989.16648
  22424728.140   117842872.40209  22424724.980    91825651.74347
  21315322.160   112012775.12009  21315318.040    87282667.74248
  23749379.640   124803943.06208  23749379.320    97249864.52046
  22895374.720   120316023.07508  22895374.820    93752758.99647
  23934318.980   125775681.07008  23934317.040    98007004.35946
  23074577.340   121257689.80209  23074574.880    94486489.72547
 15 02 20 00 36  0.0000000  0  7G16G18G21G22G27G29G31
  21635739.420   113696580.49509  21635735.920    88594731.28948
  22413714.280   117784994.32709  22413711.200    91780551.97346
  21322906.140   112052629.37808  21322902.140    87313723.00748
  23731458.440   124709769.00108  23731458.100    97176482.73146
  22883104.040   120251540.80308  22883104.240    93702513.13547
  23948147.520   125848349.19508  23948145.560    98063628.78846
  23091920.200   121348826.39509  23091917.800    94557505.07447
 15 02 20 00 36 30.0000000  0  7G16G18G21G22G27G29G31
  21622542.840   113627231.17109  21622538.880    88540692.82548
  22402760.900   117727433.81909  22402757.820    91735699.65747
  21330548.900   112092792.45209  21330544.960    87345018.88148
  23713542.780   124615623.82608  23713542.440    97103123.42846
  22870850.760   120187148.92708  22870850.460    93652337.66347
  23961981.200   125921044.15008  23961979.220    98120274.21446
  23109292.740   121440118.94709  23109290.320    94628641.93347
 15 02 20 00 37  0.0000000  0  7G16G18G21G22G27G29G31
  21609401.000   113558170.72809  21609397.380    88486879.55748
  22391869.540   117670199.11009  22391866.460    91691101.19346
  21338251.180   112133268.15409  21338247.240    87376558.42648
  23695634.360   124521516.37508  23695633.840    97029793.49146
  22858615.740   120122853.09308  22858615.160    93602237.02147
  23975820.860   125993771.72408  23975818.980    98176945.01546
  23126695.440   121531570.12209  23126693.180    94699902.37847
 15 02 20 00 37 30.0000000  0  7G16G18G21G22G27G29G31
  21596314.940   113489402.66909  21596311.220    88433294.03048
  22381040.740   117613293.52409  22381037.740    91646759.20746
  21346012.960   112174057.00408  21346009.100    87408341.92348
  23677733.700   124427450.12608  23677733.100    96956495.66246
  22846399.240   120058654.32608  22846398.600    93552212.01947
  23989666.280   126066532.86108  23989664.820    98233641.90346
  23144128.020   121623178.34109  23144126.040    94771285.16847
 15 02 20 00 38  0.0000000  0  7G16G18G21G22G27G29G31
  21583283.300   113420921.05909  21583279.620    88379931.74548
  22370273.180   117556710.16609  22370270.240    91602668.30547
  21353832.320   112215148.35708  21353828.440    87440361.16148
  23659839.640   124333418.90208  23659838.980    96883225.10846
  22834199.300   119994543.90508  22834198.920    93502255.89447
  24003516.720   126139318.38408  24003515.360    98290357.89945
  23161588.320   121714931.71309  23161586.580    94842781.05847
 15 02 20 00 38 30.0000000  0  7G16G18G21G22G27G29G31
  21570306.980   113352730.28409  21570303.400    88326796.08948
  22359567.900   117500453.77109  22359564.960    91558832.19046
  21361709.340   112256542.31609  21361705.460    87472616.18648
  23641953.240   124239427.84509  23641952.480    96809985.82946
  22822016.720   119930524.33609  22822016.060    93452370.54047
  24017372.760   126212131.28308  24017371.180    98347095.24945
  23179076.160   121806829.63709  23179074.460    94914389.59147
 15 02 20 00 39  0.0000000  0  7G16G18G21G22G27G29G31
  21557387.660   113284839.14109  21557384.040    88273893.90448
  22348926.780   117444533.91409  22348923.680    91515258.28347
  21369645.000   112298244.23309  21369641.140    87505111.16848
  23624076.340   124145486.19308  23624075.480    96736785.00946
  22809852.760   119866602.18208  22809851.900    93402561.07147
  24031235.000   126284978.29007  24031233.600    98403859.13247
  23196592.160   121898875.60308  23196590.440    94986113.46047
 15 02 20 00 39 30.0000000  0  7G16G18G21G22G27G29G31
  21544524.240   113217241.26809  21544520.440    88221220.23448
  22338348.400   117388943.86809  22338345.240    91471941.39146
  21377637.300   112340243.46809  21377633.360    87537837.84648
  23606207.840   124051588.03209  23606206.760    96663618.07146
  22797705.760   119802768.95309  22797705.180    93352820.91948
  24045102.080   126357850.58108  24045100.720    98460642.67746
  23214134.100   121991058.24208  23214132.300    95057943.78747
 15 02 20 00 40  0.0000000  0  7G16G18G21G22G27G29G31
  21531718.180   113149945.48109  21531714.500    88168781.96348
  22327834.340   117333692.26209  22327831.200    91428888.22147
  21385686.980   112382544.60908  21385682.940    87570799.79048
  23588349.400   123957742.44209  23588348.040    96590492.06946
  22785577.080   119739031.20309  22785576.480    93303155.13048
  24058975.040   126430754.17708  24058973.940    98517450.60446
  23231702.700   122083381.13609  23231700.800    95129883.37547
 15 02 20 00 40 30.0000000  0  7G16G18G21G22G27G29G31
  21518968.940   113082948.10109  21518965.320    88116576.21648
  22317384.120   117278775.47509  22317380.900    91386095.93847
  21393792.500   112425139.56109  21393788.460    87603990.63648
  23570500.300   123863946.24908  23570498.800    96517404.54546
  22773465.320   119675382.97008  22773464.520    93253559.13547
  24072853.140   126503683.66708  24072852.100    98574278.72946
  23249296.260   122175835.11109  23249294.480    95201925.07146
 15 02 20 00 41  0.0000000  0  7G16G18G21G22G27G29G31
  21506278.300   113016257.56309  21506274.540    88064609.57148
  22306999.220   117224201.71409  22306995.800    91343570.93546
  21401955.120   112468034.38708  21401951.040    87637415.22148
  23552662.100   123770208.25608  23552660.620    96444362.37046
  22761371.680   119611830.58409  22761370.960    93204037.83048
  24086737.480   126576645.68008  24086736.000    98631132.23745
  23266915.500   122268423.56809  23266913.820    95274071.54046
 15 02 20 00 41 30.0000000  0  7G16G18G21G22G27G29G31
  21493646.020   112949874.17609  21493642.060    88012882.27548
  22296679.580   117169971.43209  22296676.000    91301313.59546
  21410173.920   112511224.38109  21410169.740    87671069.72248
  23534835.100   123676529.05908  23534833.600    96371365.99846
  22749295.940   119548372.06308  22749295.520    93154589.66348
  24100627.500   126649637.70308  24100625.640    98688009.14245
  23284559.360   122361141.16209  23284557.760    95346318.51047
 15 02 20 00 42  0.0000000  0  7G16G18G21G22G27G29G31
  21481071.660   112883795.28109  21481067.800    87961392.21948
  22286424.640   117116081.65809  22286421.040    91259321.59047
  21418447.520   112554702.31909  21418443.320    87704948.62048
  23517019.000   123582906.26608  23517017.220    96298413.55046
  22737236.980   119485002.35008  22737236.560    93105210.68847
  24114522.400   126722654.85708  24114520.480    98744905.57946
  23302226.220   122453979.51708  23302224.760    95418659.16846
 15 02 20 00 42 30.0000000  0  7G16G18G21G22G27G29G31
  21468557.440   112818032.61909  21468553.460    87910148.60748
  22276236.840   117062544.74209  22276233.300    91217604.52447
  21426777.640   112598477.08509  21426773.260    87739058.84848
  23499216.140   123489352.76708  23499214.100    96225515.06946
  22725196.700   119421731.39508  22725195.920    93055908.66747
  24128423.740   126795706.96508  24128421.900    98801829.23046
  23319917.700   122546946.32508  23319916.520    95491099.97347
 15 02 20 00 43  0.0000000  0  7G16G18G21G22G27G29G31
  21456102.380   112752581.10509  21456098.700    87859147.46048
  22266115.240   117009355.43809  22266111.740    91176158.34247
  21435162.340   112642539.17808  21435157.980    87773392.93448
  23481425.520   123395863.57908  23481423.360    96152666.71646
  22713173.880   119358551.96308  22713173.080    93006677.95047
  24142330.340   126868787.03008  24142328.340    98858774.71346
  23337631.760   122640031.56408  23337630.880    95563633.19646
 15 02 20 00 43 30.0000000  0  7G16G18G21G22G27G29G31
  21443706.460   112687440.33209  21443702.660    87808388.40448
  22256059.540   116956512.77709  22256056.120    91134982.26547
  21443600.800   112686883.96308  21443596.600    87807947.30848
  23463647.020   123302438.42808  23463644.880    96079868.23746
  22701168.080   119295461.11408  22701167.600    92957516.26348
  24156241.920   126941891.55508  24156240.020    98915739.23245
  23355367.120   122733228.48609  23355366.340    95636253.37647
 15 02 20 00 44  0.0000000  0  7G16G18G21G22G27G29G31
  21431372.600   112622625.32309  21431368.780    87757883.20848
  22246072.620   116904031.82509  22246069.260    91094088.03047
  21452095.200   112731522.48109  21452090.960    87842730.57548
  23445883.680   123209093.08608  23445881.540    96007131.91246
  22689181.540   119232471.87308  22689181.260    92908433.76047
  24170160.240   127015033.95007  24170158.860    98972733.28846
  23373125.780   122826547.60308  23373125.020    95708968.69246
 15 02 20 00 44 30.0000000  0  7G16G18G21G22G27G29G31
  21419099.020   112558127.18309  21419095.120    87707624.91348
  22236152.840   116851903.33209  22236149.580    91053468.44147
  21460643.160   112776442.50009  21460638.980    87877733.18148
  23428133.980   123115819.09408  23428131.780    95934451.18046
  22677212.320   119169573.22609  22677211.460    92859421.81547
  24184083.780   127088203.05908  24184082.500    99029748.16046
  23390904.880   122919974.08508  23390904.160    95781767.25547
 15 02 20 00 45  0.0000000  0  7G16G18G21G22G27G29G31
  21406885.660   112493945.34909  21406881.680    87657613.09048
  22226300.080   116800126.61809  22226296.860    91013122.97247
  21469243.580   112821638.26208  21469239.460    87912950.68748
  23410397.860   123022615.88509  23410395.440    95861825.59846
  22665260.060   119106762.12309  22665258.680    92810478.10148
  24198012.020   127161395.71608  24198010.760    99086781.38745
  23408703.560   123013503.02508  23408703.140    95854646.05246
 15 02 20 00 45 30.0000000  0  7G16G18G21G22G27G29G31
  21394735.240   112430095.03109  21394731.360    87607859.61248
  22216517.300   116748717.43109  22216513.940    90973063.88647
  21477898.820   112867122.01508  21477894.620    87948392.58148
  23392678.300   122929499.58908  23392675.680    95789267.74646
  22653326.640   119044051.81409  22653325.960    92761612.98648
  24211947.260   127234625.29208  24211945.600    99143843.36145
  23426523.620   123107144.73108  23426523.580    95927613.00047
 15 02 20 00 46  0.0000000  0  7G16G18G21G22G27G29G31
  21382646.280   112366566.78609  21382642.140    87558357.07348
  22206802.520   116697665.82309  22206799.000    90933283.42947
  21486606.220   112912880.23709  21486602.180    87984048.31748
  23374973.420   122836460.89608  23374970.680    95716770.34046
  22641410.460   118981430.76709  22641409.660    92712817.39047
  24225887.360   127307880.21308  24225885.340    99200925.04645
  23444362.180   123200884.19008  23444362.500    96000656.19246
 15 02 20 00 46 30.0000000  0  7G16G18G21G22G27G29G31
  21370620.720   112303372.22109  21370616.700    87509114.57748
  22197157.860   116646982.97709  22197154.340    90893790.32647
  21495367.300   112958919.99109  21495363.360    88019923.41848
  23357285.580   122743512.12508  23357282.760    95644342.99046
  22629512.760   118918908.19408  22629511.580    92664098.50447
  24239833.860   127381169.48408  24239830.980    99258033.57545
  23462220.520   123294727.73608  23462221.120    96073780.54547
 15 02 20 00 47  0.0000000  0  7G16G18G21G22G27G29G31
  21358658.020   112240507.81609  21358654.180    87460129.36648
  22187582.740   116596665.63409  22187579.360    90854582.01947
  21504180.640   113005234.02709  21504176.680    88056012.26748
  23339614.300   122650650.26508  23339611.460    95571983.38146
  22617632.660   118856478.75909  22617631.880    92615452.20748
  24253785.960   127454487.81308  24253782.720    99315164.74445
  23480096.840   123388666.57908  23480097.700    96146979.21846
 15 02 20 00 47 30.0000000  0  7G16G18G21G22G27G29G31
  21346758.220   112177974.58309  21346754.480    87411402.17548
  22178077.260   116546714.46209  22178074.020    90815659.04847
  21513045.480   113051819.02109  21513041.460    88092312.28648
  23321959.920   122557876.73409  23321956.940    95499692.56046
  22605770.240   118794141.09009  22605769.680    92566877.42947
  24267743.300   127527833.57808  24267740.460    99372317.28445
  23497990.500   123482696.44508  23497991.500    96220248.82246
 15 02 20 00 48  0.0000000  0  7G16G18G21G22G27G29G31
  21334922.120   112115775.82009  21334918.340    87362935.58948
  22168642.080   116497132.74709  22168638.900    90777023.96547
  21521961.720   113098674.57008  21521957.920    88128823.11048
  23304323.160   122465195.28609  23304319.940    95427473.48246
  22593925.480   118731896.63209  22593924.780    92518375.26247
  24281706.380   127601208.55508  24281703.960    99429492.56146
  23515901.260   123576816.03708  23515902.260    96293588.46145
 15 02 20 00 48 30.0000000  0  7G16G18G21G22G27G29G31
  21323151.400   112053919.99909  21323147.500    87314736.24348
  22159278.680   116447928.41109  22159275.560    90738682.92947
  21530930.300   113145805.15109  21530926.480    88165548.21448
  23286705.580   122372614.58908  23286702.160    95355332.89546
  22582099.580   118669751.31609  22582098.600    92469950.33048
  24295675.820   127674618.56608  24295673.160    99486695.14445
  23533829.420   123671027.32308  23533830.580    96366999.47146
 15 02 20 00 49  0.0000000  0  7G16G18G21G22G27G29G31
  21311445.500   111992405.37609  21311441.800    87266802.78948
  22149986.760   116399099.60109  22149983.760    90700634.52747
  21539950.100   113193204.58609  21539946.300    88202482.84448
  23269106.880   122280133.57108  23269103.460    95283269.99646
  22570291.920   118607701.37309  22570291.160    92421599.74448
  24309650.920   127748059.57808  24309648.540    99543921.87245
  23551773.900   123765324.28608  23551775.220    96440477.30545
 15 02 20 00 49 30.0000000  0  7G16G18G21G22G27G29G31
  21299805.620   111931236.93409  21299801.920    87219139.04548
  22140767.300   116350651.23209  22140764.400    90662882.58647
  21549021.560   113240874.99109  21549017.720    88239628.59648
  23251528.080   122187757.67508  23251524.820    95211289.03846
  22558503.120   118545749.75809  22558502.100    92373325.78847
  24323632.180   127821534.59107  24323630.520    99601175.08446
  23569734.560   123859706.66809  23569735.980    96514021.64847
 15 02 20 00 50  0.0000000  0  7G16G18G21G22G27G29G31
  21288229.540   111870404.34409  21288225.740    87171737.03148
  22131618.320   116302572.78209  22131615.380    90625418.85647
  21558141.680   113288801.18309  21558137.920    88276973.67048
  23233967.460   122095477.01408  23233964.300    95139382.24446
  22546730.620   118483884.05909  22546729.260    92325118.76148
  24337618.240   127895031.21708  24337616.160    99658445.17245
  23587708.360   123954158.69108  23587709.780    96587620.32847
 15 02 20 00 50 30.0000000  0  7G16G18G21G22G27G29G31
  21276719.740   111809919.61609  21276715.960    87124606.09548
  22122541.820   116254875.16309  22122538.840    90588251.89747
  21567311.940   113336990.72309  21567308.140    88314523.97948
  23216427.360   122003303.76809  23216424.080    95067559.14546
  22534976.040   118422113.81809  22534974.880    92276986.09748
  24351610.620   127968558.96208  24351607.620    99715739.51245
  23605696.600   124048686.81308  23605698.140    96661278.22846
 15 02 20 00 51  0.0000000  0  7G16G18G21G22G27G29G31
  21265277.220   111749788.45009  21265273.220    87077750.63048
  22113538.980   116207564.99809  22113536.100    90551386.85847
  21576532.840   113385446.38009  21576528.840    88352281.61648
  23198909.060   121911244.91309  23198905.520    94995825.17546
  22523240.420   118360443.25209  22523239.360    92228931.17047
  24365609.340   128042121.77507  24365606.120    99773061.17145
  23623699.700   124143292.55709  23623701.420    96734996.52147
 15 02 20 00 51 30.0000000  0  7G16G18G21G22G27G29G31
  21253901.860   111690010.87109  21253897.980    87031170.71748
  22104609.800   116160641.72509  22104606.900    90514823.27147
  21585803.480   113434163.58308  21585799.420    88390243.09848
  23181412.500   121819300.26409  23181408.700    94924180.17846
  22511523.480   118298869.94109  22511521.960    92180951.94648
  24379613.960   128115717.49308  24379611.300    99830408.37345
  23641716.640   124237970.16108  23641718.420    96808770.81046
 15 02 20 00 52  0.0000000  0  7G16G18G21G22G27G29G31
  21242592.620   111630581.32809  21242588.940    86984861.97248
  22095753.200   116114099.62109  22095750.140    90478556.71447
  21595121.940   113483132.37308  21595117.820    88428400.55048
  23163936.600   121727465.00108  23163932.700    94852620.42146
  22499823.420   118237386.11009  22499821.860    92133042.50048
  24393623.760   128189337.98108  24393621.320    99887774.99946
  23659745.320   124332708.86308  23659746.920    96882592.71546
 15 02 20 00 52 30.0000000  0  7G16G18G21G22G27G29G31
  21231351.820   111571511.30009  21231348.420    86938833.40848
  22086971.120   116067949.57609  22086968.040    90442595.65547
  21604489.880   113532361.24909  21604485.740    88466760.71648
  23146483.740   121635751.31108  23146479.960    94781155.39046
  22488142.260   118176001.48909  22488141.140    92085210.35348
  24407640.160   128262992.73708  24407637.560    99945168.29344
  23677786.900   124427515.48309  23677788.500    96956467.53547
 15 02 20 00 53  0.0000000  0  7G16G18G21G22G27G29G31
  21220180.320   111512804.30109  21220176.720    86893087.71348
  22078264.220   116022194.89409  22078261.300    90406942.67647
  21613907.160   113581849.34508  21613903.060    88505322.88948
  23129054.720   121544163.02408  23129051.120    94709788.07046
