     2.11           OBSERVATION DATA    G                   RINEX VERSION / TYPE
SPIDER V4,0,0,3554                      2015 03 21 00:21    PGM / RUN BY / DATE 
CNGR                                                        MARKER NAME         
CNGR                                                        MARKER NUMBER       
                                                            OBSERVER / AGENCY   
496521              LEICA GRX1200+GNSS  8.10/4.007          REC # / TYPE / VERS 
10321004            LEIAR25         NONE                    ANT # / TYPE        
  5218738.7445   688113.1521  3590185.5476                  APPROX POSITION XYZ 
        0.0720        0.0000        0.0000                  ANTENNA: DELTA H/E/N
     1     1                                                WAVELENGTH FACT L1/2
     4    C1    L1    P2    L2                              # / TYPES OF OBSERV 
    30.000                                                  INTERVAL            
  2015    02    20    00    00    0.0000000     GPS         TIME OF FIRST OBS   
  2015    02    20    23    59   30.0000000     GPS         TIME OF LAST OBS    
    16                                                      LEAP SECONDS        
    29                                                      # OF SATELLITES     
   G 1   815   815   815   815                              PRN / # OF OBS      
   G 2   944   944   943   943                              PRN / # OF OBS      
   G 3   861   861   860   860                              PRN / # OF OBS      
   G 4   844   843   843   843                              PRN / # OF OBS      
   G 5   647   647   647   647                              PRN / # OF OBS      
   G 6   829   829   828   828                              PRN / # OF OBS      
   G 7   677   677   676   676                              PRN / # OF OBS      
   G 9   818   818   818   818                              PRN / # OF OBS      
   G10   759   759   759   759                              PRN / # OF OBS      
   G12   841   841   841   841                              PRN / # OF OBS      
   G13   801   801   801   801                              PRN / # OF OBS      
   G14   943   943   943   943                              PRN / # OF OBS      
   G15   705   705   705   705                              PRN / # OF OBS      
   G16   668   667   667   667                              PRN / # OF OBS      
   G17   943   943   943   943                              PRN / # OF OBS      
   G18   902   902   902   902                              PRN / # OF OBS      
   G19   756   756   756   756                              PRN / # OF OBS      
   G20   791   791   791   791                              PRN / # OF OBS      
   G21   744   744   744   744                              PRN / # OF OBS      
   G22   660   659   659   659                              PRN / # OF OBS      
   G23   762   762   761   761                              PRN / # OF OBS      
   G24   827   827   826   826                              PRN / # OF OBS      
   G25   865   865   865   865                              PRN / # OF OBS      
   G27   809   809   809   809                              PRN / # OF OBS      
   G28   869   869   867   867                              PRN / # OF OBS      
   G29   787   787   787   787                              PRN / # OF OBS      
   G30   724   724   724   724                              PRN / # OF OBS      
   G31   861   861   860   860                              PRN / # OF OBS      
   G32   778   778   778   778                              PRN / # OF OBS      
BIT 2 OF LLI FLAGS DATA COLLECTED UNDER A/S CONDITION       COMMENT             
SNR is mapped to RINEX snr flag value [2-9]                 COMMENT             
Lx:     = 25dBHz -> 1; 26-27dBHz -> 2; 28-31dBHz -> 3       COMMENT             
       32-35dBHz -> 4; 36-38dBHz -> 5; 39-41dBHz -> 6       COMMENT             
       42-44dBHz -> 7; 45-48dBHz -> 8; >=49dBHz -> 9        COMMENT             
                                                            END OF HEADER       
 15 02 20 00 00  0.0000000  0  7G16G18G21G25G27G29G31
  22853475.980   120095834.75609  22853472.380    93581162.25446
  23182207.580   121823468.17708  23182205.360    94927436.18146
  20921180.880   109941549.94708  20921177.160    85668727.01648
  23589952.200   123966025.27608  23589952.820    96596900.48546
  23977842.500   126004419.34808  23977842.480    98185262.15546
  22869586.880   120180480.41109  22869584.160    93647117.88847
  21981672.680   115514458.18809  21981670.200    90011249.98548
 15 02 20 00 00 30.0000000  0  7G16G18G21G25G27G29G31
  22837085.220   120009700.72009  22837081.620    93514044.82947
  23168087.680   121749267.91508  23168085.600    94869617.86846
  20923906.160   109955871.44808  20923902.460    85679886.64048
  23607225.820   124056798.54108  23607226.520    96667632.84646
  23964388.200   125933716.33208  23964388.140    98130168.92746
  22882438.140   120248013.77309  22882435.500    93699741.23647
  21995106.120   115585051.52609  21995103.740    90066257.75248
 15 02 20 00 01  0.0000000  0  7G16G18G21G25G27G29G31
  22820717.660   119923688.92509  22820714.200    93447022.66347
  23153996.440   121675217.84608  23153994.500    94811916.56546
  20926708.440   109970597.51808  20926704.660    85691361.49848
  23624541.180   124147791.33008  23624541.720    96738536.30746
  23950949.020   125863092.90708  23950948.780    98075137.72546
  22895297.140   120315589.11709  22895294.820    93752397.29947
  22008608.160   115656005.24409  22008605.840    90121546.32648
 15 02 20 00 01 30.0000000  0  7G16G18G21G25G27G29G31
  22804373.740   119837801.55508  22804370.460    93380097.45946
  23139934.340   121601321.04608  23139932.380    94754334.72146
  20929587.520   109985727.09909  20929583.660    85703150.77948
  23641898.080   124239002.78108  23641898.780    96809610.10646
  23937524.980   125792549.21108  23937524.700    98020168.65646
  22908164.140   120383206.55709  22908162.100    93805086.18347
  22022178.300   115727316.64509  22022175.960    90177113.61748
 15 02 20 00 02  0.0000000  0  7G16G18G21G25G27G29G31
  22788054.340   119752042.88408  22788051.120    93313272.52847
  23125902.480   121527583.07908  23125900.380    94696876.61846
  20932543.720   110001261.57709  20932539.720    85715255.57248
  23659296.860   124330434.04508  23659297.680    96880855.20346
  23924116.500   125722087.40408  23924116.400    97965263.38546
  22921039.540   120450868.03209  22921037.740    93857809.37947
  22035816.520   115798985.81209  22035814.120    90232959.68748
 15 02 20 00 02 30.0000000  0  7G16G18G21G25G27G29G31
  22771759.680   119666414.10709  22771756.620    93246548.82647
  23111900.980   121454004.99708  23111898.680    94639543.11345
  20935576.540   110017198.73909  20935572.400    85727674.14048
  23676737.100   124422082.93808  23676738.100    96952269.89346
  23910723.460   125651706.35908  23910723.360    97910421.04146
  22933922.920   120518572.01209  22933921.820    93910565.63947
  22049522.020   115871008.52209  22049519.600    90289081.24048
 15 02 20 00 03  0.0000000  0  7G16G18G21G25G27G29G31
  22755489.680   119580914.82409  22755486.580    93179926.01547
  23097929.960   121380586.85508  23097927.340    94582334.19746
  20938685.180   110033534.64208  20938680.980    85740403.41748
  23694218.040   124513945.97908  23694219.360    97023851.42646
  23897345.320   125581403.68308  23897345.260    97855639.77046
  22946814.180   120586315.95308  22946813.260    93963353.13447
  22063293.940   115943380.13009  22063291.500    90345474.65548
 15 02 20 00 03 30.0000000  0  7G16G18G21G25G27G29G31
  22739245.020   119495548.33409  22739241.840    93113406.67847
  23083990.100   121307332.79308  23083987.540    94525253.16946
  20941869.740   110050269.52609  20941865.520    85753443.58248
  23711739.900   124606023.18108  23711741.100    97095599.85846
  23883982.280   125511180.38408  23883982.220    97800920.34546
  22959713.540   120654101.33609  22959712.380    94016172.88347
  22077131.980   116016099.16309  22077129.440    90402138.78448
 15 02 20 00 04  0.0000000  0  7G16G18G21G25G27G29G31
  22723026.680   119410320.18209  22723023.380    93046995.14347
  23070082.820   121234249.83709  23070080.300    94468305.44946
  20945130.600   110067405.50509  20945126.380    85766796.29948
  23729303.060   124698317.03008  23729304.000    97167517.09846
  23870635.000   125441040.14308  23870634.880    97746265.64546
  22972621.240   120721931.32408  22972619.900    94069027.38447
  22091036.340   116089166.65809  22091033.640    90459074.45248
 15 02 20 00 04 30.0000000  0  7G16G18G21G25G27G29G31
  22706834.040   119325227.09309  22706830.580    92980688.84046
  23056207.560   121161335.03508  23056205.040    94411488.76746
  20948466.600   110084936.22209  20948462.380    85780456.60648
  23746906.220   124790821.13608  23746907.220    97239598.16046
  23857302.480   125370977.52208  23857302.320    97691671.41146
  22985536.440   120789800.47509  22985534.920    94121912.38947
  22105005.420   116162574.51409  22105002.640    90516275.32548
 15 02 20 00 05  0.0000000  0  7G16G18G21G25G27G29G31
  22690668.100   119240274.23909  22690664.560    92914491.80747
  23042365.320   121088593.69408  23042362.960    94354807.25346
  20951878.020   110102863.56308  20951873.840    85794425.95548
  23764549.620   124883537.14808  23764550.520    97311844.37146
  23843985.260   125300995.28208  23843985.080    97637139.82646
  22998459.480   120857711.33309  22998457.920    94174829.91447
  22119039.340   116236323.07809  22119036.460    90573741.68548
 15 02 20 00 05 30.0000000  0  7G16G18G21G25G27G29G31
  22674528.980   119155462.74409  22674525.420    92848404.92647
  23028556.380   121016027.79208  23028554.220    94298262.43646
  20955364.500   110121185.67008  20955360.440    85808702.92348
  23782233.140   124976463.34908  23782233.740    97384254.37046
  23830683.200   125231092.88408  23830683.100    97582670.46847
  23011390.260   120925663.05308  23011388.300    94227779.27847
  22133137.400   116310408.96709  22133134.460    90631470.89848
 15 02 20 00 06  0.0000000  0  7G16G18G21G25G27G29G31
  22658417.000   119070794.26409  22658413.540    92782429.50747
  23014781.380   120943640.14308  23014779.420    94241856.54146
  20958925.820   110139900.82708  20958921.820    85823286.17548
  23799956.320   125069598.17708  23799956.960    97456826.89446
  23817396.140   125161269.79608  23817396.160    97528262.90747
  23024329.040   120993655.57708  23024327.000    94280760.46147
  22147299.060   116384829.24209  22147296.180    90689460.67248
 15 02 20 00 06 30.0000000  0  7G16G18G21G25G27G29G31
  22642333.080   118986272.97509  22642329.740    92716568.77947
  23001041.140   120871435.15209  23001039.200    94185592.96346
  20962561.960   110159009.34708  20962558.040    85838175.93148
  23817719.120   125162942.23708  23817719.820    97529562.47446
  23804124.540   125091527.78708  23804124.680    97473918.51846
  23037275.760   121061690.22208  23037273.660    94333774.42547
  22161524.180   116459583.05209  22161521.400    90747710.34648
 15 02 20 00 07  0.0000000  0  7G16G18G21G25G27G29G31
  22626276.820   118901896.70709  22626273.560    92650821.05247
  22987335.360   120799411.07809  22987333.400    94129470.35546
  20966271.940   110178505.72608  20966268.040    85853367.91448
  23835520.680   125256490.00308  23835521.240    97602456.83346
  23790867.540   125021862.38308  23790867.800    97419633.81847
  23050229.740   121129762.39309  23050227.280    94386817.68847
  22175811.400   116534663.19409  22175808.740    90806214.30448
 15 02 20 00 07 30.0000000  0  7G16G18G21G25G27G29G31
  22610249.600   118817673.17309  22610246.280    92585192.33747
  22973665.680   120727576.29909  22973663.740    94073495.24346
  20970056.640   110198394.68708  20970052.720    85868865.81048
  23853361.720   125350246.11608  23853362.640    97675513.44646
  23777626.360   124952279.39408  23777626.540    97365413.34247
  23063191.840   121197877.98209  23063189.240    94439894.71247
  22190161.420   116610072.88709  22190158.820    90864975.05548
 15 02 20 00 08  0.0000000  0  7G16G18G21G25G27G29G31
  22594250.980   118733599.92609  22594247.620    92519680.72446
  22960031.600   120655928.94808  22960029.640    94017666.17246
  20973914.920   110218670.34608  20973911.020    85884665.02048
  23871241.340   125444204.63608  23871242.460    97748727.83746
  23764400.020   124882774.12008  23764400.000    97311253.41946
  23076161.220   121266032.38909  23076158.620    94493002.01047
  22204572.820   116685804.76709  22204570.220    90923986.84848
 15 02 20 00 08 30.0000000  0  7G16G18G21G25G27G29G31
  22578281.520   118649680.04209  22578278.120    92454288.60447
  22946434.100   120584473.38309  22946432.060    93961986.56646
  20977846.820   110239332.68809  20977842.900    85900765.55148
  23889159.480   125538365.76008  23889160.700    97822100.10646
  23751188.680   124813347.77008  23751188.540    97257154.98946
  23089138.060   121334226.28008  23089135.760    94546140.08247
  22219045.300   116761857.41109  22219042.660    90983248.60848
 15 02 20 00 09  0.0000000  0  7G16G18G21G25G27G29G31
  22562342.080   118565918.03208  22562338.520    92389019.50147
  22932873.940   120513213.92809  22932871.640    93906459.74246
  20981852.460   110260382.23708  20981848.500    85917167.79948
  23907116.240   125632730.26608  23907117.600    97895630.81046
  23737992.720   124744002.29408  23737992.440    97203119.58346
  23102122.740   121402461.63908  23102120.240    94599310.49247
  22233578.720   116838230.19709  22233576.020    91042759.82248
 15 02 20 00 09 30.0000000  0  7G16G18G21G25G27G29G31
  22546432.280   118482311.85709  22546428.640    92323871.83946
  22919350.840   120442149.20809  22919348.240    93851084.66845
  20985930.760   110281813.60109  20985926.760    85933867.55748
  23925110.860   125727292.84808  23925112.360    97969315.88646
  23724811.300   124674733.64008  23724811.020    97149144.02646
  23115114.640   121470734.68409  23115112.280    94652510.23046
  22248171.760   116914916.29409  22248168.960    91102515.15747
 15 02 20 00 10  0.0000000  0  7G16G18G21G25G27G29G31
  22530553.080   118398866.47408  22530549.480    92258849.47147
  22905865.740   120371284.58409  22905863.020    93795865.51846
  20990081.960   110303628.02309  20990077.940    85950865.80848
  23943143.520   125822054.98708  23943145.040    98043156.45045
  23711644.980   124605544.37708  23711644.800    97095230.32647
  23128113.980   121539047.79908  23128111.520    94705741.17847
  22262824.360   116991915.55409  22262821.500    91162514.52748
 15 02 20 00 10 30.0000000  0  8G16G18G21G22G25G27G29G31
  22514704.340   118315581.20609  22514700.820    92193951.86947
  22892418.760   120300620.26209  22892415.740    93740802.43446
  20994305.380   110325821.91109  20994301.340    85968159.75548
  24542341.320   128970871.97408  24542345.840   100496792.58845
  23961213.480   125917012.60608  23961214.800    98117149.34245
  23698493.220   124536431.69008  23698493.120    97041376.32247
  23141120.720   121607398.28409  23141118.540    94759001.29047
  22277535.480   117069222.59909  22277532.580    91222753.73848
 15 02 20 00 11  0.0000000  0  8G16G18G21G22G25G27G29G31
  22498885.940   118232455.15309  22498882.480    92129178.33247
  22879009.800   120230155.82209  22879006.820    93685895.10346
  20998600.160   110348390.83009  20998596.080    85985745.92648
  24524536.580   128877309.97008  24524541.720   100423887.63645
  23979319.860   126012161.54208  23979321.100    98191291.30946
  23685355.460   124467392.54808  23685355.380    96987579.62047
  23154133.800   121675782.97809  23154131.580    94812288.04047
  22292304.000   117146831.53809  22292301.100    91283228.17448
 15 02 20 00 11 30.0000000  0  8G16G18G21G22G25G27G29G31
  22483101.000   118149504.41509  22483097.600    92064541.41847
  22865642.000   120159907.85809  22865639.360    93631156.46946
  21002968.720   110371347.42709  21002964.560    86003634.18548
  24506717.460   128783672.73408  24506722.980   100350924.05645
  23997465.160   126107514.54108  23997466.280    98265592.29446
  23672234.260   124398440.92008  23672234.240    96933851.11647
  23167156.120   121744215.50608  23167154.160    94865612.05047
  22307132.080   117224753.63709  22307129.180    91343946.63648
 15 02 20 00 12  0.0000000  0  8G16G18G21G22G25G27G29G31
  22467347.640   118066719.20609  22467344.220    92000033.47547
  22852313.620   120089867.12709  22852311.160    93576579.31146
  21007408.400   110394677.83409  21007404.180    86021813.72348
  24488882.320   128689950.92408  24488887.980   100277894.55745
  24015646.740   126203058.36708  24015647.480    98340041.96145
  23659127.500   124329564.81508  23659127.580    96880181.46647
  23180185.280   121812683.81509  23180183.220    94918963.97147
  22322016.920   117302974.25709  22322014.160    91404897.70748
 15 02 20 00 12 30.0000000  0  8G16G18G21G22G25G27G29G31
  22451626.760   117984104.82009  22451623.300    91935658.63947
  22839025.580   120020039.22708  22839023.240    93522167.97546
  21011919.480   110418383.73009  21011915.240    86040285.84648
  24471032.200   128596150.15608  24471037.900   100204803.57445
  24033864.940   126298794.93108  24033865.620    98414641.81645
  23646035.740   124260767.27808  23646035.900    96826573.02747
  23193221.980   121881191.14509  23193219.760    94972346.26647
  22336958.620   117381493.78309  22336956.020    91466081.68548
 15 02 20 00 13  0.0000000  0  8G16G18G21G22G25G27G29G31
  22435938.840   117901663.71609  22435935.300    91871418.83447
  22825778.760   119950427.31809  22825776.680    93467924.96546
  21016501.860   110442464.59108  21016497.660    86059050.14748
  24453167.560   128502273.03108  24453173.500   100131653.10445
  24052119.520   126394723.08708  24052120.200    98489390.94646
  23632958.980   124192048.40308  23632959.180    96773025.86647
  23206265.960   121949737.69909  23206264.040    95025759.08947
  22351956.720   117460309.67209  22351954.260    91527496.59048
 15 02 20 00 13 30.0000000  0  8G16G18G21G22G25G27G29G31
  22420283.460   117819393.61809  22420279.820    91807312.26047
  22812572.580   119881029.36708  22812570.860    93413848.68646
  21021154.480   110466914.79208  21021150.360    86078102.25648
  24435288.080   128408317.82908  24435294.120   100058441.81545
  24070409.380   126490837.07808  24070409.980    98564284.91745
  23619896.300   124123403.77208  23619896.500    96719536.59247
  23219316.800   122018319.01208  23219314.680    95079199.09047
  22367009.860   117539414.50409  22367007.500    91589136.64748
 15 02 20 00 14  0.0000000  0  8G16G18G21G22G25G27G29G31
  22404662.260   117737303.32509  22404658.560    91743345.81247
  22799408.980   119811854.94909  22799407.140    93359946.57546
  21025878.260   110491738.84109  21025874.240    86097445.67748
  24417395.340   128314293.23908  24417401.340    99985176.46445
  24088735.580   126587142.34808  24088736.300    98639327.89645
  23606848.940   124054839.97908  23606849.120    96666110.30347
  23232375.360   122086941.34409  23232372.900    95132671.00446
  22382118.800   117618812.25409  22382116.480    91651004.94848
 15 02 20 00 14 30.0000000  0  8G16G18G21G22G25G27G29G31
  22389075.220   117655393.01009  22389071.460    91679519.59547
  22786288.000   119742904.57208  22786286.160    93306219.03646
  21030672.580   110516933.37808  21030668.560    86117077.77948
  24399489.640   128220200.05508  24399495.520    99911857.64045
  24107097.520   126683635.60108  24107098.480    98714517.36445
  23593816.540   123986354.94608  23593816.760    96612745.36947
  23245441.120   122155602.88808  23245438.680    95186173.46947
  22397282.640   117698498.23809  22397280.320    91713097.84348
 15 02 20 00 15  0.0000000  0  8G16G18G21G22G25G27G29G31
  22373522.800   117573664.40009  22373519.000    91615834.97847
  22773210.180   119674180.34209  22773208.400    93252667.72346
  21035537.060   110542496.83508  21035533.140    86136997.35648
  24381571.140   128126039.89908  24381576.840    99838486.65145
  24125494.880   126780314.84808  24125495.900    98789851.74445
  23580799.100   123917948.06508  23580799.300    96559441.35947
  23258514.100   122224302.86309  23258511.500    95239705.86446
  22412500.660   117778468.68709  22412498.300    91775412.41748
 15 02 20 00 15 30.0000000  0  8G16G18G21G22G25G27G29G31
  22358005.160   117492118.81109  22358001.500    91552292.96747
  22760175.880   119605684.08709  22760173.900    93199294.04046
  21040471.360   110568426.95309  21040467.500    86157202.64548
  24363640.260   128031814.68808  24363645.720    99765064.95345
  24143927.360   126877177.98208  24143928.100    98865329.45146
  23567796.400   123849618.39208  23567796.620    96506197.48347
  23271594.080   122293040.30608  23271591.320    95293267.50047
  22427772.180   117858720.34409  22427769.760    91837946.10048
 15 02 20 00 16  0.0000000  0  8G16G18G21G22G25G27G29G31
  22342522.400   117410756.50009  22342518.760    91488893.78047
  22747185.000   119537416.25009  22747183.020    93146098.35346
  21045474.840   110594720.19009  21045470.980    86177690.88148
  24345697.160   127937524.71908  24345702.340    99691592.77645
  24162394.300   126974221.70008  24162394.920    98940947.81845
  23554808.080   123781363.95808  23554808.260    96453012.24047
  23284680.960   122361813.17108  23284678.360    95346856.69246
  22443096.220   117939248.21309  22443093.820    91900695.01548
 15 02 20 00 16 30.0000000  0  8G16G18G21G22G25G27G29G31
  22327075.280   117329581.31109  22327071.700    91425640.39847
  22734238.540   119469381.46809  22734236.320    93093084.25246
  21050547.600   110621377.16109  21050543.720    86198462.54748
  24327742.640   127843174.44608  24327747.380    99618073.62945
  24180895.820   127071446.37508  24180896.220    99016707.23945
  23541834.400   123713186.40708  23541834.600    96399886.89647
  23297775.240   122430623.46208  23297772.100    95400475.10247
  22458472.640   118020051.40909  22458470.220    91963658.46948
 15 02 20 00 17  0.0000000  0  8G16G18G21G22G25G27G29G31
  22311664.360   117248595.90909  22311660.720    91362534.89447
  22721336.960   119401582.63209  22721334.340    93040254.02146
  21055689.300   110648396.24409  21055685.340    86219516.37648
  24309777.100   127748766.64108  24309781.640    99544509.64245
  24199431.620   127168851.12708  24199432.020    99092606.92545
  23528875.400   123645086.16608  23528875.580    96346821.80047
  23310876.760   122499471.51509  23310873.920    95454122.88147
  22473900.860   118101126.97109  22473898.440    92026834.16048
 15 02 20 00 17 30.0000000  0  8G16G18G21G22G25G27G29G31
  22296290.160   117167803.54109  22296286.560    91299579.81447
  22708480.940   119334023.34709  22708478.220    92987610.44546
  21060899.820   110675777.01809  21060895.720    86240852.04248
  24291801.320   127654304.82908  24291805.780    99470903.57345
  24218001.600   127266435.54108  24218001.920    99168646.67345
  23515931.260   123577064.17508  23515931.300    96293817.68847
  23323985.580   122568358.08809  23323982.420    95507800.69947
  22489380.640   118182473.49909  22489378.200    92090220.97948
 15 02 20 00 18  0.0000000  0  8G16G18G21G22G25G27G29G31
  22280952.580   117087203.41209  22280948.940    91236774.53147
  22695670.360   119266703.30009  22695667.560    92935153.30446
  21066178.300   110703515.30209  21066174.060    86262466.29548
  24273815.200   127559788.47308  24273819.420    99397254.99045
  24236604.780   127364195.31808  24236605.420    99244823.00445
  23503001.400   123509117.32808  23503001.280    96240872.12247
  23337101.200   122637279.93908  23337098.220    95561506.01747
  22504910.900   118264085.38709  22504908.440    92153814.58248
 15 02 20 00 18 30.0000000  0  8G16G18G21G22G25G27G29G31
  22265653.200   117006804.36009  22265649.540    91174125.92147
  22682907.060   119199631.86309  22682904.020    92882889.86146
  21071525.820   110731616.56509  21071521.440    86284363.37948
  24255820.460   127465227.24208  24255824.540    99323571.42646
  24255242.240   127462135.93108  24255242.960    99321140.26645
  23490087.160   123441252.44708  23490086.840    96187990.42947
  23350224.780   122706244.41008  23350222.040    95615244.53547
  22520492.380   118345966.19709  22520489.860    92217617.72048
 15 02 20 00 19  0.0000000  0  8G16G18G21G22G25G27G29G31
  22250390.780   116926599.80409  22250387.100    91111628.86747
  22670189.800   119132802.78109  22670186.980    92830815.27647
  21076940.320   110760070.07209  21076935.940    86306534.94248
  24237815.820   127370614.30408  24237819.980    99249847.60746
  24273912.120   127560246.83308  24273913.100    99397590.21246
  23477186.840   123373460.39808  23477186.320    96135165.47647
  23363354.740   122775242.06908  23363352.240    95669008.90447
  22536122.800   118428104.06709  22536120.240    92281621.17248
 15 02 20 00 19 30.0000000  0  8G16G18G21G22G25G27G29G31
  22235166.980   116846598.55509  22235163.340    91049290.24847
  22657520.360   119066224.86309  22657517.500    92778936.40446
  21082422.740   110788880.93609  21082418.480    86328984.97148
  24219803.220   127275959.10508  24219807.260    99176090.81146
  24292615.460   127658533.44908  24292616.580    99474177.07845
  23464301.640   123305747.89208  23464301.080    96082402.51747
  23376492.200   122844279.73709  23376489.680    95722804.48147
  22551802.900   118510502.73409  22551800.240    92345827.84348
 15 02 20 00 20  0.0000000  0  8G16G18G21G22G25G27G29G31
  22219981.580   116766799.50409  22219978.100    90987109.18747
  22644898.660   118999897.76609  22644895.800    92727252.98046
  21087972.160   110818044.03108  21087968.100    86351709.46148
  24201782.400   127181260.76208  24201786.120    99102300.40046
  24311351.340   127756991.08408  24311352.700    99550897.18445
  23451430.820   123238111.56008  23451430.420    96029698.90847
  23389636.400   122913353.78908  23389634.400    95776628.36047
  22567531.500   118593156.27909  22567528.760    92410233.11947
 15 02 20 00 20 30.0000000  0  8G16G18G21G22G25G27G29G31
  22204835.200   116687205.72509  22204831.820    90925088.07347
  22632325.340   118933824.76009  22632322.560    92675767.55346
  21093588.560   110847559.26408  21093584.740    86374708.35448
  24183754.040   127086522.44408  24183757.460    99028478.81946
  24330119.740   127855618.84808  24330121.080    99627749.87145
  23438574.560   123170551.94408  23438574.320    95977055.07047
  23402787.740   122982464.86508  23402786.140    95830481.12747
  22583308.180   118676062.20409  22583305.320    92474835.04847
 15 02 20 00 21  0.0000000  0  8G16G18G21G22G25G27G29G31
  22189728.660   116607821.41709  22189725.280    90863230.18347
  22619801.120   118868009.93109  22619798.320    92624483.30246
  21099272.040   110877426.56809  21099268.260    86397981.57548
  24165718.880   126991748.53608  24165721.900    98954629.52445
  24348920.620   127954417.30608  24348921.960    99704735.53145
  23425733.240   123103070.86908  23425733.120    95924472.45147
  23415946.460   123051615.10709  23415945.020    95884364.39747
  22599132.660   118759219.48509  22599129.700    92539632.84647
 15 02 20 00 21 30.0000000  0  8G16G18G21G22G25G27G29G31
  22174661.440   116528643.23809  22174657.980    90801532.90947
  22607325.440   118802450.09009  22607322.800    92573397.73646
  21105021.280   110907638.92509  21105017.420    86421523.68148
  24147676.360   126896936.13208  24147679.100    98880750.21546
  24367752.800   128053379.56108  24367754.020    99781848.84445
  23412905.880   123035662.87208  23412905.840    95871946.76947
  23429111.780   123120798.88108  23429110.480    95938273.81947
  22615003.400   118842620.06409  22615000.340    92604620.22448
 15 02 20 00 22  0.0000000  0  8G16G18G21G22G25G27G29G31
  22159634.480   116449676.50309  22159631.040    90740000.39947
  22594899.540   118737151.91509  22594897.060    92522516.07047
  21110836.580   110938198.18109  21110832.620    86445336.07148
  24129627.600   126802091.01408  24129630.140    98806845.40045
  24386616.600   128152507.56808  24386617.540    99859091.32645
  23400093.100   122968331.29508  23400092.980    95819480.62047
  23442284.280   123190019.52808  23442282.580    95992212.01047
  22630920.420   118926264.26409  22630917.360    92669797.41447
 15 02 20 00 22 30.0000000  0  8G16G18G21G22G25G27G29G31
  22144648.700   116370925.81409  22144645.240    90678636.22747
  22582524.360   118672120.10209  22582522.020    92471841.94847
  21116717.900   110969104.50009  21116713.900    86469418.92348
  24111573.440   126707218.09008  24111575.740    98732918.92045
  24405512.120   128251802.02608  24405512.560    99936463.49345
  23387295.220   122901078.20808  23387294.960    95767075.64447
  23455463.880   123259279.24008  23455462.500    96046180.50847
  22646883.640   119010151.36209  22646880.640    92735163.88847
 15 02 20 00 23  0.0000000  0  8G16G18G21G22G25G27G29G31
  22129704.160   116292391.61309  22129700.600    90617440.74647
  22570199.820   118607354.22009  22570197.500    92421375.06546
  21122664.680   111000355.14508  21122660.720    86493770.08448
  24093514.160   126612318.12208  24093516.280    98658971.37445
  24424438.660   128351259.60508  24424438.920   100013962.73945
  23374511.880   122833901.67608  23374511.580    95714730.31747
  23468650.540   123328576.18408  23468648.440    96100178.15347
  22662892.100   119094276.36909  22662889.160    92800715.74347
 15 02 20 00 23 30.0000000  0  8G16G18G21G22G25G27G29G31
  22114800.840   116214074.24009  22114797.180    90556414.23047
  22557926.260   118542856.00909  22557923.840    92371116.73747
  21128676.300   111031946.53408  21128672.420    86518386.75348
  24075449.800   126517391.47408  24075451.700    98585003.02446
  24443395.480   128450877.00508  24443395.640   100091586.52445
  23361742.760   122766799.89608  23361742.500    95662443.24747
  23481844.160   123397908.32308  23481842.240    96154203.18147
  22678944.900   119178634.75209  22678942.160    92866449.44747
 15 02 20 00 24  0.0000000  0  8G16G18G21G22G25G27G29G31
  22099939.640   116135978.32809  22099936.020    90495560.27447
  22545704.480   118478629.91209  22545702.020    92321070.46046
  21134752.900   111063879.18309  21134749.020    86543269.34048
  24057381.400   126422443.08308  24057383.100    98511017.74445
  24462382.680   128550654.93108  24462382.900   100169335.42445
  23348988.360   122699774.88008  23348988.020    95610215.97447
  23495044.820   123467278.00509  23495042.980    96208257.43347
  22695041.940   119263225.63309  22695039.380    92932364.32147
 15 02 20 00 24 30.0000000  0  8G16G18G21G22G25G27G29G31
  22085121.520   116058108.97309  22085117.960    90434882.86547
  22533535.500   118414681.37709  22533532.760    92271240.43546
  21140894.700   111096154.35509  21140890.780    86568418.82148
  24039309.740   126327478.60208  24039311.520    98437019.95945
  24481400.440   128650594.98008  24481401.140   100247210.59045
  23336249.100   122632829.68308  23336248.840    95558050.89947
  23508252.920   123536687.94808  23508251.340    96262343.05646
  22711183.280   119348049.24409  22711180.920    92998460.52947
 15 02 20 00 25  0.0000000  0  8G16G18G21G22G25G27G29G31
  22070346.140   115980464.20309  22070342.660    90374380.46547
  22521419.000   118351008.55609  22521416.160    92221625.28247
  21147100.540   111128766.32709  21147096.620    86593830.74948
  24021234.700   126232496.35308  24021236.560    98363008.32245
  24500447.880   128750691.29608  24500448.860   100325207.58045
  23323524.140   122565959.91108  23323524.020    95505944.61047
  23521468.020   123606134.14308  23521466.600    96316456.97447
  22727367.520   119433098.04709  22727365.360    93064732.22347
 15 02 20 00 25 30.0000000  0  8G16G18G21G22G25G27G29G31
  22055614.060   115903046.42609  22055610.560    90314054.94447
  22509355.440   118287614.17309  22509352.580    92172227.07846
  21153370.180   111161713.84409  21153366.340    86619504.14748
  24003156.860   126137499.24008  24003158.680    98288985.12446
  24519524.680   128850942.67908  24519526.160   100403325.34945
  23310813.500   122499165.74108  23310813.480    95453897.24547
  23534690.240   123675616.84009  23534688.820    96370599.32146
  22743594.180   119518369.46809  22743592.160    93131177.37447
 15 02 20 00 26  0.0000000  0  8G16G18G21G22G25G27G29G31
  22040926.160   115825860.26309  22040922.560    90253909.87547
  22497345.800   118224503.31209  22497343.000    92123049.81246
  21159703.680   111194996.94009  21159699.940    86645439.02948
  23985077.040   126042491.70708  23985078.760    98214953.81445
  24538631.260   128951349.97508  24538633.280   100481564.58345
  23298117.740   122432449.55008  23298117.680    95401910.62847
  23547919.280   123745137.98208  23547918.700    96424771.57047
  22759863.200   119603863.21509  22759861.240    93197795.76347
 15 02 20 00 26 30.0000000  0  8G16G18G21G22G25G27G29G31
  22026282.020   115748903.92409  22026278.280    90193943.89847
  22485389.740   118161673.88509  22485387.000    92074091.83146
  21166100.200   111228610.79309  21166096.500    86671631.63548
  23966995.060   125947472.52808  23966996.740    98140913.43445
  24557766.380   129051907.41707  24557768.700   100559920.82245
  23285436.060   122365806.99508  23285435.940    95349981.40146
  23561155.140   123814693.73908  23561154.460    96478970.89647
  22776173.140   119689571.68209  22776171.180    93264581.46347
 15 02 20 00 27  0.0000000  0  8G16G18G21G22G25G27G29G31
  22011682.820   115672183.68709  22011678.960    90134161.89448
  22473488.440   118099132.59909  22473485.760    92025358.37646
  21172560.180   111262557.77509  21172556.420    86698083.83648
  23948912.160   125852448.41508  23948913.920    98066869.23646
  24576930.720   129152617.82508  24576933.300   100638396.23445
  23272769.280   122299242.42508  23272769.040    95298112.91947
  23574398.340   123884288.49108  23574398.000    96533200.53047
  22792524.300   119775496.63509  22792522.320    93331535.84347
 15 02 20 00 27 30.0000000  0  8G16G18G21G22G25G27G29G31
  21997127.880   115595696.23609  21997123.900    90074561.28548
  22461641.340   118036876.33509  22461638.820    91976847.02746
  21179082.120   111296830.22609  21179078.240    86724789.63748
  23930827.740   125757416.35908  23930829.260    97992818.86346
  24596123.000   129253473.86108  24596125.600   100716985.10945
  23260116.200   122232749.91708  23260115.940    95246300.60247
  23587648.040   123953916.03708  23587647.540    96587455.76947
  22808914.960   119861628.89209  22808912.880    93398651.75247
 15 02 20 00 28  0.0000000  0  8G16G18G21G22G25G27G29G31
  21982618.260   115519447.26909  21982614.280    90015146.51647
  22449849.620   117974911.14609  22449847.300    91928562.48247
  21185666.300   111331430.12809  21185662.340    86751750.59848
  23912743.000   125662382.35008  23912744.540    97918766.99945
  24615343.660   129354477.60308  24615345.900   100795689.08845
  23247477.440   122166332.99008  23247477.240    95194547.16346
  23600904.940   124023580.28508  23600904.440    96641739.58047
  22825345.140   119947969.21409  22825343.020    93465929.79447
 15 02 20 00 28 30.0000000  0  8G16G18G21G22G25G27G29G31
  21968155.080   115443442.78509  21968151.160    89955922.25448
  22438114.480   117913242.92909  22438112.360    91880509.35247
  21192313.080   111366359.44309  21192309.100    86778968.24348
  23894659.000   125567352.40408  23894660.460    97844718.27146
  24634593.020   129455631.15508  24634594.840   100874509.79245
  23234853.680   122099995.33808  23234853.640    95142855.51947
  23614169.400   124093284.82808  23614168.800    96696054.74747
  22841815.000   120034518.34309  22841812.820    93533370.52847
 15 02 20 00 29  0.0000000  0  8G16G18G21G22G25G27G29G31
  21953737.320   115367677.85609  21953733.580    89896884.65648
  22426435.040   117851866.96809  22426433.080    91832683.94947
  21199020.940   111401609.77408  21199016.940    86806436.03448
  23876574.960   125472322.43908  23876576.440    97770669.55046
  24653869.180   129556925.91908  24653870.660   100953440.52745
  23222243.760   122033729.81108  23222243.660    95091220.06346
  23627440.240   124163022.33308  23627439.500    96750395.63147
  22858322.660   120121266.27909  22858320.500    93600966.17047
 15 02 20 00 29 30.0000000  0  8G16G18G21G22G25G27G29G31
  21939365.840   115292156.10209  21939362.280    89838036.55048
  22414811.860   117790786.49509  22414809.960    91785088.79647
  21205789.760   111437180.38108  21205785.720    86834153.38848
  23858491.560   125377295.68008  23858492.820    97696623.32546
  24673172.180   129658361.52208  24673173.500   101032480.96645
  23209647.880   121967537.57108  23209647.600    95039641.71946
  23640717.860   124232794.31108  23640716.620    96804763.40846
  22874867.800   120208211.15908  22874865.700    93668715.29148
 15 02 20 00 30  0.0000000  0  8G16G18G21G22G25G27G29G31
  21925042.660   115216888.00309  21925039.240    89779386.08348
  22403247.020   117730012.45209  22403245.220    91737732.41647
  21212620.820   111473077.64909  21212616.700    86862125.28148
  23840410.880   125282283.24108  23840412.160    97622588.28446
  24692503.340   129759944.36908  24692504.420   101111636.16745
  23197067.520   121901426.58908  23197067.020    94988126.68547
  23654003.120   124302608.77408  23654001.820    96859164.21547
  22891451.380   120295358.11909  22891449.340    93736621.85747
 15 02 20 00 30 30.0000000  0  8G16G18G21G22G25G27G29G31
  21910766.560   115141867.00409  21910763.180    89720928.17248
  22391739.360   117669538.51509  22391737.400    91690609.88947
  21219512.140   111509291.68009  21219508.020    86890344.00748
  23822331.920   125187279.43608  23822333.020    97548559.95646
  24711860.620   129861664.63408  24711861.440   101190898.40345
  23184500.960   121835388.56308  23184500.440    94936668.50747
  23667295.240   124372457.08408  23667293.760    96913591.45747
  22908071.260   120382695.73609  22908069.260    93804676.97447
 15 02 20 00 31  0.0000000  0  8G16G18G21G22G25G27G29G31
  21896539.380   115067102.83909  21896536.000    89662670.38348
  22380290.720   117609374.93809  22380288.640    91643729.19247
  21226464.700   111545827.44809  21226460.580    86918813.44348
  23804256.480   125092293.71108  23804257.180    97474545.68246
  24731245.080   129963527.85608  24731245.740   101270271.99344
  23171949.460   121769430.50608  23171949.140    94885272.65947
  23680594.840   124442346.85408  23680592.960    96968050.98346
  22924728.260   120470228.10009  22924726.240    93872883.85147
 15 02 20 00 31 30.0000000  0  8G16G18G21G22G25G27G29G31
  21882360.000   114992589.64709  21882356.600    89604608.16248
  22368899.940   117549515.47009  22368897.800    91597085.48147
  21233476.740   111582675.76509  21233472.620    86947526.41348
  23786183.340   124997320.34608  23786183.880    97400541.06046
  24750654.860   130065524.20508  24750655.080   101349749.37144
  23159411.540   121703544.15308  23159411.360    94833932.66947
  23693900.860   124512269.81708  23693898.960    97022536.39147
  22941420.240   120557944.14309  22941418.160    93941233.84247
 15 02 20 00 32  0.0000000  0  8G16G18G21G22G25G27G29G31
  21868230.100   114918336.66309  21868226.680    89546748.69848
  22357568.780   117489969.60209  22357566.440    91550686.11847
  21240549.140   111619841.49409  21240545.020    86976486.72148
  23768114.460   124902369.21408  23768114.660    97326553.73946
  24770090.860   130167659.18607  24770090.740   101429334.75545
  23146888.640   121637736.58208  23146888.580    94782654.05847
  23707214.400   124582232.71608  23707212.640    97077052.87847
  22958147.960   120645847.92809  22958145.840    94009730.11347
 15 02 20 00 32 30.0000000  0  8G16G18G21G22G25G27G29G31
  21854149.580   114844343.26809  21854146.200    89489091.51348
  22346297.120   117430736.51309  22346294.680    91504530.49947
  21247681.160   111657320.71409  21247677.100    87005691.31448
  23750049.680   124807440.29108  23750049.520    97252583.73346
  24789552.340   130269928.47708  24789552.580   101509024.69045
  23134380.320   121572005.04508  23134380.280    94731434.71247
  23720534.860   124652233.10508  23720533.100    97131598.59246
  22974910.320   120733933.74409  22974908.160    94078368.24247
 15 02 20 00 33  0.0000000  0  8G16G18G21G22G25G27G29G31
  21840118.720   114770611.11609  21840115.480    89431637.90048
  22335085.260   117371817.93809  22335082.720    91458619.94047
  21254872.200   111695110.16009  21254868.180    87035137.64048
  23731989.360   124712535.12308  23731989.040    97178632.22746
  24809038.720   130372329.59508  24809039.140   101588817.37444
  23121886.320   121506348.62708  23121886.260    94680273.90147
  23733862.440   124722270.09408  23733860.440    97186172.88446
  22991706.540   120822197.58209  22991704.440    94147145.08747
 15 02 20 00 33 30.0000000  0  7G16G18G21G22G27G29G31
  21826139.540   114697150.52809  21826136.480    89374395.89248
  22323935.220   117313224.35309  22323932.560    91412962.62147
  21262123.580   111733216.63709  21262119.660    87064830.99948
  23713935.560   124617664.64308  23713935.020    97104707.72546
  23109408.200   121440775.49008  23109408.100    94629177.98747
  23747198.400   124792351.73908  23747196.580    97240781.89646
  23008537.600   120910644.65109  23008535.600    94216064.68247
 15 02 20 00 34  0.0000000  0  7G16G18G21G22G27G29G31
  21812210.120   114623951.23109  21812207.140    89317357.48548
  22312845.040   117254945.20109  22312842.200    91367550.31947
  21269432.540   111771625.69209  21269428.740    87094760.12848
  23695886.260   124522818.44408  23695885.840    97030802.17546
  23096943.460   121375272.80508  23096943.340    94578136.95347
  23760540.340   124862465.27608  23760538.760    97295415.78146
  23025400.480   120999259.26809  23025398.640    94285114.83747
 15 02 20 00 34 30.0000000  0  7G16G18G21G22G27G29G31
  21798331.220   114551017.22209  21798328.320    89260525.80048
  22301815.520   117196984.76609  22301812.600    91322386.36947
  21276799.140   111810337.50209  21276795.400    87124925.17948
  23677842.380   124428000.82808  23677842.060    96956918.86346
  23084492.520   121309842.30608  23084492.320    94527152.16247
  23773888.980   124932612.77108  23773886.800    97350076.15646
  23042294.980   121088040.09409  23042293.300    94354294.48647
 15 02 20 00 35  0.0000000  0  7G16G18G21G22G27G29G31
  21784504.600   114478357.40009  21784501.620    89203907.75248
  22290848.400   117139352.23009  22290845.320    91277477.91147
  21284224.400   111849357.44309  21284220.620    87155330.32648
  23659805.860   124333221.83808  23659805.720    96883065.61146
  23072056.680   121244491.11309  23072056.420    94476229.17647
  23787245.300   125002801.26608  23787243.120    97404768.47446
  23059221.940   121176991.27609  23059220.460    94423606.89247
 15 02 20 00 35 30.0000000  0  7G16G18G21G22G27G29G31
  21770730.220   114405972.03409  21770727.160    89147503.58248
  22279943.660   117082047.70709  22279940.500    91232825.06747
  21291707.520   111888681.52509  21291703.700    87185972.46848
  23641776.800   124238482.01208  23641776.800    96809242.87946
  23059635.540   121179217.06408  23059635.220    94425366.28247
  23800609.040   125073028.70108  23800607.140    97459491.08546
  23076180.340   121266107.73609  23076179.020    94493048.05447
 15 02 20 00 36  0.0000000  0  7G16G18G21G22G27G29G31
  21757007.720   114333859.23009  21757004.640    89091311.79048
  22269100.920   117025069.13109  22269097.840    91188426.19147
  21299247.360   111928303.45709  21299243.420    87216846.69548
  23623754.760   124143778.96308  23623754.940    96735448.79546
  23047228.100   121114015.46108  23047227.780    94374559.86147
  23813979.480   125143290.34108  23813977.260    97514240.40846
  23093168.760   121355381.66609  23093167.600    94562611.92447
 15 02 20 00 36 30.0000000  0  7G16G18G21G22G27G29G31
  21743338.340   114262025.61909  21743335.220    89035337.55948
  22258321.460   116968422.82609  22258318.300    91144286.22947
  21306844.320   111968225.44709  21306840.240    87247954.73248
  23605741.200   124049119.66308  23605741.380    96661688.80146
  23034835.240   121048890.82908  23034834.960    94323813.42747
  23827357.200   125213590.71008  23827354.640    97569019.87446
  23110187.420   121444814.43209  23110186.420    94632299.49747
 15 02 20 00 37  0.0000000  0  7G16G18G21G22G27G29G31
  21729722.180   114190471.76409  21729719.000    88979581.31148
  22247605.540   116912110.08909  22247602.380    91100406.20847
  21314497.760   112008444.33509  21314493.580    87279294.12848
  23587736.520   123954506.10208  23587736.520    96587964.42146
  23022456.780   120983841.83708  23022456.520    94273125.93047
  23840742.120   125283928.71108  23840739.900    97623828.68346
  23127235.560   121534401.72709  23127234.540    94702107.46247
 15 02 20 00 37 30.0000000  0  7G16G18G21G22G27G29G31
  21716159.940   114119201.21509  21716156.660    88924045.82148
  22236953.820   116856134.36609  22236950.540    91056788.77747
  21322207.780   112048960.67209  21322203.580    87310865.30148
  23569741.300   123859941.88808  23569741.000    96514278.48446
  23010092.980   120918869.66409  23010092.660    94222498.27448
  23854134.340   125354305.44108  23854132.640    97678667.62246
  23144312.900   121624142.28009  23144311.900    94772034.87947
 15 02 20 00 38  0.0000000  0  7G16G18G21G22G27G29G31
  21702651.800   114048215.36809  21702648.480    88868732.17848
  22226366.340   116800495.81609  22226362.860    91013434.08147
  21329973.720   112089771.16409  21329969.540    87342665.67948
  23551755.740   123765428.01308  23551755.120    96440631.75246
  22997743.560   120853972.78709  22997743.100    94171929.29047
  23867533.700   125424719.06208  23867531.940    97733535.36846
  23161418.520   121714031.36709  23161417.440    94842078.08447
 15 02 20 00 38 30.0000000  0  7G16G18G21G22G27G29G31
  21689198.120   113977515.81609  21689194.740    88813641.62648
  22215843.380   116745196.42109  22215839.760    90970343.66647
  21337795.080   112130873.00409  21337790.960    87374693.09048
  23533780.260   123670966.75908  23533779.500    96367026.03746
  22985408.440   120789150.96909  22985407.880    94121418.79247
  23880940.240   125495169.82808  23880938.420    97788432.04646
  23178551.720   121804065.47209  23178550.580    94912234.24947
 15 02 20 00 39  0.0000000  0  7G16G18G21G22G27G29G31
  21675799.900   113907107.86509  21675796.420    88758778.29048
  22205386.000   116690242.08509  22205382.320    90927522.12847
  21345672.180   112172267.96909  21345668.140    87406948.89748
  23515815.880   123576563.89808  23515814.860    96293465.74946
  22973088.140   120724407.15308  22973087.540    94070969.08847
  23894354.260   125565660.81808  23894352.940    97843360.02146
  23195712.400   121894244.36409  23195711.280    94982503.19847
 15 02 20 00 39 30.0000000  0  7G16G18G21G22G27G29G31
  21662457.540   113836993.81609  21662454.040    88704143.97848
  22194994.540   116635634.65909  22194990.940    90884970.90847
  21353604.660   112213954.12109  21353600.720    87439431.60948
  23497863.060   123482222.10708  23497861.920    96219953.08946
  22960782.580   120659741.48708  22960782.060    94020580.27247
  23907775.760   125636192.03908  23907774.660    97898319.39146
  23212900.060   121984565.24109  23212899.000    95052882.65447
 15 02 20 00 40  0.0000000  0  7G16G18G21G22G27G29G31
  21649171.460   113767175.25709  21649167.920    88649739.91048
  22184669.340   116581375.45109  22184665.860    90842691.02647
  21361592.040   112255928.63809  21361588.240    87472139.02548
  23479922.120   123387943.16609  23479920.620    96146489.37046
  22948491.640   120595153.09708  22948491.280    93970251.68747
  23921204.540   125706762.23108  23921203.700    97953309.14747
  23230114.120   122075024.60008  23230113.120    95123370.05647
 15 02 20 00 40 30.0000000  0  7G16G18G21G22G27G29G31
  21635941.540   113697651.86809  21635937.940    88595565.83548
  22174410.280   116527464.04509  22174406.920    90800682.16747
  21369633.460   112298186.85609  21369629.760    87505067.50448
  23461993.160   123293727.19808  23461991.400    96073074.68446
  22936214.940   120530639.46008  22936214.700    93919981.32847
  23934640.520   125777369.38708  23934640.100    98008327.63746
  23247353.440   122165616.78408  23247352.500    95193961.03146
 15 02 20 00 41  0.0000000  0  7G16G18G21G22G27G29G31
  21622767.840   113628423.89109  21622764.240    88541621.96548
  22164217.380   116473900.40109  22164214.080    90758944.26447
  21377728.540   112340726.47109  21377724.820    87538215.25048
  23444076.260   123199574.80809  23444074.340    95999709.52646
  22923952.100   120466198.67308  22923951.980    93869767.73047
  23948083.500   125848011.75908  23948083.040    98063373.64546
  23264617.120   122256336.77108  23264616.260    95264651.59447
 15 02 20 00 41 30.0000000  0  7G16G18G21G22G27G29G31
  21609652.200   113559500.95309  21609648.620    88487915.79248
  22154092.520   116420694.16009  22154089.340    90717484.88047
  21385878.100   112383552.11709  21385874.320    87571585.88548
  23426173.300   123105495.81308  23426171.340    95926401.58246
  22911704.480   120401837.88308  22911704.520    93819616.50147
  23961534.500   125918696.39008  23961533.980    98118452.54546
  23281905.860   122347188.62008  23281905.120    95335444.95347
 15 02 20 00 42  0.0000000  0  7G16G18G21G22G27G29G31
  21596594.460   113490882.60009  21596590.980    88434446.93948
  22144035.540   116367844.49509  22144032.460    90676303.34547
  21394081.160   112426658.67409  21394077.320    87605175.40648
  23408284.280   123011490.03908  23408282.020    95853150.65346
  22899471.580   120337554.33008  22899471.760    93769525.43447
  23974993.020   125989420.54608  23974992.020    98173562.25146
  23299218.620   122438166.73408  23299218.040    95406336.72447
 15 02 20 00 42 30.0000000  0  7G16G18G21G22G27G29G31
  21583594.760   113422569.08509  21583591.340    88381215.64848
  22134046.600   116315352.07109  22134043.520    90635400.17547
  21402337.140   112470043.51909  21402333.280    87638981.77148
  23390409.500   122917558.70808  23390407.040    95779957.73046
  22887253.140   120273346.33608  22887253.440    93719493.25647
  23988458.540   126060182.43908  23988457.480    98228701.36446
  23316554.480   122529266.21109  23316554.000    95477323.03547
 15 02 20 00 43  0.0000000  0  7G16G18G21G22G27G29G31
  21570653.660   113354563.65309  21570650.420    88328224.41248
  22124126.180   116263219.93309  22124123.140    90594777.74647
  21410645.780   112513705.36209  21410641.860    87673003.98448
  23372549.520   122823705.21509  23372547.020    95706825.45946
  22875049.420   120209214.95008  22875049.660    93669520.75947
  24001931.600   126130983.39608  24001930.500    98283870.92046
  23333913.080   122620485.08408  23333912.640    95548402.37847
 15 02 20 00 43 30.0000000  0  7G16G18G21G22G27G29G31
  21557771.320   113286866.71809  21557768.220    88275473.56748
  22114274.220   116211447.82309  22114271.220    90554435.86947
  21419006.400   112557640.45909  21419002.460    87707239.12548
  23354704.540   122729930.04209  23354701.960    95633754.17846
  22862860.000   120145158.02208  22862859.940    93619606.29147
  24015411.560   126201821.03708  24015410.620    98339069.01746
  23351293.360   122711817.79508  23351292.960    95619570.40647
 15 02 20 00 44  0.0000000  0  7G16G18G21G22G27G29G31
  21544948.560   113219482.65609  21544945.540    88222966.51748
  22104491.540   116160040.02409  22104488.640    90514377.85547
  21427419.040   112601849.06509  21427415.080    87741687.38948
  23336875.440   122636238.22209  23336872.880    95560747.86046
  22850685.200   120081177.88708  22850684.820    93569751.64847
  24028899.020   126272697.77908  24028897.800    98394297.64646
  23368695.300   122803264.14608  23368694.940    95690826.95747
 15 02 20 00 44 30.0000000  0  7G16G18G21G22G27G29G31
  21532185.980   113152414.49409  21532182.960    88170705.61748
  22094778.580   116108999.05709  22094775.880    90474605.70847
  21435883.660   112646330.79609  21435879.640    87776348.47448
  23319062.800   122542633.18209  23319060.240    95487809.12846
  22838525.100   120017275.30009  22838524.560    93519957.43647
  24042394.180   126343614.58008  24042392.660    98449557.45946
  23386118.460   122894821.73309  23386118.120    95762170.19247
 15 02 20 00 45  0.0000000  0  7G16G18G21G22G27G29G31
  21519484.100   113085664.96509  21519481.000    88118693.01848
  22085135.960   116058327.47509  22085133.300    90435121.37547
  21444399.680   112691083.17009  21444395.720    87811220.44948
  23301267.180   122449117.51109  23301264.540    95414940.05046
  22826379.680   119953450.49709  22826379.120    93470223.84347
  24055896.940   126414571.58208  24055895.200    98504848.61746
  23403562.280   122986487.66809  23403561.800    95833597.85546
 15 02 20 00 45 30.0000000  0  7G16G18G21G22G27G29G31
  21506842.920   113019234.24309  21506839.660    88066928.81748
  22075563.780   116008025.84209  22075561.240    90395925.30947
  21452966.580   112736103.31308  21452962.800    87846301.06648
  23283488.760   122355692.36309  23283486.000    95342141.46946
  22814248.760   119889701.69109  22814248.160    93420549.46348
  24069406.960   126485567.08208  24069405.380    98560169.75546
  23421025.800   123078256.99909  23421025.220    95905106.07547
 15 02 20 00 46  0.0000000  0  7G16G18G21G22G27G29G31
  21494263.580   112953128.44809  21494260.140    88015417.82048
  22066063.100   115958099.71509  22066060.540    90357021.86347
  21461584.820   112781393.25309  21461581.180    87881591.93148
  23265728.720   122262363.87109  23265725.920    95269418.23746
  22802133.040   119826032.80908  22802132.340    93370937.37147
  24082925.020   126556604.88808  24082923.700    98615523.88946
  23438509.200   123170130.70308  23438508.460    95976695.59346
 15 02 20 00 46 30.0000000  0  7G16G18G21G22G27G29G31
  21481745.860   112887346.73209  21481742.220    87964159.35048
  22056633.660   115908547.68409  22056631.120    90318409.89447
  21470253.420   112826947.52909  21470249.880    87917088.76748
  23247987.060   122169131.89009  23247984.200    95196770.16646
  22790031.840   119762440.53108  22790031.060    93321384.96147
  24096450.540   126627681.83108  24096449.360    98670908.48746
  23456011.280   123262102.53108  23456010.500    96048361.57647
 15 02 20 00 47  0.0000000  0  7G16G18G21G22G27G29G31
  21469290.620   112821893.71509  21469286.840    87913157.00548
  22047276.320   115859374.48309  22047273.800    90280093.12947
  21478972.540   112872767.00609  21478968.940    87952792.26248
  23230264.700   122076001.47109  23230261.820    95124201.24146
  22777945.660   119698927.60008  22777944.880    93271894.38847
  24109983.940   126698800.50408  24109982.920    98726325.63546
  23473531.860   123354171.84008  23473531.020    96120103.46347
 15 02 20 00 47 30.0000000  0  7G16G18G21G22G27G29G31
  21456897.960   112756770.02309  21456894.200    87862411.28148
  22037991.120   115810580.32809  22037988.600    90242071.74047
  21487741.520   112918847.99409  21487737.780    87988699.52148
  23212561.800   121982973.54908  23212559.140    95051712.19947
  22765874.260   119635492.30908  22765873.580    93222464.32647
  24123524.980   126769959.14108  24123524.080    98781773.89146
  23491070.100   123446333.99608  23491069.200    96191917.67947
 15 02 20 00 48  0.0000000  0  7G16G18G21G22G27G29G31
  21444568.080   112691976.51509  21444564.360    87811922.83848
  22028778.200   115762165.94909  22028775.640    90204346.25447
  21496559.720   112965187.44609  21496555.840    88024808.17348
  23194878.760   121890049.40109  23194876.160    94979303.98347
  22753817.420   119572133.50508  22753816.820    93173093.86048
  24137073.520   126841156.84708  24137072.560    98837252.63646
  23508625.160   123538584.94208  23508624.360    96263801.06446
 15 02 20 00 48 30.0000000  0  7G16G18G21G22G27G29G31
  21432302.060   112627518.88609  21432298.460    87761696.12648
  22019638.440   115714136.30409  22019635.900    90166920.58347
  21505427.480   113011787.06709  21505423.420    88061119.57248
  23177216.620   121797234.87209  23177214.000    94906981.19247
  22741775.680   119508854.34908  22741775.160    93123785.46447
  24150630.060   126912396.84608  24150629.140    98892764.30146
  23526197.000   123630924.28408  23526196.360    96335753.31546
 15 02 20 00 49  0.0000000  0  7G16G18G21G22G27G29G31
  21420099.960   112563396.80109  21420096.380    87711730.86848
  22010571.800   115666490.87609  22010569.300    90129794.28247
  21514343.780   113058642.07209  21514339.640    88097629.95548
  23159575.420   121704530.13209  23159572.680    94834743.93347
  22729748.700   119445652.40508  22729748.100    93074537.21047
  24164194.100   126983676.39208  24164193.320    98948306.77146
  23543784.720   123723347.03408  23543784.340    96407770.52446
 15 02 20 00 49 30.0000000  0  7G16G18G21G22G27G29G31
  21407962.580   112499614.88309  21407959.040    87662030.67848
  22001579.060   115619234.14509  22001576.740    90092970.87747
  21523308.960   113105754.16909  21523304.820    88134340.67048
  23141956.100   121611940.41409  23141953.200    94762596.28347
  22717736.880   119382530.24608  22717736.160    93025351.14547
  24177766.080   127054998.13208  24177765.240    99003882.14746
  23561388.200   123815852.65308  23561387.960    96479852.34446
 15 02 20 00 50  0.0000000  0  7G16G18G21G22G27G29G31
  21395889.980   112436173.05209  21395886.440    87612595.49348
  21992660.180   115572365.56809  21992657.860    90056449.91747
  21532322.040   113153118.31109  21532318.040    88171247.79748
  23124358.680   121519465.79209  23124355.680    94690538.32947
  22705739.800   119319485.53608  22705738.960    92976225.41147
  24191345.800   127126359.95308  24191344.960    99059488.72646
  23579006.380   123908435.35608  23579006.320    96551994.16046
 15 02 20 00 50 30.0000000  0  7G16G18G21G22G27G29G31
  21383882.180   112373071.74509  21383878.600    87563425.64548
  21983815.040   115525884.53009  21983812.740    90020230.94947
  21541382.300   113200730.57209  21541378.420    88208348.25848
  23106783.300   121427106.92509  23106780.120    94618570.56347
  22693757.120   119256516.33708  22693756.200    92927158.52247
  24204932.760   127197759.80008  24204931.800    99115124.93546
  23596638.340   124001090.32008  23596638.480    96624192.31446
 15 02 20 00 51  0.0000000  0  7G16G18G21G22G27G29G31
  21371940.440   112310317.57509  21371936.860    87514526.29048
  21975045.120   115479798.39409  21975042.740    89984319.67847
  21550490.400   113248594.42309  21550486.680    88245644.76248
  23089231.420   121334871.62009  23089227.980    94546699.05447
  22681789.820   119193627.66508  22681788.860    92878154.35947
  24218528.020   127269202.49608  24218526.900    99170794.52546
  23614284.520   124093819.90108  23614284.780    96696448.63147
 15 02 20 00 51 30.0000000  0  7G16G18G21G22G27G29G31
  21360064.660   112247909.84809  21360061.020    87465896.90148
  21966350.120   115434105.70309  21966347.640    89948715.00447
  21559645.340   113296704.63009  21559641.780    88283133.23748
  23071702.840   121242758.91709  23071699.240    94474923.10047
