     2.11           OBSERVATION DATA    G                   RINEX VERSION / TYPE
SPIDER V4,0,0,3554                      2015 03 31 02:36    PGM / RUN BY / DATE 
EADB                                                        MARKER NAME         
EADB                                                        MARKER NUMBER       
                                                            OBSERVER / AGENCY   
462408              LEICA GRX1200PRO    3.00/2.127          REC # / TYPE / VERS 
103310              LEIAT504                                ANT # / TYPE        
  5238464.6656   142765.3090  3625629.6523                  APPROX POSITION XYZ 
        0.0770        0.0000        0.0000                  ANTENNA: DELTA H/E/N
     1     1                                                WAVELENGTH FACT L1/2
     4    C1    L1    P2    L2                              # / TYPES OF OBSERV 
    30.000                                                  INTERVAL            
  2015    02    20    00    00    0.0000000     GPS         TIME OF FIRST OBS   
  2015    02    20    23    59   30.0000000     GPS         TIME OF LAST OBS    
    16                                                      LEAP SECONDS        
    29                                                      # OF SATELLITES     
   G 1   835   835   835   835                              PRN / # OF OBS      
   G 2   925   925   925   925                              PRN / # OF OBS      
   G 3   845   845   845   845                              PRN / # OF OBS      
   G 4   848   848   848   848                              PRN / # OF OBS      
   G 5   674   674   674   674                              PRN / # OF OBS      
   G 6   727   727   727   727                              PRN / # OF OBS      
   G 7   649   649   649   649                              PRN / # OF OBS      
   G 9   787   787   787   787                              PRN / # OF OBS      
   G10   785   785   785   785                              PRN / # OF OBS      
   G12   818   818   818   818                              PRN / # OF OBS      
   G13   821   821   821   821                              PRN / # OF OBS      
   G14   930   930   930   930                              PRN / # OF OBS      
   G15   732   732   732   732                              PRN / # OF OBS      
   G16   694   694   694   694                              PRN / # OF OBS      
   G17   929   929   929   929                              PRN / # OF OBS      
   G18   935   935   935   935                              PRN / # OF OBS      
   G19   783   783   783   783                              PRN / # OF OBS      
   G20   813   813   813   813                              PRN / # OF OBS      
   G21   706   706   706   706                              PRN / # OF OBS      
   G22   758   758   756   756                              PRN / # OF OBS      
   G23   731   731   731   731                              PRN / # OF OBS      
   G24   842   842   842   842                              PRN / # OF OBS      
   G25   858   858   858   858                              PRN / # OF OBS      
   G27   834   834   834   834                              PRN / # OF OBS      
   G28   907   907   907   907                              PRN / # OF OBS      
   G29   748   748   748   748                              PRN / # OF OBS      
   G30   695   695   695   695                              PRN / # OF OBS      
   G31   779   779   779   779                              PRN / # OF OBS      
   G32   746   746   745   745                              PRN / # OF OBS      
BIT 2 OF LLI FLAGS DATA COLLECTED UNDER A/S CONDITION       COMMENT             
SNR is mapped to RINEX snr flag value [2-9]                 COMMENT             
Lx:     = 25dBHz -> 1; 26-27dBHz -> 2; 28-31dBHz -> 3       COMMENT             
       32-35dBHz -> 4; 36-38dBHz -> 5; 39-41dBHz -> 6       COMMENT             
       42-44dBHz -> 7; 45-48dBHz -> 8; >=49dBHz -> 9        COMMENT             
                                                            END OF HEADER       
 15 02 20 00 00  0.0000000  0  7G16G18G21G25G27G29G31
  22505830.786   118268951.28008  22505829.032    92157617.99147
  23523117.169   123614934.55507  23523118.451    96323380.10445
  21032551.506   110526812.00309  21032549.351    86124784.10549
  24032039.241   126289198.75207  24032042.477    98407170.63345
  23460896.612   123287858.41307  23460898.010    96068483.83146
  23286919.906   122373580.87408  23286919.258    95356031.61246
  21779903.831   114454154.79009  21779902.690    89185045.00248
 15 02 20 00 00 30.0000000  0  7G16G18G21G25G27G29G31
  22490601.644   118188921.63108  22490600.043    92095257.23446
  23509573.972   123543764.72807  23509575.215    96267923.28445
  21035766.304   110543706.37809  21035764.108    86137948.56049
  24049103.554   126378871.94407  24049106.825    98477045.75546
  23447880.646   123219458.29907  23447882.088    96015185.05546
  23301072.700   122447954.05908  23301072.024    95413984.72946
  21793730.101   114526812.80009  21793728.992    89241661.58348
 15 02 20 00 01  0.0000000  0  7G16G18G21G25G27G29G31
  22475397.747   118109024.64108  22475395.954    92032999.84147
  23496054.841   123472721.78207  23496056.036    96212565.31845
  21039063.088   110561031.66009  21039060.940    86151448.78549
  24066205.380   126468740.58507  24066208.124    98547073.21545
  23434888.979   123151187.88307  23434890.644    95961987.35646
  23315229.219   122522347.09608  23315228.829    95471953.29246
  21807628.520   114599848.76409  21807627.264    89298572.68548
 15 02 20 00 01 30.0000000  0  7G16G18G21G25G27G29G31
  22460218.640   118029257.18008  22460216.750    91970843.38347
  23482559.450   123401803.74007  23482560.462    96157304.66945
  21042440.768   110578781.67709  21042438.612    86165279.97549
  24083342.958   126558799.00607  24083345.474    98617248.54644
  23421921.297   123083042.15807  23421922.820    95908886.81746
  23329388.508   122596754.84908  23329388.207    95529933.32846
  21821597.239   114673254.94009  21821596.196    89355772.25348
 15 02 20 00 02  0.0000000  0  7G16G18G21G25G27G29G31
  22445064.868   117949623.97408  22445062.972    91908791.53746
  23469088.901   123331016.71407  23469090.032    96102146.10345
  21045899.735   110596958.51409  21045897.619    86179443.74949
  24100516.775   126649049.08807  24100519.917    98687573.17645
  23408977.613   123015023.98207  23408979.328    95855885.66246
  23343551.267   122671179.71308  23343550.949    95587926.70246
  21835636.741   114747032.14409  21835635.322    89413260.93748
 15 02 20 00 02 30.0000000  0  7G16G18G21G25G27G29G31
  22429936.352   117870122.11708  22429934.416    91846842.03647
  23455642.822   123260357.93907  23455643.470    96047087.46244
  21049438.818   110615556.08209  21049436.734    86193935.36649
  24117726.096   126739485.02707  24117729.463    98758042.64145
  23396057.630   122947128.32707  23396059.107    95802979.98646
  23357716.170   122745616.06108  23357715.949    95645929.03947
  21849745.088   114821172.35309  21849743.949    89471032.47148
 15 02 20 00 03  0.0000000  0  7G16G18G21G25G27G29G31
  22414833.643   117790757.75208  22414831.721    91784999.68347
  23442222.995   123189834.08308  23442223.275    95992133.94345
  21053058.354   110634577.15209  21053056.172    86208756.98349
  24134971.850   126830110.16907  24134974.965    98828659.55646
  23383161.584   122879359.43007  23383163.219    95750173.07346
  23371883.677   122820067.97008  23371883.386    95703943.48346
  21863922.989   114895677.69409  21863921.893    89529088.53148
 15 02 20 00 03 30.0000000  0  7G16G18G21G25G27G29G31
  22399756.802   117711528.63608  22399754.883    91723262.70847
  23428828.211   123119444.02007  23428828.548    95937284.67945
  21056757.455   110654016.65209  21056755.448    86223904.65249
  24152252.382   126920919.47707  24152255.100    98899419.97745
  23370288.988   122811713.10407  23370290.383    95697461.68146
  23386053.715   122894531.33608  23386053.105    95761966.86046
  21878169.209   114970541.46209  21878167.762    89587423.88948
 15 02 20 00 04  0.0000000  0  7G16G18G21G25G27G29G31
  22384706.820   117632440.91908  22384704.922    91661635.91446
  23415459.709   123049195.43807  23415460.798    95882545.69845
  21060536.854   110673877.52709  21060534.857    86239380.66849
  24169568.262   127011916.41506  24169571.315    98970326.57745
  23357440.376   122744193.69307  23357441.987    95644849.17846
  23400226.312   122969009.93108  23400226.063    95820002.09946
  21892483.922   115045765.56709  21892482.817    89646040.02148
 15 02 20 00 04 30.0000000  0  7G16G18G21G25G27G29G31
  22369683.830   117553494.98008  22369682.102    91600119.60246
  23402118.967   122979089.27507  23402119.759    95827917.65645
  21064396.030   110694157.26209  21064394.100    86255183.06049
  24186919.794   127103098.61007  24186922.706    99041377.56144
  23344615.690   122676799.60707  23344617.319    95592334.33846
  23414401.668   123043501.99207  23414401.455    95878047.83546
  21906866.369   115121345.80609  21906865.297    89704933.65448
 15 02 20 00 05  0.0000000  0  7G16G18G21G25G27G29G31
  22354688.076   117474691.16408  22354686.436    91538714.04247
  23388805.568   122909126.23307  23388806.057    95773401.11745
  21068334.363   110714853.15209  21068332.224    86271309.73849
  24204306.328   127194463.30807  24204309.130    99112570.74945
  23331814.675   122609529.00407  23331816.133    95539915.71546
  23428579.451   123118005.30708  23428579.325    95936102.34146
  21921316.036   115197278.00309  21921314.633    89764101.55048
 15 02 20 00 05 30.0000000  0  7G16G18G21G25G27G29G31
  22339719.812   117396032.94108  22339718.007    91477421.92247
  23375519.886   122839310.75507  23375520.214    95718999.55945
  21072351.839   110735965.82209  21072349.939    86287761.17149
  24221727.138   127286011.56406  24221730.459    99183906.92845
  23319037.196   122542383.80707  23319038.749    95487594.80946
  23442759.492   123192521.26808  23442759.185    95994166.68446
  21935832.231   115273561.34309  21935830.957    89823543.06348
 15 02 20 00 06  0.0000000  0  7G16G18G21G25G27G29G31
  22324779.645   117317521.36008  22324777.873    91416244.07447
  23362262.921   122769645.24607  23362263.332    95664714.87645
  21076448.507   110757493.20509  21076446.311    86304535.75749
  24239182.854   127377741.53406  24239185.995    99255384.71245
  23306283.792   122475363.06307  23306285.099    95435370.86746
  23456941.636   123267049.43808  23456941.397    96052240.56746
  21950414.725   115350192.58309  21950413.421    89883255.66248
 15 02 20 00 06 30.0000000  0  7G16G18G21G25G27G29G31
  22309868.212   117239161.40808  22309866.387    91355184.37647
  23349035.358   122700135.14907  23349036.037    95610551.28345
  21080624.118   110779436.65709  21080622.050    86321634.55449
  24256673.450   127469655.17306  24256676.347    99327005.62344
  23293554.167   122408469.58707  23293555.860    95383246.10446
  23471126.443   123341591.82008  23471126.158    96110325.51146
  21965063.344   115427171.97509  21965062.286    89943239.53448
 15 02 20 00 07  0.0000000  0  7G16G18G21G25G27G29G31
  22294984.366   117160946.29908  22294982.570    91294237.53747
  23335836.248   122630774.26707  23335837.051    95556503.98246
  21084877.207   110801786.23009  21084874.957    86339049.81149
  24274197.506   127561742.55206  24274199.903    99398761.96945
  23280847.363   122341694.41307  23280848.895    95331213.51946
  23485312.557   123416139.32207  23485311.897    96168414.46146
  21979776.175   115504487.95309  21979774.923    90003485.69748
 15 02 20 00 07 30.0000000  0  7G16G18G21G25G27G29G31
  22280129.863   117082885.48508  22280128.054    91233410.93347
  23322667.571   122561572.86708  23322668.217    95502580.93645
  21089208.670   110824548.53309  21089206.488    86356786.67449
  24291755.794   127654010.47807  24291758.104    99470658.92744
  23268164.497   122275045.25107  23268166.008    95279279.12746
  23499500.945   123490699.39508  23499500.324    96226513.19646
  21994554.021   115582145.68109  21994552.829    90063998.15848
 15 02 20 00 08  0.0000000  0  7G16G18G21G25G27G29G31
  22265304.886   117004979.46008  22265303.099    91172704.93947
  23309529.557   122492532.26807  23309530.009    95448783.17145
  21093618.137   110847720.87909  21093616.192    86374843.04749
  24309347.850   127746456.48006  24309350.453    99542694.68945
  23255505.147   122208520.54407  23255506.530    95227441.70846
  23513691.442   123565270.58608  23513690.967    96284620.60046
  22009396.131   115660141.09109  22009394.906    90124773.73248
 15 02 20 00 08 30.0000000  0  7G16G18G21G25G27G29G31
  22250510.142   116927232.23808  22250508.333    91112122.69047
  23296422.980   122423657.79908  23296422.876    95395114.84045
  21098106.028   110871304.33909  21098103.799    86393219.76949
  24326973.590   127839082.05706  24326976.794    99614870.26644
  23242869.942   122142122.56007  23242871.597    95175703.05446
  23527884.409   123639854.50608  23527883.911    96342737.89846
  22024302.263   115738473.90508  22024301.412    90185812.22648
 15 02 20 00 09  0.0000000  0  7G16G18G21G25G27G29G31
  22235744.914   116849640.56908  22235743.045    91051661.64947
  23283347.673   122354946.34807  23283347.871    95341573.56845
  21102670.577   110895291.92409  21102668.577    86411911.39449
  24344632.674   127931880.45307  24344635.891    99687180.59545
  23230257.785   122075845.69807  23230259.261    95124058.77246
  23542078.612   123714445.35808  23542078.208    96400860.60846
  22039271.370   115817136.03308  22039270.294    90247107.32748
 15 02 20 00 09 30.0000000  0  7G16G18G21G25G27G29G31
  22221010.327   116772209.91508  22221008.574    90991326.07847
  23270304.432   122286404.24707  23270304.907    95288164.24645
  21107312.602   110919685.93009  21107310.511    86430919.71449
  24362325.296   128024854.52506  24362327.883    99759627.84645
  23217669.489   122009693.56807  23217670.942    95072511.67847
  23556274.502   123789046.95207  23556274.115    96458991.69446
  22054303.124   115896128.40008  22054301.929    90308659.76548
 15 02 20 00 10  0.0000000  0  7G16G18G21G25G27G29G31
  22206306.873   116694942.80708  22206304.996    90931117.94647
  23257294.042   122218034.62507  23257294.565    95234889.32345
  21112031.892   110944485.37309  21112029.620    86450243.95849
  24380051.309   128118003.54207  24380053.629    99832211.37544
  23205104.900   121943666.48707  23205106.644    95021062.04246
  23570472.780   123863659.22007  23570472.444    96517131.10046
  22069397.149   115975448.72308  22069396.236    90370467.74048
 15 02 20 00 10 30.0000000  0  7G16G18G21G25G27G29G31
  22191633.680   116617834.62508  22191631.920    90871033.65347
  23244315.640   122149833.88108  23244316.026    95181745.99945
  21116826.713   110969682.89109  21116824.687    86469878.39349
  24397808.983   128211320.00106  24397811.451    99904925.37445
  23192562.942   121877757.86907  23192564.448    94969704.68646
  23584672.029   123938275.62107  23584671.265    96575273.74346
  22084552.046   116055087.93309  22084551.369    90432524.19848
 15 02 20 00 11  0.0000000  0  7G16G18G21G25G27G29G31
  22176992.476   116540894.57908  22176990.772    90811080.37947
  23231371.451   122081811.89407  23231371.724    95128741.96345
  21121698.589   110995284.33509  21121696.450    86489827.57449
  24415599.490   128304810.18306  24415602.514    99977774.67646
  23180044.847   121811974.86507  23180046.389    94918445.23746
  23598873.297   124012902.97408  23598872.593    96633424.90046
  22099768.521   116135050.45908  22099767.579    90494832.59648
 15 02 20 00 11 30.0000000  0  7G16G18G21G25G27G29G31
  22162383.801   116464125.75508  22162382.021    90751260.51947
  23218462.026   122013972.50208  23218462.294    95075880.19446
  21126647.146   111021289.55509  21126645.111    86510091.38649
  24433423.211   128398474.24706  24433426.348   100050759.48745
  23167550.802   121746318.65307  23167552.285    94867284.56246
  23613076.682   124087542.10807  23613076.145    96691585.22746
  22115046.113   116215334.89908  22115045.003    90557391.84448
 15 02 20 00 12  0.0000000  0  7G16G18G21G25G27G29G31
  22147806.857   116387523.11508  22147805.117    90691570.15647
  23205586.740   121946311.32408  23205586.617    95023157.29345
  21131670.877   111047689.59109  21131668.756    86530662.84349
  24451278.862   128492304.01507  24451281.363   100123873.50845
  23155079.752   121680782.12407  23155081.072    94816217.15646
  23627280.593   124162185.63607  23627280.226    96749748.97146
  22130383.231   116295931.56208  22130382.462    90620194.36148
 15 02 20 00 12 30.0000000  0  7G16G18G21G25G27G29G31
  22133262.473   116311092.57808  22133260.765    90632013.90747
  23192746.208   121878834.81308  23192746.119    94970578.28745
  21136770.152   111074486.93309  21136768.113    86551543.89049
  24469166.006   128586302.53006  24469168.584   100197118.96944
  23142632.014   121615369.13007  23142633.337    94765246.00846
  23641486.350   124236837.51607  23641486.237    96807919.21246
  22145779.945   116376841.71408  22145779.543    90683241.14848
 15 02 20 00 13  0.0000000  0  7G16G18G21G25G27G29G31
  22118751.436   116234836.53608  22118749.779    90572593.62547
  23179941.619   121811546.24308  23179941.595    94918145.74745
  21141945.177   111101681.18409  21141943.122    86572734.21749
  24487085.012   128680469.00806  24487088.076   100270495.26344
  23130207.543   121550079.87707  23130209.173    94714371.29046
  23655693.709   124311497.88307  23655693.542    96866096.09646
  22161236.112   116458063.01208  22161235.206    90746530.40847
 15 02 20 00 13 30.0000000  0  7G16G18G21G25G27G29G31
  22104274.883   116158761.57908  22104273.153    90513314.44747
  23167173.957   121744452.66108  23167173.937    94865865.13345
  21147196.142   111129275.75809  21147194.134    86594236.48349
  24505036.864   128774806.90807  24505040.599   100344005.12345
  23117807.930   121484918.90607  23117809.461    94663596.51446
  23669903.965   124386171.18507  23669903.260    96924283.07746
  22176751.505   116539597.17408  22176750.609    90810063.45348
 15 02 20 00 14  0.0000000  0  8G16G18G21G22G25G27G29G31
  22089828.767   116082846.38408  22089826.898    90454159.76047
  23154439.778   121677533.69508  23154439.324    94813720.55345
  21152518.626   111157245.22109  21152516.416    86616030.87049
  24541657.932   128967277.70416  24541660.247   100493992.02355
  24523017.274   128869291.88607  24523020.877   100417629.60644
  23105428.231   121419862.87207  23105429.769    94612903.52446
  23684111.852   124460833.57507  23684111.009    96982461.52846
  22192321.519   116621418.30708  22192320.748    90873820.10248
 15 02 20 00 14 30.0000000  0  7G16G18G21G25G27G29G31
  22075419.107   116007123.73509  22075417.519    90395155.10947
  23141745.057   121610822.67408  23141744.614    94761738.02545
  21157917.815   111185618.99909  21157915.865    86638140.30349
  24541030.964   128963953.71106  24541034.360   100491391.90344
  23093074.392   121354942.47907  23093075.895    94562316.22646
  23698323.204   124535515.89107  23698322.839    97040655.50346
  22207951.521   116703554.55408  22207950.852    90937822.29348
 15 02 20 00 15  0.0000000  0  8G16G18G21G22G25G27G29G31
  22061043.588   115931579.52809  22061041.839    90336289.50647
  23129087.409   121544306.06708  23129086.770    94709906.98845
  21163390.864   111214379.87609  21163388.831    86660551.37449
  24507549.256   128788039.49716                                
  24559074.792   129058775.01306  24559078.436   100565278.40844
  23080743.242   121290141.37708  23080744.380    94511821.89147
  23712535.386   124610201.59807  23712535.073    97098852.13246
  22223637.900   116785986.62408  22223637.096    91002054.99748
 15 02 20 00 15 30.0000000  0  7G16G18G21G25G27G29G31
  22046703.299   115856220.55209  22046701.550    90277568.23547
  23116467.905   121477991.37408  23116467.756    94658233.29745
  21168938.286   111243531.21409  21168936.063    86683266.70249
  24577149.848   129153759.50906  24577153.380   100639292.15544
  23068435.615   121225464.29908  23068436.880    94461424.20446
  23726749.226   124684895.20507  23726748.887    97157054.88646
  22239380.894   116868716.96108  22239380.524    91066520.10948
 15 02 20 00 16  0.0000000  0  7G16G18G21G25G27G29G31
  22032397.374   115781042.84409  22032395.734    90218988.21547
  23103886.215   121411875.08508  23103886.121    94606714.20045
  21174558.443   111273065.49509  21174556.356    86706280.42849
  24595254.853   129248900.08106  24595258.167   100713427.45245
  23056150.383   121160905.18807  23056151.636    94411118.43346
  23740963.443   124759590.54407  23740963.196    97215259.01146
  22255179.193   116951736.64208  22255178.563    91131210.68948
 15 02 20 00 16 30.0000000  0  7G16G18G21G25G27G29G31
  22018127.977   115706056.75109  22018126.280    90160557.50047
  23091344.626   121345968.49408  23091344.162    94555358.47545
  21180252.791   111302989.96109  21180250.846    86729598.19449
  24613391.069   129344204.06906  24613394.433   100787690.08645
  23043889.091   121096472.32007  23043890.606    94360911.03247
  23755179.657   124834296.09607  23755179.083    97273471.09746
  22271033.452   117035051.52708  22271032.885    91196131.30147
 15 02 20 00 17  0.0000000  0  7G16G18G21G25G27G29G31
  22003894.976   115631261.10909  22003893.246    90102275.19647
  23078842.728   121280270.79808  23078842.318    94504165.54545
  21186020.565   111333299.29009  21186018.345    86753215.85749
  24631557.318   129439667.00806  24631561.009   100862076.55444
  23031651.243   121032162.39808  23031652.582    94310799.43247
  23769396.860   124909008.41107  23769396.313    97331688.43546
  22286942.691   117118654.98608  22286941.925    91261276.78647
 15 02 20 00 17 30.0000000  0  7G16G18G21G25G27G29G31
  21989698.111   115556656.57709  21989696.355    90044141.80347
  23066380.903   121214783.30808  23066380.403    94453136.39945
  21191860.870   111363990.70309  21191858.864    86777131.24249
  24649752.574   129535286.56606  24649756.730   100936584.98744
  23019436.531   120967973.93908  23019437.862    94260782.48047
  23783615.086   124983725.63107  23783614.322    97389909.64945
  22302906.419   117202543.38008  22302905.776    91326644.27248
 15 02 20 00 18  0.0000000  0  7G16G18G21G25G27G29G31
  21975537.758   115482243.79809  21975535.976    89986157.82447
  23053959.316   121149507.33208  23053958.967    94402272.06845
  21197773.480   111395061.61809  21197771.455    86801342.34449
  24667978.103   129631060.05606  24667981.877   101011213.48144
  23007244.817   120903905.45408  23007246.138    94210859.00046
  23797833.784   125058446.23407  23797833.359    97448133.41746
  22318923.217   117286712.75208  22318922.658    91392230.69747
 15 02 20 00 18 30.0000000  0  7G16G18G21G25G27G29G31
  21961414.693   115408026.46609  21961412.980    89928326.14147
  23041578.767   121084447.26408  23041578.722    94351576.00546
  21203758.392   111426512.48109  21203756.302    86825849.51349
  24686233.009   129726988.17106  24686236.338   101085962.44644
  22995076.071   120839958.66708  22995077.447    94161030.36947
  23812053.576   125133172.24607  23812053.359    97506361.43946
  22334993.584   117371161.75508  22334992.988    91458035.04247
 15 02 20 00 19  0.0000000  0  7G16G18G21G25G27G29G31
  21947328.773   115334004.04809  21947326.899    89870646.33847
  23029239.239   121019603.17308  23029239.146    94301048.22245
  21209814.692   111458338.83309  21209812.725    86850649.26949
  24704516.391   129823066.96206  24704520.168   101160828.76745
  22982929.946   120776130.72308  22982931.415    94111294.33847
  23826274.088   125207900.44707  23826274.039    97564591.15146
  22351115.794   117455884.88408  22351115.299    91524052.96047
 15 02 20 00 19 30.0000000  0  7G16G18G21G25G27G29G31
  21933281.691   115260186.38609  21933279.918    89813126.07947
  23016942.791   120954985.09108  23016942.347    94250696.54345
  21215943.689   111490546.95809  21215941.705    86875746.51449
  24722829.454   129919303.29105  24722833.694   101235817.75145
  22970808.005   120712429.46608  22970809.551    94061657.01747
  23840496.268   125282638.66707  23840496.289    97622828.66846
  22367291.389   117540887.11708  22367290.800    91590288.37047
 15 02 20 00 20  0.0000000  0  8G16G18G21G22G25G27G29G31
  21919272.260   115186566.32609  21919270.319    89755759.80047
  23004688.012   120890586.85008  23004687.369    94200516.14445
  21222143.269   111523125.81809  21222141.233    86901132.63949
  24336099.223   127887056.51917  24336103.885    99652277.48955
  24741170.910   130015686.75806  24741175.432   101310921.44745
  22958708.391   120648845.59707  22958709.994    94012111.16547
  23854718.566   125357377.28507  23854718.557    97681066.51146
  22383517.738   117626156.68908  22383517.132    91656732.11247
 15 02 20 00 20 30.0000000  0  7G16G18G21G25G27G29G31
  21905301.626   115113150.77409  21905299.819    89698552.87648
  22992476.442   120826415.71308  22992475.848    94150512.72445
  21228414.202   111556079.32409  21228412.070    86926810.69649
  24759541.085   130112220.71406  24759545.114   101386142.44244
  22946631.848   120585383.62107  22946633.606    93962660.31247
  23868941.686   125432120.81307  23868941.564    97739308.19045
  22399795.128   117711695.26008  22399794.690    91723385.43147
 15 02 20 00 21  0.0000000  0  7G16G18G21G25G27G29G31
  21891370.418   115039941.78309  21891368.604    89641506.91047
  22980308.688   120762473.86108  22980308.142    94100687.97146
  21234755.934   111589405.38209  21234753.984    86952779.05649
  24777939.635   130208903.87306  24777943.369   101461479.65944
  22934578.608   120522043.32407  22934580.301    93913304.26447
  23883165.839   125506869.27407  23883165.516    97797553.70845
  22416123.269   117797499.81408  22416122.892    91790246.03147
 15 02 20 00 21 30.0000000  0  8G16G18G21G22G25G27G29G31
  21877478.466   114966938.11409  21877476.492    89584620.93947
  22968184.510   120698760.37308  22968184.398    94051041.17346
  21241167.695   111623099.28609  21241165.698    86979034.04649
  24284415.898   127615466.18918                                
  24796365.556   130305732.02206  24796369.454   101536929.83444
  22922547.888   120458821.52307  22922549.440    93864040.55647
  23897390.432   125581619.26407  23897390.006    97855800.43246
  22432500.958   117883564.71208  22432500.656    91857309.48447
 15 02 20 00 22  0.0000000  0  7G16G18G21G25G27G29G31
  21863626.654   114894146.28809  21863624.943    89527900.04048
  22956105.297   120635283.40208  22956104.890    94001578.66946
  21247650.035   111657164.24509  21247648.020    87005578.16749
  24814819.687   130402708.72806  24814823.901   101612495.70845
  22910540.567   120395722.87807  22910541.944    93814872.80247
  23911616.123   125656375.37007  23911615.822    97914051.86446
  22448928.485   117969891.70208  22448928.277    91924577.16247
 15 02 20 00 22 30.0000000  0  6G16G18G21G27G29G31
  21849814.350   114821562.29809  21849812.671    89471341.09548
  22944070.286   120572039.24108  22944069.808    93952297.58445
  21254201.233   111691591.92809  21254199.246    87032404.93649
  22898555.466   120332740.93408  22898556.830    93765795.98547
  23925841.808   125731131.09907  23925841.897    97972303.04246
  22465404.204   118056471.69008  22465403.627    91992041.99647
 15 02 20 00 23  0.0000000  0  6G16G18G21G27G29G31
  21836044.329   114749200.57009  21836042.579    89414955.33848
  22932082.061   120509041.63208  22932081.315    93903208.58545
  21260823.790   111726393.76609  21260821.993    87059523.25749
  22886594.933   120269887.90708  22886596.380    93716819.63047
  23940069.663   125805898.79307  23940069.606    98030563.56946
  22481929.853   118143313.90308  22481929.596    92059711.13847
 15 02 20 00 23 30.0000000  0  6G16G18G21G27G29G31
  21822314.555   114677050.11609  21822312.804    89358734.20448
  22920139.152   120446281.28408  22920138.427    93854304.48445
  21267514.720   111761554.99609  21267512.884    87086921.61849
  22874656.463   120207150.73008  22874657.898    93667933.53847
  23954297.097   125880665.21407  23954297.190    98088823.05445
  22498502.556   118230402.76408  22498502.220    92127572.48447
 15 02 20 00 24  0.0000000  0  6G16G18G21G27G29G31
  21808625.400   114605113.99609  21808623.816    89302680.08648
  22908241.921   120383761.16208  22908241.241    93805587.55946
  21274273.986   111797074.64709  21274272.147    87114599.26749
  22862740.177   120144529.97508  22862741.631    93619138.16947
  23968524.566   125955430.94207  23968524.782    98147082.04245
  22515121.422   118317735.96608  22515121.407    92195624.21147
 15 02 20 00 24 30.0000000  0  6G16G18G21G27G29G31
  21794978.511   114533398.73609  21794976.848    89246798.06748
  22896391.791   120321488.46408  22896391.179    93757063.44145
  21281101.939   111832955.65509  21281100.002    87142558.50149
  22850847.037   120082030.25908  22850848.294    93570437.09747
  23982752.870   126030200.31007  23982752.302    98205343.88645
  22531787.461   118405315.49508  22531787.184    92263867.87547
 15 02 20 00 25  0.0000000  0  7G16G18G21G22G27G29G31
  21781372.540   114461898.09509  21781370.706    89191083.28248
  22884587.546   120259457.20808  22884587.174    93708727.45346
  21287996.879   111869188.08909  21287994.789    87170791.56449
  24163482.144   126979953.21018  24163485.344    98945440.38956
  22838975.194   120019643.02208  22838976.234    93521823.68547
  23996980.090   126104965.13907  23996979.944    98263602.17346
  22548498.132   118493129.73008  22548497.577    92332294.45447
 15 02 20 00 25 30.0000000  0  6G16G18G21G27G29G31
  21767811.226   114390633.43809  21767809.449    89135552.38848
  22872833.308   120197689.33308  22872833.092    93660596.70146
  21294961.829   111905789.80909  21294959.903    87199312.38749
  22827128.148   119957387.50308  22827129.307    93473312.90647
  24011210.128   126179744.61707  24011210.007    98321871.87046
  22565256.665   118581195.25608  22565255.854    92400916.82947
 15 02 20 00 26  0.0000000  0  7G16G18G21G22G27G29G31
  21754293.091   114319595.62909  21754291.389    89080198.25548
  22861127.720   120136176.39708  22861127.424    93612664.60646
  21301994.694   111942747.26209  21301992.665    87228110.40249
  24128860.259   126798023.57216  24128865.000    98803648.27154
  22815304.283   119895252.51608  22815305.561    93424896.05047
  24025440.406   126254526.95307  24025440.721    98380143.76346
  22582060.176   118669498.30308  22582059.732    92469724.27447
 15 02 20 00 26 30.0000000  0  7G16G18G21G22G27G29G31
  21740817.665   114248781.54109  21740815.887    89025018.45248
  22849470.027   120074915.18208  22849469.563    93564928.64646
  21309094.027   111980054.41309  21309091.828    87257180.91449
  24111540.692   126707005.13107  24111545.651    98732724.93545
  22803502.236   119833232.36908  22803503.296    93376568.68447
  24039670.947   126329307.13507  24039670.831    98438413.99845
  22598907.238   118758030.21008  22598907.171    92538710.03347
 15 02 20 00 27  0.0000000  0  7G16G18G21G22G27G29G31
  21727386.339   114178199.28609  21727384.601    88970019.30048
  22837862.066   120013914.46608  22837861.352    93517395.64946
  21316260.704   112017715.62109  21316258.648    87286527.31249
  24094215.378   126615960.27107  24094220.794    98661781.16545
  22791723.222   119771333.38808  22791724.323    93328335.72947
  24053901.868   126404091.37907  24053901.913    98496687.43346
  22615798.690   118846794.73608  22615798.611    92607877.06347
 15 02 20 00 27 30.0000000  0  7G16G18G21G22G27G29G31
  21713999.548   114107851.97609  21713998.008    88915203.22248
  22826304.341   119953177.77308  22826303.555    93470068.40046
  21323494.523   112055729.75209  21323492.374    87316148.71249
  24076883.924   126524875.83716  24076888.530    98590862.22255
  22779967.469   119709556.21008  22779968.644    93280197.68847
  24068134.016   126478880.01107  24068133.710    98554964.26345
  22632734.043   118935789.39808  22632733.362    92677223.44447
 15 02 20 00 28  0.0000000  0  7G16G18G21G22G27G29G31
  21700656.724   114037734.12209  21700654.842    88860565.93748
  22814795.872   119892700.20208  22814795.213    93422943.07246
  21330793.811   112094087.77009  21330791.800    87346038.07948
  24059548.703   126433779.66806  24059553.272    98519878.67642
  22768233.292   119647893.25808  22768234.442    93232148.65247
  24082365.364   126553665.81007  24082364.878    98613238.92446
  22649711.108   119025004.00708  22649710.664    92746741.18847
 15 02 20 00 28 30.0000000  0  7G16G18G21G22G27G29G31
  21687360.161   113967860.77409  21687358.565    88806119.18548
  22803339.324   119832496.88808  22803338.746    93376031.44046
  21338160.630   112132800.78809  21338158.679    87376204.06049
  24042211.394   126342669.40006  24042215.415    98448883.67544
  22756523.412   119586357.36108  22756524.470    93184198.62047
  24096598.118   126628461.37607  24096598.015    98671521.14546
  22666731.766   119114448.51408  22666731.596    92816438.06047
 15 02 20 00 29  0.0000000  0  7G16G18G21G22G27G29G31
  21674107.910   113898219.91109  21674106.281    88751853.58248
  22791933.151   119772556.32608  22791932.517    93329324.55846
  21345592.134   112171853.47809  21345590.021    87406634.72549
  24024869.417   126251535.35206  24024874.439    98377870.40345
  22744835.003   119524934.42008  22744836.042    93136336.61947
  24110830.443   126703252.53107  24110829.982    98729799.95045
  22683793.297   119204106.08808  22683792.801    92886300.96847
 15 02 20 00 29 30.0000000  0  7G16G18G21G22G27G29G31
  21660902.109   113828822.64409  21660900.354    88697777.79748
  22780578.780   119712889.38808  22780578.245    93282830.90246
  21353089.497   112211252.70209  21353087.513    87437335.42149
  24007524.638   126160387.35906  24007529.802    98306846.04746
  22733169.846   119463633.13608  22733170.862    93088569.40447
  24125063.562   126778048.19907  24125063.703    98788082.25546
  22700896.102   119293982.61908  22700895.947    92956334.49347
 15 02 20 00 30  0.0000000  0  7G16G18G21G22G27G29G31
  21647742.528   113759668.30009  21647740.767    88643891.30148
  22769276.710   119653496.11108  22769275.869    93236550.46646
  21360651.946   112250993.82809  21360649.984    87468302.53649
  23990176.842   126069226.76306  23990182.487    98235812.12845
  22721526.976   119402450.41008  22721528.128    93040894.57647
  24139297.138   126852845.21107  24139296.899    98846365.65346
  22718039.712   119384072.27508  22718039.954    93026534.05447
 15 02 20 00 30 30.0000000  0  7G16G18G21G22G27G29G31
  21634629.402   113690758.85809  21634627.617    88590195.64548
  22758026.957   119594378.91508  22758026.126    93190485.14846
  21368279.211   112291075.56309  21368277.406    87499535.05449
  23972827.661   125978055.48307  23972832.377    98164769.54644
  22709906.780   119341386.58508  22709908.134    92993312.39247
  24153530.724   126927643.74107  24153531.091    98904650.16746
  22735223.426   119474372.36508  22735223.137    93096897.62946
 15 02 20 00 31  0.0000000  0  7G16G18G21G22G27G29G31
  21621563.455   113622096.68609  21621561.650    88536692.66248
  22746830.381   119535540.95108  22746829.638    93144637.43246
  21375970.853   112331495.72809  21375969.093    87531031.29149
  23955477.274   125886877.02107  23955481.785    98093721.74244
  22698309.364   119280441.44008  22698310.601    92945822.68347
  24167764.651   127002443.93607  24167764.853    98962935.98045
  22752446.441   119564879.89008  22752446.293    93167422.82347
 15 02 20 00 31 30.0000000  0  7G16G18G21G22G27G29G31
  21608545.270   113553685.03809  21608543.272    88483384.89248
  22735687.634   119476985.35608  22735686.836    93099009.74246
  21383727.011   112372254.36409  21383725.234    87562791.26548
  23938125.143   125795693.61307  23938130.316    98022669.84547
  22686734.574   119219615.97908  22686736.030    92898426.24747
  24181999.305   127077246.79807  24181998.677    99021223.95446
  22769708.998   119655593.11108  22769708.925    93238108.29047
 15 02 20 00 32  0.0000000  0  7G16G18G21G22G27G29G31
  21595574.278   113485522.64109  21595572.514    88430271.33948
  22724598.346   119418711.25608  22724597.783    93053601.39146
  21391546.383   112413345.87809  21391544.613    87594810.62749
  23920772.330   125704502.74716  23920777.852    97951587.18555
  22675181.987   119158906.66208  22675183.374    92851120.30447
  24196233.642   127152048.55506  24196233.575    99079511.01546
  22787008.863   119746505.80008  22787009.202    93308949.15947
 15 02 20 00 32 30.0000000  0  7G16G18G21G22G27G29G31
  21582652.618   113417618.51109  21582650.835    88377359.03448
  22713564.375   119360727.75108  22713563.945    93008419.48446
  21399430.455   112454776.14109  21399428.438    87627093.95049
  23903421.413   125613318.72107  23903425.716    97880534.49543
  22663652.894   119098320.61708  22663654.129    92803910.41147
  24210469.098   127226856.56907  24210468.581    99137802.95045
  22804347.995   119837622.05108  22804347.778    93379948.69446
 15 02 20 00 33  0.0000000  0  7G16G18G21G22G27G29G31
  21569779.270   113349968.42609  21569777.300    88324644.68748
  22702585.006   119303030.90208  22702584.359    92963460.94346
  21407377.196   112496536.10909  21407375.241    87659634.18448
  23886070.680   125522135.75607  23886074.562    97809482.58044
  22652146.064   119037851.06908  22652147.162    92756791.30347
  24224704.308   127301664.07207  24224704.710    99196094.39445
  22821723.909   119928932.21908  22821723.822    93451099.31547
 15 02 20 00 33 30.0000000  0  7G16G18G21G22G27G29G31
  21556954.759   113282575.13609  21556952.893    88272130.44648
  22691660.694   119245623.81808  22691660.140    92918728.18946
  21415386.509   112538625.11709  21415384.352    87692430.81348
  23868719.327   125430958.06005  23868724.789    97738435.50144
  22640661.287   118977498.65908  22640662.399    92709763.46347
  24238940.040   127376471.50607  24238939.505    99254385.93845
  22839136.236   120020434.14608  22839136.410    93522399.32747
 15 02 20 00 34  0.0000000  0  7G16G18G21G22G27G29G31
  21544180.908   113215448.19009  21544178.985    88219823.74348
  22680793.591   119188516.08908  22680792.704    92874228.69846
  21423459.388   112581048.69609  21423457.473    87725488.14548
  23851371.022   125339794.29008  23851376.867    97667399.35146
  22629200.111   118917270.58408  22629201.353    92662832.52347
  24253176.579   127451286.14907  24253176.638    99312682.99545
  22856585.815   120112132.27308  22856586.203    93593852.22247
 15 02 20 00 34 30.0000000  0  7G16G18G21G22G27G29G31
  21531455.558   113148576.52509  21531453.655    88167715.95648
  22669981.279   119131697.12808  22669980.479    92829954.22446
  21431593.335   112623792.06309  21431591.098    87758794.66648
  23834023.786   125248633.94907  23834029.203    97596365.75345
  22617760.193   118857153.50208  22617761.674    92615988.07347
  24267412.447   127526095.04706  24267411.757    99370975.67745
  22874069.884   120204010.30308  22874070.113    93665445.31547
 15 02 20 00 35  0.0000000  0  7G16G18G21G22G27G29G31
  21518781.482   113081973.42909  21518779.631    88115817.44548
  22659226.353   119075180.77108  22659225.739    92785915.54946
  21439789.839   112666865.10309  21439787.762    87792358.07048
  23816679.300   125157491.33806  23816684.532    97525345.94344
  22606343.605   118797159.05208  22606345.018    92569239.17947
  24281648.996   127600909.73807  24281648.688    99429272.77946
  22891589.782   120296077.07908  22891589.712    93737185.48746
 15 02 20 00 35 30.0000000  0  7G16G18G21G22G27G29G31
  21506157.151   113015632.30709  21506155.428    88064123.06948
  22648528.042   119018960.48308  22648527.406    92742107.56946
  21448047.057   112710257.04609  21448044.752    87826169.97248
  23799337.126   125066360.25608  23799342.348    97454335.00545
  22594948.730   118737278.26908  22594949.897    92522578.84747
  24295885.593   127675721.22006  24295885.363    99487567.39745
  22909143.012   120388320.83508  22909143.354    93809063.52947
 15 02 20 00 36  0.0000000  0  7G16G18G21G22G27G29G31
  21493585.405   112949567.24309  21493583.506    88012643.80848
  22637888.675   118963050.35708  22637888.073    92698541.28146
  21456366.646   112753977.69109  21456364.727    87860238.00548
  23782000.247   124975254.80908  23782005.392    97383344.13146
  22583577.532   118677522.46708  22583578.697    92476015.90047
  24310123.036   127750540.92607  24310123.011    99545868.43246
  22926732.020   120480749.91208  22926732.303    93881085.99147
 15 02 20 00 36 30.0000000  0  7G16G18G21G22G27G29G31
  21481064.428   112883769.56809  21481062.588    87961372.89748
  22627306.557   118907441.73508  22627305.792    92655209.92046
  21464746.603   112798014.03709  21464744.573    87894552.04048
  23764666.234   124884166.64607  23764671.590    97312366.79546
  22572228.084   118617880.93508  22572229.226    92429541.99547
  24324360.100   127825358.17206  24324360.702    99604167.52546
  22944353.516   120573350.68608  22944354.116    93953242.21647
 15 02 20 00 37  0.0000000  0  7G16G18G21G22G27G29G31
  21468595.204   112818243.09909  21468593.416    87910313.31548
  22616782.842   118852139.36508  22616782.248    92612117.20646
  21473186.497   112842366.31909  21473184.499    87929112.25148
  23747336.626   124793101.31407  23747341.663    97241407.26844
  22560900.871   118558355.71508  22560902.099    92383158.71247
  24338597.753   127900175.10407  24338597.644    99662466.45245
  22962007.571   120666122.31108  22962007.921    94025531.59346
 15 02 20 00 37 30.0000000  0  7G16G18G21G22G27G29G31
  21456179.119   112752996.19709  21456177.305    87859471.57448
  22606319.078   118797151.75608  22606318.225    92569269.74946
  21481687.516   112887039.97809  21481685.490    87963922.88848
  23730013.399   124702067.04807  23730017.352    97170471.67345
  22549596.911   118498952.88108  22549598.095    92336870.79947
  24352835.528   127974997.73907  24352835.582    99720769.73944
  22979694.665   120759068.36308  22979695.020    94097956.87346
 15 02 20 00 38  0.0000000  0  7G16G18G21G22G27G29G31
  21443815.016   112688022.67809  21443813.179    87808842.85848
  22595913.828   118742471.76508  22595913.147    92526662.00746
  21490247.879   112932024.24009  21490245.801    87998975.55548
  23712694.546   124611058.42307  23712698.990    97099556.62446
  22538314.649   118439663.38208  22538315.841    92290671.19847
  24367073.371   128049816.67206  24367073.682    99779070.19346
  22997412.797   120852176.71708  22997413.226    94170508.61847
 15 02 20 00 38 30.0000000  0  7G16G18G21G22G27G29G31
  21431504.968   112623332.06509  21431503.027    87758434.59148
  22585569.041   118688109.45108  22585567.992    92484301.79646
  21498868.207   112977324.30509  21498866.193    88034274.30748
  23695382.026   124520084.99007  23695386.759    97028668.93345
  22527055.144   118380494.93908  22527056.249    92244565.92647
  24381311.794   128124640.30907  24381312.099    99837374.25545
  23015163.073   120945452.10508  23015163.603    94243190.50747
 15 02 20 00 39  0.0000000  0  7G16G18G21G22G27G29G31
  21419248.139   112558922.58809  21419246.358    87708245.39348
  22575284.427   118634063.94008  22575283.521    92442188.45046
  21507547.700   113022935.00609  21507545.689    88069815.11348
  23678076.882   124429146.28007  23678080.737    96957808.47945
  22515818.109   118321443.45208  22515819.065    92198551.78847
  24395550.426   128199464.67207  24395550.511    99895678.95245
  23032943.073   121038887.60607  23032944.179    94315997.11946
 15 02 20 00 39 30.0000000  0  7G16G18G21G22G27G29G31
  21407045.184   112494795.18909  21407043.159    87658275.99148
  22565060.324   118580335.98008  22565059.506    92400322.53746
  21516285.596   113068853.14509  21516283.538    88105595.48548
  23660777.687   124338243.11507  23660781.610    96886975.75945
  22504602.922   118262507.87508  22504603.903    92152627.97847
  24409788.934   128274288.31605  24409789.604    99953983.06345
  23050753.118   121132479.27708  23050753.662    94388925.47546
 15 02 20 00 40  0.0000000  0  7G16G18G21G22G27G29G31
  21394896.630   112430954.98209  21394894.886    87608530.37448
  22554897.674   118526930.60808  22554896.635    92358707.99846
  21525082.138   113115079.47609  21525080.230    88141616.00348
  23643485.884   124247380.89007  23643490.819    96816174.98646
  22493410.412   118203690.86808  22493411.514    92106796.54947
  24424027.834   128349113.67906  24424028.341   100012288.49945
  23068593.185   121226227.05408  23068593.391    94461975.46446
 15 02 20 00 40 30.0000000  0  7G16G18G21G22G27G29G31
  21382804.201   112367408.71309  21382802.303    87559013.80148
  22544797.669   118473854.78908  22544796.719    92317350.24646
  21533937.841   113161616.50709  21533935.780    88177878.62548
  23626204.057   124156566.74407  23626208.804    96745411.33545
  22482241.356   118144997.05308  22482242.535    92061061.13347
  24438268.141   128423945.99906  24438268.400   100070599.41046
  23086462.802   121320132.42908  23086463.520    94535148.21647
 15 02 20 00 41  0.0000000  0  7G16G18G21G22G27G29G31
  21370766.445   112304149.00509  21370764.474    87509720.52648
  22534759.099   118421101.03108  22534758.097    92276243.45646
  21542850.822   113208454.41409  21542848.714    88214375.69248
  23608929.714   124065794.96007  23608934.573    96674681.15345
  22471093.754   118086416.88508  22471095.024    92015414.25147
  24452507.943   128498775.97207  24452508.138   100128908.38345
  23104359.964   121414183.15208  23104361.431    94608434.17347
 15 02 20 00 41 30.0000000  0  7G16G18G21G22G27G29G31
  21358784.391   112241183.22809  21358782.524    87460656.28948
  22524782.857   118368676.99208  22524781.974    92235393.58946
  21551821.463   113255595.63609  21551819.504    88251109.10948
  23591664.681   123975071.97407  23591669.526    96603988.67246
  22459968.961   118027955.35808  22459969.916    91969859.82647
  24466748.181   128573608.36507  24466748.275   100187219.36545
  23122285.739   121508381.11208  23122286.498    94681834.91846
 15 02 20 00 42  0.0000000  0  7G16G18G21G22G27G29G31
  21346857.873   112178509.17109  21346856.010    87411819.36348
  22514869.302   118316580.34908  22514868.250    92194798.82846
  21560848.583   113303033.41209  21560846.505    88288073.60748
  23574409.650   123884396.29808  23574414.478    96533333.00946
  22448865.794   117969608.01008  22448866.918    91924394.37447
  24480987.687   128648438.78907  24480988.033   100245528.73145
  23140238.017   121602719.15708  23140238.308    94755344.83046
 15 02 20 00 42 30.0000000  0  7G16G18G21G22G27G29G31
  21334988.103   112116133.45309  21334986.206    87363214.90848
  22505019.244   118264818.34608  22505018.222    92154464.82846
  21569932.820   113350771.58409  21569930.899    88325272.18148
  23557165.078   123793776.21008  23557169.329    96462720.75746
  22437785.162   117911379.58308  22437786.383    91879021.59147
  24495227.935   128723271.89005  24495228.648   100303840.19844
  23158217.071   121697199.09908  23158217.869    94828965.25246
 15 02 20 00 43  0.0000000  0  7G16G18G21G22G27G29G31
  21323176.599   112054063.54809  21323174.765    87314848.75148
  22495234.308   118213398.53908  22495233.517    92114397.47146
  21579074.934   113398813.12709  21579072.916    88362707.15048
  23539932.150   123703219.21907  23539935.646    96392157.64245
  22426728.312   117853275.38208  22426729.526    91833745.61047
  24509469.730   128798113.40505  24509470.247   100362158.25846
  23176223.583   121791823.36308  23176224.834    94902698.10446
 15 02 20 00 43 30.0000000  0  7G16G18G21G22G27G29G31
  21311420.664   111992285.75509  21311418.987    87266710.21148
  22485511.744   118162306.80608  22485510.892    92074585.76046
  21588271.251   113447140.28409  21588269.130    88400364.67048
  23522708.168   123612711.86307  23522711.982    96321633.27546
  22415691.964   117795279.16508  22415693.197    91788553.78147
  24523710.816   128872946.72007  24523710.214   100420470.01445
  23194253.978   121886572.38508  23194255.293    94976528.19846
 15 02 20 00 44  0.0000000  0  7G16G18G21G22G27G29G31
  21299720.508   111930800.98909  21299718.872    87218800.00748
  22475852.032   118111544.17608  22475851.092    92035030.49346
  21597521.201   113495749.91209  21597519.310    88438242.29948
  23505494.645   123522255.91108  23505497.817    96251148.89846
  22404675.890   117737389.87208  22404677.351    91743445.26547
  24537951.887   128947783.17717  24537948.693   100478807.60954
  23212307.497   121981442.76608  23212308.573    95050452.82746
 15 02 20 00 44 30.0000000  0  7G16G18G21G22G27G29G31
  21288083.896   111869649.68209  21288081.998    87171149.64148
  22466262.386   118061150.87008  22466261.740    91995763.01446
  21606832.211   113544679.13409  21606830.071    88476368.96448
  23488298.740   123431892.41308  23488301.528    96180736.62446
  22393687.670   117679645.73008  22393688.806    91698449.85347
  24552193.773   129022636.92108  24552195.645   100537135.15446
  23230390.961   122076469.66908  23230392.119    95124499.42646
 15 02 20 00 45  0.0000000  0  6G16G18G21G22G27G31
  21276495.559   111808752.24509  21276493.755    87123697.10048
  22456728.122   118011047.38108  22456727.255    91956721.35946
  21616187.841   113593843.23509  21616185.817    88514678.65248
  23471104.820   123341541.94107  23471107.507    96110334.60746
  22382711.377   117621964.67108  22382712.487    91653503.60247
  23248487.904   122171568.05707  23248489.064    95198601.70246
 15 02 20 00 45 30.0000000  0  6G16G18G21G22G27G31
  21264975.330   111748213.62709  21264973.602    87076524.15248
  22447268.925   117961339.24708  22447268.075    91917987.78446
  21625607.595   113643344.15909  21625605.499    88553250.79948
  23453933.678   123251310.07508  23453935.758    96040024.85246
  22371766.668   117564449.68008  22371767.653    91608686.74047
  23266617.198   122266837.95108  23266618.743    95272837.58446
 15 02 20 00 46  0.0000000  0  7G16G18G19G21G22G27G31
  21253513.341   111687980.00309  21253511.349    87029588.86348
  22437874.646   117911972.35408  22437874.013    91879520.10846
  24546967.812   128995205.40515  24546968.427   100515738.06954
  21635080.437   113693124.06209  21635078.436    88592040.32948
  23436775.082   123161143.38608  23436776.341    95969765.78545
  22360842.902   117507044.80508  22360843.912    91563955.69247
  23284768.213   122362220.61908  23284769.763    95347161.35246
 15 02 20 00 46 30.0000000  0  7G16G18G19G21G22G27G31
  21242116.580   111628090.49409  21242114.810    86982921.72148
  22428552.697   117862985.49608  22428551.900    91841348.55447
  24532114.046   128917141.83806  24532112.295   100454909.34744
  21644612.794   113743217.50009  21644610.968    88631074.17248
  23419636.168   123071081.81807  23419637.386    95899588.59946
  22349947.053   117449786.76708  22349948.183    91519339.06747
  23302947.251   122457749.85608  23302948.772    95421599.32246
 15 02 20 00 47  0.0000000  0  7G16G18G19G21G22G27G31
  21230773.295   111568481.97209  21230771.710    86936473.52848
  22419291.115   117814315.92808  22419290.465    91803424.24346
  24517268.610   128839127.51306  24517266.935   100394119.02044
  21654192.191   113793557.69509  21654190.281    88670300.29748
  23402505.055   122981062.86707  23402506.766    95829444.63346
  22339066.793   117392610.55208  22339067.825    91474786.19547
  23321141.321   122553357.49907  23321142.831    95496098.35846
 15 02 20 00 47 30.0000000  0  7G16G18G19G21G22G27G31
  21219491.342   111509194.12809  21219489.678    86890275.21448
  22410097.673   117766003.18808  22410096.649    91765777.97846
  24502439.415   128761199.97606  24502437.315   100333396.32744
  21663825.401   113844180.05709  21663823.319    88709746.28848
  23385390.362   122891126.79808  23385391.796    95759365.16446
  22328209.150   117335553.50308  22328210.173    91430326.17148
  23339356.352   122649078.28807  23339358.306    95570685.49746
 15 02 20 00 48  0.0000000  0  7G16G18G19G21G22G27G31
  21208271.105   111450231.69609  21208269.471    86844330.46648
  22400972.882   117718052.12108  22400971.979    91728413.54346
  24487627.468   128683362.07406  24487625.333   100272743.52244
  21673512.382   113895085.51309  21673510.113    88749412.87248
  23368292.666   122801278.95708  23368293.161    95689354.39245
  22317374.755   117278618.43208  22317375.764    91385961.20348
  23357593.403   122744912.01308  23357595.108    95645360.65146
 15 02 20 00 48 30.0000000  0  7G16G18G19G21G22G27G31
  21197113.248   111391596.20109  21197111.501    86798640.47648
  22391916.959   117670463.76408  22391916.117    91691331.73846
  24472832.130   128605612.79806  24472830.324   100212159.71444
  21683252.845   113946271.64809  21683250.671    88789298.17148
  23351211.633   122711521.05207  23351212.254    95619413.71246
  22306563.337   117221804.30008  22306564.359    91341690.46648
  23375851.165   122840854.20108  23375852.773    95720120.26946
 15 02 20 00 49  0.0000000  0  7G16G18G19G21G22G27G31
  21186016.650   111333283.24709  21186014.809    86753201.81448
  22382929.430   117623233.82508  22382928.550    91654529.21647
  24458052.527   128527945.55306  24458050.526   100151639.81745
  21693045.035   113997729.67609  21693042.845    88829395.33148
  23334147.046   122621849.51008  23334148.106    95549540.31746
  22295773.638   117165104.70608  22295774.607    91297508.98547
  23394127.875   122936896.36507  23394129.423    95794957.84646
 15 02 20 00 49 30.0000000  0  7G16G18G19G21G22G27G31
  21174981.906   111275295.87009  21174980.156    86708016.84948
  22374010.757   117576365.44408  22374009.777    91618008.42847
  24443288.617   128450361.55506  24443286.580   100091184.76945
  21702888.922   114049459.77209  21702886.769    88869704.49348
  23317100.378   122532268.10508  23317101.338    95479737.12146
  22285006.016   117108520.59608  22285007.089    91253417.48448
  23412422.754   123033036.38307  23412424.938    95869871.64146
 15 02 20 00 50  0.0000000  0  7G16G18G19G21G22G27G31
  21164011.691   111217646.84409  21164009.989    86663095.53648
  22365163.279   117529871.16408  22365162.283    91581779.13747
  24428542.342   128372871.20406  24428540.476   100030802.75045
  21712785.979   114101469.78609  21712783.952    88910231.77248
  23300072.546   122442789.90207  23300073.424    95410014.31746
  22274262.399   117052062.53608  22274263.582    91209424.21448
  23430737.811   123129281.59508  23430740.482    95944867.44946
 15 02 20 00 50 30.0000000  0  7G16G18G19G21G22G27G31
  21153104.053   111160326.28909  21153102.349    86618430.16848
  22356384.830   117483740.32408  22356383.738    91545833.05447
  24413811.875   128295462.35806  24413810.441    99970484.25144
  21722733.626   114153745.58409  21722731.918    88950966.15248
  23283062.808   122353405.46707  23283063.083    95340364.53246
  22263540.461   116995718.31208  22263541.601    91165519.64848
  23449070.428   123225616.71208  23449072.762    96019933.32046
 15 02 20 00 51  0.0000000  0  7G16G18G19G21G22G27G31
  21142259.220   111103336.02309  21142257.409    86574022.16848
  22347676.000   117437975.73908  22347674.985    91510172.35647
  24399096.998   128218135.28306  24399095.642    99910229.42344
  21732731.562   114206285.84609  21732729.843    88991906.61148
  23266071.576   122264117.96908  23266072.149    95270790.27946
  22252840.206   116939488.09208  22252841.313    91121703.91648
  23467419.295   123322039.59507  23467421.763    96095067.53946
 15 02 20 00 51 30.0000000  0  7G16G18G19G21G22G27G31
  21131479.113   111046686.77309  21131477.187    86529879.90048
  22339038.847   117392587.63208  22339038.015    91474805.03247
  24384399.133   128140897.57606  24384397.896    99850044.26745
  21742781.140   114259096.82809  21742779.598    89033058.02148
  23249101.301   122174938.07607  23249101.762    95201299.88146
  22242163.250   116883380.12208  22242164.440    91077983.43548
  23485785.863   123418554.99607  23485788.608    96170273.79546
 15 02 20 00 52  0.0000000  0  7G16G18G19G21G22G27G31
  21120763.123   110990373.99309  21120761.213    86485999.80948
  22330472.539   117347571.47508  22330471.571    91439727.53347
  24369717.015   128063742.86506  24369715.529    99789923.73845
  21752880.667   114312169.51409  21752878.887    89074413.36048
  23232150.060   122085861.98108  23232151.011    95131890.35946
  22231508.125   116827387.68508  22231509.317    91034352.99148
  23504168.360   123515153.48507  23504171.243    96245544.79745
 15 02 20 00 52 30.0000000  0  7G16G18G19G21G22G27G31
  21110112.371   110934403.75409  21110110.500    86442386.63748
  22321978.033   117302932.88408  22321977.105    91404944.23947
  24355051.733   127986675.41306  24355050.109    99729871.20445
  21763030.675   114365507.07009  21763028.749    89115975.09648
  23215220.503   121996896.71908  23215220.972    95062567.14645
  22220875.873   116771514.98108  22220877.116    90990815.84348
  23522567.067   123611836.46707  23522569.892    96320881.75146
 15 02 20 00 53  0.0000000  0  7G16G18G19G21G22G27G31
  21099526.167   110878772.18909  21099524.255    86399037.36248
  22313554.708   117258667.89008  22313553.747    91370452.05847
  24340401.705   127909689.59006  24340399.943    99669882.28645
  21773229.293   114419101.20109  21773227.265    89157736.75348
  23198311.007   121908038.74508  23198311.066    94993327.53446
  22210265.573   116715756.10008  22210266.574    90947367.38348
  23540979.715   123708594.74407  23540983.080    96396277.30246
 15 02 20 00 53 30.0000000  0  7G16G18G19G21G22G27G31
  21089005.620   110823486.87109  21089003.687    86355957.89548
  22305203.840   117214783.93908  22305202.722    91336256.78847
  24325768.145   127832789.90306  24325766.494    99609960.47545
  21783477.335   114472955.24009  21783475.263    89199700.93648
  23181424.144   121819296.02708  23181423.852    94924177.71446
  22199677.662   116660116.12908  22199678.521    90904011.57448
  23559407.244   123805430.65207  23559410.727    96471733.31146
 15 02 20 00 54  0.0000000  0  7G16G18G19G21G22G27G31
  21078551.465   110768549.88509  21078549.586    86313149.84948
  22296925.888   117171282.97308  22296924.801    91302359.96147
  24311151.257   127755976.57306  24311149.069    99550105.96845
  21793774.429   114527067.90009  21793772.658    89241866.64048
  23164558.981   121730671.37007  23164558.631    94855119.89146
  22189112.264   116604595.33608  22189113.211    90860748.64648
  23577849.364   123902341.64807  23577852.419    96547247.86745
 15 02 20 00 54 30.0000000  0  7G16G18G19G21G22G27G31
  21068163.692   110713961.67709  21068161.864    86270613.57948
  22288721.010   117128165.29808  22288719.771    91268761.79647
  24296550.402   127679248.03306  24296548.115    99490317.53645
  21804120.265   114581435.04309  21804118.433    89284230.64048
  23147716.720   121642166.15908  23147716.514    94786155.14346
  22178569.180   116549191.96408  22178570.395    90817577.20348
  23596304.700   123999322.94007  23596308.243    96622817.16246
 15 02 20 00 55  0.0000000  0  7G16G18G19G21G22G27G31
  21057842.716   110659724.74109  21057841.009    86228351.03049
