     2.11           OBSERVATION DATA    G                   RINEX VERSION / TYPE
SPIDER V4,0,0,3554                      2015 03 24 01:08    PGM / RUN BY / DATE 
OJGS                                                        MARKER NAME         
OJGS                                                        MARKER NUMBER       
                                                            OBSERVER / AGENCY   
496552              LEICA GRX1200+GNSS  8.20/4.007          REC # / TYPE / VERS 
10401003            LEIAR25         NONE                    ANT # / TYPE        
  5198100.9450    88691.2920  3684205.7148                  APPROX POSITION XYZ 
        0.1200        0.0000        0.0000                  ANTENNA: DELTA H/E/N
     1     1                                                WAVELENGTH FACT L1/2
     4    C1    L1    P2    L2                              # / TYPES OF OBSERV 
    30.000                                                  INTERVAL            
  2015    02    20    00    00    0.0000000     GPS         TIME OF FIRST OBS   
  2015    02    20    02    00    0.0000000     GPS         TIME OF LAST OBS    
    16                                                      LEAP SECONDS        
    10                                                      # OF SATELLITES     
   G 4    36    36    36    36                              PRN / # OF OBS      
   G16   241   241   241   241                              PRN / # OF OBS      
   G18   241   241   241   241                              PRN / # OF OBS      
   G19   153   153   152   152                              PRN / # OF OBS      
   G21   241   241   241   241                              PRN / # OF OBS      
   G22   208   204   201   200                              PRN / # OF OBS      
   G25    40    40    40    40                              PRN / # OF OBS      
   G27   241   241   241   241                              PRN / # OF OBS      
   G29    88    88    88    88                              PRN / # OF OBS      
   G31   165   165   165   165                              PRN / # OF OBS      
BIT 2 OF LLI FLAGS DATA COLLECTED UNDER A/S CONDITION       COMMENT             
SNR is mapped to RINEX snr flag value [2-9]                 COMMENT             
Lx:     = 25dBHz -> 1; 26-27dBHz -> 2; 28-31dBHz -> 3       COMMENT             
       32-35dBHz -> 4; 36-38dBHz -> 5; 39-41dBHz -> 6       COMMENT             
       42-44dBHz -> 7; 45-48dBHz -> 8; >=49dBHz -> 9        COMMENT             
                                                            END OF HEADER       
 15 02 20 00 00  0.0000000  0  7G16G18G21G25G27G29G31
  22432103.440   117881502.70409  22432099.800    91855709.86147
  23606420.720   124052685.45408  23606419.280    96664459.86645
  21044759.980   110590964.32409  21044756.260    86174765.99548
  24111913.700   126708946.44508  24111915.680    98734239.54145
  23408831.860   123014272.08108  23408831.820    95855285.82046
  23298450.720   122434172.36308  23298448.320    95403237.44647
  21805935.440   114590952.06809  21805932.260    89291635.42848
 15 02 20 00 00 30.0000000  0  7G16G18G21G25G27G29G31
  22417033.180   117802308.22909  22417029.780    91793999.89947
  23592768.360   123980942.65908  23592766.880    96608556.54745
  21047750.780   110606681.13108  21047747.020    86187012.86448
  24129131.880   126799428.55508  24129133.900    98804745.01345
  23395654.780   122945026.16908  23395654.700    95801327.99546
  23312843.660   122509807.88608  23312841.260    95462174.17647
  21820024.000   114664988.01409  21820020.880    89349325.73748
 15 02 20 00 01  0.0000000  0  7G16G18G21G25G27G29G31
  22401988.640   117723248.79009  22401985.160    91732395.14447
  23579137.760   123909313.97908  23579136.220    96552742.13945
  21050823.320   110622827.66108  21050819.560    86199594.58248
  24146384.880   126890093.13008  24146386.840    98875392.66045
  23382502.340   122875909.81408  23382502.360    95747471.11646
  23327239.760   122585460.00008  23327237.460    95521123.85847
  21834182.620   114739392.10309  21834179.520    89407302.90948
 15 02 20 00 01 30.0000000  0  7G16G18G21G25G27G29G31
  22386970.340   117644327.41109  22386966.980    91670897.97247
  23565529.640   123837803.57208  23565528.000    96497019.89145
  21053977.640   110639403.97209  21053973.940    86212511.19048
  24163672.660   126980940.59108  24163674.480    98946182.82245
  23369374.780   122806924.22808  23369374.920    95693716.14246
  23341639.140   122661129.69108  23341637.040    95580087.23246
  21848411.060   114814162.77909  21848407.940    89465565.73448
 15 02 20 00 02  0.0000000  0  7G16G18G21G25G27G29G31
  22371978.860   117565546.80509  22371975.600    91609510.48847
  23551944.800   123766415.62009  23551943.200    96441393.06345
  21057213.760   110656410.22309  21057210.160    86225762.80648
  24180995.200   127071970.84308  24180996.880    99017115.40846
  23356272.320   122738070.30208  23356272.440    95640063.75346
  23356041.980   122736817.31309  23356039.960    95639064.57347
  21862709.060   114889298.84809  21862705.860    89524113.28148
 15 02 20 00 02 30.0000000  0  7G16G18G21G25G27G29G31
  22357014.180   117486907.19809  22357011.040    91548232.87147
  23538383.360   123695150.41109  23538381.780    96385861.87945
  21060531.140   110673843.49608  21060527.680    86239347.17648
  24198352.040   127163181.32508  24198353.500    99088188.44545
  23343194.560   122669346.18608  23343194.720    95586512.52446
  23370447.920   122812520.30809  23370445.860    95698053.90347
  21877075.640   114964795.40709  21877072.380    89582941.73648
 15 02 20 00 03  0.0000000  0  7G16G18G21G25G27G29G31
  22342077.220   117408413.23509  22342074.220    91487068.74647
  23524846.280   123624013.17908  23524844.660    96330430.40146
  21063930.040   110691705.11708  21063926.660    86253265.32548
  24215743.480   127254573.78007  24215745.000    99159403.25746
  23330142.080   122600754.66208  23330142.160    95533064.60046
  23384857.200   122888241.18908  23384855.200    95757057.15847
  21891510.940   115040653.12409  21891507.660    89642051.59648
 15 02 20 00 03 30.0000000  0  7G16G18G21G25G27G29G31
  22327167.760   117330064.44809  22327164.900    91426017.75747
  23511333.640   123553004.55008  23511332.040    96275099.13045
  21067409.900   110709991.84408  21067406.480    86267514.71648
  24233168.920   127346145.01708  24233170.520    99230757.39245
  23317114.320   122532293.32408  23317114.440    95479718.12146
  23399269.320   122963977.65608  23399267.440    95816072.55847
  21906014.020   115116867.01609  21906010.740    89701438.99948
 15 02 20 00 04  0.0000000  0  7G16G18G21G25G27G29G31
  22312286.540   117251863.70609  22312283.840    91365082.12047
  23497846.340   123482128.95908  23497844.820    96219871.52045
  21070970.640   110728703.42008  21070967.140    86282095.17348
  24250628.420   127437895.12508  24250630.080    99302250.89546
  23304111.560   122463963.36408  23304111.620    95426474.02746
  23413684.480   123039730.11408  23413682.660    95875100.41146
  21920584.600   115193435.74709  21920581.340    89761102.89648
 15 02 20 00 04 30.0000000  0  7G16G18G21G25G27G29G31
  22297433.720   117173811.03709  22297430.820    91304261.85447
  23484384.480   123411387.03009  23484382.820    96164748.06845
  21074611.740   110747836.99409  21074608.140    86297004.45848
  24268121.500   127529821.44708  24268123.320    99373881.70545
  23291133.460   122395762.82308  23291133.480    95373330.78346
  23428102.300   123115496.43508  23428100.460    95934139.08647
  21935221.820   115270354.73909  21935218.600    89821039.72448
 15 02 20 00 05  0.0000000  0  7G16G18G21G25G27G29G31
  22282609.960   117095910.97709  22282606.920    91243560.51347
  23470948.980   123340783.57908  23470947.240    96109732.52045
  21078333.420   110767394.11309  21078329.740    86312243.77748
  24285648.460   127621925.49508  24285650.140    99445651.01145
  23278180.440   122327694.10108  23278180.540    95320290.25646
  23442523.140   123191278.55309  23442521.280    95993190.06547
  21949925.700   115347624.02109  21949922.520    89881249.50948
 15 02 20 00 05 30.0000000  0  7G16G18G21G25G27G29G31
  22267815.020   117018162.43309  22267811.880    91182977.23447
  23457539.840   123270318.56608  23457538.020    96054824.82745
  21082134.920   110787370.94109  21082131.240    86327810.13948
  24303208.560   127714203.69208  24303210.180    99517556.02645
  23265252.020   122259754.62508  23265252.140    95267350.43747
  23456946.400   123267073.30608  23456944.600    96052250.88547
  21964695.200   115425238.24909  21964692.100    89941728.07948
 15 02 20 00 06  0.0000000  0  7G16G18G21G25G27G29G31
  22253049.240   116940568.10609  22253046.080    91122514.13647
  23444157.800   123199996.12008  23444156.200    96000028.23546
  21086016.180   110807767.10809  21086012.540    86343703.26048
  24320801.740   127806655.92508  24320803.420    99589596.62645
  23252348.300   122191945.17108  23252348.560    95214511.92447
  23471372.360   123342881.82508  23471370.620    96111322.41747
  21979530.040   115503195.85409  21979526.980    90002474.21648
 15 02 20 00 06 30.0000000  0  7G16G18G21G25G27G29G31
  22238313.100   116863129.86109  22238309.980    91062172.66747
  23430803.340   123129818.48808  23430801.840    95945344.48445
  21089976.880   110828580.86909  21089973.220    86359921.78348
  24338427.800   127899280.88008  24338429.480    99661771.84345
  23239469.320   122124265.44108  23239469.500    95161774.50046
  23485800.760   123418702.98208  23485798.880    96170403.81046
  21994429.660   115581493.90409  21994426.660    90063485.64748
 15 02 20 00 07  0.0000000  0  7G16G18G21G25G27G29G31
  22223607.420   116785850.59709  22223604.320    91001955.06347
  23417477.100   123059789.13608  23417475.440    95890776.26445
  21094017.000   110849812.02909  21094013.420    86376465.54348
  24356086.720   127992078.51608  24356088.460    99734081.58546
  23226615.180   122056716.22708  23226615.260    95109138.75346
  23500231.560   123494537.34808  23500229.520    96229495.51346
  22009393.720   115660130.57009  22009390.800    90124760.91548
 15 02 20 00 07 30.0000000  0  7G16G18G21G25G27G29G31
  22208932.420   116708731.86109  22208929.200    90941862.53547
  23404179.520   122989910.53608  23404177.960    95836325.52645
  21098136.320   110871459.37209  21098132.800    86393333.61348
  24373778.220   128085047.64308  24373779.900    99806524.96346
  23213785.740   121989297.36708  23213785.640    95056604.59746
  23514664.860   123570384.38409  23514662.720    96288597.06147
  22024421.720   115739103.10109  22024418.840    90186297.90448
 15 02 20 00 08  0.0000000  0  7G16G18G21G25G27G29G31
  22194288.400   116631776.30709  22194284.980    90881897.17747
  23390911.320   122920186.12408  23390909.860    95781994.93645
  21102334.740   110893522.41008  21102331.260    86410525.58848
  24391502.300   128178188.07008  24391504.000    99879101.80145
  23200981.240   121922009.52008  23200981.140    95004172.53747
  23529100.740   123646244.80408  23529098.580    96347709.05647
  22039513.280   115818409.61309  22039510.420    90248095.13748
 15 02 20 00 08 30.0000000  0  7G16G18G21G25G27G29G31
  22179675.220   116554983.42009  22179671.660    90822058.57047
  23377672.620   122850616.79808  23377671.100    95727785.16046
  21106611.620   110915997.76608  21106608.160    86428038.85048
  24409258.420   128271496.61108  24409260.140    99951809.66346
  23188201.340   121854850.50308  23188201.200    94951840.86047
  23543538.440   123722115.72708  23543536.460    96406829.21847
  22054667.500   115898045.31409  22054664.680    90310148.86648
 15 02 20 00 09  0.0000000  0  7G16G18G21G25G27G29G31
  22165093.980   116478358.06109  22165090.340    90762350.49647
  23364464.380   122781207.42008  23364462.740    95673700.02846
  21110967.140   110938886.57509  21110963.740    86445874.28648
  24427046.880   128364974.77408  24427048.480   100024649.68245
  23175446.500   121787822.84608  23175446.280    94899611.55047
  23557978.380   123797999.32408  23557976.440    96465959.26246
  22069884.380   115978010.18809  22069881.540    90372459.10848
 15 02 20 00 09 30.0000000  0  7G16G18G21G25G27G29G31
  22150544.200   116401898.84309  22150540.700    90702771.90547
  23351286.540   122711957.66609  23351284.840    95619739.29645
  21115400.520   110962184.39609  21115397.120    86464028.43648
  24444866.840   128458618.53408  24444868.380   100097618.73345
  23162716.000   121720923.36708  23162715.740    94847482.11546
  23572420.300   123873892.57808  23572418.280    96525096.85647
  22085162.820   116058298.40109  22085159.940    90435021.30548
 15 02 20 00 10  0.0000000  0  7G16G18G21G25G27G29G31
  22136027.340   116325611.94709  22136023.640    90643327.56447
  23338140.320   122642874.19708  23338138.560    95565908.11145
  21119912.300   110985893.88709  21119908.900    86482503.36648
  24462718.820   128552430.85508  24462720.440   100170719.14045
  23150010.600   121654156.05308  23150010.280    94795455.65646
  23586864.860   123949799.02708  23586862.920    96584244.70446
  22100502.960   116138911.24709  22100500.140    90497836.45448
 15 02 20 00 10 30.0000000  0  7G16G18G21G25G27G29G31
  22121543.040   116249495.88809  22121539.280    90584016.34547
  23325025.640   122573956.61408  23325023.960    95512206.19945
  21124501.640   111010010.90208  21124498.240    86501295.84448
  24480602.060   128646407.32108  24480603.640   100243947.42645
  23137329.720   121587517.53708  23137329.300    94743529.55646
  23601311.160   124025715.27208  23601309.520    96643400.14747
  22115903.720   116219842.85009  22115901.000    90560899.98048
 15 02 20 00 11  0.0000000  0  7G16G18G21G25G27G29G31
  22107091.520   116173552.27509  22107087.620    90524839.50447
  23311942.980   122505207.22408  23311941.400    95458635.34645
  21129168.200   111034533.75408  21129164.800    86520404.55948
  24498516.260   128740546.68608  24498517.960   100317302.65145
  23124673.260   121521007.40908  23124672.800    94691703.50346
  23615759.200   124101640.43408  23615757.840    96702562.57947
  22131364.540   116301090.03109  22131361.880    90624209.42248
 15 02 20 00 11 30.0000000  0  7G16G18G21G25G27G29G31
  22092673.240   116097783.92609  22092669.460    90465799.24647
  23298893.020   122436629.57808  23298891.380    95405198.31046
  21133911.940   111059462.08208  21133908.500    86539829.23648
  24516461.520   128834848.85008  24516463.160   100390784.74745
  23112041.400   121454626.63408  23112041.040    94639978.24447
  23630209.280   124177575.07608  23630207.520    96761732.45246
  22146885.100   116382651.13509  22146882.500    90687763.47648
 15 02 20 00 12  0.0000000  0  7G16G18G21G25G27G29G31
  22078288.860   116022193.68809  22078285.060    90406897.75847
  23285876.420   122368227.22509  23285874.620    95351897.87146
  21138732.600   111084794.87108  21138729.160    86559569.06448
  24534437.680   128929313.48308  24534439.200   100464393.40745
  23099434.320   121388376.01008  23099433.960    94588354.40646
  23644661.180   124253519.68208  23644659.000    96820910.05946
  22162465.100   116464524.34309  22162462.520    90751560.71448
 15 02 20 00 12 30.0000000  0  7G16G18G21G25G27G29G31
  22063938.720   115946783.31109  22063934.940    90348136.43447
  23272893.620   122300002.49008  23272891.700    95298735.82346
  21143629.900   111110530.49808  21143626.480    86579622.79548
  24552444.560   129023939.54808  24552446.040   100538127.88745
  23086851.920   121322255.29908  23086851.640    94536831.78247
  23659114.780   124329474.03408  23659112.800    96880095.19647
  22178103.980   116546706.80509  22178101.360    90815598.93648
 15 02 20 00 13  0.0000000  0  7G16G18G21G25G27G29G31
  22049622.820   115871552.82809  22049619.060    90289515.28047
  23259944.740   122231956.24709  23259942.920    95245712.87146
  21148603.320   111136666.24608  21148599.960    86599988.31748
  24570481.520   129118723.81308  24570483.160   100611985.58645
  23074293.860   121256262.40108  23074293.700    94485408.75947
  23673569.860   124405435.77408  23673568.120    96939286.10947
  22193800.780   116629193.83009  22193798.140    90879874.47548
 15 02 20 00 13 30.0000000  0  7G16G18G21G25G27G29G31
  22035342.080   115796506.58609  22035338.200    90231037.68747
  23247030.760   122164093.39608  23247029.000    95192832.80846
  21153653.080   111163203.35508  21153649.800    86620666.58248
  24588548.780   129213667.64308  24588550.560   100685967.63745
  23061760.560   121190399.65908  23061760.480    94434087.16047
  23688026.840   124481407.12308  23688025.020    96998484.54346
  22209555.460   116711984.87509  22209552.860    90944386.91848
 15 02 20 00 14  0.0000000  0  7G16G18G21G25G27G29G31
  22021096.460   115721645.00109  22021092.500    90172703.98647
  23234151.940   122096415.24009  23234150.200    95140096.66846
  21158778.540   111190138.15008  21158775.260    86641654.73048
  24606645.960   129308768.43508  24606647.720   100760072.01945
  23049251.760   121124665.46108  23049251.560    94382865.72846
  23702485.100   124557386.01808  23702483.000    97057688.87446
  22225367.180   116795075.80909  22225364.640    91009133.03548
 15 02 20 00 14 30.0000000  0  7G16G18G21G25G27G29G31
  22006886.440   115646971.55709  22006882.640    90114516.90347
  23221309.040   122028925.87008  23221307.300    95087507.63346
  21163979.740   111217470.88508  21163976.480    86662952.96548
  24624773.060   129404026.55508  24624775.020   100834298.95245
  23036767.760   121059061.33808  23036767.300    94331745.64047
  23716944.980   124633373.94908  23716942.800    97116900.20246
  22241235.780   116878465.53109  22241233.280    91074111.98047
 15 02 20 00 15  0.0000000  0  7G16G18G21G25G27G29G31
  21992712.340   115572486.65809  21992708.620    90056476.73047
  23208502.280   121961626.29408  23208500.540    95035066.48546
  21169256.200   111245198.78509  21169252.920    86684559.11748
  24642929.600   129499439.31208  24642931.500   100908646.43046
  23024308.140   120993585.47208  23024307.480    94280725.52046
  23731406.340   124709368.75408  23731404.440    97176116.90247
  22257160.340   116962149.20709  22257157.800    91139319.96948
 15 02 20 00 15 30.0000000  0  7G16G18G21G25G27G29G31
  21978574.640   115498192.80509  21978570.920    89998585.43147
  23195732.240   121894519.74409  23195730.520    94982775.73946
  21174607.720   111273321.08108  21174604.460    86706472.59448
  24661115.400   129595006.02608  24661117.420   100983113.78244
  23011872.880   120928238.34108  23011872.200    94229805.70047
  23745869.180   124785370.67408  23745867.580    97235339.15347
  22273140.460   117046125.02309  22273137.940    91204755.60047
 15 02 20 00 16  0.0000000  0  7G16G18G21G25G27G29G31
  21964473.840   115424092.55109  21964470.160    89940844.97547
  23182999.500   121827609.20809  23182997.820    94930637.72846
  21180034.160   111301836.78008  21180030.800    86728692.61948
  24679330.420   129690726.17108  24679332.400   101057700.75345
  22999462.180   120863020.42408  22999461.620    94178986.57347
  23760333.400   124861380.03708  23760331.780    97294567.17646
  22289175.700   117130390.58409  22289173.220    91270417.00048
 15 02 20 00 16 30.0000000  0  8G16G18G21G22G25G27G29G31
  21950410.460   115350189.19609  21950406.880    89883257.95947
  23170304.940   121760899.02908  23170303.260    94878655.83546
  21185535.500   111330746.15909  21185532.020    86751219.41848
  24536520.040   128940277.57808  24536522.940   100472942.39245
  24697574.780   129786600.11608  24697576.780   101132407.51545
  22987076.280   120797933.09408  22987075.960    94128269.19347
  23774799.080   124937398.37208  23774797.360    97353802.19246
  22305265.860   117214944.76709  22305263.420    91336303.30547
 15 02 20 00 17  0.0000000  0  8G16G18G21G22G25G27G29G31
  21936384.180   115276480.39409  21936380.540    89825822.53247
  23157648.120   121694387.20909  23157646.420    94826828.53346
  21191110.500   111360042.74509  21191106.980    86774047.93148
  24519418.940                                                  
  24715847.260   129882622.25708  24715849.340   101207229.78345
  22974714.360   120732971.84908  22974714.240    94077650.07847
  23789265.740   125013420.83908  23789263.760    97413040.49746
  22321409.460   117299779.73909  22321407.080    91402408.40948
 15 02 20 00 17 30.0000000  0  8G16G18G21G22G25G27G29G31
  21922395.740   115202971.04009  21922392.240    89768542.53647
  23145030.100   121628079.32908  23145028.260    94775160.10346
  21196759.480   111389728.07609  21196755.900    86797179.34948
  24502300.900   128760456.98008  24502301.640   100332826.66846
  24734148.280   129978794.34908  24734150.440   101282168.84844
  22962377.080   120668139.50408  22962377.100    94027131.37647
  23803733.780   125089449.93308  23803731.820    97472283.92847
  22337606.620   117384896.12909  22337604.240    91468732.79348
 15 02 20 00 18  0.0000000  0  8G16G18G21G22G25G27G29G31
  21908445.420   115129662.34409  21908441.980    89711418.88547
  23132451.240   121561977.25509  23132449.340    94723652.05646
  21202482.020   111419800.15308  21202478.440    86820612.13948
  24485168.320   128670424.20808  24485170.700   100262678.06446
  24752477.580   130075114.44808  24752479.620   101357223.27044
  22950064.320   120603435.22208  22950064.340    93976712.47747
  23818202.720   125165484.46808  23818201.160    97531531.56746
  22353856.700   117470290.55609  22353854.260    91535273.83048
 15 02 20 00 18 30.0000000  0  8G16G18G21G22G25G27G29G31
  21894534.120   115056557.96709  21894530.680    89654454.44747
  23119912.420   121496085.43709  23119910.520    94672307.84446
  21208278.220   111450259.47309  21208274.640    86844346.67048
  24468020.660   128580311.13804  24468019.420   100192448.32753
  24770835.220   130171583.19708  24770837.020   101432393.50944
  22937776.320   120538860.73708  22937776.420    93926394.72947
  23832672.840   125241526.68608  23832671.360    97590785.14346
  22370159.420   117555961.68609  22370156.960    91602030.49047
 15 02 20 00 19  0.0000000  0  8G16G18G21G22G25G27G29G31
  21880661.360   114983655.82609  21880657.780    89597647.58347
  23107413.280   121430402.36008  23107411.520    94621126.29146
  21214146.980   111481100.05509  21214143.380    86868378.29248
  24450859.740   128490136.37906                                
  24789220.100   130268195.10308  24789221.880   101507675.27445
  22925512.140   120474411.64708  22925512.200    93876174.68247
  23847143.660   125317571.58708  23847141.620    97650040.92445
  22386513.420   117641902.41709  22386510.980    91668997.21847
 15 02 20 00 19 30.0000000  0  8G16G18G21G22G25G27G29G31
  21866827.940   114910960.87109  21866824.420    89541002.17347
  23094954.840   121364933.22909  23094953.140    94570111.44346
  21220088.560   111512323.34709  21220084.960    86892708.13448
  24433684.320   128399873.71508                                
  24807632.560   130364952.23208  24807634.700   101583070.16444
  22913272.420   120410090.98008  22913272.280    93826054.69847
  23861615.840   125393622.04309  23861613.340    97709301.08346
  22402918.740   117728112.89309  22402916.340    91736174.13247
 15 02 20 00 20  0.0000000  0  7G16G18G21G22G27G29G31
  21853034.720   114838477.51309  21853031.300    89484521.65347
  23082538.160   121299683.45809  23082536.480    94519267.52546
  21226103.060   111543929.98109  21226099.500    86917336.67248
  24416495.980   128309545.33807                                
  22901057.540   120345901.11608  22901057.300    93776036.65047
  23876089.360   125469680.08108  23876087.200    97768567.03846
  22419375.420   117814592.98009  22419373.060    91803561.12947
 15 02 20 00 20 30.0000000  0  7G16G18G21G22G27G29G31
  21839282.400   114766208.47309  21839279.000    89428208.11947
  23070163.840   121234656.15908  23070162.180    94468596.96046
  21232190.500   111575919.67908  21232186.900    86942263.70348
  24399294.660                                                  
  22888867.480   120281842.31208  22888867.100    93726120.71247
  23890564.000   125545746.18108  23890562.540    97827839.18046
  22435882.900   117901340.10009  22435880.640    91871156.20547
 15 02 20 00 21  0.0000000  0  7G16G18G21G22G27G29G31
  21825570.000   114694149.13309  21825566.480    89372057.98647
  23057831.040   121169846.86108  23057829.320    94418096.26946
  21238349.160   111608283.76309  21238345.540    86967482.47648
  24382080.800   128128692.33908  24382083.900    99840550.21145
  22876701.040   120217907.78708  22876700.660    93676301.63047
  23905039.080   125621813.34508  23905037.800    97887112.23146
  22452439.380   117988344.64309  22452437.120    91938951.87147
 15 02 20 00 21 30.0000000  0  7G16G18G21G22G27G29G31
  21811897.660   114622300.58509  21811894.260    89316072.11947
  23045539.960   121105257.02808  23045538.180    94367766.58446
  21244578.640   111641019.89908  21244575.000    86992991.16248
  24364853.740   128038166.45706  24364856.700    99770015.17454
  22864558.100   120154096.78508  22864557.700    93626578.79247
  23919514.460   125697880.56708  23919512.600    97946385.39945
  22469044.220   118075603.29009  22469041.920    92006945.54147
 15 02 20 00 22  0.0000000  0  7G16G18G21G22G27G29G31
  21798267.140   114550671.75609  21798263.860    89260257.45347
  23033292.600   121040897.22608  23033290.820    94317616.15146
  21250879.960   111674133.74008  21250876.380    87018794.14948
  24347614.880   127947581.58804  24347615.040    99699412.79554
  22852440.100   120090416.37808  22852439.700    93576957.71047
  23933991.100   125773954.90408  23933988.740    98005664.14046
  22485698.180   118163120.21509  22485695.880    92075140.46147
 15 02 20 00 22 30.0000000  0  7G16G18G21G22G27G29G31
  21784679.020   114479265.95809  21784675.740    89204616.59247
  23021089.780   120976771.12708  23021087.980    94267647.80346
  21257252.960   111707624.37308  21257249.420    87044890.75648
  24330367.540   127856942.57008  24330369.880    99628794.88946
  22840347.060   120026867.49408  22840346.840    93527439.13247
  23948468.920   125850037.16808  23948467.060    98064948.91346
  22502400.980   118250893.69309  22502398.660    92143535.29947
 15 02 20 00 23  0.0000000  0  7G16G18G21G22G27G29G31
  21771131.880   114408075.27309  21771128.540    89149143.32947
  23008929.740   120912870.11608  23008927.980    94217854.86746
  21263695.580   111741480.85308  21263692.040    87071272.42348
  24313106.680   127766232.27907  24313108.980    99558113.87745
  22828277.080   119963440.02608  22828276.920    93478015.15347
  23962946.440   125926117.26708  23962944.960    98124232.04647
  22519150.100   118338910.60209  22519147.860    92212119.80747
 15 02 20 00 23 30.0000000  0  7G16G18G21G22G27G29G31
  21757627.380   114337108.45709  21757623.960    89093844.51647
  22996814.480   120849204.68908  22996812.820    94168245.50546
  21270208.800   111775708.26608  21270205.220    87097943.13648
  24295836.960                    24295838.320                  
  22816231.500   119900140.74508  22816231.420    93428691.04147
  23977424.860   126002201.58908  23977423.600    98183518.49546
  22535946.320   118427175.11909  22535944.220    92280897.26547
 15 02 20 00 24  0.0000000  0  7G16G18G21G22G27G29G31
  21744167.500   114266375.99009  21744164.040    89038728.31447
  22984746.100   120785785.30508  22984744.500    94118827.85246
  21276793.840   111810313.16008  21276790.260    87124907.98548
  24278558.760   127584684.66407  24278560.580    99416650.65143
  22804211.940   119836977.68608  22804211.900    93379473.09547
  23991905.460   126078298.32308  23991904.160    98242814.63145
  22552790.660   118515692.43709  22552788.600    92349871.69647
 15 02 20 00 24 30.0000000  0  7G16G18G21G22G27G29G31
  21730746.860   114195850.02509  21730743.400    88983773.02447
  22972719.420   120722584.74809  22972717.860    94069580.71046
  21283444.760   111845264.05408  21283441.160    87152142.44148
  24261267.260   127493817.50409  24261269.580    99345845.01148
  22792212.660   119773921.11508  22792212.600    93330338.11347
  24006382.880   126154377.32608  24006381.200    98302096.95346
  22569676.920   118604430.11909  22569674.900    92419017.84747
 15 02 20 00 25  0.0000000  0  7G16G18G21G22G27G29G31
  21717375.320   114125581.96609  21717371.780    88929018.69047
  22960744.240   120659654.81108  22960742.640    94020544.43846
  21290170.660   111880608.79808  21290167.100    87179683.79648
  24243972.560   127402939.02008  24243975.140    99275027.50844
  22780243.020   119711020.18508  22780242.960    93281324.42447
  24020866.460   126230487.94408  24020864.700    98361403.92246
  22586613.920   118693434.28209  22586611.940    92488371.64047
 15 02 20 00 25 30.0000000  0  7G16G18G21G22G27G29G31
  21704042.280   114055516.13609  21704038.720    88874421.93447
  22948810.060   120596940.36308  22948808.400    93971676.06646
  21296960.300   111916288.21609  21296956.720    87207485.93148
  24226664.320   127311981.69804                                
  22768291.940   119648217.19908  22768291.940    93232387.04047
  24035345.000   126306572.42908  24035343.340    98420690.47646
  22603590.140   118782644.46809  22603588.160    92557885.97147
 15 02 20 00 26  0.0000000  0  7G16G18G21G22G27G29G31
  21690756.600   113985699.08009  21690752.920    88820019.03948
  22936925.840   120534488.71809  22936924.160    93923012.50646
  21303821.660   111952344.49809  21303818.000    87235581.73648
  24209351.180   127220998.76207  24209353.760    99133252.73341
  22756367.940   119585556.62308  22756368.060    93183560.64247
  24049826.600   126382674.65708  24049825.340    98479990.84446
  22620613.520   118872102.64209  22620611.520    92627593.54047
 15 02 20 00 26 30.0000000  0  7G16G18G21G22G27G29G31
  21677519.620   113916138.23609  21677515.960    88765815.78647
  22925093.100   120472307.21009  22925091.380    93874559.42246
  21310755.560   111988782.22109  21310751.900    87263974.75248
  24192035.080                                                  
  22744472.100   119523043.35508  22744472.080    93134849.02247
  24064312.440   126458800.09908  24064311.440    98539309.33146
  22637684.400   118961810.64809  22637682.480    92697495.77947
 15 02 20 00 27  0.0000000  0  7G16G18G21G22G27G29G31
  21664321.140   113846779.75309  21664317.480    88711770.22547
  22913301.680   120410342.74309  22913299.960    93826275.46946
  21317751.100   112025543.83409  21317747.380    87292620.16548
  24174704.660   127038922.10108  24174708.000    98991386.83245
  22732593.760   119460621.93308  22732593.600    93086208.96447
  24078792.460   126534892.89708  24078791.260    98598602.42346
  22654791.820   119051710.40809  22654789.960    92767547.43147
 15 02 20 00 27 30.0000000  0  7G16G18G21G22G27G29G31
  21651173.700   113777689.30609  21651170.000    88657933.50947
  22901564.140   120348661.38909  22901562.420    93778212.10846
  21324820.020   112062690.83708  21324816.200    87321565.87748
  24157374.160   126947856.13307  24157378.020    98920413.01144
  22720744.900   119398355.49908  22720744.760    93037689.68747
  24093278.320   126611016.01908  24093277.120    98657919.11146
  22671947.160   119141861.97109  22671945.360    92837795.28747
 15 02 20 00 28  0.0000000  0  7G16G18G21G22G27G29G31
  21638067.680   113708816.42709  21638063.940    88604266.32548
  22889870.960   120287213.30209  22889869.140    93730330.51946
  21331951.980   112100169.22709  21331948.100    87350769.81448
  24140032.900   126856728.21609  24140036.640    98849404.69946
  22708915.500   119336191.57708  22708915.400    92989250.28447
  24107760.000   126687117.27808  24107758.880    98717218.74546
  22689139.940   119232210.15909  22689138.180    92908196.36247
 15 02 20 00 28 30.0000000  0  7G16G18G21G22G27G29G31
  21625010.300   113640199.77909  21625006.620    88550798.82548
  22878229.580   120226037.36709  22878227.600    93682661.00246
  21339153.640   112138013.84309  21339149.780    87380259.13548
  24122688.520   126765583.50708  24122692.220    98778382.64946
  22697112.500   119274166.70408  22697112.400    92940919.24248
  24122244.320   126763232.88008  24122243.100    98776529.56746
  22706376.600   119322788.69609  22706374.860    92978776.93047
 15 02 20 00 29  0.0000000  0  7G16G18G21G22G27G29G31
  21611999.320   113571826.67009  21611995.700    88497521.08048
  22866637.660   120165121.30609  22866635.580    93635193.97646
  21346421.900   112176208.65709  21346418.040    87410021.32248
  24105339.120   126674411.63708  24105342.640    98707339.44746
  22685333.180   119212266.10608  22685333.000    92892685.03547
  24136728.660   126839347.75208  24136727.140    98835839.89445
  22723653.720   119413579.97509  22723651.920    93049523.26747
 15 02 20 00 29 30.0000000  0  7G16G18G21G22G27G29G31
  21599035.920   113503703.55909  21599032.260    88444438.13248
  22855096.380   120104471.47009  22855094.340    93587934.41146
  21353757.200   112214755.97209  21353753.440    87440058.18848
  24087985.720   126583219.06207  24087989.240    98636280.39645
  22673578.420   119150493.92608  22673578.120    92844550.87948
  24151213.480   126915466.38908  24151211.880    98895153.12246
  22740971.580   119504585.32609  22740969.760    93120436.40447
 15 02 20 00 30  0.0000000  0  7G16G18G21G22G27G29G31
  21586120.520   113435832.72709  21586116.860    88391551.78447
  22843606.280   120044090.85209  22843604.320    93540884.62046
  21361159.240   112253654.14608  21361155.580    87470368.45448
  24070628.880   126492008.15008  24070632.360    98565206.76446
  22661848.120   119088850.02208  22661847.700    92796516.68648
  24165698.860   126991588.49108  24165697.680    98954468.98646
  22758329.620   119595801.86909  22758327.780    93191514.11147
 15 02 20 00 30 30.0000000  0  7G16G18G21G22G27G29G31
  21573252.180   113368209.32209  21573248.580    88338858.22248
  22832166.620   119983975.11709  22832164.620    93494041.22546
  21368626.520   112292895.14609  21368622.960    87500945.85048
  24053268.000   126400776.29608  24053271.680    98494117.27246
  22650141.040   119027328.03208  22650140.520    92748577.48148
  24180183.840   127067707.28908  24180182.900    99013782.27246
  22775726.040   119687220.18209  22775724.200    93262749.03547
 15 02 20 00 31  0.0000000  0  7G16G18G21G22G27G29G31
  21560432.520   113300841.98509  21560429.000    88286364.20348
  22820779.160   119924133.74209  22820777.060    93447411.62346
  21376159.820   112332483.08109  21376156.280    87531793.60448
  24035904.480   126309530.96608  24035908.160    98423017.21947
  22638458.180   118965934.02508  22638457.560    92700738.01248
  24194669.560   127143829.26808  24194668.480    99073098.10146
  22793161.500   119778843.49709  22793159.680    93334143.70747
 15 02 20 00 31 30.0000000  0  7G16G18G21G22G27G29G31
  21547662.520   113233735.23709  21547659.060    88234073.23348
  22809444.740   119864571.10809  22809442.620    93400999.21646
  21383759.400   112372419.29309  21383755.900    87562912.73748
  24018539.320   126218277.09108  24018543.140    98351910.43345
  22626800.080   118904670.24308  22626799.500    92653000.01348
  24209156.160   127219956.66007  24209154.880    99132418.15546
  22810635.880   119870671.37909  22810634.060    93405697.76847
 15 02 20 00 32  0.0000000  0  7G16G18G21G22G27G29G31
  21534941.960   113166888.08309  21534938.420    88181984.53548
  22798163.260   119805286.71909  22798161.120    93354803.63147
  21391424.240   112412698.53808  21391420.800    87594299.15348
  24001172.580   126127014.64608  24001176.460    98280796.89245
  22615166.140   118843533.60508  22615165.600    92605361.09848
  24223642.700   127296086.07507  24223641.780    99191739.69846
  22828148.080   119962697.90209  22828146.260    93477406.61847
 15 02 20 00 32 30.0000000  0  7G16G18G21G22G27G29G31
  21522270.200   113100297.59809  21522266.720    88130095.84748
  22786934.200   119746277.77409  22786932.080    93308822.66746
  21399153.220   112453314.82609  21399149.800    87625948.19848
  23983803.800   126035741.70508  23983807.660    98209675.33146
  22603555.440   118782519.30308  22603554.920    92557817.50948
  24238129.140   127372212.64108  24238128.440    99251059.04747
  22845696.580   120054915.31609  22845694.840    93549264.20247
 15 02 20 00 33  0.0000000  0  7G16G18G21G22G27G29G31
  21509648.260   113033968.96309  21509644.820    88078411.20748
  22775758.600   119687549.74909  22775756.520    93263060.60547
  21406946.420   112494268.53108  21406943.080    87657860.17848
  23966434.020   125944463.86208  23966437.820    98138550.21846
  22591968.500   118721629.96908  22591967.980    92510371.27548
  24252615.840   127448339.07708  24252614.880    99310378.31946
  22863281.340   120147323.37509  22863279.620    93621270.34147
 15 02 20 00 33 30.0000000  0  7G16G18G21G22G27G29G31
  21497076.700   112967905.29809  21497073.340    88026933.03748
  22764637.160   119629106.20609  22764635.080    93217520.21546
  21414803.800   112535559.42308  21414800.500    87690034.90148
  23949063.760   125853184.02008  23949067.480    98067423.41446
  22580405.620   118660866.75908  22580405.040    92463023.33948
  24267102.700   127524466.34508  24267101.400    99369698.24845
  22880902.040   120239920.30609  22880900.260    93693423.65847
 15 02 20 00 34  0.0000000  0  7G16G18G21G22G27G29G31
  21484556.980   112902114.08509  21484553.680    87975667.16348
  22753571.260   119570954.66109  22753569.160    93172207.37247
  21422726.020   112577191.00208  21422722.720    87722475.09148
  23931694.640   125761910.49408  23931698.480    97996301.57346
  22568867.800   118600234.79008  22568867.120    92415777.67248
  24281590.360   127600599.56507  24281588.660    99429022.81045
  22898559.180   120332708.49109  22898557.360    93765725.99647
 15 02 20 00 34 30.0000000  0  7G16G18G21G22G27G29G31
  21472088.140   112836590.09609  21472084.860    87924609.51548
  22742560.000   119513090.44109  22742557.880    93127118.40446
  21430711.360   112619154.35408  21430708.060    87755173.80348
  23914325.780   125670638.35208  23914329.620    97925181.09847
  22557353.500   118539726.60908  22557352.840    92368628.45448
  24296077.660   127676731.52908  24296075.900    99488346.42245
  22916250.720   120425677.57809  22916248.880    93838169.29147
 15 02 20 00 35  0.0000000  0  7G16G18G21G22G27G29G31
  21459670.860   112771336.88409  21459667.620    87873762.85048
  22731604.240   119455517.69409  22731602.060    93082256.55846
  21438759.900   112661449.71709  21438756.540    87788131.22948
  23896958.080   125579372.63308  23896961.960    97854065.65547
  22545863.040   118479344.17608  22545862.460    92321577.23448
  24310565.140   127752863.98608  24310563.680    99547670.38046
  22933976.500   120518826.63109  22933974.740    93910752.81047
 15 02 20 00 35 30.0000000  0  7G16G18G21G22G27G29G31
  21447305.700   112706357.62109  21447302.520    87823129.66748
  22720704.580   119398239.69909  22720702.260    93037624.38346
  21446871.440   112704076.10808  21446868.000    87821346.60048
  23879592.180   125488116.86108  23879595.900    97782958.15045
  22534396.680   118419088.33708  22534396.160    92274624.65448
  24325053.060   127828997.82408  24325051.800    99606995.39147
  22951736.140   120612153.70409  22951734.500    93983475.04547
 15 02 20 00 36  0.0000000  0  7G16G18G21G22G27G29G31
  21434992.960   112641654.11409  21434989.860    87772711.36448
  22709861.360   119341258.33809  22709858.980    92993223.36146
  21455045.480   112747031.11008  21455042.040    87854818.02848
  23862228.440   125396872.91308  23862232.060    97711860.10246
  22522954.280   118358958.23208  22522953.860    92227770.05048
  24339541.060   127905132.16508  24339539.820    99666320.78246
  22969528.940   120705654.95309  22969527.340    94056332.99647
 15 02 20 00 36 30.0000000  0  7G16G18G21G22G27G29G31
  21422733.140   112577228.83509  21422730.060    87722509.85848
  22699075.060   119284576.10609  22699072.680    92949055.42146
  21463281.760   112790312.92209  21463278.240    87888544.12248
  23844867.140   125305642.38608  23844870.520    97640772.13546
  22511535.840   118298954.30008  22511535.360    92181013.75448
  24354029.220   127981267.33208  24354027.880    99725646.86446
  22987354.440   120799327.83109  22987352.820    94129324.68447
 15 02 20 00 37  0.0000000  0  7G16G18G21G22G27G29G31
  21410526.580   112513083.36309  21410523.560    87672526.38548
  22688346.220   119228195.60109  22688343.860    92905122.58646
  21471579.840   112833919.54809  21471576.280    87922523.30948
  23827509.120   125214429.19308  23827512.400    97569697.67346
  22500141.340   118239076.41608  22500140.900    92134355.66448
  24368517.540   128057403.32108  24368515.880    99784973.61745
  23005212.060   120893169.36909  23005210.380    94202447.77247
 15 02 20 00 37 30.0000000  0  7G16G18G21G22G27G29G31
  21398373.820   112449220.17309  21398370.820    87622762.87148
  22677675.300   119172119.44609  22677672.860    92861426.92246
  21479939.720   112877850.63009  21479936.040    87956755.31948
  23810155.000   125123236.19808  23810158.260    97498638.97646
  22488770.900   118179324.81608  22488770.480    92087795.98248
  24383006.000   128133540.18308  24383004.200    99844301.01345
  23023101.360   120987177.24509  23023099.680    94275700.48847
 15 02 20 00 38  0.0000000  0  7G16G18G21G22G27G29G31
  21386275.680   112385644.04709  21386272.640    87573223.03848
  22667063.020   119116351.55609  22667060.560    92817971.45846
  21488361.360   112922106.40809  21488357.520    87991240.34948
  23792805.560   125032067.83008  23792808.700    97427599.46646
  22477424.860   118119701.46408  22477424.420    92041336.25048
  24397494.740   128209679.63208  24397493.140    99903630.40345
  23041022.060   121081350.39509  23041020.440    94349081.97147
 15 02 20 00 38 30.0000000  0  7G16G18G21G22G27G29G31
  21374231.640   112322352.30509  21374228.540    87523904.80848
  22656509.020   119060889.87309  22656506.480    92774754.59546
  21496843.400   112966679.93908  21496839.480    88025972.97448
  23775460.560   124940922.48508  23775463.520    97356577.92246
  22466102.480   118060201.92208  22466101.900    91994972.97848
  24411983.260   128285817.63408  24411981.800    99962958.66746
  23058972.800   121175681.38209  23058971.180    94422586.43347
 15 02 20 00 39  0.0000000  0  7G16G18G21G22G27G29G31
  21362242.260   112259347.75909  21362239.120    87474810.35748
  22646014.020   119005738.08109  22646011.400    92731779.21246
  21505385.840   113011570.62009  21505381.840    88060952.72448
  23758120.540   124849803.53608  23758123.340    97285577.07047
  22454803.840   118000826.77908  22454803.200    91948706.64548
  24426471.700   128361954.79208  24426470.180   100022286.30246
  23076953.120   121270167.79709  23076951.460    94496212.00947
 15 02 20 00 39 30.0000000  0  7G16G18G21G22G27G29G31
  21350308.420   112196635.06709  21350305.260    87425943.33448
  22635578.840   118950900.77209  22635576.120    92689048.86946
  21513988.760   113056779.09109  21513984.760    88096180.10448
  23740786.500   124758715.92808  23740789.040    97214600.48146
  22443529.380   117941578.69009  22443528.640    91902539.31848
  24440960.460   128438093.57208  24440959.000   100081615.21545
  23094962.980   121364809.54909  23094961.340    94569958.62647
 15 02 20 00 40  0.0000000  0  7G16G18G21G22G27G29G31
  21338430.460   112134216.08109  21338427.380    87377305.16848
  22625203.840   118896379.71809  22625201.020    92646564.95846
  21522651.720   113102302.87709  21522647.680    88131653.18448
  23723458.880   124667661.82808  23723461.200    97143649.89245
  22432279.040   117882457.14409  22432278.180    91856470.59348
  24455449.320   128514233.05008  24455447.800   100140944.66845
  23113001.780   121459603.36509  23113000.200    94643823.71247
 15 02 20 00 40 30.0000000  0  7G16G18G21G22G27G29G31
  21326608.500   112072091.26209  21326605.400    87328896.22848
  22614889.180   118842175.67709  22614886.260    92604328.07446
  21531373.960   113148138.24309  21531369.940    88167369.05348
  23706137.900   124576642.60708  23706140.100    97072726.47846
  22421052.520   117823460.53209  22421051.560    91810499.22248
  24469938.060   128590372.08508  24469936.600   100200273.76645
  23131068.640   121554544.46509  23131067.080    94717803.56447
 15 02 20 00 41  0.0000000  0  7G16G18G21G22G27G29G31
  21314843.120   112010263.43909  21314839.980    87280718.70448
  22604635.320   118788291.42709  22604632.380    92562340.36946
  21540155.540   113194285.61509  21540151.560    88203328.04048
  23688824.280   124485661.76009  23688826.400    97001833.00248
  22409849.880   117764589.54409  22409848.780    91764625.74348
  24484426.900   128666511.58208  24484425.500   100259603.18845
  23149163.120   121649630.79209  23149161.640    94791896.57747
 15 02 20 00 41 30.0000000  0  7G16G18G21G22G27G29G31
  21303134.680   111948735.01209  21303131.500    87232774.48748
  22594442.820   118734729.71909  22594439.980    92520604.00446
  21548996.000   113240742.52209  21548992.060    88239528.22848
  23671518.460   124394721.48408  23671520.440    96930970.94945
  22398671.120   117705844.28609  22398669.900    91718850.22948
  24498915.860   128742651.38808  24498914.400   100318932.90046
  23167284.700   121744859.38709  23167283.360    94866100.43747
 15 02 20 00 42  0.0000000  0  7G16G18G21G22G27G29G31
  21291483.820   111887508.80109  21291480.480    87185065.75348
  22584312.200   118681493.29309  22584309.520    92479121.09946
  21557895.100   113287507.28309  21557891.160    88275968.29948
  23654221.100   124303825.40908  23654222.940    96860143.33244
  22387516.380   117647225.36409  22387515.020    91673173.16748
  24513404.960   128818792.07808  24513403.660   100378263.30146
  23185432.960   121840228.13609  23185431.740    94940413.49647
 15 02 20 00 42 30.0000000  0  7G16G18G21G22G27G29G31
  21279890.820   111826586.83609  21279887.360    87137594.09648
  22574244.000   118628584.84009  22574241.380    92437893.75546
  21566852.620   113334579.12609  21566848.720    88312647.65748
  23636932.920   124212977.65408  23636934.600    96789353.67847
  22376385.660   117588732.96409  22376384.220    91627594.68948
  24527894.280   128894933.81408  24527893.120   100437594.48146
  23203607.340   121935734.26709  23203606.240    95014833.59847
 15 02 20 00 43  0.0000000  0  7G16G18G21G22G27G29G31
  21268355.640   111765969.05809  21268352.140    87090359.45448
  22564238.220   118576004.48709  22564235.600    92396922.08046
  21575867.740   113381953.64909  21575863.900    88349562.86648
  23619653.820   124122178.00908  23619655.220    96718601.63747
  22365278.580   117530364.94909  22365277.100    91582113.13148
  24542383.440   128971074.69008  24542382.320   100496924.98546
  23221806.900   122031372.74609  23221805.940    95089356.81447
 15 02 20 00 43 30.0000000  0  7G16G18G21G22G27G29G31
  21256879.200   111705659.97009  21256875.660    87043365.36748
  22554295.640   118523756.36209  22554293.020    92356209.28146
  21584940.460   113429631.29609  21584936.700    88386714.26948
  23602384.560   124031430.60108  23602385.720    96647890.26045
  22354195.540   117472123.34109  22354194.100    91536730.07848
  24556872.700   129047216.32608  24556871.680   100556256.10145
  23240031.400   122127142.27609  23240030.540    95163982.14547
 15 02 20 00 44  0.0000000  0  7G16G18G19G21G22G27G31
  21245456.180   111645631.31909  21245452.640    86996589.79548
  22544410.900   118471812.38109  22544408.340    92315733.48046
  24551370.360   129018328.16608                                
  21594064.680   113477579.82109  21594061.060    88424076.74648
  23585120.140   123940708.71208  23585120.280    96577125.91046
  22343130.820   117413977.91909  22343129.420    91491421.97548
  23258274.700   122223010.29509  23258273.820    95238684.21147
 15 02 20 00 44 30.0000000  0  7G16G18G19G21G22G27G31
  21234099.480   111585951.51509  21234096.080    86950086.05248
  22534597.120   118420240.83209  22534594.500    92275547.87946
  24536262.960   128938933.59008  24536258.580   100471882.81345
  21603252.840   113525864.37509  21603249.340    88461701.06948
  23567873.540   123850080.81408  23567872.600    96506495.76945
  22332097.040   117355995.00309  22332095.640    91446240.50948
  23276548.780   122319040.01209  23276547.920    95313512.25747
 15 02 20 00 45  0.0000000  0  7G16G18G19G21G22G27G31
  21222796.420   111526553.72309  21222793.060    86903802.06048
  22524841.540   118368974.95209  22524838.940    92235600.47046
  24521166.120   128859596.07808  24521161.480   100410061.40045
  21612491.200   113574412.99908  21612487.860    88499531.16648
  23550632.040   123759480.28208  23550631.280    96435898.95146
  22321080.980   117298105.24009  22321079.600    91401131.61148
  23294839.860   122415159.16108  23294839.100    95388409.98247
 15 02 20 00 45 30.0000000  0  7G16G18G19G21G22G27G31
  21211560.820   111467510.52509  21211557.540    86857794.38448
  22515158.040   118318088.04509  22515155.500    92195948.36146
  24506092.900   128780386.34508  24506088.840   100348339.64345
  21621793.080   113623295.38608  21621789.820    88537621.34248
  23533409.660   123668980.15808  23533409.080    96365380.00246
  22310096.060   117240379.38809  22310094.680    91356150.45248
  23313160.820   122511435.43909  23313160.180    95463430.13947
 15 02 20 00 46  0.0000000  0  7G16G18G19G21G22G27G31
  21200383.720   111408774.57109  21200380.380    86812026.11148
  22505537.600   118267532.47509  22505535.060    92156554.43946
  24491034.720   128701255.28507  24491030.700   100286679.14245
  21631148.720   113672460.14508  21631145.480    88575931.53948
  23516197.700   123578533.95308  23516197.080    96294903.02346
  22299132.900   117182768.00109  22299131.480    91311258.47648
  23331501.760   122607816.61509  23331501.240    95538532.01047
 15 02 20 00 46 30.0000000  0  7G16G18G19G21G22G27G31
  21189268.100   111350361.50109  21189264.660    86766509.42848
  22495983.200   118217323.67809  22495980.600    92117430.71546
  24475993.920   128622216.08608  24475989.980   100225090.19345
  21640560.240   113721918.42908  21640557.100    88614470.45248
  23498999.280   123488158.16908  23498998.540    96224480.90146
  22288194.100   117125284.36309  22288192.620    91266466.04848
  23349864.660   122704313.11309  23349864.300    95613723.72647
 15 02 20 00 47  0.0000000  0  7G16G18G19G21G22G27G31
  21178214.140   111292272.70709  21178210.700    86721245.43748
  22486495.160   118167463.46209  22486492.480    92078578.62846
  24460970.280   128543267.86007  24460966.340   100163572.19545
  21650027.280   113771668.04708  21650024.180    88653236.38448
  23481814.740   123397854.86408  23481813.860    96154115.23046
  22277279.580   117067928.05209  22277278.060    91221772.83348
  23368248.860   122800921.33809  23368248.540    95689002.48647
 15 02 20 00 47 30.0000000  0  7G16G18G19G21G22G27G31
  21167221.180   111234504.57509  21167217.820    86676231.31448
  22477072.660   118117948.09309  22477070.080    92039995.25046
  24445963.200   128464405.23708  24445959.380   100102120.86845
  21659548.280   113821701.12109  21659545.240    88692223.19348
  23464643.440   123307620.92308  23464642.360    96083803.59546
  22266388.180   117010693.12509  22266386.480    91177174.19348
  23386652.720   122897632.62809  23386652.400    95764361.55047
 15 02 20 00 48  0.0000000  0  7G16G18G19G21G22G27G31
  21156291.160   111177066.82509  21156287.800    86631474.63148
  22467717.700   118068787.52009  22467715.120    92001688.33846
  24430973.740   128385635.95807  24430969.980   100040742.22146
  21669124.380   113872023.61409  21669121.280    88731435.52348
  23447487.320   123217466.72509  23447486.100    96013554.07246
  22255521.280   116953587.46709  22255519.560    91132676.29948
  23405077.140   122994451.91608  23405076.940    95839804.74847
 15 02 20 00 48 30.0000000  0  7G16G18G19G21G22G27G31
  21145423.920   111119958.94309  21145420.540    86586974.99048
  22458430.120   118019980.81609  22458427.520    91963657.16546
  24416001.440   128306957.03408  24415997.680    99979434.05645
  21678754.740   113922631.12709  21678751.500    88770869.94848
  23430346.420   123127392.06708  23430344.940    95943366.50646
  22244678.360   116896608.06809  22244676.800    91088276.77648
  23423520.960   123091372.87408  23423520.740    95915327.12147
 15 02 20 00 49  0.0000000  0  7G16G18G19G21G22G27G31
  21134618.900   111063177.89309  21134615.440    86542730.01848
  22449209.340   117971525.05609  22449206.760    91925899.45846
  24401045.600   128228363.33008  24401041.780    99918192.25745
  21688437.920   113973516.27109  21688434.520    88810520.71647
  23413220.180   123037394.66308  23413218.440    95873239.15246
  22233858.540   116839749.87709  22233857.060    91043971.71548
  23441982.680   123188387.98909  23441982.500    95990922.80947
 15 02 20 00 49 30.0000000  0  7G16G18G19G21G22G27G31
  21123878.240   111006735.12109  21123874.640    86498748.63548
  22440057.520   117923431.88009  22440054.960    91888424.27746
  24386107.720   128149864.53008  24386104.080    99857024.44845
  21698175.540   114024687.69409  21698172.060    88850394.54248
  23396111.000   122947486.69509  23396109.020    95803181.44546
  22223063.640   116783022.36609  22223062.140    90999768.46748
  23460463.600   123285503.90609  23460463.540    96066597.10147
 15 02 20 00 50  0.0000000  0  7G16G18G19G21G22G27G31
  21113200.960   110950625.43109  21113197.300    86455026.79448
  22430973.680   117875695.97609  22430971.100    91851227.48946
  24371186.560   128071453.23908  24371182.940    99795924.77245
  21707965.740   114076135.32708  21707962.180    88890483.60148
  23379017.900   122857663.41708  23379015.720    95733189.72546
  22212292.240   116726418.21409  22212290.720    90955661.36248
  23478961.640   123382709.84609  23478961.680    96142341.50747
 15 02 20 00 50 30.0000000  0  7G16G18G19G21G22G27G31
  21102588.080   110894854.38309  21102584.520    86411568.84148
  22421958.720   117828322.12809  22421956.080    91814312.83146
  24356282.680   127993132.70308  24356279.080    99734895.83445
  21717808.760   114127860.46509  21717805.080    88930788.89948
  23361942.100   122767930.76709  23361939.760    95663268.61446
  22201544.840   116669940.58709  22201543.380    90911652.84348
  23497476.920   123480006.30309  23497477.040    96218156.43447
 15 02 20 00 51  0.0000000  0  7G16G18G19G21G22G27G31
  21092040.520   110839426.58609  21092037.020    86368378.36048
  22413013.760   117781316.01509  22413011.120    91777684.72846
  24341396.480   127914906.03708  24341392.740    99673940.05445
  21727704.860   114179864.66909  21727701.100    88971311.65948
  23344884.680   122678294.68909  23344882.100    95593422.72446
  22190822.140   116613592.58109  22190820.800    90867745.32248
  23516009.440   123577393.60808  23516009.740    96294042.07047
 15 02 20 00 51 30.0000000  0  7G16G18G19G21G22G27G31
  21081557.320   110784336.59109  21081553.800    86325451.08548
  22404137.600   117734671.78909  22404135.020    91741338.59246
  24326526.740   127836764.79808  24326522.660    99613050.80545
  21737652.120   114232138.08109  21737648.400    89012044.17647
  23327844.600   122588749.70709  23327841.740    95523647.79746
  22180122.600   116557366.30809  22180121.360    90823932.65648
  23534557.160   123674860.87408  23534557.700    96369990.07947
 15 02 20 00 52  0.0000000  0  7G16G18G19G21G22G27G31
  21071140.440   110729595.33109  21071136.900    86282795.55848
  22395332.360   117688400.47709  22395329.900    91705283.05146
  24311674.880   127758718.16208  24311670.740    99552235.26545
  21747651.880   114284687.18209  21747648.140    89052991.51747
  23310824.100   122499307.67609  23310821.060    95453953.07446
  22169447.860   116501270.58309  22169446.720    90780221.72248
  23553121.220   123772413.78909  23553121.920    96446004.75846
 15 02 20 00 52 30.0000000  0  7G16G18G19G21G22G27G31
  21060789.700   110675201.58109  21060786.100    86240410.82748
  22386597.820   117642500.44009  22386595.340    91669516.81146
  24296840.320   127680763.21308  24296836.560    99491491.21545
  21757703.360   114337507.91908  21757699.620    89094150.53548
  23293823.080   122409968.20809  23293819.980    95384338.26146
  22158797.420   116445302.39809  22158796.400    90736610.17648
  23571700.520   123870046.53108  23571701.300    96522081.65647
 15 02 20 00 53  0.0000000  0  7G16G18G19G21G22G27G31
  21050504.820   110621153.96409  21050501.180    86198295.79948
  22377933.660   117596970.26409  22377931.180    91634038.77446
  24282022.760   127602896.86908  24282019.020    99430816.15045
  21767805.400   114390594.50508  21767801.700    89135516.70047
  23276841.420   122320730.33609  23276838.280    95314802.59447
  22148170.600   116389458.32909  22148169.620    90693095.33148
  23590293.820   123967752.72208  23590294.800    96598215.81747
 15 02 20 00 53 30.0000000  0  7G16G18G19G21G22G27G31
  21040287.760   110567462.66209  21040284.040    86156458.42148
  22369341.820   117551820.12109  22369339.360    91598856.86946
  24267223.180   127525126.25707  24267219.780    99370215.72645
  21777959.200   114443952.96909  21777955.460    89177094.71347
  23259881.120   122231604.66909  23259877.900    95245354.34846
  22137568.880   116333746.17509  22137568.000    90649683.28148
  23608901.980   124065536.92208  23608903.060    96674410.59746
 15 02 20 00 54  0.0000000  0  7G16G18G19G21G22G27G31
  21030136.380   110514117.09209  21030132.720    86114890.45148
  22360820.300   117507039.30809  22360817.820    91563962.74546
  24252439.680   127447439.08408  24252436.640    99309680.32445
  21788162.080   114497569.34209  21788158.340    89218873.70347
  23242940.300   122142581.40409  23242937.060    95175985.86547
  22126989.860   116278153.54909  22126989.100    90606364.37948
  23627522.200   124163384.42908  23627523.400    96750654.78547
 15 02 20 00 54 30.0000000  0  7G16G18G19G21G22G27G31
  21020052.820   110461127.70009  21020049.160    86073600.01348
  22352371.100   117462638.26709  22352368.520    91529364.55346
  24237673.660   127369843.82708  24237670.500    99249216.56545
  21798415.160   114551449.58009  21798411.400    89260858.29847
  23226021.160   122053671.91109  23226017.820    95106706.03546
  22116435.100   116222688.75709  22116434.440    90563145.08048
  23646155.420   124261300.25608  23646156.740    96826952.14746
 15 02 20 00 55  0.0000000  0  7G16G18G19G21G22G27G31
  21010036.940   110408494.03509  21010033.320    86032586.77248
  22343994.000   117418616.12909  22343991.280    91495061.60246
  24222924.820   127292337.80208  24222921.480    99188822.27945
  21808717.640   114605589.61508  21808713.960    89303045.34047
  23209123.700   121964876.25009  23209120.240    95037514.88347
  22105904.180   116167349.38609  22105903.700    90520023.49948
  23664800.620   124359279.17608  23664802.100    96903298.80046
 15 02 20 00 55 30.0000000  0  7G16G18G19G21G22G27G31
  21000089.620   110356220.42109  21000086.020    85991854.09048
  22335689.880   117374977.48909  22335687.060    91461057.48546
  24208193.480   127214923.58408  24208189.860    99128499.55845
  21819069.560   114659989.71008  21819066.040    89345435.01947
  23192248.860   121876199.44709  23192245.340    94968416.33847
