     2.11           OBSERVATION DATA    G                   RINEX VERSION / TYPE
SPIDER V4,0,0,3554                      2015 03 23 00:02    PGM / RUN BY / DATE 
ORAN                                                        MARKER NAME         
ORAN                                                        MARKER NUMBER       
                                                            OBSERVER / AGENCY   
462404              LEICA GRX1200PRO    8.20/2.127          REC # / TYPE / VERS 
103294              LEIAT504                                ANT # / TYPE        
  5184926.0915   -52286.2727  3702001.0151                  APPROX POSITION XYZ 
        0.1860        0.0000        0.0000                  ANTENNA: DELTA H/E/N
     1     1                                                WAVELENGTH FACT L1/2
     4    C1    L1    P2    L2                              # / TYPES OF OBSERV 
    30.000                                                  INTERVAL            
  2015    02    20    00    00    0.0000000     GPS         TIME OF FIRST OBS   
  2015    02    20    23    59   30.0000000     GPS         TIME OF LAST OBS    
    16                                                      LEAP SECONDS        
    29                                                      # OF SATELLITES     
   G 1   760   760   760   760                              PRN / # OF OBS      
   G 2   903   903   902   902                              PRN / # OF OBS      
   G 3   804   804   804   804                              PRN / # OF OBS      
   G 4   770   770   770   770                              PRN / # OF OBS      
   G 5   662   662   662   662                              PRN / # OF OBS      
   G 6   631   631   631   631                              PRN / # OF OBS      
   G 7   760   760   759   759                              PRN / # OF OBS      
   G 9   769   769   769   769                              PRN / # OF OBS      
   G10   752   752   752   752                              PRN / # OF OBS      
   G12   797   797   797   797                              PRN / # OF OBS      
   G13   751   751   750   750                              PRN / # OF OBS      
   G14   885   885   885   885                              PRN / # OF OBS      
   G15   739   739   739   739                              PRN / # OF OBS      
   G16   678   678   677   677                              PRN / # OF OBS      
   G17   902   902   901   901                              PRN / # OF OBS      
   G18   849   849   849   849                              PRN / # OF OBS      
   G19   764   764   764   764                              PRN / # OF OBS      
   G20   746   746   746   746                              PRN / # OF OBS      
   G21   648   648   647   647                              PRN / # OF OBS      
   G22   807   807   805   805                              PRN / # OF OBS      
   G23   706   706   706   706                              PRN / # OF OBS      
   G24   771   771   771   771                              PRN / # OF OBS      
   G25   821   821   821   821                              PRN / # OF OBS      
   G27   768   768   768   768                              PRN / # OF OBS      
   G28   823   823   823   823                              PRN / # OF OBS      
   G29   705   705   705   705                              PRN / # OF OBS      
   G30   664   664   664   664                              PRN / # OF OBS      
   G31   727   727   727   727                              PRN / # OF OBS      
   G32   720   720   720   720                              PRN / # OF OBS      
BIT 2 OF LLI FLAGS DATA COLLECTED UNDER A/S CONDITION       COMMENT             
SNR is mapped to RINEX snr flag value [2-9]                 COMMENT             
Lx:     = 25dBHz -> 1; 26-27dBHz -> 2; 28-31dBHz -> 3       COMMENT             
       32-35dBHz -> 4; 36-38dBHz -> 5; 39-41dBHz -> 6       COMMENT             
       42-44dBHz -> 7; 45-48dBHz -> 8; >=49dBHz -> 9        COMMENT             
                                                            END OF HEADER       
 15 02 20 00 00  0.0000000  0  7G16G18G21G25G27G29G31
  22338753.240   117390952.20308  22338752.540    91473472.06446
  23711394.180   124604324.00506  23711395.840    97094336.04843
  21085115.180   110803034.53008  21085113.820    86340025.53148
  24238466.660   127373978.95306  24238469.900    99252455.30344
  23278919.700   122331554.13207  23278921.820    95323294.13546
  23403343.780   122985391.27607  23403343.880    95832769.21745
  21774216.400   114424268.44408  21774215.960    89161759.84148
 15 02 20 00 00 30.0000000  0  7G16G18G21G25G27G29G31
  22324028.840   117313574.69308  22324028.020    91413177.89746
  23697871.000   124533260.21006  23697872.720    97038961.89644
  21088158.440   110819026.84608  21088157.060    86352487.07848
  24255648.560   127464270.53106  24255652.100    99322812.26444
  23265827.140   122262751.91807  23265829.180    95269682.03646
  23418069.280   123062773.83307  23418069.280    95893067.28345
  21788437.540   114499001.10508  21788437.140    89219993.04648
 15 02 20 00 01  0.0000000  0  7G16G18G21G25G27G29G31
  22309330.840   117236336.01408  22309329.960    91352991.91747
  23684368.200   124462302.79906  23684369.660    96983670.56144
  21091284.540   110835454.59708  21091283.160    86365287.92448
  24272863.740   127554736.61106  24272867.360    99393305.25244
  23252761.640   122194092.01307  23252763.640    95216180.83046
  23432796.940   123140167.97307  23432796.880    95953374.36145
  21802729.100   114574103.76008  21802728.720    89278514.55648
 15 02 20 00 01 30.0000000  0  7G16G18G21G25G27G29G31
  22294659.940   117159239.81708  22294658.980    91292916.96246
  23670886.460   124391456.55706  23670887.920    96928465.92145
  21094493.640   110852318.55208  21094492.240    86378428.67348
  24290112.220   127645378.22106  24290115.840    99463934.95944
  23239723.540   122125576.31207  23239725.480    95162791.99046
  23447527.060   123217575.24706  23447527.020    96013691.68946
  21817090.900   114649575.56008  21817090.560    89337323.71248
 15 02 20 00 02  0.0000000  0  7G16G18G21G25G27G29G31
  22280016.060   117082285.71108  22280015.060    91232952.73246
  23657426.100   124320722.59506  23657427.440    96873348.72044
  21097785.160   110869615.80408  21097783.800    86391907.05548
  24307393.620   127736192.40006  24307397.320    99534699.15644
  23226712.480   122057202.62207  23226714.340    95109513.81146
  23462259.140   123294992.93606  23462259.100    96074017.13146
  21831522.160   114725412.28808  21831521.840    89396417.22748
 15 02 20 00 02 30.0000000  0  7G16G18G21G25G27G29G31
  22265399.920   117005477.47108  22265398.920    91173102.15646
  23643987.940   124250104.88706  23643989.140    96818322.11745
  21101159.240   110887347.09708  21101157.940    86405723.65148
  24324707.980   127827180.09406  24324711.840    99605598.57445
  23213728.780   121988972.75007  23213730.640    95056347.70746
  23476993.320   123372422.09206  23476993.400    96134351.49146
  21846022.640   114801612.66408  21846022.340    89455794.10148
 15 02 20 00 03  0.0000000  0  7G16G18G21G25G27G29G31
  22250811.600   116928815.23008  22250810.580    91113365.34646
  23630571.980   124179604.09806  23630573.160    96763386.61744
  21104615.300   110905509.26708  21104614.100    86419875.99448
  24342054.980   127918338.74506  24342058.600    99676631.21143
  23200772.100   121920885.02107  23200773.960    95003292.35347
  23491729.340   123449860.66607  23491729.440    96194693.19345
  21860591.540   114878172.89208  21860591.280    89515451.37948
 15 02 20 00 03 30.0000000  0  7G16G18G21G25G27G29G31
  22236251.580   116852301.57408  22236250.480    91053744.31046
  23617178.980   124109224.02606  23617180.160    96708545.18945
  21108153.400   110924102.25008  21108152.240    86434364.03248
  24359434.620   128009668.22906  24359438.200    99747796.92845
  23187842.620   121852940.16907  23187844.460    94950348.33047
  23506467.340   123527309.42006  23506467.420    96255042.85245
  21875228.640   114955091.16908  21875228.380    89575387.65448
 15 02 20 00 04  0.0000000  0  7G16G18G21G25G27G29G31
  22221720.260   116775938.51008  22221719.060    90994240.62946
  23603809.640   124038968.26106  23603810.660    96653800.58644
  21111773.300   110943124.95308  21111772.140    86449186.92048
  24376846.560   128101167.97406  24376849.980    99819095.33744
  23174940.380   121785138.50807  23174942.280    94897515.89647
  23521207.220   123604767.86006  23521207.280    96315400.05745
  21889933.460   115032365.34108  21889933.160    89635601.25348
 15 02 20 00 04 30.0000000  0  7G16G18G21G25G27G29G31
  22207217.900   116699727.78608  22207216.620    90934855.66046
  23590464.460   123968839.20006  23590465.360    96599154.74545
  21115474.780   110962576.34808  21115473.620    86464343.85148
  24394290.760   128192837.10706  24394294.180    99890525.69544
  23162065.320   121717479.90807  23162067.300    94844794.94447
  23535948.900   123682235.68806  23535949.020    96375764.58245
  21904705.520   115109992.64408  21904705.160    89696090.02248
 15 02 20 00 05  0.0000000  0  7G16G18G21G25G27G29G31
  22192744.880   116623671.33708  22192743.600    90875590.90746
  23577143.700   123898839.09307  23577144.500    96544609.36545
  21119257.660   110982455.47808  21119256.480    86479834.08448
  24411766.880   128284674.64506  24411770.500    99962087.27044
  23149217.460   121649964.29007  23149219.520    94792185.40247
  23550692.260   123759712.19506  23550692.380    96436135.86545
  21919544.260   115187970.59408  21919543.880    89756852.00948
 15 02 20 00 05 30.0000000  0  7G16G18G21G25G27G29G31
  22178301.280   116547769.68908  22178300.020    90816446.77146
  23563847.800   123828969.60006  23563848.660    96490165.75545
  21123121.500   111002760.14608  21123120.340    86495655.90148
  24429274.820   128376678.61906  24429278.380   100033778.60844
  23136396.640   121582590.67007  23136398.700    94739686.50046
  23565436.940   123837195.89506  23565437.060    96496512.72445
  21934449.060   115266295.50808  21934448.620    89817884.36548
 15 02 20 00 06  0.0000000  0  7G16G18G21G25G27G29G31
  22163887.800   116472026.57908  22163886.580    90757426.17746
  23550577.660   123759235.87007  23550578.620    96435827.93244
  21127066.500   111023491.08808  21127065.320    86511809.88648
  24446814.520   128468850.19905  24446818.220   100105600.45744
  23123603.140   121515360.94707  23123605.280    94687299.74246
  23580183.460   123914688.81606  23580183.540    96556896.78746
  21949419.760   115344966.92508  21949419.300    89879186.71748
 15 02 20 00 06 30.0000000  0  7G16G18G21G25G27G29G31
  22149504.500   116396442.12708  22149503.340    90698529.21146
  23537333.500   123689638.49906  23537334.640    96381596.36545
  21131091.940   111044644.89708  21131090.760    86528293.37648
  24464385.660   128561186.36905  24464389.200   100177550.65445
  23110836.640   121448273.11206  23110838.920    94635023.54146
  23594931.160   123992188.16906  23594931.320    96617285.88345
  21964455.560   115423980.26408  21964455.040    89940755.51148
 15 02 20 00 07  0.0000000  0  7G16G18G21G25G27G29G31
  22135152.200   116321020.55508  22135151.120    90639759.16347
  23524116.280   123620182.29507  23524117.500    96327474.78345
  21135198.080   111066222.77708  21135196.920    86545107.30848
  24481988.080   128653688.53305  24481992.140   100249630.07244
  23098097.500   121381329.36206  23098099.920    94582859.61347
  23609680.360   124069695.86706  23609680.600    96677681.44545
  21979556.320   115503335.09908  21979555.820    90002590.39947
 15 02 20 00 07 30.0000000  0  7G16G18G21G25G27G29G31
  22120830.460   116245759.70508  22120829.420    90581114.34747
  23510925.660   123550866.08106  23510926.940    96273462.27045
  21139384.000   111088219.89308  21139382.840    86562247.91648
  24499621.440   128746351.89205  24499625.360   100321835.21344
  23085385.120   121314525.92506  23085387.540    94530804.99746
  23624430.380   124147207.72706  23624430.680    96738080.26645
  21994720.880   115583025.06608  21994720.380    90064686.42648
 15 02 20 00 08  0.0000000  0  7G16G18G21G25G27G29G31
  22106540.400   116170665.23808  22106539.420    90522599.19047
  23497763.000   123481696.38507  23497764.300    96219563.95545
  21143650.180   111110638.79908  21143648.980    86579717.19348
  24517285.820   128839179.37405  24517290.080   100394168.17544
  23072700.140   121247866.42807  23072702.540    94478862.55646
  23639181.840   124224727.36206  23639182.200    96798485.13146
  22009949.400   115663051.33408  22009948.900    90127044.51047
 15 02 20 00 08 30.0000000  0  7G16G18G21G25G27G29G31
  22092281.380   116095733.81808  22092280.460    90464211.06947
  23484627.880   123412671.28707  23484629.100    96165778.28545
  21147995.460   111133473.39408  21147994.240    86597510.38448
  24534980.680   128932164.98605  24534984.820   100466624.38343
  23060041.660   121181346.04706  23060044.040    94427028.51646
  23653933.700   124302249.07206  23653934.080    96858891.65046
  22025240.480   115743406.34508  22025239.960    90189658.75248
 15 02 20 00 09  0.0000000  0  7G16G18G21G25G27G29G31
  22078055.220   116020975.10008  22078054.340    90405957.53347
  23471522.200   123343800.59707  23471523.300    96112112.93344
  21152420.980   111156729.65108  21152419.720    86615632.14548
  24552706.500   129025315.31405  24552710.580   100539208.88444
  23047411.000   121114972.06407  23047413.400    94375308.55446
  23668687.300   124379779.92106  23668687.800    96919305.26846
  22040595.060   115824095.01308  22040594.540    90252532.98348
 15 02 20 00 09 30.0000000  0  7G16G18G21G25G27G29G31
  22063860.920   115946383.56408  22063860.040    90347834.26447
  23458445.060   123275079.67007  23458445.940    96058564.29045
  21156925.120   111180399.04008  21156923.820    86634075.82548
  24570462.240   129118622.03705  24570466.540   100611915.27843
  23034806.820   121048737.24007  23034809.360    94323697.03546
  23683441.320   124457312.71406  23683441.920    96979720.36046
  22056011.240   115905107.37208  22056010.740    90315659.44048
 15 02 20 00 10  0.0000000  0  7G16G18G21G25G27G29G31
  22049699.760   115871966.13708  22049698.880    90289846.67347
  23445397.820   123206516.20106  23445398.640    96005138.30444
  21161508.560   111204485.07208  21161507.220    86652844.16348
  24588248.300   129212089.20905  24588252.540   100684746.67344
  23022230.080   120982646.40907  23022232.760    94272197.71547
  23698196.580   124534851.77706  23698197.180    97040140.37846
  22071489.460   115986445.60208  22071488.940    90379039.82647
 15 02 20 00 10 30.0000000  0  7G16G18G21G25G27G29G31
  22035571.020   115797719.17208  22035570.140    90231991.89547
  23432379.960   123138107.56207  23432380.820    95951833.01144
  21166170.080   111228981.53008  21166168.740    86671932.31148
  24606064.020   129305710.25405  24606068.460   100757697.98544
  23009679.780   120916694.06107  23009682.460    94220806.30046
  23712951.920   124612391.49106  23712952.520    97100560.89845
  22087028.160   116068101.70108  22087027.620    90442667.90248
 15 02 20 00 11  0.0000000  0  7G16G18G21G25G27G29G31
  22021476.200   115723650.26208  22021475.300    90174275.86547
  23419393.160   123069862.13807  23419394.000    95898654.86444
  21170910.520   111253892.72608  21170909.180    86691343.62848
  24623909.740   129399490.03004  24623914.320   100830772.93645
  22997156.960   120850885.85907  22997159.540    94169527.20646
  23727708.440   124689937.06206  23727709.080    97160985.98946
  22102627.920   116150078.57608  22102627.400    90506545.93047
 15 02 20 00 11 30.0000000  0  7G16G18G21G25G27G29G31
  22007414.880   115649757.44508  22007413.960    90116697.04947
  23406437.180   123001778.70807  23406438.080    95845602.95745
  21175728.940   111279213.60008  21175727.580    86711074.17948
  24641784.880   129493423.74404  24641789.480   100903967.92243
  22984660.840   120785217.97707  22984663.320    94118357.45646
  23742465.140   124767484.21206  23742465.800    97221412.28345
  22118287.460   116232369.85908  22118286.980    90570668.95148
 15 02 20 00 12  0.0000000  0  7G16G18G21G25G27G29G31
  21993387.980   115576045.54608  21993387.000    90059259.21447
  23393513.180   122933862.91307  23393513.980    95792681.65545
  21180625.520   111304945.19908  21180624.120    86731124.77848
  24659689.720   129587513.33305  24659694.520   100977284.25143
  22972191.960   120719693.33307  22972194.400    94067299.31347
  23757222.700   124845035.46906  23757223.340    97281841.80745
  22134006.880   116314975.83708  22134006.420    90635037.19047
 15 02 20 00 12 30.0000000  0  7G16G18G21G25G27G29G31
  21979394.980   115502511.93708  21979394.000    90001960.30247
  23380620.600   122866112.72807  23380621.360    95739889.41645
  21185599.100   111331081.58508  21185597.700    86751490.79548
  24677623.320   129681753.19004  24677627.820   101050717.77743
  22959749.440   120654307.28907  22959751.880    94016349.17347
  23771980.120   124922586.15006  23771980.740    97342270.90145
  22149784.780   116397889.28508  22149784.380    90699645.00647
 15 02 20 00 13  0.0000000  0  7G16G18G21G25G27G29G31
  21965437.560   115429165.32408  21965436.560    89944807.09947
  23367761.420   122798537.77506  23367761.980    95687233.70044
  21190650.860   111357628.77708  21190649.480    86772176.92048
  24695586.340   129776149.06905  24695590.880   101124272.78044
  22947334.540   120589066.54407  22947336.960    93965512.25447
  23786738.680   125000142.71706  23786739.420    97402704.57345
  22165622.000   116481114.27208  22165621.640    90764495.59047
 15 02 20 00 13 30.0000000  0  7G16G18G21G25G27G29G31
  21951515.040   115356001.91108  21951514.020    89887796.65147
  23354934.980   122731134.77707  23354935.660    95634711.99745
  21195779.480   111384579.90108  21195778.120    86793177.79948
  24713577.760   129870694.01004  24713582.380   101197944.05244
  22934946.200   120523965.23907  22934948.560    93914783.99046
  23801497.220   125077699.16106  23801497.940    97463138.11545
  22181516.860   116564642.23608  22181516.560    90829582.24447
 15 02 20 00 14  0.0000000  0  6G16G18G21G27G29G31
  21937628.880   115283029.53508  21937627.840    89830935.06247
  23342142.860   122663912.59007  23342143.620    95582331.19844
  21200985.680   111411938.82208  21200984.360    86814496.44248
  22922585.540   120459009.31707  22922587.840    93864169.01147
  23816256.740   125155260.87506  23816257.340    97523575.78145
  22197470.020   116648476.47408  22197469.780    90894907.56247
 15 02 20 00 14 30.0000000  0  7G16G18G21G25G27G29G31
  21923776.720   115210235.70908  21923775.640    89774212.60447
  23329382.980   122596859.39607  23329383.780    95530082.03245
  21206266.500   111439689.82108  21206265.240    86836120.59548
  24749645.980   130060269.31205  24749651.800   101345684.01545
  22910249.920   120394184.38707  22910252.080    93813656.08846
  23831014.620   125232813.31706  23831015.060    97584006.23544
  22213478.240   116732600.01408  22213478.060    90960458.30847
 15 02 20 00 15  0.0000000  0  7G16G18G21G25G27G29G31
  21909962.440   115137640.99608  21909961.320    89717645.29947
  23316659.200   122529996.37107  23316660.000    95477981.08944
  21211625.260   111467850.47108  21211624.020    86858063.96348
  24767722.700   130155263.52404  24767728.200   101419705.28345
  22897942.740   120329508.83907  22897944.720    93763259.57447
  23845774.180   125310374.63706  23845774.540    97644443.58745
  22229544.500   116817028.31008  22229544.260    91026246.53747
 15 02 20 00 15 30.0000000  0  7G16G18G21G25G27G29G31
  21896184.180   115065235.51208  21896182.980    89661225.43547
  23303969.940   122463314.43307  23303970.860    95426021.22745
  21217059.480   111496407.57608  21217058.260    86880316.24948
  24785826.960   130250401.05104  24785831.700   101493838.17944
  22885661.640   120264970.79207  22885663.560    93712970.20347
  23860533.040   125387932.59706  23860533.480    97704878.34645
  22245666.040   116901747.18808  22245665.800    91092261.17647
 15 02 20 00 16  0.0000000  0  7G16G18G21G25G27G29G31
  21882443.680   114993028.65808  21882442.420    89604960.35647
  23291317.020   122396823.49607  23291318.040    95374210.19544
  21222570.260   111525367.06208  21222569.060    86902882.09048
  24803959.640   130345688.40804  24803964.140   101568087.80744
  22873408.080   120200577.71607  22873409.960    93662793.80546
  23875292.580   125465494.48206  23875293.200    97765316.13444
  22261843.720   116986761.19208  22261843.500    91158505.78447
 15 02 20 00 16 30.0000000  0  6G16G18G21G27G29G31
  21868740.160   114921016.12908  21868738.840    89548846.69447
  23278699.940   122330520.30106  23278700.800    95322545.45444
  21228156.220   111554721.69108  21228155.060    86925755.82948
  22861180.900   120136323.32007  22861182.740    93612725.46747
  23890051.680   125543054.06306  23890052.460    97825752.13445
  22278075.900   117072061.62108  22278075.660    91224973.58847
 15 02 20 00 17  0.0000000  0  6G16G18G21G27G29G31
  21855075.320   114849206.96308  21855073.940    89492891.50147
  23266120.420   122264414.33807  23266121.140    95271034.39245
  21233818.340   111584476.41608  21233817.180    86948941.32748
  22848981.400   120072214.60107  22848983.260    93562770.64847
  23904811.620   125620618.01106  23904812.360    97886191.57444
  22294363.260   117157652.17108  22294363.100    91291667.44747
 15 02 20 00 17 30.0000000  0  7G16G18G21G22G27G29G31
  21841448.360   114777596.95508  21841446.960    89437091.49747
  23253577.760   122198502.05807  23253578.400    95219674.26145
  21239555.180   111614623.71108  21239554.040    86972432.73048
  24556649.780   129046063.67605  24556656.200   100555414.78943
  22836808.420   120008245.28807  22836810.300    93512924.44247
  23919571.120   125698179.75406  23919571.860    97946629.22645
  22310704.280   117243524.40808  22310704.100    91358580.81147
 15 02 20 00 18  0.0000000  0  6G16G18G21G27G29G31
  21827858.920   114706184.06808  21827857.500    89381445.09647
  23241071.700   122132782.18707  23241072.340    95168464.04644
  21245365.720   111645158.44208  21245364.600    86996226.02848
  22824661.180   119944411.34207  22824663.140    93463183.72847
  23934329.360   125775734.77406  23934330.100    98007061.66645
  22327097.640   117329671.74708  22327097.420    91425708.53847
 15 02 20 00 18 30.0000000  0  6G16G18G21G27G29G31
  21814308.660   114634977.39208  21814307.320    89325959.38447
  23228604.080   122067264.70407  23228604.740    95117411.54044
  21251251.140   111676086.59308  21251250.020    87020325.88248
  22812541.100   119880720.01007  22812543.120    93413554.14747
  23949087.820   125853290.71506  23949088.460    98067494.86346
  22343544.180   117416098.40708  22343543.960    91493053.91547
 15 02 20 00 19  0.0000000  0  7G16G18G21G22G27G29G31
  21800797.760   114563977.37208  21800796.480    89270634.69147
  23216175.180   122001950.63607  23216175.740    95066517.51344
  21257210.800   111707404.75408  21257209.700    87044729.64548
  24505879.600   128779265.89307  24505886.820   100347527.41445
  22800447.800   119817169.39507  22800449.820    93364034.19147
  23963846.040   125930845.29906  23963846.720    98127926.98545
  22360042.980   117502799.89708  22360042.800    91560613.44047
 15 02 20 00 19 30.0000000  0  6G16G18G21G27G29G31
  21787326.480   114493185.41508  21787325.260    89215472.12747
  23203785.340   121936841.68407  23203785.800    95015783.34845
  21263244.280   111739110.89008  21263243.180    87069435.73048
  22788381.220   119753759.13707  22788383.240    93314623.62747
  23978603.880   126008397.89307  23978604.560    98188357.53144
  22376593.460   117589772.82808  22376593.280    91628384.48247
 15 02 20 00 20  0.0000000  0  7G16G18G21G22G27G29G31
  21773895.040   114422602.84808  21773893.900    89160472.72447
  23191434.960   121871940.27007  23191435.460    94965210.86445
  21269351.140   111771202.58808  21269350.020    87094442.24648
  24471955.340   128600999.15104                                
  22776341.200   119690488.48607  22776343.220    93265321.83347
  23993361.080   126085947.28706  23993361.640    98248785.59644
  22393194.960   117677014.10508  22393194.820    91696364.61147
 15 02 20 00 20 30.0000000  0  6G16G18G21G27G29G31
  21760503.780   114352231.40608  21760502.720    89105637.84347
  23179124.460   121807248.53907  23179125.020    94914801.79144
  21275531.140   111803678.66008  21275530.040    87119748.28048
  22764327.640   119627356.82607  22764329.600    93216128.35446
  24008117.560   126163492.88206  24008118.040    98309210.70644
  22409846.880   117764520.21208  22409846.760    91764551.11047
 15 02 20 00 21  0.0000000  0  7G16G18G21G22G27G29G31
  21747152.960   114282072.50008  21747151.940    89050968.56747
  23166854.180   121742768.16407  23166854.680    94864557.40444
  21281783.820   111836536.53108  21281782.720    87145351.81848
  24437975.600   128422419.59604                                
  22752340.440   119564363.48607  22752342.300    93167042.64147
  24022873.220   126241033.99606  24022873.760    98369632.31945
  22426548.540   117852287.68108  22426548.460    91832941.26847
 15 02 20 00 21 30.0000000  0  6G16G18G21G27G29G31
  21733845.560   114212141.63008  21733844.580    88996476.99147
  23154627.200   121678515.01607  23154627.520    94814490.07345
  21288111.420   111869788.32508  21288110.300    87171262.30748
  22740382.120   119501522.02207  22740383.900    93118075.27547
  24037630.560   126318583.93406  24037631.100    98430060.81345
  22443302.060   117940327.61308  22443301.960    91901543.74147
 15 02 20 00 22  0.0000000  0  6G16G18G21G27G29G31
  21720578.240   114142421.45908  21720577.300    88942149.59747
  23142440.500   121614473.50107  23142440.640    94764587.64845
  21294510.100   111903413.48408  21294509.000    87197463.73048
  22728449.040   119438813.38407  22728450.860    93069211.43047
  24052385.880   126396123.44106  24052386.420    98490481.17944
  22460103.200   118028618.05008  22460103.140    91970341.39047
 15 02 20 00 22 30.0000000  0  6G16G18G21G27G29G31
  21707352.000   114072917.22508  21707351.100    88887990.46447
  23130295.080   121550649.23007  23130295.100    94714854.50044
  21300980.040   111937413.07708  21300978.920    87223956.92148
  22716541.800   119376240.51007  22716543.640    93020453.37347
  24067139.720   126473655.30106  24067140.320    98550895.55845
  22476952.100   118117159.27808  22476952.040    92039334.48147
 15 02 20 00 23  0.0000000  0  6G16G18G21G27G29G31
  21694168.660   114003638.16908  21694167.740    88834006.79647
  23118192.700   121487050.89107  23118192.620    94665297.41945
  21307522.440   111971793.42208  21307521.260    87250746.80448
  22704661.720   119313810.41807  22704663.520    92971806.57447
  24081893.420   126551186.63906  24081894.080    98611309.55545
  22493849.460   118205955.35708  22493849.460    92108526.14147
 15 02 20 00 23 30.0000000  0  6G16G18G21G27G29G31
  21681028.140   113934584.11008  21681027.200    88780198.45347
  23106133.600   121423679.96407  23106133.540    94615917.52945
  21314136.540   112006550.66508  21314135.360    87277830.36448
  22692808.440   119251520.99508  22692810.160    92923269.38047
  24096646.460   126628714.91506  24096647.300    98671721.17745
  22510794.500   118295001.62808  22510794.520    92177912.75947
 15 02 20 00 24  0.0000000  0  7G16G18G21G22G27G29G31
  21667930.800   113865756.80308  21667929.820    88726566.78947
  23094118.180   121360538.37707  23094118.100    94566716.35145
  21320821.920   112041682.66108  21320820.760    87305205.95248
  24335736.120   127885154.79306  24335743.280    99650800.08856
  22680981.760   119189371.64807  22680983.520    92874841.34447
  24111398.840   126706239.55006  24111399.900    98732129.93844
  22527786.440   118384294.60508  22527786.520    92247491.60447
 15 02 20 00 24 30.0000000  0  7G16G18G21G22G27G29G31
  21654877.020   113797158.41108  21654876.000    88673113.51147
  23082146.880   121297628.92007  23082146.760    94517696.06745
  21327578.360   112077188.06908  21327577.200    87332872.50348
  24318657.020   127795405.16406  24318664.500    99580864.56346
  22669181.800   119127362.64808  22669183.520    92826522.66147
  24126150.600   126783760.47206  24126151.720    98792535.83345
  22544824.900   118473831.96708  22544824.980    92317260.89747
 15 02 20 00 25  0.0000000  0  7G16G18G21G22G27G29G31
  21641866.120   113728785.53308  21641865.060    88619835.95647
  23070219.180   121234948.65707  23070219.040    94468854.35145
  21334404.540   112113059.96608  21334403.420    87360824.63148
  24301568.060   127705599.73205  24301574.640    99510886.90644
  22657407.500   119065488.44607  22657409.240    92778309.00847
  24140900.720   126861272.27706  24140901.520    98852934.62544
  22561908.240   118563605.10208  22561908.360    92387213.89547
 15 02 20 00 25 30.0000000  0  7G16G18G21G22G27G29G31
  21628900.100   113660648.61708  21628899.040    88566742.26647
  23058337.240   121172508.64407  23058337.120    94420199.84245
  21341301.780   112149305.37508  21341300.680    87389067.80948
  24284469.880   127615748.61306  24284476.040    99440873.61944
  22645660.420   119003757.43707  22645662.280    92730206.94547
  24155650.640   126938783.25706  24155651.340    98913332.78544
  22579037.500   118653619.74208  22579037.660    92457355.07947
 15 02 20 00 26  0.0000000  0  6G16G18G21G27G29G31
  21615979.920   113592752.37708  21615978.800    88513836.11247
  23046502.000   121110314.41607  23046502.000    94371736.86345
  21348270.160   112185924.68708  21348269.060    87417602.33648
  22633941.100   118942172.31307  22633943.040    92682218.56347
  24170400.800   127016295.48506  24170401.520    98973731.88744
  22596212.780   118743876.05308  22596212.920    92527684.58047
 15 02 20 00 26 30.0000000  0  7G16G18G21G22G27G29G31
  21603103.260   113525084.87208  21603102.060    88461108.18947
  23034711.240   121048353.98807  23034711.280    94323456.05645
  21355306.880   112222903.15508  21355305.840    87446416.72248
  24250247.280   127435911.22005  24250253.800    99300734.72144
  22622246.880   118880718.78207  22622248.820    92634332.70847
  24185148.480   127093795.14706  24185149.220    99034121.20445
  22613430.740   118834356.65008  22613430.900    92598188.83247
 15 02 20 00 27  0.0000000  0  6G16G18G21G27G29G31
  21590272.320   113457657.63508  21590271.060    88408567.50347
  23022967.340   120986639.70207  23022967.440    94275367.06245
  21362413.480   112260248.65308  21362412.460    87475517.10448
  22610579.560   118819406.59708  22610581.540    92586557.00347
  24199895.560   127171291.72806  24199896.440    99094508.12745
  22630692.740   118925068.81208  22630692.960    92668873.53047
 15 02 20 00 27 30.0000000  0  7G16G18G21G22G27G29G31
  21577486.300   113390466.69908  21577485.000    88356210.93847
  23011269.600   120925168.08207  23011269.660    94227467.13945
  21369588.420   112297953.12308  21369587.340    87504897.22148
  24215991.320   127255899.70707  24215998.440    99160469.56645
  22598937.940   118758229.44207  22598939.960    92538886.51747
  24214640.820   127248778.64806  24214641.840    99154887.54144
  22647997.020   119016003.09908  22647997.280    92739731.32247
 15 02 20 00 28  0.0000000  0  7G16G18G21G22G27G29G31
  21564747.200   113323522.52108  21564745.940    88304046.65647
  22999620.180   120863950.30507  22999620.240    94179765.02945
  21376832.980   112336023.55308  21376831.900    87534562.48948
  24198853.540   127165839.12206  24198860.420    99090292.59544
  22587323.560   118697195.77807  22587325.600    92491327.83547
  24229385.860   127326264.56406  24229386.980    99215266.11344
  22665344.660   119107165.36808  22665344.980    92810766.75447
 15 02 20 00 28 30.0000000  0  7G16G18G21G22G27G29G31
  21552055.080   113256825.05708  21552053.820    88252074.61547
  22988019.140   120802986.52607  22988019.120    94132260.81045
  21384146.480   112374456.07608  21384145.360    87564509.91048
  24181710.040   127075749.08807  24181714.700    99020073.84547
  22575736.100   118636303.39408  22575738.120    92443879.24447
  24244130.200   127403746.98506  24244131.420    99275641.99545
  22682734.800   119198550.56408  22682735.120    92881975.88847
 15 02 20 00 29  0.0000000  0  6G16G18G21G27G29G31
  21539409.000   113190369.60508  21539407.720    88200291.15747
  22976465.620   120742272.52307  22976465.480    94084951.25745
  21391527.360   112413242.76008  21391526.160    87594733.29848
  22564174.280   118575545.66707  22564176.320    92396535.58147
  24258872.580   127481218.98006  24258873.800    99336009.75545
  22700165.500   119290149.29508  22700165.880    92953351.41747
 15 02 20 00 29 30.0000000  0  7G16G18G21G22G27G29G31
  21526810.520   113124164.28208  21526809.220    88148702.59647
  22964961.220   120681816.47507  22964961.040    94037842.68945
  21398976.420   112452387.60308  21398975.160    87625235.76948
  24147401.960   126895454.15505  24147406.860    98879589.91944
  22552639.100   118514928.36007  22552641.200    92349301.32847
  24273614.220   127558686.62906  24273615.280    99396374.11444
  22717637.400   119381964.53108  22717637.880    93024895.63447
 15 02 20 00 30  0.0000000  0  7G16G18G21G22G27G29G31
  21514260.700   113058214.63308  21514259.360    88097313.26348
  22953507.040   120621624.58907  22953506.900    93990939.95545
  21406493.940   112491892.26908  21406492.680    87656018.62448
  24130241.200   126805271.66606  24130246.180    98809331.27145
  22541131.220   118454454.70707  22541133.440    92302179.02247
  24288355.640   127636152.88105  24288356.480    99456737.39445
  22735150.620   119473996.76308  22735151.140    93096608.94947
 15 02 20 00 30 30.0000000  0  6G16G18G21G27G29G31
  21501758.180   112992513.55208  21501756.820    88046117.61747
  22942101.860   120561690.38707  22942101.860    93944238.02545
  21414077.960   112531746.51608  21414076.680    87687073.87548
  22529649.020   118394116.06407  22529651.400    92255161.94347
  24303094.940   127713608.82205  24303095.840    99517092.65244
  22752702.940   119566234.35708  22752703.480    93168482.27247
 15 02 20 00 31  0.0000000  0  7G16G18G21G22G27G29G31
  21489302.040   112927056.24708  21489300.680    87995111.92547
  22930745.000   120502009.96607  22930745.060    93897733.84145
  21421726.720   112571941.07708  21421725.440    87718394.31348
  24095904.740   126624831.65706  24095910.460    98668723.49945
  22518191.180   118333905.09707  22518193.600    92208244.31647
  24317831.060   127791047.45006  24317832.040    99577434.43044
  22770292.460   119658667.18608  22770292.980    93240507.73847
 15 02 20 00 31 30.0000000  0  7G16G18G21G22G27G29G31
  21476896.340   112861864.13208  21476895.040    87944312.87848
  22919440.540   120442604.71207  22919440.640    93851444.07045
  21429443.700   112612494.24608  21429442.460    87749994.18148
  24078731.380   126534583.55406  24078736.100    98598400.55645
  22506761.300   118273841.02707  22506763.720    92161441.15947
  24332567.620   127868487.96206  24332568.460    99637777.61744
  22787922.240   119751311.79608  22787922.820    93312698.21647
 15 02 20 00 32  0.0000000  0  7G16G18G21G22G27G29G31
  21464540.280   112796932.75108  21464539.020    87893717.01148
  22908187.660   120383470.65207  22908187.740    93805365.61645
  21437227.300   112653397.37708  21437226.040    87781866.74948
  24061554.860   126444321.86905  24061560.040    98528067.06244
  22495358.120   118213917.33507  22495360.580    92114747.38547
  24347303.220   127945923.43005  24347303.800    99698116.95745
  22805590.580   119844158.87608  22805591.180    93385046.46347
 15 02 20 00 32 30.0000000  0  7G16G18G21G22G27G29G31
  21452234.300   112732264.34208  21452233.060    87843326.03547
  22896986.840   120324610.23907  22896986.880    93759500.40745
  21445077.300   112694649.65208  21445076.060    87814011.37548
  24044375.840   126354049.10406  24044381.860    98457724.79347
  22483981.720   118154134.39307  22483984.240    92068163.30047
  24362037.940   128023354.25706  24362038.180    99758452.66444
  22823296.920   119937205.88708  22823297.520    93457550.49347
 15 02 20 00 33  0.0000000  0  7G16G18G21G22G27G29G31
  21439977.720   112667855.54508  21439976.480    87793137.37148
  22885837.560   120266020.55107  22885837.500    93713846.12945
  21452992.200   112736243.01108  21452991.000    87846421.78048
  24027193.780   126263750.77606  24027198.600    98387369.39845
  22472631.040   118094486.39107  22472633.580    92021684.34947
  24376770.520   128100774.66606  24376770.880    99818780.20443
  22841039.600   120030444.12908  22841040.260    93530203.52947
 15 02 20 00 33 30.0000000  0  7G16G18G21G22G27G29G31
  21427771.700   112603712.39308  21427770.440    87743155.69648
  22874741.100   120207708.04507  22874740.980    93668407.85345
  21460972.540   112778180.13308  21460971.360    87879100.05748
  24010011.320   126173456.25806  24010016.320    98317010.29544
  22461306.820   118034977.33607  22461309.400    91975313.68047
  24391501.880   128178188.47506  24391502.360    99879102.66143
  22858818.880   120123874.80307  22858819.620    93603006.51247
 15 02 20 00 34  0.0000000  0  7G16G18G21G22G27G29G31
  21415616.340   112539835.50308  21415615.080    87693381.50048
  22863697.500   120149673.49307  22863697.280    93623186.16045
  21469017.720   112820457.76008  21469016.540    87912043.65948
  23992827.640   126083154.08807  23992832.140    98246644.74945
  22450008.780   117975605.58807  22450011.360    91929049.98447
  24406231.660   128255593.95705  24406232.280    99939418.54945
  22876634.000   120217493.52507  22876634.840    93675956.01647
 15 02 20 00 34 30.0000000  0  7G16G18G21G22G27G29G31
  21403512.340   112476228.61708  21403511.100    87643817.69948
  22852707.560   120091921.22107  22852707.320    93578184.42045
  21477127.700   112863075.95108  21477126.560    87945252.63848
  23975643.600   125992850.73705  23975648.360    98176278.89045
  22438737.140   117916372.68307  22438739.700    91882894.50247
  24420960.280   128332992.91005  24420961.020    99999729.39146
  22894484.680   120311298.93208  22894485.600    93749050.98347
 15 02 20 00 35  0.0000000  0  7G16G18G21G22G27G29G31
  21391460.020   112412893.13708  21391458.800    87594465.37748
  22841771.760   120034453.32508  22841771.520    93533404.28445
  21485302.160   112906032.86508  21485301.040    87978725.55548
  23958459.320   125902547.56305  23958464.380    98105913.12145
  22427491.960   117857278.49308  22427494.440    91836847.10047
  24435687.560   128410385.02006  24435688.500   100060034.88744
  22912370.360   120405288.05608  22912371.240    93822289.12246
 15 02 20 00 35 30.0000000  0  7G16G18G21G22G27G29G31
  21379459.620   112349830.63608  21379458.420    87545325.77248
  22830890.460   119977271.51008  22830890.080    93488847.05045
  21493540.600   112949325.93108  21493539.460    88012460.40548
  23941275.280   125812247.48505  23941280.860    98035550.11644
  22416273.020   117798322.27707  22416275.400    91790907.21347
  24450413.420   128487769.51906  24450414.300   100120334.46444
  22930290.400   120499457.38808  22930291.180    93895667.65447
 15 02 20 00 36  0.0000000  0  7G16G18G21G22G27G29G31
  21367511.840   112287044.63408  21367510.680    87496401.61648
  22820064.280   119920379.47708  22820063.820    93444515.62045
  21501842.900   112992954.55208  21501841.720    88046456.73348
  23924092.000   125721951.43506  23924097.980    97965189.50047
  22405080.480   117739504.91408  22405082.780    91745075.52047
  24465138.040   128565147.21006  24465138.560   100180628.76843
  22948244.320   120593804.87007  22948245.080    93969185.01647
 15 02 20 00 36 30.0000000  0  7G16G18G21G22G27G29G31
  21355616.520   112224534.40009  21355615.420    87447692.34348
  22809293.080   119863776.56708  22809292.680    93400409.48445
  21510208.060   113036913.72208  21510206.860    88080710.62848
  23906910.060   125631661.16305  23906916.220    97894833.50146
  22393913.860   117680823.68808  22393916.060    91699349.90647
  24479860.780   128642515.31905  24479861.140   100240915.60844
  22966230.980   120688324.87307  22966231.760    94042836.79047
 15 02 20 00 37  0.0000000  0  7G16G18G21G22G27G29G31
  21343774.720   112162305.45508  21343773.680    87399202.26248
  22798578.240   119807469.40608  22798577.820    93356533.80145
  21518636.500   113081205.47308  21518635.340    88115223.68148
  23889730.860   125541383.42706  23889736.740    97824487.26046
  22382773.880   117622282.47508  22382775.960    91653733.39747
  24494582.220   128719877.87005  24494582.640   100301198.10543
  22984250.620   120783018.35007  22984251.460    94116623.75347
 15 02 20 00 37 30.0000000  0  7G16G18G21G22G27G29G31
  21331986.480   112100358.00408  21331985.480    87350931.52148
  22787919.740   119751458.42408  22787919.220    93312888.90245
  21527127.740   113125827.20408  21527126.580    88149993.86248
  23872554.260   125451118.47606  23872559.480    97754150.80246
  22371660.120   117563879.21908  22371662.160    91608224.38747
  24509302.120   128797232.54605  24509302.880   100361474.36645
  23002302.420   120877880.86007  23002303.320    94190542.39147
 15 02 20 00 38  0.0000000  0  7G16G18G21G22G27G29G31
  21320252.060   112038693.29209  21320251.060    87302881.09448
  22777317.640   119695744.03908  22777317.060    93269475.12645
  21535681.160   113170775.65908  21535679.980    88185018.63448
  23855380.320   125360867.88005  23855385.260    97683825.62145
  22360572.320   117505612.36308  22360574.320    91562821.64647
  24524020.340   128874577.57206  24524021.320   100421743.16444
  23020385.540   120972907.79307  23020386.500    94264589.16846
 15 02 20 00 38 30.0000000  0  7G16G18G21G22G27G29G31
  21308571.880   111977313.58109  21308570.900    87255052.74848
  22766772.460   119640329.20408  22766771.900    93226294.76645
  21544296.360   113216048.85808  21544295.200    88220296.45048
  23838209.560   125270635.13205  23838214.640    97613514.51244
  22349510.540   117447482.51908  22349512.560    91517525.67847
  24538737.180   128951913.89806  24538738.120   100482005.21843
  23038499.540   121068096.79107  23038500.540    94338762.21646
 15 02 20 00 39  0.0000000  0  7G16G18G21G22G27G29G31
  21296946.420   111916221.14309  21296945.420    87207448.25148
  22756284.940   119585217.16108  22756284.440    93183350.35245
  21552973.140   113261645.76308  21552972.000    88255826.50648
  23821042.620   125180423.46406  23821048.080    97543220.25147
  22338474.840   117389489.68508  22338476.820    91472336.46947
  24553452.440   129029241.61906  24553452.900   100542260.61544
  23056643.880   121163444.94208  23056644.880    94413059.28146
 15 02 20 00 39 30.0000000  0  6G16G18G21G22G27G31
  21285371.860   111855396.33809  21285370.900    87160052.31148
  22745851.280   119530388.24408  22745850.840    93140626.54945
  21561707.000   113307542.68908  21561705.900    88291590.34648
  23803875.520   125090212.25205  23803881.520    97472925.88344
  22327461.120   117331612.28508  22327463.080    91427237.21347
  23074813.960   121258927.90707  23074814.920    94487461.39047
 15 02 20 00 40  0.0000000  0  6G16G18G21G22G27G31
  21273858.060   111794890.92409  21273857.140    87112905.23948
  22735481.340   119475894.22508  22735480.960    93098163.70045
  21570507.000   113353787.16108  21570505.940    88327624.99848
  23786718.880   125000054.92706  23786725.360    97402673.73145
  22316478.780   117273899.79008  22316480.680    91382266.44247
  23093018.500   121354592.41707  23093019.480    94562004.93946
 15 02 20 00 40 30.0000000  0  6G16G18G21G22G27G31
  21262398.480   111734670.56909  21262397.580    87065980.28348
  22725168.720   119421701.12508  22725168.460    93055935.33145
  21579365.820   113400340.69508  21579364.800    88363900.48748
  23769566.400   124909917.72106  23769572.760    97332437.38345
  22305520.900   117216315.78708  22305522.780    91337395.81047
  23111250.080   121450398.93907  23111251.020    94636659.15946
 15 02 20 00 41  0.0000000  0  6G16G18G21G22G27G31
  21250996.420   111674752.51809  21250995.540    87019290.89748
  22714916.700   119367826.23608  22714916.480    93013954.92846
  21588286.320   113447218.17108  21588285.260    88400428.39648
  23752421.040   124819817.90706  23752426.940    97262230.00046
  22294590.340   117158875.42208  22294592.240    91292637.10747
  23129511.040   121546359.93607  23129511.980    94711433.73047
 15 02 20 00 41 30.0000000  0  6G16G18G21G22G27G31
  21239650.720   111615130.70609  21239649.920    86972832.34048
  22704724.120   119314263.89908  22704724.000    92972218.06045
  21597266.420   113494408.67808  21597265.260    88437200.22748
  23735281.720   124729750.21405  23735286.920    97192047.61245
  22283685.540   117101570.38008  22283687.420    91247983.83947
  23147799.140   121642464.01907  23147800.160    94786319.79146
 15 02 20 00 42  0.0000000  0  5G16G18G21G27G31
  21228364.640   111555821.96409  21228363.840    86926617.73848
  22694594.180   119261030.93608  22694594.040    92930737.85645
  21606308.440   113541924.57508  21606307.200    88474225.60348
  22272809.240   117044415.27908  22272811.120    91203447.41647
  23166116.760   121738723.19507  23166117.900    94861326.70846
 15 02 20 00 42 30.0000000  0  6G16G18G21G22G27G31
  21217136.240   111496816.45209  21217135.480    86880639.41948
  22684525.120   119208118.26708  22684525.020    92889507.23046
  21615409.980   113589753.34108  21615408.700    88511494.76948
  23701027.640   124549741.78106  23701033.700    97051777.98746
  22261959.300   116987398.49108  22261961.180    91159018.76247
  23184461.180   121835122.86307  23184462.420    94936443.07747
 15 02 20 00 43  0.0000000  0  6G16G18G21G22G27G31
  21205962.360   111438097.45309  21205961.640    86834884.36148
  22674513.900   119155509.37208  22674513.800    92848513.31245
  21624567.040   113637873.87408  21624565.740    88548991.27448
  23683910.220   124459783.57905  23683915.040    96981666.86344
  22251132.100   116930501.17108  22251133.920    91114683.20047
  23202828.160   121931641.34307  23202829.500    95011652.01146
 15 02 20 00 43 30.0000000  0  6G16G18G21G22G27G31
  21194848.680   111379694.86208  21194847.980    86789375.85148
  22664566.200   119103233.90008  22664565.980    92807779.19646
  21633784.560   113686312.05308  21633783.220    88586735.31648
  23666802.920   124369884.84205  23666808.120    96911616.06546
  22240332.840   116873750.82108  22240334.660    91070462.16747
  23221222.420   122028302.87007  23221223.840    95086972.40946
 15 02 20 00 44  0.0000000  0  6G16G18G21G22G27G31
  21183792.580   111321594.77009  21183791.880    86744103.04948
  22654679.360   119051278.17408  22654679.100    92767294.25046
  21643059.120   113735050.08708  21643057.720    88624712.99848
  23649703.900   124280028.60406  23649709.280    96841598.84645
  22229558.580   116817131.64208  22229560.360    91026343.33947
  23239640.520   122125089.26207  23239641.920    95162390.09947
 15 02 20 00 44 30.0000000  0  6G16G18G21G22G27G31
  21172795.640   111263805.50708  21172794.940    86699072.45948
  22644854.940   118999650.43208  22644854.640    92727064.87446
  21652391.700   113784092.98908  21652390.240    88662928.24548
  23632614.580   124190223.15605  23632619.860    96771621.29344
  22218810.420   116760649.79108  22218812.220    90982331.52547
  23258082.960   122222003.74307  23258084.380    95237907.56547
 15 02 20 00 45  0.0000000  0  6G16G18G21G22G27G31
  21161858.620   111206331.20308  21161857.920    86654287.29348
  22635093.720   118948355.01708  22635093.400    92687094.44546
  21661782.060   113833439.87208  21661780.640    88701380.35748
  23615535.680   124100472.98907  23615540.760    96701687.04446
  22208088.740   116704307.02108  22208090.500    90938428.08447
  23276549.560   122319045.03807  23276550.980    95313523.84746
 15 02 20 00 45 30.0000000  0  6G16G18G21G22G27G31
  21150982.560   111149177.17908  21150981.840    86609751.69348
  22625396.860   118897397.98908  22625396.540    92647387.70046
  21671230.760   113883093.15708  21671229.380    88740071.22448
  23598468.020   124010783.71105  23598472.960    96631799.99845
  22197394.260   116648106.78508  22197395.940    90894635.71347
  23295040.420   122416213.62907  23295041.800    95389239.31546
 15 02 20 00 46  0.0000000  0  6G16G18G21G22G27G31
  21140168.080   111092346.70108  21140167.320    86565468.20748
  22615764.980   118846782.47007  22615764.720    92607947.05946
  21680737.620   113933052.18808  21680736.280    88779000.33548
  23581412.240   123921159.78805  23581417.300    96561964.05945
  22186727.060   116592050.27008  22186728.720    90850955.32447
  23313555.240   122513508.03307  23313556.600    95465052.79246
 15 02 20 00 46 30.0000000  0  6G16G18G21G22G27G31
  21129413.460   111035830.87008  21129412.720    86521429.90748
  22606196.420   118796499.37708  22606196.180    92568765.46845
  21690300.080   113983303.56708  21690298.820    88818157.25048
  23564367.060   123831592.87205  23564372.440    96492172.63544
  22176085.140   116536126.29808  22176086.760    90807378.22847
  23332091.280   122610914.14307  23332092.720    95540953.31047
 15 02 20 00 47  0.0000000  0  6G16G18G21G22G27G31
  21118719.540   110979634.16208  21118718.820    86477640.26948
  22596692.000   118746553.68308  22596691.800    92529846.78745
  21699918.400   114033848.20908  21699917.160    88857542.68748
  23547333.720   123742087.63306  23547339.000    96422429.14945
  22165468.940   116480337.49108  22165470.460    90763906.44447
  23350648.440   122708431.54207  23350650.000    95616940.52945
 15 02 20 00 47 30.0000000  0  6G16G18G21G22G27G31
  21108086.240   110923755.98308  21108085.540    86434098.83648
  22587251.720   118696944.80008  22587251.480    92491190.53746
  21709591.640   114084681.34408  21709590.360    88897152.91848
  23530312.660   123652645.02206  23530317.400    96352734.62445
  22154877.900   116424681.02408  22154879.380    90720537.78147
  23369225.740   122806054.69307  23369227.400    95693010.13446
 15 02 20 00 48  0.0000000  0  6G16G18G21G22G27G31
  21097515.400   110868205.99308  21097514.720    86390813.13748
  22577877.380   118647682.62408  22577877.200    92452804.45246
  21719320.880   114135808.88508  21719319.600    88936992.55848
  23513305.520   123563275.03606  23513309.900    96283096.91645
  22144313.480   116369164.68808  22144314.960    90677278.31547
  23387824.100   122903788.48207  23387825.840    95769165.97046
 15 02 20 00 48 30.0000000  0  6G16G18G21G22G27G31
  21087007.240   110812985.43908  21087006.580    86347784.13848
  22568569.240   118598768.09908  22568569.120    92414689.26946
  21729105.640   114187228.24508  21729104.380    88977059.58948
  23496312.400   123473978.99806  23496316.480    96213516.72245
  22133775.500   116313787.28208  22133777.020    90634127.09747
  23406442.780   123001628.44007  23406444.480    95845404.47946
 15 02 20 00 49  0.0000000  0  6G16G18G21G22G27G31
  21076562.020   110758095.36908  21076561.300    86305012.66148
  22559327.560   118550202.46508  22559327.440    92376845.94846
  21738945.280   114238936.13108  21738944.060    89017351.44648
  23479333.740   123384758.72406  23479337.520    96143995.54345
  22123263.760   116258547.85508  22123265.260    90591083.40247
  23425081.040   123099571.23907  23425082.700    95921723.10346
 15 02 20 00 49 30.0000000  0  6G16G18G21G22G27G31
  21066181.020   110703542.76709  21066180.280    86262504.14848
  22550153.620   118501992.98008  22550153.520    92339280.14246
  21748840.640   114290936.75908  21748839.400    89057871.41348
  23462370.860   123295622.00906  23462374.580    96074539.48446
  22112779.180   116203451.43308  22112780.740    90548151.14048
  23443739.260   123197618.82607  23443740.900    95998123.34546
 15 02 20 00 50  0.0000000  0  6G16G18G21G22G27G31
  21055863.480   110649323.54509  21055862.720    86220255.40748
  22541046.640   118454135.47108  22541046.480    92301988.60046
  21758790.020   114343221.24908  21758788.800    89098612.57048
  23445422.880   123206565.36906  23445426.780    96005145.88545
  22102320.660   116148491.77108  22102322.240    90505325.42748
  23462415.680   123295761.87907  23462417.360    96074597.95446
 15 02 20 00 50 30.0000000  0  6G16G18G21G22G27G31
  21045609.860   110595440.34509  21045609.100    86178268.50448
  22532007.000   118406631.94208  22532006.820    92264972.89446
  21768793.180   114395787.99408  21768791.920    89139573.67648
  23428490.700   123117591.50706  23428494.440    95935816.54146
  22091888.220   116093669.23008  22091889.880    90462606.58148
  23481109.660   123393998.02807  23481111.520    96151145.11145
 15 02 20 00 51  0.0000000  0  6G16G18G21G22G27G31
  21035420.020   110541892.28509  21035419.240    86136542.74348
  22523034.740   118359482.65508  22523034.560    92228233.20846
  21778849.280   114448633.10308  21778848.000    89180751.68148
  23411574.520   123028701.57606  23411578.020    95866552.76745
  22081481.440   116038981.41608  22081483.160    90419992.70848
  23499820.420   123492322.35607  23499822.500    96227761.00345
 15 02 20 00 51 30.0000000  0  6G16G18G21G22G27G31
  21025296.220   110488691.27009  21025295.420    86095087.41348
  22514132.120   118312699.14208  22514131.920    92191778.56246
  21788959.780   114501764.07408  21788958.480    89222152.43848
  23394676.600   122939906.26907  23394679.420    95797362.31945
  22071102.160   115984437.80008  22071103.880    90377491.19547
  23518549.220   123590740.96207  23518551.440    96304450.32946
 15 02 20 00 52  0.0000000  0  7G16G18G19G21G22G27G31
  21015233.080   110435809.06009  21015232.260    86053880.49848
  22505293.760   118266253.38608  22505293.540    92155587.08446
  24173285.860   127031474.19505  24173284.560    98985557.27343
  21799118.440   114555148.26608  21799117.160    89263750.50748
  23377791.920   122851178.85807  23377793.820    95728224.52145
  22060744.520   115930008.02208  22060746.240    90335078.39548
  23537289.740   123689220.78607  23537292.100    96381187.37146
 15 02 20 00 52 30.0000000  0  7G16G18G19G21G22G27G31
  21005238.320   110383286.23109  21005237.520    86012953.62548
  22496527.320   118220185.58808  22496527.040    92119690.12746
  24158498.960   126953768.70005  24158497.440    98925007.59645
  21809332.520   114608823.44308  21809331.220    89305575.31248
  23360928.320   122762561.50007  23360929.620    95659172.70845
  22050415.940   115875730.89408  22050417.640    90292784.53548
  23556048.700   123787797.51607  23556051.180    96457999.83246
 15 02 20 00 53  0.0000000  0  7G16G18G19G21G22G27G31
  20995309.720   110331111.01809  20995308.920    85972297.61448
  22487830.600   118174484.07108  22487830.240    92084078.57246
  24143731.820   126876167.10805  24143730.100    98864538.82543
  21819598.900   114662773.49208  21819597.620    89347614.31248
  23344083.400   122674042.66406  23344084.280    95590197.64445
  22040113.820   115821592.66208  22040115.480    90250598.91048
  23574822.940   123886454.50607  23574825.440    96534874.81346
 15 02 20 00 53 30.0000000  0  7G16G18G19G21G22G27G31
  20985447.460   110279284.50209  20985446.660    85931913.32748
  22479203.820   118129149.95008  22479203.400    92048753.30746
  24128984.100   126798667.52105  24128982.360    98804149.58144
  21829916.980   114716995.36008  21829915.740    89389865.11248
  23327257.360   122585623.79607  23327258.220    95521300.53045
  22029837.800   115767591.99908  22029839.500    90208520.48448
  23593611.660   123985187.81007  23593614.240    96611809.33146
 15 02 20 00 54  0.0000000  0  7G16G18G19G21G22G27G31
  20975652.040   110227809.25409  20975651.240    85891802.74048
  22470647.460   118084185.77208  22470647.020    92013716.30646
  24114255.940   126721270.85705  24114254.040    98743840.49645
  21840286.640   114771488.27008  21840285.420    89432327.12448
  23310450.860   122497307.71507  23310451.780    95452483.23446
  22019588.080   115713729.72208  22019589.820    90166549.88448
  23612414.520   124083995.57307  23612417.160    96688801.95645
 15 02 20 00 54 30.0000000  0  7G16G18G19G21G22G27G31
  20965924.020   110176688.17709  20965923.160    85851968.13648
  22462162.060   118039594.50508  22462161.580    91978969.88246
  24099547.540   126643978.12706  24099545.640    98683612.43844
  21850707.540   114826250.64608  21850706.360    89474999.10748
  23293664.760   122409098.83607  23293665.840    95383749.43245
  22009364.860   115660006.63808  22009366.660    90124687.75548
  23631231.080   124182875.25007  23631233.840    96765850.51146
 15 02 20 00 55  0.0000000  0  7G16G18G19G21G22G27G31
  20956263.440   110125921.61009  20956262.560    85812409.77948
  22453747.540   117995376.18508  22453747.100    91944514.06946
  24084858.580   126566787.51206  24084856.740    98623463.98145
  21861179.120   114881279.27008  21861178.000    89517878.55648
  23276899.400   122320998.07207  23276900.460    95315099.83645
  21999167.800   115606421.05708  21999169.680    90082932.77748
  23650060.480   124281822.12407  23650063.400    96842951.36546
 15 02 20 00 55 30.0000000  0  7G16G18G19G21G22G27G31
  20946670.760   110075511.76309  20946669.900    85773129.38448
  22445404.480   117951533.31908  22445404.060    91910350.81346
  24070189.160   126489699.44506  24070187.300    98563395.39044
  21871701.060   114936572.30608  21871699.920    89560964.03948
  23260155.320   122233008.36007  23260156.100    95246536.71745
  21988997.000   115552973.31608  21988998.880    90041285.19148
  23668902.240   124380834.02807  23668905.280    96920102.97246
 15 02 20 00 56  0.0000000  0  7G16G18G19G21G22G27G31
  20937146.400   110025460.88209  20937145.540    85734128.70048
  22437133.260   117908067.82208  22437132.820    91876481.61146
  24055539.260   126412713.98206  24055537.480    98503406.77345
  21882272.980   114992128.08408  21882271.820    89604254.25148
  23243432.940   122145132.49507  23243433.440    95178062.31845
  21978852.440   115499663.50108  21978854.360    89999745.09048
  23687755.780   124479908.00306  23687759.000    96997302.87645
 15 02 20 00 56 30.0000000  0  7G16G18G19G21G22G27G31
  20927690.960   109975772.12809  20927690.080    85695410.19648
  22428934.440   117864982.71408  22428933.960    91842908.82246
  24040909.080   126335832.20906  24040907.360    98443498.95145
  21892894.700   115047945.60508  21892893.560    89647748.42547
  23226733.000   122057374.51507  23226733.140    95109679.74845
  21968734.300   115446492.65808  21968736.280    89958313.28948
  23706620.740   124579042.08207  23706624.180    97074549.65845
 15 02 20 00 57  0.0000000  0  7G16G18G19G21G22G27G31
  20918304.640   109926446.88009  20918303.760    85656974.93848
  22420808.240   117822279.51608  22420807.760    91809633.61746
  24026298.540   126259053.55706  24026296.880    98383671.47945
  21903565.800   115104022.63508  21903564.680    89691444.80447
  23210055.820   121969736.39807  23210055.500    95041390.53845
  21958642.560   115393460.23508  21958644.540    89916989.33548
  23725496.480   124678232.78107  23725500.100    97151840.47546
 15 02 20 00 57 30.0000000  0  7G16G18G19G21G22G27G31
  20908987.780   109877486.43509  20908986.880    85618823.94248
  22412754.900   117779959.27208  22412754.400    91776656.83146
