     2.11           OBSERVATION DATA    G                   RINEX VERSION / TYPE
SPIDER V4,0,0,3554                      2015 03 16 01:50    PGM / RUN BY / DATE 
ABKD                                                        MARKER NAME         
ABKD                                                        MARKER NUMBER       
                                                            OBSERVER / AGENCY   
496503              LEICA GRX1200+GNSS  8.20/4.007          REC # / TYPE / VERS 
10301028            LEIAR25         NONE                    ANT # / TYPE        
  5126847.8297   206786.8373  3776118.0908                  APPROX POSITION XYZ 
        0.0000        0.0000        0.0000                  ANTENNA: DELTA H/E/N
     1     1                                                WAVELENGTH FACT L1/2
     4    C1    L1    P2    L2                              # / TYPES OF OBSERV 
    30.000                                                  INTERVAL            
  2015    03    02    00    00    0.0000000     GPS         TIME OF FIRST OBS   
  2015    03    02    23    59   30.0000000     GPS         TIME OF LAST OBS    
    16                                                      LEAP SECONDS        
    30                                                      # OF SATELLITES     
   G 1   822   822   822   822                              PRN / # OF OBS      
   G 2   930   930   930   930                              PRN / # OF OBS      
   G 3   829   829   827   827                              PRN / # OF OBS      
   G 4   837   837   837   837                              PRN / # OF OBS      
   G 5   665   665   665   665                              PRN / # OF OBS      
   G 6   735   735   735   735                              PRN / # OF OBS      
   G 7   700   700   700   700                              PRN / # OF OBS      
   G 9   783   783   783   783                              PRN / # OF OBS      
   G10   773   773   773   773                              PRN / # OF OBS      
   G11   787   787   787   787                              PRN / # OF OBS      
   G12   808   808   808   808                              PRN / # OF OBS      
   G13   811   811   811   811                              PRN / # OF OBS      
   G14   936   936   936   936                              PRN / # OF OBS      
   G15   724   724   723   723                              PRN / # OF OBS      
   G16   686   685   685   685                              PRN / # OF OBS      
   G17   934   934   934   934                              PRN / # OF OBS      
   G18   931   929   926   926                              PRN / # OF OBS      
   G19   772   772   772   772                              PRN / # OF OBS      
   G20   787   787   787   787                              PRN / # OF OBS      
   G21   702   686   666   662                              PRN / # OF OBS      
   G22   791   791   791   791                              PRN / # OF OBS      
   G23   716   715   714   714                              PRN / # OF OBS      
   G24   831   831   831   831                              PRN / # OF OBS      
   G25   848   847   847   847                              PRN / # OF OBS      
   G27   820   820   820   820                              PRN / # OF OBS      
   G28   910   910   909   909                              PRN / # OF OBS      
   G29   732   732   730   730                              PRN / # OF OBS      
   G30   688   688   687   687                              PRN / # OF OBS      
   G31   789   789   788   788                              PRN / # OF OBS      
   G32   736   736   731   731                              PRN / # OF OBS      
BIT 2 OF LLI FLAGS DATA COLLECTED UNDER A/S CONDITION       COMMENT             
SNR is mapped to RINEX snr flag value [2-9]                 COMMENT             
Lx:     = 25dBHz -> 1; 26-27dBHz -> 2; 28-31dBHz -> 3       COMMENT             
       32-35dBHz -> 4; 36-38dBHz -> 5; 39-41dBHz -> 6       COMMENT             
       42-44dBHz -> 7; 45-48dBHz -> 8; >=49dBHz -> 9        COMMENT             
                                                            END OF HEADER       
 15 03 02 00 00  0.0000000  0  6G16G18G21G22G27G31
  21332626.240   112103717.54509  21332622.100    87353537.02648
  22580610.460   118662013.46309  22580607.840    92463944.59947
  21478683.020   112871251.74308  21478679.140    87951612.18448
  23763440.320   124877727.29408  23763440.760    97307326.66046
  22479819.940   118132285.90508  22479819.180    92051139.69748
  23264326.500   122254821.23208  23264324.700    95263472.13247
 15 03 02 00 00 30.0000000  0  6G16G18G21G22G27G31
  21320794.920   112041542.96609  21320790.640    87305089.30648
  22569877.900   118605613.70808  22569875.280    92419996.77547
  21487093.800   112915450.69308  21487089.980    87986052.91648
  23745789.580   124784972.40508  23745789.660    97235050.79146
  22468078.100   118070582.40908  22468077.560    92003059.07348
  23282525.820   122350459.65108  23282524.260    95337995.40647
 15 03 02 00 01  0.0000000  0  6G16G18G21G22G27G31
  21309023.440   111979683.09809  21309019.140    87256886.81648
  22559206.620   118549536.14209  22559204.020    92376300.02746
  21495564.020   112959962.14408  21495560.180    88020737.16648
  23728146.180   124692256.76308  23728145.800    97162805.25046
  22456359.900   118009003.57508  22456359.540    91955075.58148
  23300749.940   122446228.21608  23300748.640    95412620.09647
 15 03 02 00 01 30.0000000  0  6G16G18G21G22G27G31
  21297312.300   111918140.65509  21297308.080    87208931.67348
  22548597.320   118493784.20909  22548594.660    92332856.98146
  21504093.480   113004784.83208  21504089.580    88055663.93648
  23710510.760   124599583.56107  23710510.060    97090592.40444
  22444665.760   117947550.28309  22444665.420    91907189.91348
  23318998.340   122542124.44908  23318997.200    95487344.26646
 15 03 02 00 02  0.0000000  0  6G16G18G21G22G27G31
  21285661.440   111856915.09909  21285657.380    87161223.44848
  22538049.960   118438357.45609  22538047.140    92289667.35846
  21512681.440   113049914.72708  21512677.380    88090830.09248
  23692883.540   124506953.15308  23692882.540    97018412.83146
  22432995.160   117886219.87909  22432994.620    91859400.02048
  23337270.080   122638143.13608  23337269.080    95562163.84747
 15 03 02 00 02 30.0000000  0  6G16G18G21G22G27G31
  21274071.340   111796008.93509  21274067.400    87113764.10648
  22527564.960   118383258.43809  22527562.040    92246733.09646
  21521327.560   113095350.15309  21521323.440    88126234.31848
  23675265.180   124414368.41208  23675263.940    96946268.75845
  22421347.960   117825012.61009  22421347.200    91811706.06748
  23355564.740   122734281.31908  23355563.720    95637076.54646
 15 03 02 00 03  0.0000000  0  6G16G18G21G22G27G31
  21262542.880   111735426.80009  21262539.040    87066557.24748
  22517143.260   118328491.99809  22517140.280    92204057.99346
  21530031.940   113141091.52708  21530027.780    88161876.95348
  23657656.800   124321835.56108  23657655.440    96874165.53946
  22409724.600   117763931.16209  22409723.660    91764110.15848
  23373882.200   122830538.52908  23373880.880    95712082.01846
 15 03 02 00 03 30.0000000  0  6G16G18G21G22G27G31
  21251076.480   111675171.22609  21251072.840    87019604.85848
  22506785.280   118274060.54809  22506782.260    92161643.90346
  21538794.420   113187138.17809  21538790.220    88197757.46348
  23640058.660   124229356.66908  23640057.100    96802104.08145
  22398125.180   117702975.94309  22398124.140    91716612.60248
  23392221.800   122926912.21408  23392220.360    95787178.22246
 15 03 02 00 04  0.0000000  0  6G16G18G21G22G27G31
  21239672.000   111615240.83409  21239668.460    86972905.85548
  22496490.740   118219962.54109  22496487.660    92119489.64046
  21547613.940   113233484.76409  21547609.780    88233871.68348
  23622470.500   124136930.42008  23622468.740    96730083.42045
  22386549.080   117642143.31609  22386548.000    91669210.57748
  23410582.360   123023396.04508  23410580.860    95862360.24047
 15 03 02 00 04 30.0000000  0  6G16G18G21G22G27G31
  21228330.480   111555641.38209  21228327.020    86926464.72448
  22486260.800   118166203.88509  22486257.720    92077599.81746
  21556490.740   113280132.55208  21556486.580    88270220.60748
  23604893.800   124044564.46908  23604891.940    96658110.11746
  22374997.080   117581437.11809  22374996.140    91621907.05648
  23428963.800   123119990.10208  23428962.380    95937628.15846
 15 03 02 00 05  0.0000000  0  6G16G18G21G22G27G31
  21217050.520   111496365.05509  21217047.100    86880275.39348
  22476094.040   118112777.36709  22476091.040    92035968.79847
  21565422.600   113327070.06408  21565418.500    88306795.30048
  23587327.100   123952251.32408  23587325.300    96586178.11245
  22363467.260   117520847.59109  22363466.520    91574694.47348
  23447363.720   123216682.39508  23447362.580    96012972.61846
 15 03 02 00 05 30.0000000  0  7G16G18G21G22G27G29G31
  21205835.140   111437427.87509  21205831.780    86834350.32348
  22465993.420   118059698.82809  22465990.560    91994608.95047
  21574411.960   113374309.83008  21574407.900    88343605.50348
  23569773.540   123860007.59508  23569771.900    96514300.23145
  22351962.280   117460388.69508  22351961.600    91527583.65448
  24553463.740   129029323.44704                                
  23465784.340   123313483.71908  23465783.380    96088402.02646
 15 03 02 00 06  0.0000000  0  6G16G18G21G22G27G31
  21194683.960   111378828.06509  21194680.640    86788688.14248
  22455958.780   118006966.35009  22455955.860    91953518.73746
  21583457.700   113421845.83208  21583453.680    88380646.54448
  23552232.720   123767831.35908  23552231.440    96442474.95746
  22340481.380   117400056.66208  22340480.620    91480571.72048
  23484224.500   123410387.03308  23484223.600    96163910.91446
 15 03 02 00 06 30.0000000  0  6G16G18G21G22G27G31
  21183597.120   111320566.19109  21183593.740    86743289.27148
  22445990.260   117954581.01909  22445987.160    91912699.04446
  21592559.280   113469674.95509  21592555.220    88417915.98448
  23534704.960   123675723.86908  23534704.020    96370703.04746
  22329024.340   117339849.95009  22329023.340    91433657.41347
  23502683.260   123507387.93808  23502682.420    96239495.84246
 15 03 02 00 07  0.0000000  0  6G16G18G21G22G27G31
  21172574.720   111262642.92309  21172571.280    86698154.25748
  22436087.760   117902542.76809  22436084.480    91872149.78647
  21601715.940   113517793.53909  21601711.860    88455410.99448
  23517190.540   123583686.60708  23517189.680    96298985.79346
  22317590.860   117279767.03709  22317589.820    91386839.56848
  23521159.720   123604481.98408  23521159.040    96315153.34546
 15 03 02 00 07 30.0000000  0  7G16G18G19G21G22G27G31
  21161617.160   111205060.48509  21161613.640    86653284.83348
  22426251.780   117850854.40209  22426248.440    91831873.16646
  24539774.980   128957401.74708  24539771.840   100486273.41345
  21610927.320   113566199.62609  21610923.180    88493130.02748
  23499690.120   123491722.25408  23499689.020    96227325.43645
  22306181.060   117219808.17309  22306180.100    91340118.39348
  23539653.320   123701666.04808  23539652.780    96390881.00546
 15 03 02 00 08  0.0000000  0  7G16G18G19G21G22G27G31
  21150719.180   111147791.26109  21150715.660    86608659.46648
  22416477.100   117799488.23509  22416473.700    91791847.60246
  24524384.380   128876523.32507  24524381.640   100423251.25846
  21620187.540   113614862.30508  21620183.360    88531048.99848
  23482198.600   123399803.72508  23482197.080    96155700.77846
  22294789.300   117159943.77909  22294788.460    91293470.83148
  23558157.900   123798907.75408  23558157.500    96466653.55746
 15 03 02 00 08 30.0000000  0  7G16G18G19G21G22G27G31
  21139893.940   111090904.27509  21139890.480    86564331.94648
  22406776.880   117748513.49809  22406773.440    91752127.06646
  24509016.020   128795762.58407  24509013.880   100360320.88045
  21629509.080   113663847.29908  21629504.880    88569219.13248
  23464729.280   123308001.05408  23464727.280    96084166.62246
  22283428.200   117100240.86908  22283427.420    91246949.10848
  23576685.800   123896271.29408  23576685.420    96542521.04146
 15 03 02 00 09  0.0000000  0  7G16G18G19G21G22G27G31
  21129135.180   111034366.75909  21129131.820    86520276.74148
  22397144.840   117697897.16909  22397141.340    91712685.80246
  24493663.460   128715084.53407  24493661.340   100297454.89845
  21638884.680   113713116.51208  21638880.500    88607610.72248
  23447275.840   123216281.75108  23447273.300    96012697.45746
  22272091.060   117040664.52909  22272090.300    91200526.00048
  23595229.780   123993718.54808  23595229.180    96618453.77046
 15 03 02 00 09 30.0000000  0  7G16G18G19G21G22G27G31
  21118441.340   110978170.27509  21118438.020    86476487.27948
  22387579.400   117647630.87609  22387575.980    91673517.29146
  24478324.720   128634478.69607  24478322.380   100234645.19545
  21648312.220   113762658.59108  21648308.080    88646214.93148
  23429836.500   123124637.87908  23429833.760    95941287.03146
  22260776.080   116981204.43608  22260775.280    91154193.47348
  23613787.120   124091236.09208  23613786.240    96694441.26646
 15 03 02 00 10  0.0000000  0  7G16G18G19G21G22G27G31
  21107814.560   110922326.32409  21107811.280    86432972.52448
  22378082.760   117597726.34809  22378079.560    91634630.67647
  24463001.600   128553954.53607  24462998.740   100171899.14645
  21657793.080   113812480.96408  21657789.000    88685037.56648
  23412413.660   123033081.53508  23412410.960    95869944.79546
  22249485.100   116921870.23309  22249484.340    91107959.05348
  23632359.020   124188830.57408  23632357.860    96770488.71646
 15 03 02 00 10 30.0000000  0  7G16G18G19G21G22G27G31
  21097254.740   110866834.09509  21097251.420    86389731.82248
  22368654.800   117548182.37509  22368651.740    91596025.00847
  24447693.800   128473509.39508  24447690.460   100109214.66545
  21667326.300   113862578.51508  21667322.320    88724074.61248
  23395007.340   122941612.76308  23395004.860    95798670.76846
  22238217.680   116862658.99209  22238216.740    91061820.43848
  23650944.380   124286496.30208  23650943.180    96846591.65946
 15 03 02 00 11  0.0000000  0  7G16G18G19G21G22G27G31
  21086762.820   110811698.84409  21086759.540    86346769.28248
  22359296.540   117499004.21909  22359293.480    91557704.39147
  24432401.560   128393146.02107  24432397.520   100046593.90145
  21676912.180   113912952.70708  21676908.280    88763327.22548
  23377618.720   122850237.18508  23377616.620    95727469.34046
  22226974.240   116803573.73009  22226973.300    91015779.99948
  23669543.160   124384233.11408  23669542.040    96922750.00746
 15 03 02 00 11 30.0000000  0  7G16G18G19G21G22G27G31
  21076337.920   110756915.70309  21076334.640    86304081.12748
  22350006.960   117450186.75809  22350003.820    91519664.84647
  24417123.540   128312857.99207  24417119.000    99984031.84546
  21686549.180   113963595.39209  21686545.260    88802789.05648
  23360247.000   122758950.43908  23360245.140    95656337.13046
  22215753.480   116744607.67609  22215752.560    90969832.44348
  23688153.560   124482030.98508  23688152.520    96998955.91346
 15 03 02 00 12  0.0000000  0  7G16G18G19G21G22G27G31
  21065984.020   110702505.38409  21065980.640    86261683.48848
  22340789.960   117401750.84909  22340786.860    91481922.61247
  24401863.300   128232664.05608  24401858.120    99921543.10845
  21696240.360   114014522.66608  21696236.420    88842472.65048
  23342896.400   122667774.16808  23342894.440    95585290.99046
  22204558.840   116685779.75809  22204558.000    90923992.51548
  23706778.720   124579905.98908  23706777.840    97075221.92746
 15 03 02 00 12 30.0000000  0  7G16G18G19G21G22G27G31
  21055698.860   110648456.13609  21055695.360    86219567.18448
  22331643.300   117353684.93709  22331640.200    91444468.67047
  24386618.240   128152550.42808  24386612.680    99859116.94745
  21705982.760   114065719.20508  21705978.840    88882366.04948
  23325564.740   122576697.12308  23325562.580    95514322.16346
  22193387.840   116627076.30609  22193387.000    90878249.58248
  23725415.420   124677841.55508  23725414.600    97151535.12546
 15 03 02 00 13  0.0000000  0  7G16G18G19G21G22G27G31
  21045484.160   110594777.18109  21045480.540    86177739.43648
  22322568.740   117305998.00409  22322565.660    91407310.05347
  24371389.580   128072524.04208  24371384.100    99796758.77345
  21715777.340   114117190.13408  21715773.480    88922473.26248
  23308253.780   122485728.97508  23308251.460    95443438.18946
  22182242.000   116568504.39309  22182241.100    90832609.16148
  23744064.300   124775841.70708  23744063.600    97227898.65146
 15 03 02 00 13 30.0000000  0  7G16G18G19G21G22G27G31
  21035338.880   110541463.45009  21035335.240    86136196.26348
  22313565.320   117258684.93109  22313562.260    91370442.74147
  24356176.140   127992577.79207  24356170.520    99734463.00845
  21725622.500   114168926.92508  21725618.640    88962787.64048
  23290962.680   122394865.23408  23290960.300    95372635.54846
  22171119.940   116510057.06309  22171118.920    90787065.80748
  23762723.480   124873896.40208  23762722.980    97304304.67446
 15 03 02 00 14  0.0000000  0  7G16G18G19G21G22G27G31
  21025264.600   110488522.84109  21025260.960    86094943.84848
  22304634.500   117211753.55409  22304631.440    91333872.88047
  24340978.980   127912718.04607  24340973.760    99672234.67145
  21735518.980   114220933.08409  21735515.020    89003311.93048
  23273693.220   122304114.79408  23273690.760    95301921.18646
  22160022.700   116451740.28709  22160021.600    90741624.19248
  23781393.660   124972008.64208  23781393.420    97380755.53246
 15 03 02 00 14 30.0000000  0  7G16G18G19G21G22G27G31
  21015261.160   110435954.32209  21015257.460    86053981.38148
  22295776.080   117165202.54309  22295772.960    91297599.39747
  24325797.440   127832941.16507  24325793.040    99610070.94446
  21745465.920   114273204.33309  21745461.860    89044042.78248
  23256445.320   122213477.02708  23256442.780    95231294.61246
  22148949.720   116393550.98209  22148948.560    90696281.88948
  23800073.720   125070172.12408  23800073.680    97457246.31646
 15 03 02 00 15  0.0000000  0  7G16G18G19G21G22G27G31
  21005329.500   110383762.74709  21005325.700    86013312.61548
  22286990.920   117119036.82709  22286987.840    91261626.13547
  24310632.180   127753249.92407  24310628.460    99547973.90645
  21755463.380   114325740.85409  21755459.140    89084980.32948
  23239219.940   122122957.35508  23239217.300    95160760.03446
  22137901.500   116335492.07609  22137900.400    90651041.19548
  23818763.640   125168386.98408  23818763.680    97533777.13246
 15 03 02 00 15 30.0000000  0  7G16G18G19G21G22G27G31
  20995468.860   110331944.38509  20995464.980    85972934.68048
  22278278.340   117073252.19409  22278275.300    91225949.82947
  24295482.480   127673638.96108  24295479.240    99485939.44045
  21765509.860   114378535.42308  21765505.540    89126118.96248
  23222016.380   122032552.92508  23222013.660    95090315.25746
  22126876.880   116277557.88009  22126875.980    90605897.69548
  23837461.660   125266644.03508  23837461.740    97610340.82846
 15 03 02 00 16  0.0000000  0  7G16G18G19G21G22G27G31
  20985679.580   110280501.23509  20985675.640    85932849.11148
  22269638.680   117027850.79509  22269635.740    91190572.14047
  24280348.300   127594108.49308  24280345.280    99423967.65946
  21775605.060   114431586.36208  21775600.780    89167457.35448
  23204835.180   121942266.43108  23204832.560    95019962.39346
  22115876.000   116219748.78509  22115875.260    90560851.66548
  23856167.220   125364941.13908  23856167.460    97686935.72646
 15 03 02 00 16 30.0000000  0  7G16G18G19G21G22G27G31
  20975962.320   110229436.58109  20975958.300    85893058.47648
  22261072.700   116982836.09309  22261069.740    91155495.78147
  24265229.840   127514659.48008  24265226.980    99362059.35846
  21785748.940   114484893.22708  21785744.760    89208995.16248
  23187677.240   121852101.84108  23187674.580    94949704.50646
  22104899.300   116162066.04509  22104898.520    90515904.09448
  23874879.840   125463276.46808  23874880.380    97763560.39846
 15 03 02 00 17  0.0000000  0  7G16G18G19G21G22G27G31
  20966318.160   110178755.94709  20966314.080    85853567.06648
  22252581.220   116938212.82309  22252578.220    91120724.42047
  24250127.540   127435295.40608  24250124.500    99300217.27645
  21795941.700   114538457.01208  21795937.600    89250733.16748
  23170543.680   121762065.02708  23170540.840    94879546.18146
  22093947.300   116104513.09909  22093946.460    90471057.65448
  23893599.760   125561650.44608  23893600.480    97840215.18046
 15 03 02 00 17 30.0000000  0  7G16G18G19G21G22G27G31
  20956747.020   110128459.14109  20956742.900    85814374.75448
  22244164.260   116893981.15209  22244161.200    91086258.21847
  24235041.040   127356014.36808  24235037.400    99238439.88045
  21806182.660   114592273.97508  21806178.620    89292668.46748
  23153434.620   121672156.86208  23153431.580    94809488.09446
  22083019.600   116047087.96809  22083018.760    90426310.81448
  23912326.160   125660057.71708  23912326.940    97916895.92246
 15 03 02 00 18  0.0000000  0  7G16G18G19G21G22G27G31
  20947249.480   110078549.29409  20947245.400    85775483.95848
  22235822.340   116850144.06709  22235819.200    91052099.47347
  24219970.440   127276817.40208  24219966.300    99176728.01846
  21816471.800   114646343.92608  21816467.760    89334800.89247
  23136350.780   121582381.11308  23136347.540    94739533.17947
  22072116.460   115989792.02709  22072115.640    90381664.64048
  23931058.620   125758496.83608  23931059.520    97993601.45546
 15 03 02 00 18 30.0000000  0  7G16G18G19G21G22G27G31
  20937825.540   110029026.36809  20937821.500    85736894.66148
  22227555.460   116806701.49509  22227552.280    91018248.14747
  24204915.540   127197702.74808  24204910.920    99115080.28945
  21826808.280   114700662.40809  21826804.280    89377126.98047
  23119292.120   121492738.25308  23119289.000    94669681.81647
  22061237.480   115932623.29509  22061236.840    90337117.58948
  23949796.160   125856962.81908  23949797.220    98070327.89646
 15 03 02 00 19  0.0000000  0  7G16G18G19G21G22G27G31
  20928476.000   109979894.37509  20928471.920    85698609.98248
  22219364.260   116763656.70609  22219361.000    90984706.77347
  24189876.540   127118672.18108  24189871.320    99053498.04945
  21837192.180   114755229.75009  21837188.200    89419646.97948
  23102259.540   121403232.65808  23102256.520    94599937.39246
  22050383.160   115875583.68708  22050382.580    90292671.14748
  23968538.720   125955454.64608  23968539.760    98147074.46946
 15 03 02 00 19 30.0000000  0  7G16G18G19G21G22G27G31
  20919202.360   109931161.05709  20919198.280    85660635.96948
  22211250.140   116721016.83309  22211246.840    90951480.91947
  24174854.460   127039731.41407  24174849.200    98991985.78346
  21847624.040   114810049.45808  21847620.120    89462363.63648
  23085254.700   121313873.16808  23085251.740    94530306.84446
  22039554.580   115818679.17809  22039554.020    90248329.99048
  23987286.840   126053975.25408  23987287.680    98223843.47546
 15 03 02 00 20  0.0000000  0  7G16G18G19G21G22G27G31
  20910003.840   109882822.55009  20909999.840    85622969.60448
  22203212.460   116678778.73709  22203209.180    90918568.14147
  24159848.100   126960874.84307  24159843.340    98930539.14845
  21858102.560   114865114.22408  21858098.680    89505271.24848
  23068277.060   121224656.79608  23068274.140    94460787.78846
  22028750.720   115761904.28509  22028750.060    90204089.83348
  24006039.040   126152516.16908  24006039.340    98300628.30446
 15 03 02 00 20 30.0000000  0  7G16G18G19G21G22G27G31
  20900880.620   109834879.96309  20900876.700    85585611.74048
  22195251.340   116636942.88709  22195248.020    90885968.80047
  24144857.640   126882101.56107  24144853.560    98869157.41146
  21868627.220   114920421.60609  21868623.380    89548367.90748
  23051326.960   121135585.05108  23051324.040    94391381.41646
  22017971.300   115705258.18709  22017970.640    90159950.03348
  24024794.240   126251073.23708  24024794.060    98377425.69945
 15 03 02 00 21  0.0000000  0  7G16G18G19G21G22G27G31
  20891832.820   109787333.57609  20891828.880    85548562.61148
  22187366.820   116595509.71309  22187363.560    90853683.22847
  24129882.980   126803410.29308  24129879.500    98807839.56446
  21879197.360   114975968.00909  21879193.500    89591650.81948
  23034404.780   121046659.55108  23034401.820    94322089.01947
  22007216.140   115648739.68409  22007215.440    90115909.65648
  24043551.760   126349642.42608  24043551.420    98454232.53746
 15 03 02 00 21 30.0000000  0  7G16G18G19G21G22G27G31
  20882860.580   109740184.11609  20882856.620    85511822.77248
  22179559.060   116554479.68009  22179555.800    90821711.79147
  24114923.960   126724799.25808  24114920.680    98746584.27045
  21889812.320   115031749.88009  21889808.360    89635117.20947
  23017510.700   120957881.06908  23017507.660    94252911.16947
  21996485.040   115592347.16509  21996484.240    90071967.44048
  24062310.700   126448219.00608  24062310.400    98531045.12146
 15 03 02 00 22  0.0000000  0  7G16G18G19G21G22G27G31
  20873965.120   109693437.71909  20873961.140    85475397.01348
  22171829.060   116513858.33009  22171825.820    90790058.81747
  24099981.320   126646272.90608  24099977.960    98685394.95445
  21900472.520   115087769.56108  21900468.520    89678768.91348
  23000646.040   120869256.59008  23000642.820    94183853.31047
  21985778.840   115536085.13209  21985778.000    90028126.90648
  24081071.260   126546804.64308  24081071.120    98607864.74646
 15 03 02 00 22 30.0000000  0  7G16G18G19G21G22G27G31
  20865147.400   109647100.03309  20865143.440    85439289.71948
  22164177.940   116473651.53909  22164174.720    90758728.87247
  24085055.500   126567834.96208  24085051.860    98624274.50246
  21911178.400   115144029.50108  21911174.420    89722607.82147
  22983811.900   120780792.42708  22983808.560    94114920.37247
  21975098.140   115479957.52709  21975097.300    89984391.12548
  24099833.580   126645399.99208  24099833.680    98684691.93046
 15 03 02 00 23  0.0000000  0  7G16G18G19G21G22G27G31
  20856407.100   109601169.64609  20856403.220    85403499.80948
  22156605.360   116433857.01509  22156602.140    90727720.18747
  24070145.540   126489481.99908  24070141.880    98563220.30946
  21921928.960   115200524.42708  21921925.040    89766629.84247
  22967008.020   120692488.03808  22967004.660    94046111.93747
  21964442.380   115423961.08909  21964441.560    89940757.53248
  24118596.560   126743998.79808  24118596.900    98761521.78246
 15 03 02 00 23 30.0000000  0  7G16G18G19G21G22G27G31
  20847745.360   109555651.93209  20847741.480    85368031.45448
  22149112.380   116394480.63809  22149109.140    90697037.31047
  24055252.140   126411218.00208  24055248.280    98502235.40545
  21932724.500   115257255.62008  21932720.580    89810835.95947
  22950235.740   120604349.83508  22950232.260    93977432.97746
  21953812.300   115368099.64409  21953811.500    89897229.14448
  24137360.300   126842601.92408  24137360.920    98838354.97346
 15 03 02 00 24  0.0000000  0  7G16G18G19G21G22G27G31
  20839161.520   109510543.50709  20839157.600    85332882.03148
  22141698.160   116355518.17009  22141694.820    90666676.97547
  24040374.540   126333037.39407  24040370.660    98441315.47546
  21943563.640   115314215.74508  21943559.660    89855220.47748
  22933494.420   120516374.64508  22933490.920    93908881.03747
  21943206.800   115312367.73009  21943205.920    89853801.69148
  24156123.400   126941201.06208  24156124.140    98915185.06846
 15 03 02 00 24 30.0000000  0  7G16G18G19G21G22G27G31
  20830656.300   109465848.15809  20830652.300    85298054.48348
  22134363.320   116316973.21009  22134359.840    90636641.96647
  24025513.040   126254941.81507  24025508.940    98380461.83146
  21954446.380   115371404.83308  21954442.380    89899783.40447
  22916785.160   120428567.44808  22916781.540    93840460.00047
  21932626.280   115256767.60809  21932625.360    89810476.93948
  24174885.620   127039795.18608  24174886.420    98992011.25346
 15 03 02 00 25  0.0000000  0  7G16G18G19G21G22G27G31
  20822229.560   109421565.53209  20822225.520    85263548.53548
  22127107.760   116278845.34509  22127104.380    90606931.97147
  24010667.580   126176929.38707  24010663.160    98319672.95646
  21965371.960   115428819.12708  21965368.000    89944521.81047
  22900107.900   120340928.58808  22900104.280    93772170.14147
  21922070.500   115201297.19809  21922069.640    89767253.24348
  24193645.840   127138379.29108  24193646.840    99068829.59545
 15 03 02 00 25 30.0000000  0  7G16G18G19G21G22G27G31
  20813881.940   109377698.53009  20813877.860    85229366.45748
  22119932.020   116241137.24709  22119928.820    90577549.05647
  23995838.400   126099000.96808  23995833.580    98258949.57745
  21976340.300   115486458.06209  21976336.380    89989435.26348
  22883463.460   120253461.86208  22883459.820    93704014.39447
  21911539.800   115145957.69409  21911538.880    89724131.56648
  24212403.760   127236951.53108  24212404.980    99145638.67946
 15 03 02 00 26  0.0000000  0  7G16G18G19G21G22G27G31
  20805613.660   109334248.39409  20805609.640    85195509.20048
  22112836.200   116203849.33909  22112833.180    90548493.55647
  23981025.240   126021156.06608  23981020.080    98198291.23546
  21987350.900   115544319.06008  21987346.920    90034521.74347
  22866852.180   120166169.06209  22866848.440    93635994.17047
  21901033.960   115090748.58809  21901032.980    89681111.48748
  24231158.760   127335508.44408  24231160.200    99222435.82045
 15 03 02 00 26 30.0000000  0  7G16G18G19G21G22G27G31
  20797426.640   109291224.94809  20797422.660    85161984.44148
  22105822.340   116166991.88909  22105819.400    90519773.50047
  23966229.480   125943402.82908  23966224.540    98137704.35946
  21998404.860   115602407.98109  21998400.840    90079785.84347
  22850275.960   120079060.81409  22850272.280    93568117.74447
  21890554.460   115035677.95309  21890553.400    89638199.31848
  24249911.720   127434054.91608  24249913.460    99299224.81545
 15 03 02 00 27  0.0000000  0  7G16G18G19G21G22G27G31
  20789319.720   109248622.35509  20789315.720    85128787.61348
  22098889.200   116130558.29209  22098886.260    90491383.70047
  23951449.560   125865733.37808  23951444.680    98077182.77546
  22009500.400   115660715.23209  22009496.340    90125220.05547
  22833733.860   119992132.15409  22833730.300    93500381.25347
  21880099.760   114980738.35209  21880098.700    89595389.24548
  24268660.940   127532580.58508  24268662.580    99375997.61445
 15 03 02 00 27 30.0000000  0  7G16G18G19G21G22G27G31
  20781293.300   109206442.92009  20781289.240    85095920.52148
  22092037.160   116094550.55509  22092034.160    90463325.74047
  23936685.540   125788148.23408  23936680.880    98016726.83146
  22020637.280   115719239.41909  22020633.140    90170823.31747
  22817226.500   119905386.23809  22817222.920    93432787.16347
  21869670.040   114925930.43609  21869669.100    89552681.78748
  24287405.960   127631082.97508  24287407.300    99452752.25845
 15 03 02 00 28  0.0000000  0  7G16G18G19G21G22G27G31
  20773348.480   109164692.84609  20773344.440    85063387.98948
  22085267.340   116058974.92709  22085264.180    90435604.50447
  23921938.340   125710651.83208  23921933.800    97956340.06146
  22031815.820   115777982.85409  22031811.680    90216597.41447
  22800755.240   119818829.87309  22800751.540    93365340.77947
  21859266.220   114871258.68709  21859265.580    89510080.44048
  24306146.860   127729563.75608  24306148.040    99529490.04146
 15 03 02 00 28 30.0000000  0  7G16G18G19G21G22G27G31
  20765485.060   109123370.91209  20765481.120    85031189.07648
  22078579.320   116023829.26009  22078576.080    90408218.29447
  23907207.460   125633241.01108  23907203.060    97896019.97946
  22043035.160   115836940.79409  22043031.000    90262538.66047
  22784320.040   119732462.72408  22784316.240    93298041.82847
  21848887.800   114816720.31009  21848887.400    89467583.01248
  24324882.280   127828016.69508  24324883.540    99606206.08746
 15 03 02 00 29  0.0000000  0  7G16G18G19G21G22G27G31
  20757704.380   109082483.48109  20757700.500    84999328.73848
  22071974.280   115989119.79009  22071971.000    90381171.97147
  23892493.700   125555920.70508  23892489.420    97835770.45146
  22054295.800   115896116.34008  22054291.700    90308649.47347
  22767922.260   119646292.29209  22767918.420    93230896.17447
  21838535.680   114762320.05709  21838535.340    89425193.20948
  24343612.800   127926443.80108  24343614.240    99682901.95645
 15 03 02 00 29 30.0000000  0  7G16G18G19G21G22G27G31
  20750005.600   109042026.11309  20750001.760    84967803.51248
  22065451.420   115954841.83009  22065448.100    90354461.88447
  23877795.920   125478684.29608  23877791.800    97775586.27746
  22065596.320   115955501.42808  22065592.280    90354923.56047
  22751561.180   119560314.71709  22751557.380    93163900.76647
  21828208.720   114708051.83409  21828208.320    89382906.28148
  24362336.500   128024836.05308  24362338.400    99759570.61346
 15 03 02 00 30  0.0000000  0  7G16G18G19G21G22G27G31
  20742389.700   109002004.08409  20742385.880    84936617.51348
  22059011.620   115921000.57009  22059008.240    90328092.09847
  23863114.840   125401535.39008  23863110.720    97715470.29446
  22076936.960   116015097.28008  22076933.000    90401361.89247
  22735237.960   119474536.21409  22735234.200    93097060.48447
  21817907.740   114653919.41709  21817907.160    89340725.19148
  24381053.600   128123194.15008  24381056.220    99836212.60446
 15 03 02 00 30 30.0000000  0  7G16G18G19G21G22G27G31
  20734856.480   108962416.45909  20734852.620    84905770.01648
  22052654.580   115887594.35509  22052651.200    90302061.30547
  23848450.120   125324471.53808  23848445.800    97655420.55446
  22088316.980   116074899.64909  22088313.020    90447961.13347
  22718952.600   119388956.63209  22718948.800    93030375.20047
  21807632.260   114599920.37709  21807631.460    89298648.01448
  24399763.120   128221512.49008  24399766.260    99912823.57545
 15 03 02 00 31  0.0000000  0  7G16G18G19G21G22G27G31
  20727406.500   108923266.70509  20727402.680    84875263.71248
  22046380.940   115854626.28509  22046377.560    90276371.91747
  23833801.940   125247494.24708  23833797.260    97595438.31846
  22099736.240   116134907.96608  22099732.240    90494720.86047
  22702706.000   119303580.15409  22702702.100    92963848.18547
  21797382.460   114546056.37709  21797381.580    89256676.08248
  24418465.000   128319789.74108  24418468.400    99989402.52445
 15 03 02 00 31 30.0000000  0  7G16G18G19G21G22G27G31
  20720040.420   108884557.92509  20720036.660    84845101.03048
  22040191.160   115822098.59309  22040187.800    90251025.67847
  23819170.340   125170604.75408  23819165.780    97535524.47546
  22111194.640   116195121.83409  22111190.640    90541640.75548
  22686498.920   119218411.10109  22686494.840    92897482.79947
  21787158.660   114492329.07309  21787157.720    89214810.66448
  24437159.000   128418024.36807  24437162.380   100065948.27246
 15 03 02 00 32  0.0000000  0  7G16G18G19G21G22G27G31
  20712758.600   108846292.10909  20712754.880    84815283.52248
  22034085.600   115790013.42809  22034082.240    90226024.26847
  23804555.460   125093803.27808  23804551.200    97475679.20846
  22122691.820   116255539.52009  22122687.820    90588719.46348
  22670331.700   119133451.77809  22670327.480    92831280.83247
  21776960.860   114438738.81209  21776959.800    89173052.03448
  24455844.580   128516214.33508  24455847.940   100142459.27745
 15 03 02 00 32 30.0000000  0  7G16G18G19G21G22G27G31
  20705561.620   108808471.85009  20705557.920    84785813.19048
  22028064.680   115758373.21409  22028061.320    90201369.57047
  23789957.520   125017090.95308  23789953.520    97415903.39746
  22134227.700   116316160.45309  22134223.600    90635956.55647
  22654205.040   119048706.04709  22654200.820    92765245.31247
  21766789.340   114385286.74909  21766788.180    89131401.07648
  24474521.260   128614357.47007  24474524.420   100218933.83145
 15 03 02 00 33  0.0000000  0  7G16G18G19G21G22G27G31
  20698448.600   108771092.44409  20698444.880    84756686.37848
  22022127.440   115727172.72309  22022124.060    90177057.52447
  23775375.520   124940461.55308  23775371.480    97356192.21346
  22145800.640   116376976.60109  22145796.500    90683345.76047
  22638118.260   118964170.18009  22638114.100    92699373.30947
  21756642.920   114331966.86009  21756641.760    89089853.11648
  24493187.220   128712444.79008  24493190.340   100295364.94845
 15 03 02 00 33 30.0000000  0  7G16G18G19G21G22G27G31
  20691421.200   108734162.82209  20691417.420    84727910.04948
  22016275.440   115696420.11609  22016271.940    90153094.47247
  23760810.800   124863922.43708  23760806.480    97296551.36246
  22157411.620   116437992.82508  22157407.420    90730890.86847
  22622073.260   118879854.01409  22622069.120    92633672.49847
  21746523.000   114278786.36609  21746521.760    89048413.78348
  24511843.280   128810480.48807  24511846.460   100371755.89944
 15 03 02 00 34  0.0000000  0  7G16G18G19G21G22G27G31
  20684479.600   108697684.19209  20684475.760    84699485.14448
  22010508.840   115666116.67009  22010505.360    90129481.40847
  23746263.060   124787472.79608  23746258.500    97236980.25246
  22169060.160   116499206.64208  22169055.980    90778589.93147
  22606070.540   118795759.75909  22606066.360    92568144.60247
  21736429.580   114225745.23609  21736428.260    89007083.03648
  24530488.800   128908461.10508  24530491.960   100448103.90445
 15 03 02 00 34 30.0000000  0  7G16G18G19G21G22G27G31
  20677624.100   108661657.66509  20677620.100    84671412.52648
  22004827.880   115636262.78509  22004824.360    90106218.66147
  23731732.120   124711111.95108  23731727.540    97177478.33846
  22180745.940   116560615.96409  22180741.780    90826441.34747
  22590110.380   118711888.83409  22590106.100    92502790.72647
  21726362.480   114172842.81409  21726361.160    88965860.37648
  24549123.160   129006383.54407  24549126.320   100524406.63645
 15 03 02 00 35  0.0000000  0  7G16G18G19G21G22G27G31
  20670854.600   108626083.08309  20670850.400    84643692.07648
  21999232.320   115606857.57209  21999228.660    90083305.52247
  23717217.780   124634838.08608  23717213.020    97118044.19446
  22192468.240   116622217.06108  22192464.140    90874442.20847
  22574192.840   118628242.25109  22574188.580    92437611.66647
  21716321.540   114120077.60809  21716320.180    88924744.63948
  24567745.520   129104243.24507  24567748.980   100600660.61345
 15 03 02 00 35 30.0000000  0  7G16G18G19G21G22G27G31
  20664171.460   108590962.82709  20664167.260    84616325.64348
  21993722.540   115577903.07309  21993718.700    90060743.58947
  23702720.280   124558652.25508  23702715.220    97058678.65346
  22204226.760   116684008.54809  22204222.700    90922591.40947
  22558318.580   118544823.52909  22558314.460    92372610.13847
  21706306.940   114067450.69209  21706305.680    88883736.65748
  24586355.420   129202037.86008  24586359.120   100676863.84345
 15 03 02 00 36  0.0000000  0  7G16G18G19G21G22G27G31
  20657574.880   108556297.83509  20657570.760    84589313.97048
  21988298.780   115549400.75309  21988294.900    90038534.00647
  23688239.320   124482553.64308  23688233.940    96999381.07346
  22216021.160   116745988.60708  22216017.100    90970887.56647
  22542488.120   118461634.76709  22542484.040    92307787.81747
  21696318.600   114014961.65109  21696317.460    88842836.10548
  24604952.500   129299764.73307  24604956.460   100753014.48744
 15 03 02 00 36 30.0000000  0  7G16G18G19G21G22G27G31
  20651065.540   108522091.70909  20651061.560    84562659.84148
  21982961.440   115521352.93709  21982957.580    90016678.58147
  23673775.220   124406544.34708  23673769.800    96940153.09246
  22227851.320   116808156.76708  22227847.300    91019330.27847
  22526702.280   118378679.87809  22526698.140    92243147.71547
  21686356.840   113962612.40409  21686355.680    88802044.48848
  24623536.300   129397422.33107  24623540.520   100829111.14746
 15 03 02 00 37  0.0000000  0  7G16G18G19G21G22G27G31
  20644644.780   108488351.03609  20644640.920    84536368.40648
  21977711.740   115493765.81109  21977707.960    89995182.12947
  23659328.880   124330629.03808  23659323.620    96880998.31646
  22239717.900   116870516.21308  22239713.900    91067922.04647
  22510962.420   118295966.65009  22510958.240    92178695.92347
  21676422.780   113910408.41909  21676421.480    88761366.07148
  24642107.280   129495012.84807  24642111.840   100905155.64446
 15 03 02 00 37 30.0000000  0  7G16G18G19G21G22G27G31
  20638311.400   108455069.44109  20638307.600    84510434.68548
  21972548.380   115466632.47609  21972544.620    89974039.28147
  23644899.000   124254799.98808  23644893.960    96821910.78546
  22251619.060   116933057.15208  22251615.040    91116655.24547
  22495267.440   118213489.66909  22495263.260    92114428.23647
  21666514.800   113858341.79609  21666513.540    88720794.68248
  24660663.400   129592525.20508  24660668.220   100981139.11444
 15 03 02 00 38  0.0000000  0  7G16G18G19G21G22G27G31
  20632066.360   108422252.18309  20632062.680    84484862.79448
  21967472.340   115439957.86109  21967468.560    89953253.88747
  23630486.320   124179061.01908  23630481.500    96762893.42346
  22263555.120   116995781.53909  22263551.100    91165531.38747
  22479618.760   118131255.58709  22479614.580    92050349.81947
  21656633.740   113806416.61909  21656632.600    88680333.51448
  24679204.920   129689961.03306  24679210.020   101057062.95445
 15 03 02 00 38 30.0000000  0  7G16G18G19G21G22G27G31
  20625909.840   108389900.04309  20625906.340    84459653.33048
  21962483.600   115413742.05509  21962479.920    89932826.00747
  23616090.600   124103411.53308  23616085.860    96703945.79746
  22275525.560   117058686.62608  22275521.520    91214548.33247
  22464016.640   118049265.63609  22464012.340    91986461.62547
  21646779.420   113754632.00709  21646778.380    88639981.87648
  24697731.100   129787315.97207  24697736.220   101132923.59845
 15 03 02 00 39  0.0000000  0  6G16G18G19G21G22G27
  20619840.380   108358005.13609  20619836.940    84434800.14848
  21957580.660   115387977.20209  21957577.040    89912749.50447
  23601710.020   124027841.69308  23601705.240    96645060.22746
  22287528.320   117121761.60809  22287524.300    91263697.65647
  22448459.740   117967513.14909  22448455.160    91922758.43747
  21636950.220   113702979.31509  21636949.180    88599733.02348
 15 03 02 00 39 30.0000000  0  6G16G18G19G21G22G27
  20613861.860   108326588.02009  20613858.440    84410319.27148
  21952767.300   115362683.08709  21952763.740    89893039.82747
  23587348.240   123952370.93908  23587343.320    96586251.87246
  22299566.640   117185023.08608  22299562.560    91312992.31847
  22432952.100   117886019.53609  22432947.180    91859256.98447
  21627149.780   113651477.58209  21627148.660    88559601.81748
 15 03 02 00 40  0.0000000  0  6G16G18G19G21G22G27
  20607973.100   108295642.54809  20607969.700    84386205.91348
  21948042.260   115337852.96309  21948038.680    89873691.68847
  23573003.760   123876991.23608  23572998.660    96527514.47846
  22311638.660   117248461.76409  22311634.620    91362425.05047
  22417492.600   117804779.65909  22417487.680    91795953.25347
  21617376.580   113600119.12409  21617375.400    88519582.24848
 15 03 02 00 40 30.0000000  0  6G16G18G19G21G22G27
  20602174.260   108265169.42509  20602170.880    84362460.63248
  21943405.540   115313487.12409  21943402.000    89854705.33747
  23558676.600   123801701.96208  23558671.460    96468847.54646
  22323743.900   117312075.07408  22323739.860    91411993.86047
  22402081.640   117723795.18809  22402076.960    91732848.54047
  21607630.620   113548903.69309  21607629.420    88479674.13648
 15 03 02 00 41  0.0000000  0  6G16G18G19G21G22G27
  20596465.720   108235170.85309  20596462.340    84339085.11548
  21938857.540   115289587.42009  21938853.980    89836082.19947
  23544366.860   123726503.82808  23544361.700    96410251.64546
  22335882.100   117375861.74908  22335878.100    91461697.74547
  22386719.920   117643069.62109  22386715.440    91669945.55947
  21597912.080   113497832.14209  21597910.800    88439878.13548
 15 03 02 00 41 30.0000000  0  6G16G18G19G21G22G27
  20590847.400   108205646.50009  20590844.040    84316079.12248
  21934398.060   115266152.85409  21934394.600    89817821.52347
  23530074.160   123651394.96208  23530069.160    96351725.29047
  22348052.640   117439818.27908  22348048.640    91511533.99647
  22371407.540   117562603.25709  22371403.180    91607244.55747
  21588220.660   113446902.90309  21588219.240    88400193.02148
 15 03 02 00 42  0.0000000  0  6G16G18G19G21G22G27
  20585320.780   108176603.74809  20585317.360    84293448.39648
  21930028.400   115243190.24909  21930025.020    89799928.58047
  23515799.500   123576381.46708  23515794.820    96293273.23146
  22360256.260   117503948.55609  22360252.220    91561505.63347
  22356146.220   117482404.85509  22356141.860    91544752.34547
  21578557.420   113396122.30809  21578556.020    88360623.72848
 15 03 02 00 42 30.0000000  0  6G16G18G19G21G22G27
  20579885.140   108148038.90909  20579881.640    84271190.07848
  21925747.560   115220694.88709  21925744.320    89782399.74347
  23501541.900   123501457.92208  23501537.600    96234891.26646
  22372491.580   117568245.40208  22372487.500    91611607.05947
  22340935.320   117402471.15409  22340930.920    91482466.40347
  21568921.440   113345485.23509  21568920.180    88321166.27948
 15 03 02 00 43  0.0000000  0  6G16G18G19G21G22G27
  20574540.960   108119954.65709  20574537.380    84249306.24548
  21921556.280   115198669.89309  21921553.060    89765237.42247
  23487301.660   123426625.95208  23487297.720    96176580.65846
  22384758.600   117632708.94008  22384754.420    91661838.39447
  22325775.580   117322806.40109  22325771.200    91420390.02847
  21559313.140   113294993.48309  21559312.020    88281822.07148
 15 03 02 00 43 30.0000000  0  6G16G18G19G21G22G27
  20569288.540   108092353.07509  20569285.020    84227798.52348
  21917454.740   115177116.49709  21917451.520    89748442.58447
  23473079.000   123351886.08108  23473074.960    96118341.81446
  22397057.000   117697337.67408  22397052.820    91712198.44147
  22310667.660   117243414.13909  22310663.320    91358525.99347
  21549732.680   113244647.94409  21549731.620    88242591.78548
 15 03 02 00 44  0.0000000  0  6G16G18G19G21G22G27
  20564127.280   108065230.75709  20564123.800    84206664.24348
  21913442.240   115156030.47509  21913438.940    89732011.93847
  23458873.120   123277233.52608  23458868.800    96060171.04347
  22409385.600   117762125.11908  22409381.460    91762682.15947
  22295611.040   117164291.47709  22295606.760    91296872.03047
  21540179.120   113194444.02809  21540178.060    88203471.86348
 15 03 02 00 44 30.0000000  0  6G16G18G19G21G22G27
  20559058.840   108038596.10309  20559055.400    84185909.95948
  21909520.220   115135419.81909  21909516.820    89715951.69747
  23444685.240   123202675.08508  23444680.540    96002073.56346
  22421745.280   117827076.06008  22421741.240    91813293.27147
  22280607.540   117085447.60009  22280603.260    91235435.29847
  21530653.800   113144388.82509  21530652.840    88164467.82148
 15 03 02 00 45  0.0000000  0  6G16G18G19G21G22G27
  20554083.240   108012448.92609  20554079.800    84165535.52548
  21905688.460   115115283.72609  21905685.020    89700261.23947
  23430515.000   123128209.44008  23430510.200    95944048.42446
  22434135.460   117892187.25208  22434131.520    91864029.25147
  22265657.260   117006883.45309  22265652.880    91174216.54047
  21521156.540   113094481.14309  21521155.780    88125578.72548
 15 03 02 00 45 30.0000000  0  6G16G18G19G21G22G27
  20549200.860   107986791.62209  20549197.380    84145542.82148
  21901947.440   115095624.30509  21901943.960    89684942.23047
  23416362.580   123053837.99808  23416357.920    95886096.65546
  22446556.080   117957458.21408  22446552.220    91914889.73147
  22250760.980   116928603.23409  22250756.460    91113219.01947
  21511687.780   113044722.65809  21511687.100    88086805.88348
 15 03 02 00 46  0.0000000  0  6G16G18G19G21G22G27
  20544411.720   107961624.16209  20544408.160    84125931.81348
  21898297.020   115076440.94809  21898293.440    89669994.17647
  23402227.740   122979559.10408  23402223.260    95828217.03046
  22459006.540   118022885.83308  22459002.740    91965872.27947
  22235918.840   116850607.62909  22235914.240    91052443.27947
  21502247.300   112995112.18509  21502246.540    88048148.38448
 15 03 02 00 46 30.0000000  0  6G16G18G19G21G22G27
  20539715.720   107936946.28909  20539712.140    84106702.30248
  21894736.920   115057732.67209  21894733.340    89655416.31547
  23388110.320   122905371.52408  23388105.980    95770408.55547
  22471486.220   118088466.67408  22471482.360    92016974.23747
  22221131.060   116772897.31809  22221126.440    90991889.84547
  21492834.800   112945648.45709  21492833.840    88009605.24048
 15 03 02 00 47  0.0000000  0  6G16G18G19G21G22G27
  20535113.640   107912762.11709  20535110.020    84087857.48648
  21891267.820   115039502.78309  21891264.340    89641211.22147
  23374010.760   122831277.36308  23374006.420    95712672.87047
  22483995.160   118154201.23708  22483991.220    92068195.97447
  22206398.580   116695477.47709  22206393.920    90931562.74547
  21483450.760   112896334.19509  21483449.600    87971178.55748
 15 03 02 00 47 30.0000000  0  6G16G18G19G21G22G27
  20530605.740   107889072.91909  20530602.140    84069398.36448
  21887890.060   115021752.34309  21887886.560    89627379.71347
  23359929.120   122757277.14408  23359924.400    95655010.39246
  22496533.100   118220088.12109  22496529.020    92119536.39547
  22191721.780   116618350.90009  22191717.200    90871464.15347
  21474095.200   112847169.94109  21474093.880    87932868.74848
 15 03 02 00 48  0.0000000  0  6G16G18G19G21G22G27
  20526192.040   107865878.74209  20526188.480    84051324.97248
  21884603.440   115004480.80909  21884599.900    89613921.38847
  23345865.100   122683369.87908  23345859.900    95597420.34646
  22509099.420   118286124.15209  22509095.300    92170993.03447
  22177100.960   116541518.43209  22177096.520    90811594.73847
  21464767.980   112798154.93809  21464766.580    87894675.23748
 15 03 02 00 48 30.0000000  0  6G16G18G19G21G22G27
  20521873.620   107843185.04009  20521869.960    84033641.56548
  21881408.800   114987692.99409  21881405.300    89600839.99447
  23331819.320   122609559.33708  23331813.900    95539905.67546
  22521694.620   118352311.84208  22521690.460    92222567.85747
  22162537.460   116464986.72309  22162533.100    90751959.68847
  21455469.960   112749293.55509  21455468.580    87856601.45148
 15 03 02 00 49  0.0000000  0  6G16G18G19G21G22G27
  20517649.700   107820988.03809  20517645.980    84016345.20048
  21878305.380   114971384.76409  21878301.980    89588132.29547
  23317791.080   122535841.11408  23317785.640    95482462.93046
  22534317.380   118418644.53608  22534313.240    92274255.66547
  22148030.720   116388753.44309  22148026.360    90692557.17247
  21446200.240   112700581.11609  21446198.920    87818643.71648
 15 03 02 00 49 30.0000000  0  6G16G18G19G21G22G27
  20513521.320   107799292.84209  20513517.520    83999439.84748
  21875294.040   114955560.06809  21875290.620    89575801.36947
  23303781.100   122462218.80808  23303776.020    95425094.91246
  22546967.940   118485123.91608  22546963.840    92326057.76947
  22133581.860   116312824.30509  22133577.460    90633391.66347
  21436959.600   112652021.83909  21436958.400    87780805.32348
 15 03 02 00 50  0.0000000  0  6G16G18G19G21G22G27
  20509488.520   107778099.89909  20509484.760    83982925.85748
  21872374.800   114940219.37209  21872371.400    89563847.59047
  23289789.340   122388692.05408  23289784.560    95367801.36847
  22559645.960   118551747.66808  22559641.880    92377972.37547
  22119191.260   116237201.21509  22119186.860    90574464.61348
  21427748.080   112603615.44009  21427747.040    87743086.05748
 15 03 02 00 50 30.0000000  0  6G16G18G19G21G22G27
  20505551.500   107757410.63809  20505547.760    83966804.35048
  21869547.740   114925362.92909  21869544.320    89552271.15347
  23275815.700   122315260.28008  23275811.120    95310581.81447
  22572351.140   118618514.36008  22572347.100    92429998.36547
  22104859.380   116161886.60909  22104854.960    90515777.95448
  21418565.720   112555362.13309  21418564.740    87705486.07548
 15 03 02 00 51  0.0000000  0  6G16G18G19G21G22G27
  20501709.580   107737221.55909  20501705.880    83951072.60348
  21866812.060   114910986.94209  21866808.640    89541069.09947
  23261859.380   122241919.49208  23261854.640    95253433.17347
  22585082.340   118685417.75708  22585078.300    92482130.87547
  22090585.760   116086878.15609  22090581.300    90457329.84848
  21409411.800   112507257.97209  21409410.820    87668002.31448
 15 03 02 00 51 30.0000000  0  6G16G18G19G21G22G27
  20497964.740   107717542.52009  20497961.080    83935738.28749
  21864169.460   114897100.50209  21864166.100    89530248.50647
  23247921.920   122168677.74508  23247917.220    95196361.71847
  22597840.760   118752464.20508  22597836.800    92534374.85947
  22076372.480   116012187.14709  22076368.000    90399129.11347
  21400287.940   112459311.80409  21400286.920    87630641.67948
 15 03 02 00 52  0.0000000  0  6G16G18G19G21G22G27
  20494316.900   107698372.97309  20494313.200    83920800.96548
  21861619.980   114883703.05209  21861616.640    89519808.93647
  23234003.080   122095534.48508  23233998.540    95139366.99547
  22610625.940   118819651.06608  22610622.060    92586728.25547
  22062219.780   115937814.53209  22062215.200    90341176.45547
  21391193.900   112411522.46909  21391192.840    87593403.23348
 15 03 02 00 52 30.0000000  0  6G16G18G19G21G22G27
  20490765.400   107679709.57309  20490761.680    83906258.05048
  21859162.760   114870790.20609  21859159.400    89509746.99247
  23220102.020   122022484.81808  23220097.740    95082445.19547
  22623436.520   118886971.27108  22623432.700    92639185.54547
  22048127.240   115863757.95509  22048122.540    90283470.07048
  21382128.860   112363885.70109  21382127.820    87556283.66548
 15 03 02 00 53  0.0000000  0  6G16G18G19G21G22G27
  20487311.420   107661558.64409  20487307.760    83892114.46048
  21856798.880   114858367.61709  21856795.400    89500067.07147
  23206219.780   121949534.04508  23206215.700    95025600.45747
  22636273.200   118954428.58208  22636269.480    92691749.67847
  22034096.240   115790024.71809  22034091.540    90226015.65347
  21373093.900   112316407.09409  21373092.960    87519287.36248
 15 03 02 00 53 30.0000000  0  6G16G18G19G21G22G27
  20483953.380   107643911.97709  20483949.700    83878363.81148
  21854526.600   114846426.34509  21854523.000    89490762.19047
  23192354.780   121876673.09108  23192350.720    94968825.70147
  22649133.900   119022012.02708  22649130.300    92744412.09447
  22020125.460   115716607.97909  22020120.800    90168807.85148
  21364087.340   112269077.71209  21364086.440    87482407.32848
 15 03 02 00 54  0.0000000  0  6G16G18G19G21G22G27
  20480693.460   107626781.30009  20480689.840    83865015.22548
  21852348.000   114834977.78009  21852344.480    89481841.23447
  23178509.020   121803912.30108  23178504.680    94912129.00547
  22662020.340   119089730.57908  22662016.780    92797179.78947
  22006217.240   115643520.19409  22006212.620    90111856.36948
  21355111.300   112221908.49809  21355110.380    87445652.10248
 15 03 02 00 54 30.0000000  0  6G16G18G19G21G22G27
  20477531.120   107610163.25409  20477527.580    83852066.09648
  21850262.420   114824017.98609  21850258.900    89473301.15447
  23164681.680   121731247.62808  23164676.960    94855507.20147
  22674931.260   119157577.94008  22674927.740    92850047.85847
  21992371.380   115570759.77909  21992366.780    90055159.97948
  21346165.100   112174895.55509  21346164.160    87409018.65548
 15 03 02 00 55  0.0000000  0  6G16G18G19G21G22G27
  20474466.580   107594058.97209  20474463.040    83839517.30549
  21848269.820   114813546.93909  21848266.260    89465141.91547
  23150872.640   121658679.16708  23150867.580    94798960.37747
  22687866.360   119225552.35208  22687862.800    92903014.91247
  21978588.300   115498329.03409  21978583.660    89998720.47648
  21337248.700   112128039.32909  21337247.760    87372507.31248
 15 03 02 00 55 30.0000000  0  6G16G18G19G21G22G27
  20471501.100   107578475.30109  20471497.560    83827374.17748
  21846371.400   114803571.03209  21846367.880    89457368.49147
  23137082.880   121586212.65608  23137077.580    94742492.99647
  22700826.500   119293658.32408  22700822.880    92956084.50547
  21964869.420   115426235.99109  21964864.820    89942544.11448
  21328363.300   112081346.07109  21328362.400    87336122.95948
 15 03 02 00 56  0.0000000  0  6G16G18G19G21G22G27
  20468633.740   107563407.27709  20468630.200    83815632.86048
  21844566.200   114794085.10709  21844562.780    89449976.88147
  23123311.260   121513842.54908  23123305.980    94686100.73447
  22713810.100   119361887.48408  22713806.320    93009250.08646
  21951214.040   115354476.99709  21951209.480    89886628.06048
  21319507.800   112034810.13609  21319506.840    87299861.20048
 15 03 02 00 56 30.0000000  0  6G16G18G19G21G22G27
  20465865.820   107548861.58909  20465862.280    83804298.54748
  21842855.420   114785094.93109  21842852.000    89442971.55447
  23109558.920   121441574.63408  23109553.900    94629788.08547
  22726818.140   119430244.97508  22726814.140    93062515.65546
  21937623.820   115283060.10909  21937619.200    89830978.57948
  21310683.420   111988437.82409  21310682.420    87263726.93948
 15 03 02 00 57  0.0000000  0  6G16G18G19G21G22G27
  20463197.060   107534836.72709  20463193.400    83793370.07548
  21841238.560   114776598.15609  21841235.040    89436350.69947
  23095825.460   121369406.23108  23095820.720    94573552.98647
  22739849.700   119498725.97808  22739845.520    93115877.47346
  21924098.800   115211985.15509  21924094.080    89775595.53148
  21301889.780   111942226.88109  21301888.700    87227718.41848
 15 03 02 00 57 30.0000000  0  6G16G18G19G21G22G27
  20460626.860   107521329.81909  20460623.180    83782845.21048
  21839714.940   114768591.58709  21839711.400    89430111.83247
  23082110.300   121297333.75808  23082105.780    94517392.63647
  22752903.620   119567324.75108  22752899.440    93169331.05547
  21910638.480   115141250.24109  21910633.600    89720477.45648
  21293126.280   111896173.96809  21293125.100    87191833.03848
 15 03 02 00 58  0.0000000  0  6G16G18G19G21G22G27
  20458156.280   107508346.71309  20458152.680    83772728.48748
  21838285.580   114761080.22309  21838282.000    89424258.82347
  23068414.300   121225361.89608  23068410.020    94461310.69847
