     2.11           OBSERVATION DATA    G                   RINEX VERSION / TYPE
SPIDER V4,0,0,3554                      2015 03 17 00:01    PGM / RUN BY / DATE 
ABZH                                                        MARKER NAME         
ABZH                                                        MARKER NUMBER       
                                                            OBSERVER / AGENCY   
462405              LEICA GRX1200PRO    8.20/2.127          REC # / TYPE / VERS 
103261              LEIAT504                                ANT # / TYPE        
  5106694.6829   270584.9059  3799508.1083                  APPROX POSITION XYZ 
        0.0770        0.0000        0.0000                  ANTENNA: DELTA H/E/N
     1     1                                                WAVELENGTH FACT L1/2
     4    C1    L1    P2    L2                              # / TYPES OF OBSERV 
    30.000                                                  INTERVAL            
  2015    03    02    00    00    0.0000000     GPS         TIME OF FIRST OBS   
  2015    03    02    23    59   30.0000000     GPS         TIME OF LAST OBS    
    16                                                      LEAP SECONDS        
    30                                                      # OF SATELLITES     
   G 1   818   818   818   818                              PRN / # OF OBS      
   G 2   909   909   904   904                              PRN / # OF OBS      
   G 3   835   835   835   835                              PRN / # OF OBS      
   G 4   834   834   834   834                              PRN / # OF OBS      
   G 5   662   662   662   662                              PRN / # OF OBS      
   G 6   784   784   781   781                              PRN / # OF OBS      
   G 7   652   652   652   652                              PRN / # OF OBS      
   G 9   783   783   783   783                              PRN / # OF OBS      
   G10   769   769   769   769                              PRN / # OF OBS      
   G11   784   784   784   784                              PRN / # OF OBS      
   G12   788   788   786   786                              PRN / # OF OBS      
   G13   804   804   804   804                              PRN / # OF OBS      
   G14   901   901   895   895                              PRN / # OF OBS      
   G15   720   720   720   720                              PRN / # OF OBS      
   G16   674   674   673   673                              PRN / # OF OBS      
   G17   919   919   908   908                              PRN / # OF OBS      
   G18   871   871   871   871                              PRN / # OF OBS      
   G19   767   767   767   767                              PRN / # OF OBS      
   G20   783   783   783   783                              PRN / # OF OBS      
   G21   652   652   649   649                              PRN / # OF OBS      
   G22   752   752   750   750                              PRN / # OF OBS      
   G23   733   733   733   733                              PRN / # OF OBS      
   G24   816   816   816   816                              PRN / # OF OBS      
   G25   822   822   822   822                              PRN / # OF OBS      
   G27   815   815   815   815                              PRN / # OF OBS      
   G28   884   884   881   881                              PRN / # OF OBS      
   G29   732   732   729   729                              PRN / # OF OBS      
   G30   698   698   698   698                              PRN / # OF OBS      
   G31   813   813   813   813                              PRN / # OF OBS      
   G32   746   746   746   746                              PRN / # OF OBS      
BIT 2 OF LLI FLAGS DATA COLLECTED UNDER A/S CONDITION       COMMENT             
SNR is mapped to RINEX snr flag value [2-9]                 COMMENT             
Lx:     = 25dBHz -> 1; 26-27dBHz -> 2; 28-31dBHz -> 3       COMMENT             
       32-35dBHz -> 4; 36-38dBHz -> 5; 39-41dBHz -> 6       COMMENT             
       42-44dBHz -> 7; 45-48dBHz -> 8; >=49dBHz -> 9        COMMENT             
                                                            END OF HEADER       
 15 03 02 00 00  0.0000000  0  7G16G18G21G22G27G29G31
  21345283.320   112170228.42409  21345282.060    87405374.64546
  22551855.000   118510893.06008  22551854.500    92346174.03144
  21447028.420   112704906.57708  21447027.080    87822005.41447
  23772953.820   124927733.70707  23772955.480    97346305.14544
  22523800.120   118363401.97408  22523801.760    92231240.55845
  24323723.860   127822016.97706  24323723.640    99601568.35543
  23309838.780   122493989.56707  23309839.600    95449847.49744
 15 03 02 00 00 30.0000000  0  7G16G18G21G22G27G29G31
  21333385.200   112107702.90609  21333383.900    87356653.46446
  22540988.740   118453790.99308  22540988.160    92301678.96344
  21455247.420   112748097.98408  21455246.140    87855661.05847
  23755171.860   124834289.85706  23755173.280    97273492.14443
  22511841.560   118300559.63708  22511843.300    92182272.52845
  24338395.800   127899118.44206  24338395.520    99661647.37441
  23328035.780   122589614.31007  23328036.340    95524360.10344
 15 03 02 00 01  0.0000000  0  7G16G18G21G22G27G29G31
  21321548.660   112045501.25109  21321547.320    87308184.64846
  22530185.020   118397016.82208  22530184.300    92257439.37644
  21463526.780   112791606.78308  21463525.640    87889564.02447
  23737398.280   124740890.10607  23737399.640    97200713.48044
  22499906.960   118237843.38508  22499908.880    92133402.74846
  24353071.700   127976241.60505  24353071.540    99721743.29943
  23346257.360   122685368.94907  23346257.880    95598973.94445
 15 03 02 00 01 30.0000000  0  7G16G18G21G22G27G29G31
  21309773.160   111983620.39609  21309771.780    87259965.79646
  22519443.180   118340568.12208  22519442.460    92213453.41744
  21471865.240   112835425.92208  21471864.180    87923708.81447
  23719632.600   124647532.22606  23719634.140    97127967.48344
  22487995.360   118175248.33507  22487997.440    92084627.40645
  24367750.760   128053381.15906  24367750.820    99781852.00343
  23364501.900   122781245.21907  23364502.620    95673682.54144
 15 03 02 00 02  0.0000000  0  7G16G18G21G22G27G29G31
  21298058.840   111922061.47609  21298057.500    87211997.80946
  22508763.440   118284446.27208  22508762.760    92169722.14244
  21480262.320   112879553.13308  21480261.340    87958093.65947
  23701875.100   124554217.75206  23701876.720    97055255.25044
  22476106.680   118112773.62208  22476108.880    92035945.83346
  24382432.740   128130536.45705  24382433.260    99841973.01844
  23382768.980   122877239.63507  23382770.020    95748483.18845
 15 03 02 00 02 30.0000000  0  7G16G18G21G22G27G29G31
  21286406.040   111860825.72809  21286404.680    87164281.64146
  22498146.140   118228652.39608  22498145.520    92126246.43544
  21488717.480   112923985.39308  21488716.560    87992716.20647
  23684126.080   124460948.24806  23684127.800    96982578.06444
  22464240.800   118050418.12608  22464243.060    91987357.16946
  24397117.600   128207706.14605  24397118.340    99902105.17843
  23401057.820   122973347.84107  23401058.940    95823372.54645
 15 03 02 00 03  0.0000000  0  7G16G18G21G22G27G29G31
  21274815.440   111799916.96109  21274814.100    87116820.27646
  22487592.100   118173190.58608  22487591.380    92083029.48044
  21497230.620   112968722.35908  21497229.720    88027576.18146
  23666386.400   124367728.07006  23666388.200    96909939.30044
  22452398.060   117988183.80208  22452400.160    91938862.89946
  24411805.560   128284891.78106  24411806.280    99962249.79844
  23419368.280   123069568.65207  23419369.260    95898349.62144
 15 03 02 00 03 30.0000000  0  7G16G18G21G22G27G29G31
  21263287.140   111739335.60309  21263285.840    87069614.03246
  22477101.360   118118061.09708  22477100.520    92040071.47544
  21505801.260   113013761.25008  21505800.280    88062671.42346
  23648656.580   124274558.34807  23648658.260    96837339.86143
  22440578.060   117926068.93908  22440580.080    91890461.73946
  24426496.440   128362091.83306  24426497.060   100022405.66044
  23437699.420   123165897.32007  23437700.060    95973410.74744
 15 03 02 00 04  0.0000000  0  7G16G18G21G22G27G29G31
  21251822.560   111679088.85009  21251821.280    87022668.51047
  22466675.140   118063270.88908  22466674.300    91997377.85144
  21514429.980   113059105.25908  21514428.900    88098004.40746
  23630938.000   124181446.48507  23630939.460    96764785.50244
  22428781.820   117864078.50108  22428783.700    91842157.51746
  24441190.760   128439310.89806  24441191.400   100082576.33443
  23456051.540   123262336.06507  23456051.880    96048557.63244
 15 03 02 00 04 30.0000000  0  7G16G18G21G22G27G29G31
  21240421.380   111619175.08409  21240420.080    86975982.46547
  22456313.240   118008818.60308  22456312.520    91954947.52544
  21523115.680   113104748.34508  21523114.400    88133570.45647
  23613230.340   124088391.55207  23613231.300    96692275.43543
  22417008.540   117802208.95608  22417010.260    91793947.49846
  24455887.980   128516545.47905  24455888.780   100142759.08144
  23474423.260   123358877.63507  23474423.220    96123784.62744
 15 03 02 00 05  0.0000000  0  7G16G18G21G22G27G29G31
  21229084.040   111559597.24709  21229082.760    86929558.18247
  22446016.280   117954707.68908  22446015.640    91912783.19744
  21531858.140   113150689.76508  21531856.700    88169368.96946
  23595534.140   123995397.08307  23595534.720    96619812.52844
  22405258.480   117740461.35408  22405260.060    91745832.50846
  24470588.300   128593796.24506  24470589.040   100202954.47243
  23492814.140   123455520.69307  23492813.960    96199090.74944
 15 03 02 00 05 30.0000000  0  7G16G18G21G22G27G29G31
  21217810.880   111500356.77209  21217809.640    86883396.77147
  22435784.420   117900939.43308  22435783.940    91870885.89744
  21540656.980   113196927.47908  21540655.400    88205398.35746
  23577849.800   123902465.36207  23577850.220    96547398.51344
  22393531.440   117678835.05908  22393532.960    91697812.03246
  24485291.740   128671062.49706  24485292.120   100263161.91142
  23511223.240   123552261.53707  23511223.440    96274473.01044
 15 03 02 00 06  0.0000000  0  7G16G18G21G22G27G29G31
  21206603.080   111441459.35109  21206601.800    86837502.68147
  22425618.820   117847519.30608  22425618.440    91829259.86244
  21549512.420   113243462.90208  21549510.780    88241659.72347
  23560178.360   123809602.09307  23560178.700    96475037.81744
  22381828.120   117617333.77608  22381829.640    91649888.96745
  24499998.620   128748347.47405  24499999.360   100323383.93643
  23529650.940   123649100.51907  23529651.580    96349931.77245
 15 03 02 00 06 30.0000000  0  7G16G18G21G22G27G29G31
  21195460.300   111382903.51609  21195458.980    86791874.75947
  22415519.320   117794446.43008  22415518.840    91787904.40744
  21558423.600   113290290.97208  21558421.820    88278149.13146
  23542519.720   123716806.77207  23542520.040    96402730.06544
  22370147.940   117555953.99208  22370149.420    91602060.58546
  24514708.400   128825647.82406  24514709.380   100383617.93641
  23548096.120   123746031.22207  23548097.140    96425461.96744
 15 03 02 00 07  0.0000000  0  7G16G18G21G22G27G29G31
  21184382.460   111324688.96109  21184381.160    86746512.77247
  22405485.740   117741719.69008  22405485.080    91746818.64844
  21567389.560   113337407.03708  21567387.700    88314862.94446
  23524874.000   123624079.62707  23524874.200    96330475.42644
  22358490.460   117494693.18208  22358491.880    91554324.90746
  24529420.800   128902961.03506  24529421.600   100443861.96443
  23566557.820   123843048.16807  23566559.120    96501059.41344
 15 03 02 00 07 30.0000000  0  7G16G18G21G22G27G29G31
  21173371.380   111266825.27109  21173370.140    86701424.19147
  22395519.920   117689349.25008  22395519.280    91706010.55344
  21576411.380   113384816.48008  21576409.380    88351805.36446
  23507243.160   123531430.41407  23507243.360    96258281.50844
  22346857.020   117433558.96608  22346858.380    91506687.88045
  24544136.840   128980294.17106  24544137.500   100504121.53544
  23585036.980   123940155.65607  23585038.420    96576727.37944
 15 03 02 00 08  0.0000000  0  7G16G18G21G22G27G29G31
  21162426.340   111209308.72209  21162425.100    86656606.10547
  22385621.380   117637331.33808  22385620.620    91665477.13244
  21585487.680   113432512.27508  21585485.600    88388970.93146
  23489626.620   123438856.07207  23489626.940    96186145.91844
  22335246.580   117372545.71608  22335247.840    91459145.10846
  24558855.580   129057641.69805  24558856.280   100564392.29643
  23603531.880   124037345.13807  23603533.400    96652459.24644
 15 03 02 00 08 30.0000000  0  6G16G18G21G22G27G31
  21151544.620   111152124.87909  21151543.360    86612047.26847
  22375787.160   117585651.71908  22375786.360    91625207.32744
  21594615.000   113480476.74908  21594613.020    88426345.84047
  23472021.680   123346342.79107  23472022.280    96114057.93544
  22323655.960   117311637.02208  22323657.180    91411683.80346
  23622038.720   124134597.34207  23622040.240    96728239.94444
 15 03 02 00 09  0.0000000  0  6G16G18G21G22G27G31
  21140734.760   111095319.28809  21140733.580    86567783.17847
  22366025.860   117534355.63408  22366025.100    91585236.38744
  21603801.000   113528750.11208  21603799.200    88463961.44647
  23454437.020   123253936.70507  23454437.880    96042053.49044
  22312093.480   117250876.31608  22312094.840    91364337.81846
  23640565.060   124231952.47807  23640566.360    96804100.89744
 15 03 02 00 09 30.0000000  0  7G16G18G19G21G22G27G31
  21129991.980   111038865.30409  21129990.700    86523793.05247
  22356332.420   117483416.50408  22356331.780    91545543.59344
  24539385.200   128955335.74306  24539383.940   100484670.16141
  21613040.220   113577302.80108  21613038.520    88501794.69946
  23436867.760   123161611.75207  23436868.780    95970112.23244
  22300553.840   117190234.99308  22300555.300    91317084.85646
  23659104.800   124329378.83407  23659106.080    96880017.32144
 15 03 02 00 10  0.0000000  0  7G16G18G19G21G22G27G31
  21119314.300   110982753.68009  21119313.060    86480069.72347
  22346705.140   117432825.30808  22346704.620    91506121.89945
  24523930.540   128874122.15006  24523929.980   100421386.90343
  21622330.080   113626121.52108  21622328.480    88539835.26247
  23419312.300   123069359.27007  23419313.340    95898227.42744
  22289034.840   117129702.05608  22289036.360    91269916.36846
  23677655.320   124426862.35607  23677656.740    96955978.30044
 15 03 02 00 10 30.0000000  0  7G16G18G19G21G22G27G31
  21108707.360   110927013.57409  21108706.120    86436635.87647
  22337149.500   117382610.78508  22337149.080    91466993.73244
  24508493.140   128792997.54206  24508492.440   100358172.95844
  21631675.220   113675231.12508  21631673.700    88578102.48547
  23401776.460   122977209.24407  23401777.500    95826422.46144
  22277541.580   117069304.53808  22277543.100    91222853.39646
  23696221.280   124524427.30007  23696223.060    97032002.71744
 15 03 02 00 11  0.0000000  0  7G16G18G19G21G22G27G31
  21098169.600   110871637.07709  21098168.340    86393485.36147
  22327664.020   117332765.05608  22327663.780    91428152.94044
  24493070.600   128711951.80005  24493069.680   100295020.47044
  21641073.520   113724619.93708  21641072.080    88616587.27146
  23384258.860   122885154.12107  23384259.840    95754691.45744
  22266072.200   117009032.38408  22266073.640    91175888.08746
  23714800.240   124622060.36507  23714802.380    97108080.20744
 15 03 02 00 11 30.0000000  0  7G16G18G19G21G22G27G31
  21087700.240   110816620.27909  21087698.860    86350615.13147
  22318247.980   117283283.90708  22318247.840    91389596.23844
  24477662.180   128630979.30406  24477661.100   100231925.05044
  21650523.580   113774280.76908  21650522.240    88655284.03146
  23366758.700   122793190.53007  23366759.460    95683031.75944
  22254625.460   116948879.70408  22254626.940    91129015.89846
  23733390.460   124719752.44407  23733392.980    97184203.69244
 15 03 02 00 12  0.0000000  0  7G16G18G19G21G22G27G31
  21077300.820   110761971.11309  21077299.440    86308031.37447
  22308902.940   117234175.42708  22308902.680    91351329.91445
  24462268.800   128550085.93406  24462267.380   100168891.30943
  21660026.080   113824216.93308  21660024.740    88694195.33246
  23349277.640   122701327.23407  23349278.180    95611450.21844
  22243202.660   116888852.70308  22243204.100    91082241.62346
  23751992.620   124817506.85807  23751995.340    97260375.72544
 15 03 02 00 12 30.0000000  0  7G16G18G19G21G22G27G31
  21066971.600   110707690.60609  21066970.180    86265734.86747
  22299629.080   117185440.84008  22299628.660    91313354.94045
  24446890.280   128469270.83306  24446888.820   100105918.54343
  21669580.420   113874425.93808  21669579.120    88733319.22846
  23331815.920   122609565.74307  23331816.260    95539948.02044
  22231803.580   116828950.55108  22231805.040    91035564.64246
  23770605.960   124915319.79207  23770608.840    97336593.38543
 15 03 02 00 13  0.0000000  0  7G16G18G19G21G22G27G31
  21056713.140   110653781.83009  21056711.700    86223728.02447
  22290426.920   117137082.96308  22290426.420    91275673.50944
  24431526.740   128388534.76206  24431525.440   100043007.35844
  21679186.560   113924906.72308  21679185.240    88772654.91146
  23314374.220   122517909.63507  23314374.360    95468527.87444
  22220428.460   116769174.13608  22220429.920    90988985.64445
  23789229.940   125013189.05807  23789232.680    97412854.91344
 15 03 02 00 13 30.0000000  0  7G16G18G19G21G22G27G31
  21046525.420   110600244.86909  21046524.040    86182010.91747
  22281296.420   117089101.83308  22281295.860    91238285.62745
  24416177.940   128307875.80006  24416176.760    99980156.27044
  21688843.780   113975655.94808  21688842.480    88812199.76046
  23296952.580   122426359.49707  23296952.780    95397190.35444
  22209077.020   116709521.74608  22209078.400    90942503.27846
  23807863.800   125111109.86707  23807866.500    97489156.62743
 15 03 02 00 14  0.0000000  0  7G16G18G19G21G22G27G31
  21036409.420   110547084.97209  21036408.060    86140587.62347
  22272238.580   117041502.61008  22272237.900    91201195.36444
  24400844.400   128227297.61406  24400843.180    99917368.10243
  21698552.320   114026674.48908  21698550.960    88851954.46146
  23279552.280   122334921.59907  23279552.580    95325940.25744
  22197749.700   116649996.71608  22197751.100    90896120.15146
  23826507.560   125209082.44107  23826510.020    97565498.65344
 15 03 02 00 14 30.0000000  0  7G16G18G19G21G22G27G31
  21026364.720   110494299.72509  21026363.420    86099456.25847
  22263252.980   116994282.57408  22263252.140    91164400.53845
  24385525.280   128146795.21606  24385524.180    99854639.00244
  21708311.000   114077956.67808  21708309.660    88891914.60546
  23262172.940   122243593.87507  23262173.180    95254776.02444
  22186445.780   116590594.52308  22186447.120    90849832.74445
  23845159.840   125307099.19007  23845162.120    97641875.08644
 15 03 02 00 15  0.0000000  0  7G16G18G19G21G22G27G31
  21016393.260   110441899.34709  21016392.040    86058624.80047
  22254341.420   116947452.02608  22254340.580    91127909.23245
  24370222.020   128066376.83506  24370221.200    99791975.34744
  21718120.880   114129508.10008  21718119.580    88932084.54746
  23244816.580   122152387.14307  23244816.780    95183706.03644
  22175166.820   116531323.57208  22175168.280    90803647.60446
  23863821.720   125405165.54007  23863823.760    97718290.17544
 15 03 02 00 15 30.0000000  0  7G16G18G19G21G22G27G31
  21006493.180   110389874.23009  21006492.000    86018085.74847
  22245502.020   116901000.84408  22245501.260    91091713.53544
  24354932.800   127986031.10306  24354931.940    99729368.34644
  21727979.460   114181315.63708  21727978.180    88972454.05446
  23227481.600   122061292.65107  23227481.660    95112723.55044
  22163910.620   116472172.28808  22163912.120    90757555.72546
  23882490.200   125503266.48207  23882492.140    97794732.19244
 15 03 02 00 16  0.0000000  0  7G16G18G19G21G22G27G31
  20996666.200   110338233.37509  20996665.100    85977846.12747
  22236736.480   116854938.18608  22236735.860    91055820.57244
  24339658.800   127905765.28906  24339657.760    99666823.60744
  21737887.820   114233384.63308  21737886.680    89013027.29446
  23210169.780   121970320.03607  23210169.820    95041836.00544
  22152678.640   116413148.14508  22152680.120    90711562.88446
  23901166.120   125601406.83907  23901167.920    97871204.94444
 15 03 02 00 16 30.0000000  0  7G16G18G19G21G22G27G31
  20986912.940   110286980.11009  20986911.940    85937908.52447
  22228045.580   116809267.59208  22228045.020    91020233.12944
  24324399.980   127825580.55005  24324399.160    99604342.01345
  21747845.900   114285714.76008  21747844.800    89053804.01446
  23192882.020   121879473.39507  23192882.120    94971046.61144
  22141471.140   116354252.42408  22141472.700    90665670.13346
  23919849.100   125699584.82207  23919850.720    97947707.02344
 15 03 02 00 17  0.0000000  0  7G16G18G19G21G22G27G31
  20977232.480   110236109.29409  20977231.580    85898268.93147
  22219428.140   116763983.06508  22219427.580    90984946.51644
  24309155.260   127745469.52106  24309154.620    99541917.85144
  21757851.880   114338296.27708  21757850.700    89094776.62746
  23175617.460   121788747.85307  23175617.520    94900351.58244
  22130286.640   116295477.89508  22130288.280    90619871.82346
  23938536.880   125797790.19706  23938538.900    98024230.41544
 15 03 02 00 17 30.0000000  0  7G16G18G19G21G22G27G31
  20967626.320   110185628.92909  20967625.460    85858933.58847
  22210885.800   116719093.04108  22210885.180    90949967.30545
  24293925.900   127665438.58905  24293925.240    99479556.14343
  21767906.540   114391133.73208  21767905.400    89135948.66846
  23158377.560   121698152.42407  23158377.620    94829757.96744
  22119126.580   116236830.86108  22119128.220    90574172.84646
  23957230.420   125896025.83006  23957232.780    98100777.40044
 15 03 02 00 18  0.0000000  0  7G16G18G19G21G22G27G31
  20958095.080   110135542.07509  20958094.140    85819904.86847
  22202419.080   116674600.34308  22202418.500    90915297.69645
  24278711.880   127585488.81805  24278711.180    99417257.66544
  21778009.880   114444226.78508  21778008.680    89177319.87646
  23141163.200   121607690.85907  23141163.140    94759268.62344
  22107991.040   116178312.63108  22107992.560    90528574.23746
  23975929.580   125994290.10407  23975932.140    98177346.70244
 15 03 02 00 18 30.0000000  0  7G16G18G19G21G22G27G31
  20948638.820   110085849.15109  20948637.840    85781183.11247
  22194028.060   116630505.41608  22194027.540    90880938.02845
  24263512.960   127505618.69005  24263512.000    99355021.27143
  21788161.120   114497571.55408  21788159.840    89218887.22646
  23123974.600   121517364.08807  23123974.280    94688884.31144
  22096879.640   116119921.72208  22096881.000    90483074.83846
  23994633.500   126092578.62707  23994636.140    98253934.87244
 15 03 02 00 19  0.0000000  0  7G16G18G19G21G22G27G31
  20939257.840   110036551.37409  20939256.760    85742769.25147
  22185712.820   116586808.68008  22185712.380    90846888.65145
  24248329.440   127425827.37506  24248329.000    99292833.23643
  21798359.760   114551165.51408  21798358.420    89260648.75846
  23106811.940   121427173.62707  23106811.460    94618606.21644
  22085792.360   116061657.27308  22085793.660    90437673.97146
  24013341.360   126190887.50507  24013344.060    98330538.87843
 15 03 02 00 19 30.0000000  0  7G16G18G19G21G22G27G31
  20929950.520   109987640.99809  20929949.460    85704657.27547
  22177471.780   116543501.81208  22177471.400    90813143.05845
  24233159.080   127346105.05005  24233157.400    99230712.00743
  21808603.580   114604996.70708  21808602.140    89302595.14046
  23089673.860   121337112.87107  23089673.380    94548429.20244
  22074727.340   116003509.79308  22074728.640    90392364.26946
  24032050.760   126289204.20007  24032053.520    98407149.02344
 15 03 02 00 20  0.0000000  0  7G16G18G19G21G22G27G31
  20920721.800   109939143.54009  20920720.720    85666867.04547
  22169309.920   116500611.02108  22169309.620    90779721.68845
  24218006.060   127266475.65506  24218004.260    99168663.16744
  21818896.740   114659087.26008  21818895.260    89344743.62946
  23072565.500   121247208.18507  23072564.960    94478373.76644
  22063689.140   115945503.23708  22063690.480    90347164.36546
  24050765.620   126387549.65807  24050768.340    98483781.50843
 15 03 02 00 20 30.0000000  0  7G16G18G19G21G22G27G31
  20911569.180   109891045.80809  20911567.980    85629388.29547
  22161224.580   116458122.50408  22161224.340    90746613.76745
  24202867.700   127186923.76705  24202866.020    99106674.71343
  21829236.060   114713420.40708  21829234.500    89387081.14646
  23055484.280   121157446.72907  23055483.820    94408429.93744
  22052674.740   115887622.47708  22052676.120    90302062.48046
  24069482.360   126485905.32806  24069485.240    98560421.98643
 15 03 02 00 21  0.0000000  0  7G16G18G19G21G22G27G31
  20902493.540   109843352.76209  20902492.220    85592224.87847
  22153216.760   116416041.30708  22153216.480    90713823.25645
  24187744.720   127107452.91606  24187743.160    99044749.38744
  21839621.700   114767997.25608  21839620.120    89429608.55446
  23038431.540   121067834.84807  23038431.160    94338602.68844
  22041684.940   115829871.04808  22041686.320    90257061.37346
  24088201.160   126584271.96607  24088204.220    98637071.02344
 15 03 02 00 21 30.0000000  0  7G16G18G19G21G22G27G31
  20893494.640   109796062.81809  20893493.200    85555375.56447
  22145286.200   116374365.67308  22145285.760    90681348.74445
  24172636.580   127028059.09406  24172634.860    98982884.12543
  21850052.580   114822811.97908  21850051.000    89472321.33246
  23021406.940   120978370.97808  23021406.560    94268890.71244
  22030718.980   115772245.05208  22030720.420    90212158.00346
  24106920.520   126682642.51806  24106923.720    98713723.07144
 15 03 02 00 22  0.0000000  0  7G16G18G19G21G22G27G31
  20884573.540   109749181.94309  20884572.100    85518845.01347
  22137433.780   116333100.91208  22137433.400    90649194.42245
  24157543.840   126948746.45206  24157542.160    98921082.07644
  21860529.160   114877866.78108  21860527.600    89515221.17146
  23004411.820   120889061.91007  23004411.480    94199299.39244
  22019777.780   115714748.86808  22019779.240    90167355.80746
  24125640.920   126781018.38707  24125644.200    98790379.27943
 15 03 02 00 22 30.0000000  0  7G16G18G19G21G22G27G31
  20875730.560   109702711.74309  20875729.120    85482634.46247
  22129659.880   116292248.87508  22129659.500    90617361.68745
  24142466.460   126869514.77106  24142464.840    98859343.19044
  21871051.180   114933160.03608  21871049.620    89558306.82646
  22987446.540   120799909.97307  22987446.280    94129830.52245
  22008861.300   115657382.42608  22008862.780    90122654.69946
  24144361.800   126879396.25107  24144364.980    98867037.01744
 15 03 02 00 23  0.0000000  0  7G16G18G19G21G22G27G31
  20866965.780   109656652.68909  20866964.400    85446744.29247
  22121964.540   116251809.13408  22121963.940    90585850.21245
  24127404.280   126790362.53106  24127402.700    98797666.15344
  21881617.820   114988688.40108  21881616.400    89601575.67446
  22970511.480   120710916.37808  22970511.200    94060485.00344
  21997969.200   115600144.36108  21997970.820    90078053.62047
  24163082.320   126977771.77906  24163085.400    98943692.92043
 15 03 02 00 23 30.0000000  0  7G16G18G19G21G22G27G31
  20858279.260   109611004.93109  20858277.880    85411174.60447
  22114347.760   116211782.34308  22114347.080    90554660.53445
  24112357.200   126711288.49406  24112355.460    98736050.08344
  21892228.480   115044447.91608  21892227.100    89645024.64746
  22953606.760   120622082.36608  22953606.500    93991263.83644
  21987101.240   115543033.32108  21987103.020    90033551.52046
  24181801.520   127076140.55106  24181804.320    99020343.51643
 15 03 02 00 24  0.0000000  0  7G16G18G19G21G22G27G31
  20849672.940   109565778.70309  20849671.600    85375933.39047
  22106811.300   116172177.91508  22106810.660    90523799.96945
  24097326.120   126632300.70206  24097324.480    98674501.17344
  21902884.320   115100444.96408  21902882.960    89688658.71146
  22936734.400   120533418.45607  22936734.120    93922175.22345
  21976259.060   115486057.47008  21976260.860    89989154.77146
  24200520.400   127174507.94706  24200522.940    99096993.10144
 15 03 02 00 24 30.0000000  0  7G16G18G19G21G22G27G31
  20841145.440   109520966.70409  20841144.220    85341014.94547
  22099353.780   116132988.32308  22099353.060    90493262.64145
  24082309.980   126553389.85207  24082308.040    98613012.26844
  21913583.240   115156668.43908  21913581.860    89732469.21346
  22919893.280   120444918.42808  22919892.980    93853214.27844
  21965440.940   115429208.05008  21965442.720    89944856.52546
  24219236.740   127272861.76306  24219239.520    99173632.01943
 15 03 02 00 25  0.0000000  0  7G16G18G19G21G22G27G31
  20832698.740   109476578.96209  20832697.580    85306427.08947
  22091977.020   116094223.52608  22091976.400    90463056.33345
  24067309.780   126474564.24407  24067308.040    98551589.74744
  21924326.520   115213125.00108  21924325.160    89776461.33246
  22903085.340   120356593.01607  22903085.080    93784389.42645
  21954648.460   115372493.39508  21954650.140    89900663.28646
  24237951.500   127371207.46106  24237954.540    99250264.62743
 15 03 02 00 25 30.0000000  0  7G16G18G19G21G22G27G31
  20824331.680   109432609.61509  20824330.480    85272165.25747
  22084679.920   116055877.50908  22084679.440    90433176.33545
  24052324.620   126395816.19507  24052322.880    98490227.66243
  21935112.480   115269805.36708  21935111.120    89820627.84346
  22886309.800   120268437.31307  22886309.460    93715696.79345
  21943880.160   115315905.99008  21943881.800    89856569.22346
  24256662.820   127469534.41606  24256666.060    99326882.59844
 15 03 02 00 26  0.0000000  0  7G16G18G19G21G22G27G31
  20816045.320   109389064.35709  20816044.040    85238233.87747
  22077463.500   116017955.06808  22077463.020    90403626.40245
  24037354.920   126317149.55907  24037353.200    98428929.02243
  21945941.360   115326711.35208  21945940.020    89864970.16146
  22869567.720   120180457.49608  22869567.320    93647141.21045
  21933136.840   115259449.76208  21933138.520    89812577.37346
  24275370.920   127567843.53906  24275374.380    99403486.68544
 15 03 02 00 26 30.0000000  0  7G16G18G19G21G22G27G31
  20807840.700   109345948.65909  20807839.400    85204637.23547
  22070328.720   115980462.14308  22070328.220    90374411.16045
  24022401.300   126238568.21307  24022399.540    98367696.86343
  21956813.420   115383844.57108  21956812.160    89909489.54246
  22852860.320   120092659.81907  22852859.740    93578727.55845
  21922419.180   115203128.49908  21922420.960    89768690.69346
  24294075.760   127666135.38806  24294079.680    99480077.28843
 15 03 02 00 27  0.0000000  0  7G16G18G19G21G22G27G31
  20799716.840   109303257.32709  20799715.520    85171371.25647
  22063274.580   115943392.75208  22063274.040    90345525.94145
  24007462.680   126160064.80907  24007460.580    98306525.38043
  21967727.000   115441196.02308  21967725.840    89954178.98646
  22836186.780   120005039.97707  22836186.000    93510452.48445
  21911725.980   115146935.41208  21911727.800    89724903.87246
  24312775.280   127764400.31606  24312779.580    99556646.88243
 15 03 02 00 27 30.0000000  0  7G16G18G19G21G22G27G31
  20791675.020   109260997.39509  20791673.800    85138441.44747
  22056302.420   115906753.64108  22056301.780    90316976.01145
  23992539.800   126081644.83206  23992537.740    98245418.90444
  21978682.800   115498769.15708  21978681.680    89999041.16746
  22819548.620   119917605.86908  22819547.700    93442322.13144
  21901058.220   115090875.97008  21901060.100    89681221.20046
  24331470.060   127862640.56606  24331474.680    99633197.25444
 15 03 02 00 28  0.0000000  0  7G16G18G19G21G22G27G31
  20783715.660   109219170.61109  20783714.440    85105849.14347
  22049412.340   115870546.64108  22049411.740    90288762.78945
  23977632.800   126003308.23406  23977631.020    98184377.48544
  21989680.340   115556561.76108  21989679.220    90044074.36646
  22802946.220   119830359.84907  22802945.140    93374338.33845
  21890415.920   115034950.21208  21890417.740    89637642.70446
  24350159.560   127960853.33506  24350164.360    99709726.17844
 15 03 02 00 28 30.0000000  0  7G16G18G19G21G22G27G31
  20775839.340   109177780.59809  20775838.160    85073597.18847
  22042605.000   115834774.44308  22042604.500    90260888.36545
  23962741.680   125925056.60705  23962739.980    98123402.26544
  22000719.600   115614574.01308  22000718.520    90089278.72046
  22786380.420   119743306.42408  22786379.260    93306504.61544
  21879799.400   114979160.22808  21879801.220    89594169.99547
  24368843.660   128059037.30606  24368848.360    99786232.62843
 15 03 02 00 29  0.0000000  0  7G16G18G19G21G22G27G31
  20768045.320   109136822.95909  20768044.160    85041682.14047
  22035879.640   115799432.46408  22035879.240    90233349.17945
  23947865.640   125846884.18605  23947864.200    98062488.75243
  22011799.180   115672798.21108  22011798.160    90134648.21546
  22769850.620   119656442.26508  22769849.380    93238818.35345
  21869207.580   114923500.01108  21869209.420    89550798.40846
  24387520.680   128157183.77706  24387525.160    99862709.83543
 15 03 02 00 29 30.0000000  0  7G16G18G19G21G22G27G31
  20760334.880   109096304.18509  20760333.700    85010109.06747
  22029237.360   115764526.97808  22029236.920    90206150.12045
  23933005.520   125768795.32105  23933004.240    98001640.33443
  22022919.800   115731237.27508  22022918.680    90180185.15646
  22753358.240   119569774.47808  22753356.920    93171285.09945
  21858641.500   114867974.46608  21858643.260    89507531.75946
  24406191.020   128255294.61706  24406195.400    99939159.29743
 15 03 02 00 30  0.0000000  0  7G16G18G19G21G22G27G31
  20752707.560   109056222.39509  20752706.420    84978876.51447
  22022677.900   115730056.06908  22022677.240    90179289.68545
  23918160.660   125690786.54506  23918159.660    97940854.27543
  22034080.180   115789885.33108  22034078.980    90225884.93146
  22736903.020   119483302.14608  22736901.600    93103904.18044
  21848100.440   114812580.28808  21848102.100    89464367.47546
  24424853.420   128353363.35106  24424857.560   100015575.86243
 15 03 02 00 30 30.0000000  0  7G16G18G19G21G22G27G31
  20745163.820   109016579.75209  20745162.780    84947986.13747
  22016201.340   115696021.10608  22016200.540    90152768.95045
  23903331.460   125612858.41506  23903330.420    97880131.14144
  22045280.120   115848741.20808  22045278.880    90271746.65246
  22720485.540   119397028.18508  22720483.940    93036677.82145
  21837584.460   114757318.11708  21837586.080    89421306.04746
  24443507.300   128451387.47906  24443511.040   100091957.68843
 15 03 02 00 31  0.0000000  0  7G16G18G19G21G22G27G31
  20737705.440   108977385.93509  20737704.400    84917445.50247
  22009809.440   115662431.50008  22009808.640    90126595.25145
  23888518.880   125535018.85905  23888518.120    97819476.95444
  22056520.720   115907810.63908  22056519.440    90317774.77646
  22704107.860   119310963.06108  22704106.140    92969614.17245
  21827095.140   114702195.95308  21827096.760    89378353.71446
  24462153.580   128549371.88506  24462157.000   100168308.53443
 15 03 02 00 31 30.0000000  0  7G16G18G19G21G22G27G31
  20730331.500   108938635.50009  20730330.440    84887250.36247
  22003501.120   115629280.85808  22003500.220    90100763.59845
  23873721.780   125457260.44106  23873721.420    97758886.02043
  22067800.280   115967084.59908  22067798.940    90363962.27746
  22687769.100   119225102.39508  22687767.400    92902709.85345
  21816631.120   114647206.84408  21816632.720    89335505.06246
  24480790.340   128647306.36906  24480794.000   100244620.38543
 15 03 02 00 32  0.0000000  0  7G16G18G19G21G22G27G31
  20723042.560   108900331.98609  20723041.400    84857403.46647
  21997277.020   115596572.92608  21997276.000    90075276.90445
  23858940.640   125379584.99406  23858940.320    97698359.71444
  22079118.640   116026563.01608  22079117.300    90410309.07546
  22671469.960   119139450.20108  22671468.200    92835967.97845
  21806192.760   114592352.80608  21806194.280    89292761.65746
  24499417.460   128745190.47406  24499421.460   100320893.05343
 15 03 02 00 32 30.0000000  0  7G16G18G19G21G22G27G31
  20715838.680   108862475.34909  20715837.520    84827904.79247
  21991137.100   115564307.47608  21991136.100    90050135.02645
  23844175.100   125301991.09307  23844174.580    97637896.97144
  22090475.380   116086242.65708  22090473.820    90456812.69946
  22655210.640   119054007.59708  22655208.940    92769389.42245
  21795779.780   114537632.35808  21795781.220    89250122.36746
  24518034.180   128843019.70706  24518038.500   100397122.99641
 15 03 02 00 33  0.0000000  0  7G16G18G19G21G22G27G31
  20708720.220   108825067.76209  20708719.120    84798756.02347
  21985081.740   115532486.17108  21985080.840    90025339.21845
  23829425.320   125224479.32507  23829424.680    97577498.19244
  22101870.240   116146122.39908  22101868.440    90503472.24946
  22638991.800   118968777.73708  22638990.280    92702976.63945
  21785392.460   114483046.39908  21785393.780    89207587.86546
  24536640.060   128940791.79906  24536644.480   100473308.47644
 15 03 02 00 33 30.0000000  0  7G16G18G19G21G22G27G31
  20701688.540   108788115.85309  20701687.420    84769962.31947
  21979111.980   115501114.86508  21979111.060    90000894.06745
  23814692.140   125147054.80607  23814691.380    97517167.44444
  22113303.660   116206204.83808  22113301.720    90550289.73246
  22622815.040   118883768.20808  22622813.480    92636735.50945
  21775031.660   114428599.88908  21775032.940    89165162.01446
  24555235.300   129038508.64506  24555240.320   100549450.94544
 15 03 02 00 34  0.0000000  0  7G16G18G19G21G22G27G31
  20694743.440   108751619.21909  20694742.340    84741523.39247
  21973227.720   115470193.22208  21973226.860    89976799.30745
  23799974.940   125069715.20107  23799974.080    97456902.87043
  22124774.800   116266485.90908  22124772.820    90597261.98946
  22606680.260   118798979.57208  22606678.520    92570666.51745
  21764697.100   114374291.24908  21764698.340    89122843.57546
  24573819.180   129136165.20506  24573824.260   100625546.49541
 15 03 02 00 34 30.0000000  0  7G16G18G19G21G22G27G31
  20687885.040   108715578.07609  20687883.900    84713439.38247
  21967428.960   115439720.77508  21967428.120    89953054.55345
  23785273.620   124992458.92507  23785272.620    97396703.19544
  22136283.160   116326962.61008  22136281.060    90644386.68346
  22590587.660   118714412.39108  22590585.800    92504770.10045
  21754388.460   114320118.93308  21754389.680    89080631.37946
  24592390.880   129233757.24706  24592395.880   100701591.70943
 15 03 02 00 35  0.0000000  0  7G16G18G19G21G22G27G31
  20681113.740   108679994.68909  20681112.560    84685712.06347
  21961715.900   115409699.05908  21961715.160    89929661.01645
  23770588.340   124915286.57207  23770587.160    97336568.94944
  22147828.520   116387633.70708  22147826.340    90691662.85646
  22574537.900   118630070.05208  22574535.860    92439048.87945
  21744105.980   114266083.94408  21744107.000    89038526.19746
  24610949.860   129331282.76206  24610955.400   100777585.11242
 15 03 02 00 35 30.0000000  0  7G16G18G19G21G22G27G31
  20674430.680   108644874.69009  20674429.500    84658345.82148
  21956089.660   115380133.33608  21956088.860    89906622.80945
  23755919.780   124838202.50107  23755918.460    97276503.45344
  22159411.220   116448501.03108  22159409.060    90739091.93145
  22558532.280   118545959.32008  22558530.000    92373508.11345
  21733850.460   114212190.65208  21733851.380    88996531.43846
  24629496.240   129428742.75005  24629502.240   100853527.49643
 15 03 02 00 36  0.0000000  0  7G16G18G19G21G22G27G31
  20667835.100   108610214.63109  20667833.980    84631337.98648
  21950549.680   115351020.72108  21950548.840    89883937.67745
  23741267.020   124761201.59607  23741265.700    97216502.78944
  22171030.060   116509558.46008  22171027.960    90786669.14746
  22542570.240   118462077.91608  22542567.800    92308146.04745
  21723620.900   114158434.27208  21723621.920    88954643.35246
  24648028.640   129526129.96806  24648035.120   100929413.15141
 15 03 02 00 36 30.0000000  0  7G16G18G19G21G22G27G31
  20661327.700   108576017.77609  20661326.600    84604691.08547
  21945096.280   115322363.23408  21945095.580    89861607.18445
  23726630.400   124684285.61507  23726629.160    97156568.26344
  22182684.880   116570805.20208  22182682.840    90834393.86745
  22526652.500   118378429.49108  22526650.000    92242965.52445
  21713417.700   114104816.46708  21713418.940    88912863.25246
  24666546.880   129623442.74106  24666553.920   101005240.83243
 15 03 02 00 37  0.0000000  0  7G16G18G19G21G22G27G31
  20654908.860   108542286.64209  20654907.740    84578407.08047
  21939729.880   115294162.94508  21939729.400    89839632.94745
  23712010.020   124607455.14207  23712008.860    97096700.40444
  22194375.500   116632240.42408  22194373.520    90882265.46645
  22510779.680   118295017.69808  22510777.320    92177969.41345
  21703241.100   114051338.65108  21703242.480    88871192.22946
  24685050.720   129720679.09606  24685058.220   101081009.00643
 15 03 02 00 37 30.0000000  0  6G16G18G19G21G22G27
  20648574.740   108509000.08309  20648573.480    84552469.48748
  21934446.500   115266398.20908  21934446.040    89817998.09645
  23697401.600   124530687.70006  23697400.480    97036881.63944
  22206097.340   116693839.50608  22206095.460    90930264.75345
  22494948.060   118211822.33608  22494945.740    92113141.92445
  21693086.800   113997978.18308  21693088.360    88829612.66046
 15 03 02 00 38  0.0000000  0  6G16G18G19G21G22G27
  20642337.340   108476222.05409  20642336.000    84526928.17048
  21929258.100   115239132.68408  21929257.620    89796752.24945
  23682817.020   124454045.95306  23682816.020    96977160.84444
  22217861.920   116755663.22208  22217860.200    90978439.07345
  22479170.080   118128908.80108  22479167.740    92048534.02445
  21682966.840   113944797.91508  21682968.560    88788173.49646
 15 03 02 00 38 30.0000000  0  6G16G18G19G21G22G27
  20636186.220   108443897.60609  20636184.820    84501740.28048
  21924154.100   115212310.69608  21924153.540    89775852.02145
  23668245.780   124377473.52506  23668244.820    96917494.06644
  22229658.060   116817653.02108  22229656.540    91026742.80846
  22463435.300   118046222.57108  22463433.000    91984103.25145
  21672870.460   113891741.27708  21672872.180    88746830.66946
 15 03 02 00 39  0.0000000  0  6G16G18G19G21G22G27
  20630125.100   108412046.38109  20630123.720    84476921.14648
  21919138.200   115185951.96108  21919137.580    89755312.75845
  23653690.860   124300988.12406  23653689.900    96857895.06844
  22241489.020   116879825.72608  22241487.640    91075189.07045
  22447747.740   117963784.49608  22447745.620    91919865.85945
  21662801.260   113838827.20308  21662802.940    88705598.94047
 15 03 02 00 39 30.0000000  0  6G16G18G19G21G22G27
  20624154.060   108380668.62809  20624152.740    84452470.94648
  21914210.320   115160055.96908  21914209.680    89735134.06645
  23639152.360   124224588.99606  23639151.540    96798363.31444
  22253354.440   116942164.66508  22253353.080    91123758.98845
  22432107.680   117881595.73408  22432105.680    91855822.72745
  21652759.000   113786054.46008  21652760.580    88664477.33447
 15 03 02 00 40  0.0000000  0  6G16G18G19G21G22G27
  20618272.780   108349762.47409  20618271.480    84428388.22348
  21909370.060   115134620.21808  21909369.340    89715314.01745
  23624629.820   124148272.31606  23624629.000    96738895.81544
  22265252.640   117004690.78208  22265251.220    91172480.64845
  22416514.800   117799655.37908  22416512.980    91791973.16845
  21642743.000   113733419.69108  21642744.580    88623463.24747
 15 03 02 00 40 30.0000000  0  6G16G18G19G21G22G27
  20612483.080   108319337.47109  20612481.780    84404680.42748
  21904619.220   115109653.88308  21904618.400    89695859.73645
  23610124.460   124072046.45506  23610123.520    96679499.06544
  22277185.080   117067397.44408  22277183.860    91221342.96445
  22400971.320   117717974.00108  22400969.480    91728325.39845
  21632754.900   113680931.54108  21632756.480    88582563.40447
 15 03 02 00 41  0.0000000  0  6G16G18G19G21G22G27
  20606783.700   108289387.09609  20606782.420    84381342.46947
  21899956.400   115085150.10508  21899955.360    89676765.90145
  23595635.040   123995903.36106  23595633.800    96620166.80543
  22289150.040   117130274.67308  22289148.920    91270338.20845
  22385476.120   117636546.33608  22385474.240    91664875.32645
  21622793.080   113628582.17308  21622794.740    88541771.70347
 15 03 02 00 41 30.0000000  0  6G16G18G19G21G22G27
  20601176.280   108259919.76009  20601174.980    84358380.90348
  21895383.040   115061116.61808  21895381.840    89658038.51945
  23581162.600   123919849.87806  23581161.300    96560904.42944
  22301148.620   117193327.67908  22301147.560    91319470.42045
  22370030.860   117555381.39308  22370029.040    91601629.96445
  21612859.020   113576378.82108  21612860.720    88501093.76847
 15 03 02 00 42  0.0000000  0  6G16G18G19G21G22G27
  20595660.400   108230933.54109  20595659.040    84335794.23547
  21890898.600   115037550.98208  21890897.380    89639675.69245
  23566706.700   123843882.99106  23566705.020    96501709.46244
  22313179.660   117256551.17908  22313178.600    91368735.47645
  22354635.440   117474478.71108  22354633.720    91538588.98545
  21602952.260   113524318.56208  21602953.900    88460527.33946
 15 03 02 00 42 30.0000000  0  6G16G18G19G21G22G27
  20590236.980   108202433.46409  20590235.620    84313586.37848
  21886503.900   115014457.15508  21886502.700    89621680.52945
  23552267.740   123768005.92306  23552265.960    96442584.49444
  22325243.500   117319946.65008  22325242.380    91418134.54545
  22339291.040   117393843.73608  22339289.300    91475756.56945
  21593073.520   113472405.02808  21593074.940    88420075.24947
 15 03 02 00 43  0.0000000  0  6G16G18G19G21G22G27
  20584905.620   108174417.19009  20584904.320    84291755.51448
  21882198.620   114991833.31308  21882197.520    89604051.55945
  23537845.280   123692215.38107  23537843.480    96383526.93544
  22337339.100   117383509.25508  22337338.000    91467663.84746
  22323997.420   117313475.71708  22323995.720    91413132.19245
  21583222.060   113420635.07508  21583223.440    88379735.03847
 15 03 02 00 43 30.0000000  0  6G16G18G19G21G22G27
  20579667.160   108146888.85309  20579665.880    84270304.85548
  21877983.360   114969682.71108  21877982.520    89586791.37045
  23523439.820   123616513.93407  23523437.840    96324538.80944
  22349466.640   117447239.59208  22349465.620    91517323.83845
  22308755.680   117233380.17208  22308753.960    91350720.13845
  21573398.500   113369011.67708  21573399.820    88339509.01347
 15 03 02 00 44  0.0000000  0  6G16G18G19G21G22G27
  20574521.780   108119849.55909  20574520.540    84249235.26948
  21873858.260   114948005.66108  21873857.560    89569900.17245
  23509051.180   123540901.35907  23509049.000    96265619.95044
  22361625.700   117511135.68908  22361624.760    91567113.00045
  22293566.200   117153558.79808  22293564.360    91288521.70645
  21563602.820   113317534.81308  21563604.120    88299397.18647
 15 03 02 00 44 30.0000000  0  6G16G18G19G21G22G27
  20569469.440   108093299.44409  20569468.260    84228546.86648
  21869823.300   114926801.93708  21869822.580    89553377.80445
  23494679.200   123465376.33607  23494677.160    96206769.31244
  22373815.660   117575194.19108  22373814.740    91617028.72045
  22278429.080   117074012.55308  22278427.180    91226537.67345
  21553834.800   113266203.38708  21553836.040    88259398.68547
 15 03 02 00 45  0.0000000  0  6G16G18G19G21G22G27
  20564510.680   108067240.95809  20564509.560    84208241.55048
  21865878.800   114906073.31308  21865878.020    89537225.64045
  23480324.200   123389940.05507  23480322.200    96147987.80244
  22386036.380   117639414.41308  22386035.480    91667070.44545
  22263344.920   116994744.95508  22263343.000    91164770.76645
  21544094.700   113215018.84308  21544095.960    88219514.63447
 15 03 02 00 45 30.0000000  0  6G16G18G19G21G22G27
  20559645.780   108041675.78009  20559644.700    84188320.63448
  21862024.980   114885821.27808  21862024.220    89521444.85545
  23465986.220   123314593.33607  23465984.160    96089276.06444
  22398287.720   117703795.24208  22398286.860    91717237.33445
  22248314.460   116915759.50108  22248312.400    91103223.71545
  21534382.740   113163982.21408  21534384.060    88179745.84947
 15 03 02 00 46  0.0000000  0  6G16G18G19G21G22G27
  20554874.700   108016603.61709  20554873.640    84168783.87448
  21858261.660   114866044.90308  21858260.960    89506034.70145
  23451665.040   123239334.29407  23451662.780    96030632.69644
  22410568.980   117768333.28908  22410568.160    91767526.70946
  22233337.800   116837056.63208  22233335.640    91041896.84945
  21524698.640   113113092.10908  21524699.980    88140091.22247
 15 03 02 00 46 30.0000000  0  6G16G18G19G21G22G27
  20550198.440   107992029.74209  20550197.380    84149635.39748
  21854589.720   114846748.79908  21854589.080    89490998.78145
  23437361.280   123164167.22807  23437359.020    95972060.97944
  22422880.580   117833030.75308  22422879.680    91817940.31345
  22218416.020   116758642.62208  22218413.860    90980795.05345
  21515043.220   113062352.83409  21515044.600    88100554.13247
 15 03 02 00 47  0.0000000  0  6G16G18G19G21G22G27
  20545616.960   107967953.78409  20545615.860    84130874.90648
  21851008.920   114827931.74208  21851008.300    89476336.16445
  23423074.640   123089089.84007  23423072.420    95913559.16345
  22435221.700   117897883.61408  22435220.680    91868475.00145
  22203549.360   116680518.13008  22203547.180    90919918.87945
  21505416.200   113011762.68909  21505417.560    88061133.24647
 15 03 02 00 47 30.0000000  0  6G16G18G19G21G22G27
  20541130.380   107944376.57309  20541129.300    84112503.04448
  21847519.440   114809594.43008  21847518.700    89462047.35345
  23408805.100   123014102.21007  23408802.820    95855127.26245
  22447592.040   117962890.08708  22447590.840    91919129.40645
  22188738.240   116602685.49808  22188736.080    90859270.11845
  21495817.640   112961321.81809  21495818.960    88021828.67847
 15 03 02 00 48  0.0000000  0  6G16G18G19G21G22G27
  20536739.600   107921302.80309  20536738.540    84094523.47448
  21844122.040   114791740.95608  21844121.240    89448135.57645
  23394553.140   122939208.07806  23394551.020    95796768.24544
  22459991.820   118028051.70108  22459990.560    91969904.67445
  22173983.740   116525150.24008  22173981.560    90798853.06445
  21486248.240   112911034.12709  21486249.560    87982643.46847
 15 03 02 00 48 30.0000000  0  6G16G18G19G21G22G27
  20532444.500   107898731.92109  20532443.520    84076935.77248
  21840816.440   114774370.13708  21840815.720    89434599.88945
  23380318.400   122864405.25706  23380316.600    95738480.35544
  22472420.540   118093364.97708  22472419.200    92020798.12545
  22159286.000   116447913.05508  22159283.720    90738668.29445
  21476707.720   112860898.08509  21476709.020    87943576.42547
 15 03 02 00 49  0.0000000  0  6G16G18G19G21G22G27
  20528245.020   107876663.33909  20528244.020    84059739.47548
  21837602.580   114757481.03608  21837601.880    89421439.56545
  23366100.860   122789692.48907  23366099.140    95680262.65345
  22484877.460   118158826.45908  22484876.060    92071807.07245
  22144645.120   116370974.71708  22144642.780    90678716.37945
  21467195.740   112810912.25109  21467197.100    87904626.43047
 15 03 02 00 49 30.0000000  0  6G16G18G19G21G22G27
  20524141.440   107855098.68309  20524140.380    84042935.84348
  21834480.440   114741074.14808  21834479.740    89408654.98545
  23351900.560   122715070.03406  23351898.860    95622115.32444
  22497362.260   118224434.36908  22497360.740    92122930.11845
  22130061.480   116294337.55208  22130059.220    90618999.14945
  21457712.420   112761077.38308  21457713.860    87865794.07847
 15 03 02 00 50  0.0000000  0  6G16G18G19G21G22G27
  20520133.960   107834039.03209  20520132.880    84026525.72248
  21831450.320   114725150.56308  21831449.480    89396247.00545
  23337717.580   122640538.11306  23337715.960    95564038.50144
  22509874.740   118290187.11708  22509873.080    92174166.01445
  22115535.660   116218004.06108  22115533.460    90559518.54545
  21448257.840   112711393.89008  21448259.340    87827079.67147
 15 03 02 00 50 30.0000000  0  6G16G18G19G21G22G27
  20516223.060   107813487.17109  20516221.960    84010511.28048
  21828512.460   114709711.94208  21828511.500    89384216.93345
  23323552.040   122566097.71906  23323550.320    95506033.02144
  22522414.780   118356084.62908  22522412.860    92225514.72645
  22101068.380   116141978.08008  22101066.240    90500277.56245
  21438832.420   112661863.45209  21438833.920    87788484.52947
 15 03 02 00 51  0.0000000  0  6G16G18G19G21G22G27
  20512409.500   107793446.96209  20512408.400    83994895.52848
  21825667.560   114694761.82508  21825666.540    89372567.49845
  23309404.500   122491752.11306  23309402.520    95448101.41344
  22534982.520   118422128.04108  22534980.460    92276977.10945
  22086660.540   116066264.62208  22086658.420    90441280.10646
  21429436.880   112612489.47909  21429438.300    87750011.31247
 15 03 02 00 51 30.0000000  0  6G16G18G19G21G22G27
  20508692.980   107773916.60209  20508691.880    83979677.05748
  21822915.080   114680297.69808  21822914.100    89361296.75545
  23295274.400   122417497.74406  23295272.320    95390240.89944
  22547577.000   118488312.12808  22547574.860    92328549.12145
  22072312.140   115990863.36608  22072310.080    90382525.91145
  21420070.680   112563269.25909  21420071.940    87711657.90047
 15 03 02 00 52  0.0000000  0  6G16G18G19G21G22G27
  20505073.800   107754898.00809  20505072.740    83964857.37248
  21820255.520   114666321.47108  21820254.540    89350406.19745
  23281161.960   122343336.67606  23281160.040    95332453.07244
  22560198.200   118554636.72408  22560196.020    92380230.62445
  22058023.800   115915777.72208  22058021.720    90324017.66845
  21410733.960   112514204.11709  21410735.120    87673425.32047
 15 03 02 00 52 30.0000000  0  6G16G18G19G21G22G27
  20501552.200   107736392.09909  20501551.180    83950437.17748
  21817688.820   114652833.04608  21817687.720    89339895.75445
  23267067.140   122269268.16506  23267065.320    95274737.38244
  22572845.560   118621099.09108  22572843.480    92432019.46645
  22043795.820   115841009.61608  22043793.760    90265756.83345
  21401426.680   112465294.11809  21401427.820    87635313.63847
 15 03 02 00 53  0.0000000  0  6G16G18G19G21G22G27
  20498128.600   107718400.93809  20498127.560    83936418.08748
  21815215.220   114639833.80608  21815214.020    89329766.49545
  23252990.200   122195293.43307  23252988.260    95217094.75043
  22585519.120   118687698.71808  22585516.960    92483915.26645
  22029628.900   115766562.12208  22029626.900    90207745.84446
  21392149.200   112416540.63609  21392150.300    87597323.91447
 15 03 02 00 53 30.0000000  0  6G16G18G19G21G22G27
  20494803.040   107700924.97609  20494801.980    83922800.45048
  21812834.600   114627323.53008  21812833.460    89320018.23445
  23238931.140   122121412.06107  23238929.080    95159524.85844
  22598218.300   118754433.33808  22598216.140    92535916.26145
  22015523.340   115692437.00108  22015521.300    90149986.05046
  21382901.480   112367943.48709  21382902.640    87559456.01047
 15 03 02 00 54  0.0000000  0  6G16G18G19G21G22G27
  20491576.220   107683967.69709  20491575.140    83909586.97748
  21810547.600   114615305.36308  21810546.500    89310653.44145
  23224890.220   122047626.21907  23224888.120    95102029.42544
  22610943.200   118821303.72808  22610941.140    92588023.06445
  22001479.920   115618638.52008  22001477.920    90092480.77146
  21373684.040   112319505.37909  21373685.280    87521712.04047
 15 03 02 00 54 30.0000000  0  6G16G18G19G21G22G27
  20488448.200   107667529.88809  20488447.120    83896778.29748
  21808354.240   114603779.53108  21808353.240    89301672.29645
  23210867.320   121973936.04407  23210865.220    95044608.50144
  22623693.520   118888307.81308  22623691.580    92640234.03845
  21987499.200   115545169.29908  21987497.160    90035232.05846
  21364496.900   112271226.69009  21364498.340    87484092.30147
 15 03 02 00 55  0.0000000  0  6G16G18G19G21G22G27
  20485418.600   107651609.35909  20485417.520    83884372.69248
  21806253.960   114592742.70608  21806253.040    89293072.17245
  23196862.140   121900338.37107  23196859.840    94987259.69244
  22636468.340   118955440.46508  22636466.600    92692545.19545
  21973580.960   115472028.28908  21973578.780    89978239.09746
  21355339.560   112223104.52809  21355341.100    87446594.52047
 15 03 02 00 55 30.0000000  0  6G16G18G19G21G22G27
  20482488.160   107636209.45909  20482486.980    83872372.76648
  21804247.300   114582197.78908  21804246.420    89284855.36045
  23182875.100   121826835.49908  23182872.660    94929984.73544
  22649267.940   119022702.79408  22649266.300    92744957.38545
  21959725.940   115399220.06108  21959723.800    89921505.46146
  21346212.580   112175141.73809  21346214.100    87409220.94247
 15 03 02 00 56  0.0000000  0  6G16G18G19G21G22G27
  20479657.320   107621332.94709  20479656.080    83860780.67148
  21802334.760   114572147.39108  21802333.880    89277023.89245
  23168906.460   121753429.58007  23168903.960    94872785.34444
  22662092.140   119090094.13108  22662090.520    92797470.10945
  21945935.040   115326748.64708  21945932.940    89865034.25645
  21337116.280   112127340.44309  21337117.740    87371973.18847
 15 03 02 00 56 30.0000000  0  6G16G18G19G21G22G27
  20476926.260   107606980.77309  20476925.000    83849597.15248
  21800516.380   114562591.56408  21800515.520    89269577.81145
  23154956.160   121680120.80707  23154953.800    94815661.62344
  22674940.700   119157614.02108  22674939.160    92850083.00045
  21932208.680   115254616.42808  21932206.580    89808827.36846
  21328050.780   112079701.27909  21328052.240    87334851.76347
 15 03 02 00 57  0.0000000  0  6G16G18G19G21G22G27
  20474294.400   107593150.04509  20474293.100    83838819.95748
  21798791.380   114553526.58808  21798790.560    89262514.20246
  23141023.720   121606905.08108  23141021.460    94758610.43044
  22687812.560   119225256.22008  22687811.000    92902791.21445
  21918546.480   115182821.84708  21918544.460    89752883.56846
  21319015.500   112032220.66409  21319016.920    87297853.87647
 15 03 02 00 57 30.0000000  0  6G16G18G19G21G22G27
