     2.11           OBSERVATION DATA    G                   RINEX VERSION / TYPE
SPIDER V4,0,0,3554                      2015 03 16 01:42    PGM / RUN BY / DATE 
ADCK                                                        MARKER NAME         
ADCK                                                        MARKER NUMBER       
                                                            OBSERVER / AGENCY   
496498              LEICA GRX1200+GNSS  8.20/4.007          REC # / TYPE / VERS 
                    LEIAR25         NONE                    ANT # / TYPE        
  5227539.7664   314968.1794  3630496.8998                  APPROX POSITION XYZ 
        0.0480        0.0000        0.0000                  ANTENNA: DELTA H/E/N
     1     1                                                WAVELENGTH FACT L1/2
     4    C1    L1    P2    L2                              # / TYPES OF OBSERV 
    30.000                                                  INTERVAL            
  2015    03    02    00    00    0.0000000     GPS         TIME OF FIRST OBS   
  2015    03    02    23    59   30.0000000     GPS         TIME OF LAST OBS    
    16                                                      LEAP SECONDS        
    30                                                      # OF SATELLITES     
   G 1   829   829   829   829                              PRN / # OF OBS      
   G 2   934   934   934   934                              PRN / # OF OBS      
   G 3   850   850   849   849                              PRN / # OF OBS      
   G 4   847   847   847   847                              PRN / # OF OBS      
   G 5   664   664   664   664                              PRN / # OF OBS      
   G 6   777   776   776   776                              PRN / # OF OBS      
   G 7   658   658   658   658                              PRN / # OF OBS      
   G 9   797   797   797   797                              PRN / # OF OBS      
   G10   776   776   776   776                              PRN / # OF OBS      
   G11   793   792   792   792                              PRN / # OF OBS      
   G12   825   824   824   824                              PRN / # OF OBS      
   G13   816   816   816   816                              PRN / # OF OBS      
   G14   937   934   932   932                              PRN / # OF OBS      
   G15   723   723   723   723                              PRN / # OF OBS      
   G16   683   683   683   683                              PRN / # OF OBS      
   G17   937   937   937   937                              PRN / # OF OBS      
   G18   923   914   911   907                              PRN / # OF OBS      
   G19   773   773   773   773                              PRN / # OF OBS      
   G20   791   791   791   791                              PRN / # OF OBS      
   G21   673   656   642   638                              PRN / # OF OBS      
   G22   734   728   727   726                              PRN / # OF OBS      
   G23   740   740   740   740                              PRN / # OF OBS      
   G24   839   839   839   839                              PRN / # OF OBS      
   G25   829   829   828   828                              PRN / # OF OBS      
   G27   825   825   825   825                              PRN / # OF OBS      
   G28   897   897   897   897                              PRN / # OF OBS      
   G29   734   734   733   733                              PRN / # OF OBS      
   G30   704   704   704   704                              PRN / # OF OBS      
   G31   793   792   792   792                              PRN / # OF OBS      
   G32   754   754   754   754                              PRN / # OF OBS      
BIT 2 OF LLI FLAGS DATA COLLECTED UNDER A/S CONDITION       COMMENT             
SNR is mapped to RINEX snr flag value [2-9]                 COMMENT             
Lx:     = 25dBHz -> 1; 26-27dBHz -> 2; 28-31dBHz -> 3       COMMENT             
       32-35dBHz -> 4; 36-38dBHz -> 5; 39-41dBHz -> 6       COMMENT             
       42-44dBHz -> 7; 45-48dBHz -> 8; >=49dBHz -> 9        COMMENT             
                                                            END OF HEADER       
 15 03 02 00 00  0.0000000  0  7G16G18G21G22G27G29G31
  21462870.440   112788149.81309  21462866.600    87886862.60948
  22424194.460   117840053.00709  22424191.800    91823462.22447
  21495906.260   112961756.99309  21495902.100    88022137.20548
  23572869.720   123876341.50908  23572870.040    96526959.16547
  22611119.140   118822264.00108  22611118.640    92588787.00647
  24336658.980   127889995.84807  24336657.560    99654525.51046
  23146927.580   121637876.38908  23146926.780    94782733.18147
 15 03 02 00 00 30.0000000  0  7G16G18G21G22G27G29G31
  21450422.420   112722735.35509  21450418.620    87835890.30848
  22414008.540   117786526.16209  22414005.880    91781753.05746
  21504677.900   113007852.01209  21504673.680    88058055.40448
  23555354.140   123784293.62208  23555354.380    96455233.76247
  22599574.220   118761595.22909  22599573.720    92541512.66947
  24350739.000   127963987.13607  24350737.740    99712181.00446
  23164659.520   121731057.53308  23164658.740    94855341.69247
 15 03 02 00 01  0.0000000  0  7G16G18G21G22G27G29G31
  21438031.620   112657621.68909  21438027.840    87785152.39348
  22403887.260   117733338.79209  22403884.520    91740308.40647
  21513506.260   113054245.15509  21513502.040    88094205.91148
  23537849.820   123692305.40308  23537849.820    96383554.80346
  22588050.160   118701035.97709  22588049.640    92494323.66447
  24364822.180   128037994.29408  24364820.920    99769848.88946
  23182418.780   121824382.45109  23182418.060    94928062.22347
 15 03 02 00 01 30.0000000  0  7G16G18G21G22G27G29G31
  21425697.760   112592807.18509  21425694.020    87734647.59148
  22393830.400   117680489.75709  22393827.600    91699127.39147
  21522390.180   113100930.67709  21522385.980    88130584.23848
  23520356.520   123600376.09609  23520356.280    96311921.77147
  22576546.240   118640582.63709  22576545.740    92447217.18648
  24378907.760   128112013.56808  24378906.380    99827526.21546
  23200204.080   121917844.28409  23200203.420    95000889.44547
 15 03 02 00 02  0.0000000  0  7G16G18G21G22G27G29G31
  21413421.580   112528295.60809  21413417.900    87684378.83648
  22383838.680   117627982.90309  22383835.780    91658213.01347
  21531329.780   113147908.77909  21531325.600    88167190.54948
  23502875.100   123508509.97508  23502874.680    96240338.08846
  22565062.820   118580236.82409  22565062.320    92400194.50348
  24392996.040   128186046.93108  24392994.500    99885214.52546
  23218015.240   122011442.02009  23218014.640    95073822.56647
 15 03 02 00 02 30.0000000  0  7G16G18G21G22G27G29G31
  21401202.400   112464083.55709  21401198.760    87634343.48048
  22373911.380   117575814.66309  22373908.480    91617562.48147
  21540323.620   113195171.74009  21540319.420    88204018.84348
  23485404.920   123416703.95408  23485404.400    96168801.29346
  22553598.780   118519992.65609  22553598.240    92353251.02248
  24407085.880   128260088.51008  24407084.080    99942909.24146
  23235850.600   122105166.68908  23235850.040    95146854.60447
 15 03 02 00 03  0.0000000  0  7G16G18G21G22G27G29G31
  21389042.000   112400180.21609  21389038.340    87584548.68348
  22364050.300   117523994.33809  22364047.400    91577183.05447
  21549372.560   113242724.43809  21549368.440    88241072.89948
  23467947.880   123324967.54309  23467947.240    96097318.76447
  22542155.460   118459857.26709  22542154.820    92306392.30648
  24421178.580   128334145.31008  24421176.640   100000615.82446
  23253710.880   122199022.33509  23253710.360    95219988.69147
 15 03 02 00 03 30.0000000  0  7G16G18G21G22G27G29G31
  21376939.800   112336582.61009  21376936.140    87534992.11548
  22354254.800   117472518.67209  22354251.900    91537072.20547
  21558475.440   113290560.59209  21558471.380    88278347.82548
  23450503.500   123233298.31008  23450502.840    96025888.51947
  22530731.820   118399825.44709  22530731.100    92259614.29748
  24435273.180   128408212.41808  24435271.080   100058330.43946
  23271594.520   122293000.73808  23271594.080    95293218.42947
 15 03 02 00 04  0.0000000  0  7G16G18G21G22G27G29G31
  21364897.120   112273297.65509  21364893.420    87485679.16748
  22344526.120   117421394.29509  22344523.240    91497235.07747
  21567632.780   113338682.99909  21567628.800    88315845.80848
  23433073.320   123141703.85908  23433072.640    95954516.72147
  22519328.700   118339901.70509  22519327.960    92212920.49548
  24449370.520   128482294.20908  24449368.320   100116056.48745
  23289501.860   122387103.80408  23289501.440    95366545.31347
 15 03 02 00 04 30.0000000  0  7G16G18G21G22G27G29G31
  21352913.960   112210325.40609  21352910.200    87436609.88448
  22334864.340   117370621.27709  22334861.420    91457671.73847
  21576843.720   113387087.15209  21576839.800    88353563.32948
  23415657.340   123050184.35008  23415656.660    95883203.24846
  22507945.740   118280084.01409  22507944.980    92166309.33248
  24463470.240   128556388.85808  24463468.040   100173792.55146
  23307431.820   122481325.85208  23307431.480    95439964.90847
 15 03 02 00 05  0.0000000  0  7G16G18G21G22G27G29G31
  21340990.340   112147666.16109  21340986.560    87387784.50448
  22325269.580   117320200.34209  22325266.640    91418382.74947
  21586107.660   113435769.53509  21586103.780    88391497.66448
  23398255.820   122958740.60808  23398255.040    95811948.73646
  22496582.620   118220370.63109  22496581.860    92119779.45048
  24477572.040   128630494.47008  24477569.860   100231537.16945
  23325383.680   122575662.81908  23325383.420    95513474.06047
 15 03 02 00 05 30.0000000  0  7G16G18G21G22G27G29G31
  21329127.340   112085325.63609  21329123.540    87339207.47448
  22315742.820   117270136.94309  22315739.780    91379372.34947
  21595424.920   113484732.29809  21595421.080    88429650.45848
  23380869.980   122867379.23909  23380869.180    95740758.31747
  22485239.960   118160765.07308  22485239.220    92073333.57948
  24491676.580   128704614.73008  24491674.440   100289293.19645
  23343357.500   122670115.15508  23343357.320    95587073.09047
 15 03 02 00 06  0.0000000  0  7G16G18G21G22G27G29G31
  21317324.940   112023303.69709  21317321.180    87290878.69948
  22306283.980   117220430.59509  22306280.900    91340640.17947
  21604794.720   113533970.91109  21604790.880    88468018.21948
  23363499.840   122776100.08708  23363499.040    95669631.93346
  22473917.400   118101265.05809  22473916.720    92026969.95948
  24505783.420   128778747.03208  24505781.240   100347058.61145
  23361352.240   122764677.36108  23361352.060    95660757.74247
 15 03 02 00 06 30.0000000  0  7G16G18G21G22G27G29G31
  21305583.420   111961601.77409  21305579.680    87242799.28448
  22296893.420   117171083.16409  22296890.360    91302187.67447
  21614216.560   113583483.06109  21614212.760    88506599.10948
  23346145.820   122684905.51608  23346145.020    95598571.41246
  22462614.800   118041869.78809  22462614.200    91980687.94548
  24519892.540   128852890.99407  24519890.320   100404833.10345
  23379367.160   122859345.81908  23379367.020    95734525.17547
 15 03 02 00 07  0.0000000  0  7G16G18G21G22G27G29G31
  21293903.900   111900225.47209  21293900.120    87194973.59248
  22287572.040   117122099.30209  22287569.020    91264018.47847
  21623690.660   113633269.90309  21623686.860    88545394.05148
  23328809.120   122593801.84009  23328808.360    95527581.77447
  22451332.760   117982582.53909  22451332.180    91934490.11148
  24534004.440   128927049.94707  24534002.300   100462619.25144
  23397402.360   122954120.88808  23397402.300    95808375.69247
 15 03 02 00 07 30.0000000  0  7G16G18G21G22G27G29G31
  21282286.200   111839174.49609  21282282.500    87147401.40548
  22278319.840   117073479.19609  22278316.880    91226132.71447
  21633216.260   113683326.81709  21633212.420    88584399.44348
  23311489.680   122502788.73508  23311488.840    95456662.70146
  22440070.860   117923400.91009  22440070.260    91888374.57248
  24548118.720   129001221.25508  24548116.800   100520415.04845
  23415456.760   123048996.85708  23415456.720    95882304.81947
 15 03 02 00 08  0.0000000  0  6G16G18G21G22G27G31
  21270726.520   111778428.36409  21270722.880    87100066.76348
  22269132.920   117025202.11509  22269130.000    91188514.25547
  21642788.680   113733629.93809  21642784.740    88623596.67948
  23294183.780   122411846.45809  23294182.900    95385798.80248
  22428824.740   117864302.32109  22428824.180    91842323.74648
  23433525.560   123143948.36908  23433525.540    95956292.81447
 15 03 02 00 08 30.0000000  0  6G16G18G21G22G27G31
  21259235.100   111718041.02509  21259231.560    87053011.70048
  22260021.560   116977322.12909  22260018.720    91151205.21947
  21652417.580   113784229.81209  21652413.580    88663025.16148
  23276901.720   122321029.33208  23276900.720    95315032.42747
  22417604.260   117805338.60609  22417603.740    91796378.01648
  23451618.080   123239024.40708  23451618.100    96030377.84847
 15 03 02 00 09  0.0000000  0  6G16G18G21G22G27G31
  21247805.960   111657980.74909  21247802.460    87006211.48748
  22250979.660   116929806.99909  22250976.880    91114180.48647
  21662095.820   113835089.23609  21662091.740    88702655.88148
  23259637.560   122230306.28408  23259636.420    95244339.33547
  22406403.020   117746475.72909  22406402.500    91750510.86248
  23469727.260   123334187.83108  23469727.320    96104530.97547
 15 03 02 00 09 30.0000000  0  6G16G18G21G22G27G31
  21236440.420   111598254.53109  21236436.920    86959671.58948
  22242008.540   116882663.70309  22242005.720    91077445.49147
  21671824.240   113886212.22809  21671820.160    88742491.98948
  23242392.800   122139685.02609  23242391.560    95173725.65747
  22395221.940   117687718.65709  22395221.420    91704726.16448
  23487853.440   123429440.48608  23487853.540    96178753.62246
 15 03 02 00 10  0.0000000  0  6G16G18G21G22G27G31
  21225138.280   111538861.57109  21225134.800    86913391.35848
  22233108.020   116835891.44109  22233105.180    91040999.60547
  21681601.880   113937593.73709  21681597.740    88782529.52648
  23225167.320   122049165.25308  23225165.980    95103191.11747
  22384060.480   117629064.56309  22384059.900    91659021.67948
  23505995.460   123524776.67708  23505995.560    96253041.35347
 15 03 02 00 10 30.0000000  0  6G16G18G21G22G27G31
  21213901.300   111479810.72109  21213897.760    86867377.71148
  22224279.720   116789498.56909  22224276.840    91004849.35447
  21691429.480   113989238.26509  21691425.340    88822772.01448
  23207962.900   121958756.37809  23207961.460    95032742.94546
  22372919.880   117570520.10209  22372919.220    91613402.63948
  23524154.080   123620200.21508  23524154.280    96327397.15847
 15 03 02 00 11  0.0000000  0  6G16G18G21G22G27G31
  21202729.220   111421100.76309  21202725.620    86821629.69448
  22215523.360   116743483.68109  22215520.460    90968993.64347
  21701306.120   114041140.63209  21701302.000    88863215.42948
  23190779.400   121868457.39509  23190777.840    94962380.32947
  22361799.500   117512081.68509  22361798.740    91567866.23348
  23542328.060   123715704.39408  23542328.360    96401815.79247
 15 03 02 00 11 30.0000000  0  7G16G18G19G21G22G27G31
  21191623.000   111362736.92809  21191619.380    86776151.38548
  22206839.860   116697851.62309  22206836.940    90933436.22947
  24535656.200   128935742.60108  24535651.780   100469397.33045
  21711232.140   114093302.75009  21711228.080    88903861.23348
  23173617.900   121778274.22908  23173616.300    94892107.98847
  22350699.860   117453752.46809  22350699.040    91522414.90548
  23560517.360   123811289.15408  23560517.820    96476297.19547
 15 03 02 00 12  0.0000000  0  7G16G18G19G21G22G27G31
  21180578.060   111304695.12509  21180574.420    86730924.00648
  22198224.620   116652578.22909  22198221.660    90898158.29047
  24520831.160   128857836.83708  24520827.140   100408691.55845
  21721202.100   114145695.72709  21721198.140    88944686.92948
  23156473.980   121688183.33208  23156472.340    94821907.46447
  22339616.040   117395506.41909  22339615.200    91477028.38848
  23578716.540   123906925.67808  23578717.060    96550818.94147
 15 03 02 00 12 30.0000000  0  7G16G18G19G21G22G27G31
  21169603.980   111247025.78209  21169600.320    86685986.86248
  22189687.240   116607714.03109  22189684.280    90863199.21647
  24506024.520   128780027.25508  24506020.580   100348060.75246
  21731224.960   114198366.38809  21731221.000    88985729.01148
  23139357.360   121598236.02509  23139355.720    94751818.94947
  22328557.220   117337392.01409  22328556.380    91431744.45948
  23596934.240   124002659.48208  23596934.760    96625416.49146
 15 03 02 00 13  0.0000000  0  7G16G18G19G21G22G27G31
  21158696.160   111189704.56209  21158692.500    86641320.98248
  22181222.960   116563234.19609  22181220.060    90828539.64247
  24491231.060   128702286.97508  24491227.220   100287483.94546
  21741295.140   114251286.10609  21741291.300    89026965.15348
  23122263.440   121508408.06709  23122261.740    94681823.41747
  22317518.360   117279382.50009  22317517.560    91386542.25848
  23615164.780   124098460.84308  23615165.340    96700066.64946
 15 03 02 00 13 30.0000000  0  7G16G18G19G21G22G27G31
  21147855.260   111132735.19809  21147851.580    86596929.27048
  22172832.480   116519142.30509  22172829.640    90794182.35747
  24476451.080   128624617.56408  24476447.260   100226962.37946
  21751412.840   114304455.08309  21751409.020    89068395.52948
  23105193.060   121418703.67909  23105191.300    94611924.14947
  22306499.740   117221479.67109  22306499.020    91341423.19348
  23633407.920   124194328.50508  23633408.560    96774768.48647
 15 03 02 00 14  0.0000000  0  7G16G18G19G21G22G27G31
  21137081.940   111076121.11709  21137078.280    86552814.40448
  22164516.480   116475441.54509  22164513.640    90760129.85047
  24461684.880   128547020.67708  24461681.020   100166497.33846
  21761577.780   114357872.26409  21761574.040    89110019.30048
  23088147.040   121329127.20408  23088145.240    94542124.53847
  22295501.680   117163684.87809  22295501.020    91296388.30448
  23651663.400   124290260.78608  23651664.120    96849520.66247
 15 03 02 00 14 30.0000000  0  7G16G18G19G21G22G27G31
  21126376.460   111019863.49509  21126372.800    86508977.30248
  22156275.040   116432132.57809  22156272.180    90726382.64547
  24446932.160   128469494.67908  24446928.320   100106087.52146
  21771789.580   114411535.41409  21771785.760    89151834.75448
  23071125.680   121239680.19709  23071123.820    94472425.81947
  22284523.960   117105997.05609  22284523.360    91251436.77748
  23669930.420   124386253.50208  23669931.180    96924319.92347
 15 03 02 00 15  0.0000000  0  7G16G18G19G21G22G27G31
  21115739.220   110963964.74209  21115735.600    86465419.82648
  22148108.560   116389217.74109  22148105.700    90692942.54147
  24432192.960   128392039.86808  24432189.140   100045733.13946
  21782047.760   114465442.21709  21782043.920    89193840.04948
  23054129.440   121150365.51108  23054127.500    94402830.21047
  22273566.680   117048416.60509  22273566.120    91206568.90748
  23688208.540   124482304.26808  23688209.260    96999164.42047
 15 03 02 00 15 30.0000000  0  7G16G18G19G21G22G27G31
  21105171.020   110908428.62609  21105167.440    86422144.94048
  22140017.680   116346700.13909  22140014.740    90659811.97747
  24417467.640   128314658.03607  24417463.840    99985435.66546
  21792352.380   114519592.80109  21792348.460    89236035.32148
  23037159.300   121061187.76409  23037157.300    94333341.29247
  22262630.160   116990945.17009  22262629.620    91161785.98748
  23706497.340   124578411.27008  23706498.060    97074052.73347
 15 03 02 00 16  0.0000000  0  7G16G18G19G21G22G27G31
  21094671.840   110853255.06509  21094668.220    86379152.54948
  22132002.380   116304579.65609  22131999.400    90626990.85247
  24402755.780   128237347.15707  24402752.020    99925193.47946
  21802702.600   114573983.31909  21802698.640    89278417.54348
  23020215.320   120972147.43409  23020213.200    94263959.44847
  22251714.080   116933580.95809  22251713.580    91117086.62448
  23724796.020   124674570.15808  23724796.740    97148981.46547
 15 03 02 00 16 30.0000000  0  7G16G18G19G21G22G27G31
  21084242.360   110798447.60709  21084238.700    86336445.44348
  22124063.400   116262859.86109  22124060.320    90594481.96247
  24388057.620   128160108.35207  24388053.880    99865007.44846
  21813098.440   114628613.44909  21813094.400    89320986.48648
  23003298.260   120883248.69508  23003296.100    94194687.92747
  22240818.720   116876325.30509  22240818.160    91072471.84648
  23743104.200   124770779.23008  23743104.980    97223949.29247
 15 03 02 00 17  0.0000000  0  7G16G18G19G21G22G27G31
  21073882.860   110744007.94909  21073879.160    86294024.93248
  22116200.780   116221541.44309  22116197.660    90562285.81947
  24373373.000   128082941.03007  24373369.380    99804877.11746
  21823539.320   114683480.28909  21823535.140    89363739.87248
  22986408.500   120794493.49209  22986406.320    94125528.25247
  22229943.920   116819177.67709  22229943.340    91027941.23748
  23761421.260   124867034.96808  23761422.200    97298953.45847
 15 03 02 00 17 30.0000000  0  7G16G18G19G21G22G27G31
  21063594.460   110689941.85509  21063590.720    86251895.50948
  22108415.700   116180630.37209  22108412.540    90530407.09747
  24358702.660   128005849.05807  24358699.260    99744805.50846
  21834025.620   114738585.92009  21834021.440    89406679.32548
  22969547.340   120705888.54708  22969545.160    94056485.65647
  22219090.400   116762141.91909  22219089.800    90983497.79948
  23779747.300   124963337.88108  23779748.360    97373994.37047
 15 03 02 00 18  0.0000000  0  7G16G18G19G21G22G27G31
  21053376.140   110636244.25309  21053372.420    86210053.22348
  22100707.060   116140121.23209  22100703.900    90498841.56647
  24344045.340   127928825.09707  24344042.020    99684786.89646
  21844555.660   114793921.82509  21844551.500    89449798.22248
  22952713.900   120617429.36808  22952711.740    93987556.64347
  22208256.860   116705211.10609  22208256.220    90939136.14948
  23798080.480   125059678.14408  23798081.600    97449064.39547
 15 03 02 00 18 30.0000000  0  7G16G18G19G21G22G27G31
  21043228.800   110582919.57109  21043225.080    86168501.52148
  22093075.700   116100018.23809  22093072.560    90467592.51147
  24329401.600   127851871.67908  24329398.220    99624823.21045
  21855129.460   114849487.95809  21855125.400    89493096.49748
  22935909.140   120529120.80709  22935907.000    93918744.98447
  22197443.720   116648387.55309  22197443.040    90894858.07048
  23816420.620   125156055.17908  23816421.860    97524163.04247
 15 03 02 00 19  0.0000000  0  7G16G18G19G21G22G27G31
  21033152.820   110529969.82909  21033149.120    86127241.98248
  22085521.820   116060322.46509  22085518.660    90436660.76647
  24314771.340   127774988.43708  24314767.660    99564914.20545
  21865746.760   114905282.48009  21865742.720    89536572.74448
  22919133.480   120440965.14109  22919131.300    93850052.46347
  22186650.920   116591671.03809  22186650.220    90850663.38748
  23834767.160   125252465.82308  23834768.480    97599287.86946
 15 03 02 00 19 30.0000000  0  7G16G18G19G21G22G27G31
  21023148.680   110477398.05209  21023145.020    86086276.96948
  22078045.860   116021036.15309  22078042.720    90406048.08647
  24300154.580   127698176.12208  24300150.680    99505060.47345
  21876407.260   114961304.10109  21876403.240    89580225.95748
  22902387.760   120352966.40809  22902385.440    93781482.22347
  22175878.720   116535062.67909  22175877.960    90806552.99248
  23853119.760   125348908.16508  23853121.120    97674437.40446
 15 03 02 00 20  0.0000000  0  7G16G18G19G21G22G27G31
  21013217.500   110425209.64009  21013213.880    86045610.67848
  22070648.940   115982165.22109  22070645.820    90375759.08547
  24285551.960   127621438.22908  24285547.840    99445264.71545
  21887111.320   115017554.68309  21887107.420    89624057.58448
  22885673.040   120265130.79709  22885670.640    93713039.09147
  22165127.780   116478566.13409  22165127.000    90762529.72948
  23871478.540   125445382.92808  23871479.960    97749612.19846
 15 03 02 00 20 30.0000000  0  7G16G18G19G21G22G27G31
  21003359.060   110373403.53509  21003355.480    86005242.28748
  22063330.700   115943707.78109  22063327.560    90345792.27347
  24270962.900   127544771.50808  24270958.680    99385524.42945
  21897858.020   115074029.47809  21897854.160    89668063.91548
  22868989.200   120177457.52808  22868986.740    93644722.46447
  22154397.540   116422178.26409  22154396.740    90718591.14548
  23889842.280   125541883.59908  23889843.800    97824807.14347
 15 03 02 00 21  0.0000000  0  7G16G18G19G21G22G27G31
  20993573.680   110321981.12909  20993570.140    85965172.88448
  22056091.360   115905665.17609  22056088.240    90316148.70947
  24256387.260   127468175.56108  24256382.960    99325839.29645
  21908647.000   115130725.89009  21908643.200    89712242.93148
  22852336.760   120089949.29208  22852334.280    93576534.41747
  22143687.920   116365898.83609  22143687.080    90674737.05548
  23908210.400   125638407.14408  23908212.020    97900019.91446
 15 03 02 00 21 30.0000000  0  7G16G18G19G21G22G27G31
  20983862.440   110270948.35509  20983858.960    85925407.09248
  22048932.060   115868042.89809  22048928.880    90286832.67547
  24241825.640   127391653.71908  24241821.220    99266211.93745
  21919478.480   115187645.48809  21919474.600    89756595.85948
  22835716.860   120002611.90309  22835714.340    93508479.50147
  22132999.600   116309731.30609  22132998.760    90630970.18048
  23926582.980   125734953.97008  23926584.620    97975250.82246
 15 03 02 00 22  0.0000000  0  7G16G18G19G21G22G27G31
  20974225.460   110220305.86009  20974222.000    85885945.40148
  22041852.700   115830840.78109  22041849.500    90257844.02947
  24227277.780   127315204.61108  24227273.500    99206641.25346
  21930351.860   115244785.01009  21930347.940    89801120.15648
  22819129.780   119915446.78509  22819127.180    93440558.80447
  22122332.320   116253674.52909  22122331.500    90587289.57248
  23944959.200   125831520.04208  23944960.900    98050496.71646
 15 03 02 00 22 30.0000000  0  7G16G18G19G21G22G27G31
  20964662.640   110170052.97009  20964659.180    85846787.30948
  22034853.160   115794058.17809  22034849.960    90229182.29147
  24212743.240   127238825.49808  24212739.100    99147125.09346
  21941266.300   115302140.45909  21941262.320    89845812.71148
  22802575.480   119828453.85309  22802572.780    93372772.28847
  22111685.600   116197725.97209  22111684.820    90543693.31248
  23963337.920   125928099.56408  23963339.740    98125753.08046
 15 03 02 00 23  0.0000000  0  7G16G18G19G21G22G27G31
  20955174.740   110120193.85809  20955171.340    85807936.05748
  22027934.060   115757698.19409  22027930.880    90200849.86747
  24198222.400   127162518.37807  24198218.380    99087665.05247
  21952221.860   115359712.04209  21952217.800    89890673.69348
  22786054.860   119741637.97209  22786052.100    93305123.72947
  22101059.880   116141887.86509  22101059.140    90500183.11348
  23981719.080   126024691.80308  23981721.020    98201019.33646
 15 03 02 00 23 30.0000000  0  7G16G18G19G21G22G27G31
  20945762.660   110070732.93909  20945759.220    85769395.08148
  22021096.280   115721765.51709  22021093.140    90172850.40747
  24183715.760   127086286.09608  24183711.880    99028263.35746
  21963218.600   115417499.96209  21963214.500    89935703.24348
  22769568.940   119655004.53909  22769566.120    93237617.33547
  22090455.680   116086162.88809  22090455.060    90456761.07248
  24000102.640   126121296.50708  24000104.680    98276295.29946
 15 03 02 00 24  0.0000000  0  7G16G18G19G21G22G27G31
  20936425.980   110021668.13609  20936422.460    85731162.76348
  22014339.260   115686257.05909  22014336.120    90145181.50547
  24169222.500   127010124.14407  24169218.760    98968916.43946
  21974255.340   115475498.12309  21974251.180    89980896.60948
  22753117.380   119568551.63609  22753114.520    93170251.60047
  22079872.280   116030546.78809  22079871.700    90413423.86548
  24018487.280   126217906.58508  24018489.400    98351575.43246
 15 03 02 00 24 30.0000000  0  7G16G18G19G21G22G27G31
  20927165.580   109973004.11409  20927162.000    85693242.74448
  22007663.760   115651177.03809  22007660.600    90117846.44647
  24154743.080   126934034.95407  24154739.440    98909626.22046
  21985332.200   115533707.29409  21985327.980    90026254.40148
  22736701.240   119482284.91309  22736698.340    93103030.94747
  22069310.160   115975042.53309  22069309.560    90370173.81148
  24036872.920   126314521.67308  24036875.120    98426859.45646
 15 03 02 00 25  0.0000000  0  7G16G18G19G21G22G27G31
  20917981.920   109924743.43409  20917978.280    85655637.02148
  22001070.220   115616527.78009  22001067.040    90090847.05547
  24140277.660   126858019.17908  24140274.020    98850393.22546
  21996449.040   115592126.50109  21996444.740    90071775.86348
  22720321.160   119396207.57209  22720318.180    93035957.85747
  22058769.460   115919650.83809  22058768.840    90327011.47648
  24055259.120   126411139.59708  24055261.360    98502145.70346
 15 03 02 00 25 30.0000000  0  7G16G18G19G21G22G27G31
  20908874.880   109876885.18809  20908871.140    85618344.87748
  21994558.420   115582307.94609  21994555.180    90064182.26247
  24125825.740   126782073.90308  24125822.080    98791215.13946
  22007604.960   115650751.33509  22007600.640    90117457.55648
  22703977.060   119310319.50309  22703974.060    92969032.26247
  22048249.640   115864368.93709  22048249.020    90283934.68848
  24073644.700   126507754.54108  24073647.080    98577429.58246
 15 03 02 00 26  0.0000000  0  7G16G18G19G21G22G27G31
  20899845.160   109829433.24509  20899841.280    85581369.32948
  21988128.880   115548520.31409  21988125.580    90037854.26847
  24111387.600   126706200.88108  24111383.860    98732093.35746
  22018799.860   115709581.64709  22018795.720    90163299.35348
  22687669.800   119224624.98609  22687666.720    92902257.46447
  22037751.100   115809198.77909  22037750.460    90240944.96948
  24092029.540   126604365.49608  24092032.060    98652710.36046
 15 03 02 00 26 30.0000000  0  7G16G18G19G21G22G27G31
  20890893.200   109782390.02009  20890889.240    85544712.26948
  21981782.100   115515167.60509  21981778.760    90011865.16847
  24096963.320   126630400.78108  24096959.420    98673028.39546
  22030033.580   115768615.82209  22030029.560    90209300.00748
  22671399.960   119139127.11409  22671396.840    92835635.90247
  22027273.960   115754140.90809  22027273.260    90198042.74248
  24110413.120   126700969.79308  24110415.660    98727985.93846
 15 03 02 00 27  0.0000000  0  7G16G18G19G21G22G27G31
  20882019.040   109735755.98409  20882015.100    85508374.05748
  21975517.920   115482249.25909  21975514.580    89986214.53647
  24082552.620   126554671.72808  24082548.500    98614018.78046
  22041305.460   115827850.46909  22041301.580    90255456.87048
  22655167.840   119053827.14709  22655164.620    92769168.55547
  22016817.960   115699194.03609  22016817.240    90155227.01448
  24128794.620   126797563.28608  24128797.240    98803253.07746
 15 03 02 00 27 30.0000000  0  7G16G18G19G21G22G27G31
  20873223.180   109689533.40109  20873219.240    85472356.45848
  21969336.720   115449767.02609  21969333.340    89960903.73347
  24068155.500   126479014.10808  24068151.240    98555064.83745
  22052615.240   115887284.05509  22052611.440    90301768.75848
  22638973.920   118968728.05409  22638970.640    92702857.73347
  22006383.160   115644358.63209  22006382.380    90112498.14048
  24147173.560   126894143.35208  24147176.280    98878509.73546
 15 03 02 00 28  0.0000000  0  7G16G18G19G21G22G27G31
  20864506.420   109643726.78409  20864502.500    85436662.98848
  21963239.340   115417725.25109  21963235.960    89935936.13947
  24053772.420   126403430.46808  24053768.060    98496168.54146
  22063962.940   115946917.05209  22063959.180    90348236.01448
  22622819.180   118883834.87109  22622815.900    92636707.35247
  21995970.080   115589637.36709  21995969.240    90069858.19948
  24165549.880   126990709.78608  24165552.740    98953755.74846
 15 03 02 00 28 30.0000000  0  7G16G18G19G21G22G27G31
  20855868.940   109598336.98809  20855865.100    85401294.32248
  21957225.700   115386123.66409  21957222.360    89911311.54847
  24039403.120   126327919.42308  24039398.720    98437328.81846
  22075348.120   116006746.70609  22075344.400    90394856.51948
  22606703.900   118799149.17909  22606700.600    92570718.65947
  21985578.540   115535029.35309  21985577.660    90027306.51748
  24183922.800   127087258.33008  24183925.640    99028987.81145
 15 03 02 00 29  0.0000000  0  7G16G18G19G21G22G27G31
  20847310.960   109553364.86709  20847307.220    85366251.11548
  21951295.900   115354962.72309  21951292.620    89887030.32247
  24025047.440   126252480.21808  24025043.020    98378545.04045
  22086770.280   116066770.47509  22086766.520    90441628.28748
  22590628.460   118714672.86209  22590625.120    92504893.10747
  21975208.380   115480533.69009  21975207.460    89984842.37648
  24202291.700   127183785.46208  24202294.700    99104203.19146
 15 03 02 00 29 30.0000000  0  7G16G18G19G21G22G27G31
  20838832.900   109508812.63709  20838829.240    85331535.09348
  21945450.320   115324244.21609  21945447.080    89863093.85047
  24010705.360   126177112.72008  24010700.900    98319817.14246
  22098229.160   116126986.87009  22098225.320    90488550.15848
  22574593.400   118630408.58909  22574589.980    92439232.78047
  21964859.680   115426150.79409  21964858.700    89942466.10348
  24220656.100   127280288.68408  24220659.260    99179399.97846
 15 03 02 00 30  0.0000000  0  7G16G18G19G21G22G27G31
  20830435.640   109464684.81709  20830432.020    85297149.78148
  21939689.780   115293972.34509  21939686.540    89839505.41147
  23996377.460   126101819.65108  23996373.120    98261147.28246
  22109724.740   116187396.24309  22109720.900    90535622.39547
  22558599.720   118546361.70609  22558596.240    92373741.84447
  21954532.960   115371883.56609  21954532.020    89900179.97048
  24239015.880   127376767.72708  24239019.180    99254577.98546
 15 03 02 00 30 30.0000000  0  7G16G18G19G21G22G27G31
  20822118.580   109420978.46309  20822114.980    85263092.88848
  21934013.500   115264143.18409  21934010.280    89816261.93247
  23982062.800   126026596.27008  23982058.600    98202531.70146
  22121255.840   116247992.20209  22121251.900    90582840.02548
  22542646.960   118462529.93109  22542643.420    92308418.51547
  21944227.360   115317727.37809  21944226.440    89857980.35548
  24257369.600   127473214.88008  24257373.000    99329731.13846
 15 03 02 00 31  0.0000000  0  7G16G18G19G21G22G27G31
  20813883.320   109377701.96909  20813879.760    85229370.94548
  21928422.940   115234764.57509  21928419.720    89793369.52648
  23967762.640   125951448.86607  23967758.560    98143975.34046
  22132823.260   116308779.06009  22132819.300    90630206.40848
  22526736.820   118378922.24309  22526733.340    92243269.81747
  21933944.100   115263688.73909  21933943.220    89815872.32748
  24275717.840   127569633.45408  24275721.440    99404861.96946
 15 03 02 00 31 30.0000000  0  7G16G18G19G21G22G27G31
  20805729.400   109334852.74909  20805725.860    85195981.94448
  21922917.420   115205832.82709  21922914.180    89770825.32947
  23953476.000   125876372.74908  23953472.040    98085474.54346
  22144425.820   116369750.54809  22144421.840    90677716.65248
  22510869.020   118295537.09809  22510865.620    92178294.50247
  21923682.400   115209763.41509  21923681.520    89773852.60948
  24294059.200   127666016.06208  24294063.000    99479964.79146
 15 03 02 00 32  0.0000000  0  7G16G18G19G21G22G27G31
  20797657.960   109292436.90409  20797654.420    85162930.63848
  21917498.040   115177353.93809  21917494.760    89748634.00947
  23939203.700   125801372.06908  23939199.920    98027032.50946
  22156063.900   116430908.99309  22156059.900    90725372.58347
  22495044.800   118212380.84909  22495041.380    92113497.56947
  21913443.080   115155955.73809  21913442.220    89731924.56348
  24312394.100   127762364.44708  24312397.960    99555040.91246
 15 03 02 00 32 30.0000000  0  7G16G18G19G21G22G27G31
  20789668.780   109250453.32409  20789665.220    85130216.16148
  21912164.540   115149326.45809  21912161.240    89726794.43647
  23924945.340   125726444.08308  23924941.620    97968647.12046
  22167736.720   116492249.97109  22167732.720    90773170.74148
  22479264.120   118129453.52509  22479260.680    92048879.01647
  21903225.600   115102263.02809  21903224.840    89690086.11048
  24330721.380   127858672.76708  24330725.340    99630085.78945
 15 03 02 00 33  0.0000000  0  7G16G18G19G21G22G27G31
  20781761.840   109208901.95309  20781758.260    85097838.46948
  21906916.760   115121749.51109  21906913.480    89705305.92847
  23910700.480   125651586.91808  23910696.760    97910316.90447
  22179443.580   116553769.99809  22179439.580    90821108.41748
  22463527.140   118046755.81809  22463523.620    91984439.37547
  21893029.780   115048683.73509  21893029.040    89648336.02048
  24349040.120   127954936.41508  24349044.240    99705095.81345
 15 03 02 00 33 30.0000000  0  7G16G18G19G21G22G27G31
  20773938.180   109167787.96709  20773934.520    85065801.59248
  21901755.520   115094627.29909  21901752.260    89684171.76347
  23896469.780   125576804.05308  23896466.040    97852044.58746
  22191184.680   116615470.09509  22191180.660    90869186.41248
  22447835.020   117964293.79109  22447831.420    91920183.37747
  21882856.200   114995221.22209  21882855.480    89606676.93148
  24367350.460   128051155.84908  24367354.780    99780071.47946
 15 03 02 00 34  0.0000000  0  7G16G18G19G21G22G27G31
  20766198.500   109127115.14909  20766194.760    85034108.49548
  21896681.460   115067963.41909  21896678.220    89663394.73747
  23882253.560   125502097.01608  23882249.740    97793831.34846
  22202960.000   116677350.22709  22202956.000    90917404.69347
  22432188.640   117882072.01909  22432184.980    91856114.59347
  21872705.300   114941877.85609  21872704.560    89565110.68848
  24385652.220   128147330.07408  24385656.560    99855011.92245
 15 03 02 00 34 30.0000000  0  7G16G18G19G21G22G27G31
  20758542.000   109086879.52809  20758538.180    85002756.05348
  21891693.700   115041752.97409  21891690.480    89642971.02948
  23868050.640   125427459.93608  23868046.720    97735672.61747
  22214768.200   116739403.08909  22214764.280    90965757.56047
  22416587.260   117800086.75509  22416583.540    91792230.08847
  21862575.960   114888647.76009  21862575.180    89523632.70348
  24403943.740   128243450.47408  24403948.160    99929910.39145
 15 03 02 00 35  0.0000000  0  7G16G18G19G21G22G27G31
  20750969.700   109047086.62309  20750965.820    84971748.59148
  21886793.120   115016000.48009  21886789.940    89622904.17647
  23853861.660   125352896.38008  23853857.720    97677571.18846
  22226609.640   116801630.55409  22226605.740    91014246.49247
  22401032.120   117718344.50709  22401028.340    91728534.95947
  21852468.960   114835534.97909  21852468.120    89482246.12548
  24422225.240   128339518.07708  24422229.660   100004767.75345
 15 03 02 00 35 30.0000000  0  7G16G18G19G21G22G27G31
  20743482.120   109007739.03809  20743478.220    84941088.13348
  21881980.140   114990708.01009  21881976.960    89603195.78047
  23839686.880   125278407.42608  23839682.860    97619527.87246
  22238484.080   116864031.31809  22238480.220    91062870.45647
  22385523.920   117636848.85709  22385520.100    91665031.96647
  21842384.500   114782540.66109  21842383.620    89440951.86248
  24440496.260   128435530.70408  24440500.720   100079582.25345
 15 03 02 00 36  0.0000000  0  7G16G18G19G21G22G27G31
  20736079.200   108968836.60709  20736075.320    84910774.54648
  21877254.720   114965875.63209  21877251.480    89583845.89347
  23825525.900   125203991.03208  23825521.740    97561541.09446
  22250390.940   116926602.39509  22250387.180    91111627.12647
  22370062.880   117555600.68009  22370058.980    91601721.80547
  21832322.240   114729663.13009  21832321.340    89399748.59348
  24458756.040   128531484.10708  24458760.540   100154350.48645
 15 03 02 00 36 30.0000000  0  7G16G18G19G21G22G27G31
  20728761.220   108930380.60209  20728757.360    84880808.82848
  21872616.780   114941503.13509  21872613.540    89564854.36247
  23811378.660   125129646.68208  23811374.420    97503610.46246
  22262329.700   116989340.82609  22262325.900    91160514.21247
  22354649.180   117474601.45009  22354645.260    91538605.63847
  21822282.120   114676901.85409  21822281.160    89358635.92148
  24477003.800   128627374.42108  24477008.540   100229069.50645
 15 03 02 00 37  0.0000000  0  7G16G18G19G21G22G27G31
  20721529.360   108892377.12609  20721525.520    84851195.72848
  21868067.340   114917595.94209  21868064.140    89546225.39547
  23797245.860   125055378.40608  23797241.600    97445739.11746
  22274300.860   117052249.26009  22274296.960    91209533.77147
  22339284.200   117393858.30609  22339280.260    91475689.01547
  21812265.020   114624261.66209  21812264.040    89317617.59148
  24495239.920   128723203.14308  24495244.820   100303740.48245
 15 03 02 00 37 30.0000000  0  7G16G18G19G21G22G27G31
  20714383.380   108854824.94709  20714379.600    84821934.28448
  21863606.060   114894152.07309  21863602.900    89527957.46147
  23783126.940   124981183.34008  23783122.700    97387924.81146
  22286303.460   117115322.87109  22286299.460    91258682.02248
  22323967.840   117313370.78709  22323963.840    91412971.57347
  21802270.420   114571739.64009  21802269.420    89276691.34848
  24513463.140   128818964.04408  24513468.300   100378358.20946
 15 03 02 00 38  0.0000000  0  7G16G18G19G21G22G27G31
  20707323.840   108817726.96109  20707320.080    84793026.76049
  21859233.400   114871173.84709  21859230.300    89510052.37448
  23769022.200   124907062.83108  23769017.920    97330168.61046
  22298337.440   117178561.19009  22298333.340    91307958.64148
  22308700.940   117233143.06009  22308696.900    91350456.56847
  21792298.580   114519337.35909  21792297.580    89235858.41648
  24531673.540   128914657.00808  24531678.940   100452923.20945
 15 03 02 00 38 30.0000000  0  7G16G18G19G21G22G27G31
  20700350.680   108781082.91609  20700346.960    84764472.96048
  21854949.120   114848660.04809  21854946.100    89492509.17947
  23754931.280   124833015.00608  23754927.020    97272469.03646
  22310401.940   117241960.29709  22310397.820    91357360.53247
  22293483.460   117153175.16709  22293479.460    91288144.02147
  21782349.160   114467052.77809  21782348.160    89195117.18848
  24549870.120   129010277.10208  24549875.800   100527431.70045
 15 03 02 00 39  0.0000000  0  7G16G18G19G21G22G27G31
  20693464.440   108744895.74009  20693460.740    84736275.15948
  21850753.740   114826613.41609  21850750.760    89475330.00447
  23740854.360   124759040.63108  23740850.080    97214826.71546
  22322497.020   117305520.11709  22322492.880    91406887.65647
  22278316.220   117073471.10909  22278312.240    91226037.06547
  21772422.540   114414887.92209  21772421.540    89154469.25348
  24568052.440   129105822.66208  24568058.400   100601882.28846
 15 03 02 00 39 30.0000000  0  7G16G18G19G21G22G27G31
  20686666.040   108709170.26509  20686662.400    84708437.12448
  21846648.020   114805037.73309  21846645.000    89458517.80248
  23726792.080   124685143.15608  23726787.880    97157244.29946
  22334622.780   117369241.40809  22334618.620    91456540.60847
  22263200.260   116994036.41509  22263196.260    91164139.99847
  21762519.260   114362845.90509  21762518.280    89113917.04848
  24586220.500   129201293.55807  24586226.560   100676274.70544
 15 03 02 00 40  0.0000000  0  7G16G18G19G21G22G27G31
  20679954.820   108673902.73109  20679951.220    84680955.92748
  21842631.060   114783928.40009  21842627.960    89442068.98347
  23712743.460   124611316.84908  23712739.220    97099717.32346
  22346777.920   117433117.13909  22346773.760    91506313.90348
  22248135.000   116914868.18209  22248130.940    91102450.55548
  21752638.320   114310921.36009  21752637.380    89073456.36848
  24604372.780   129296681.96907  24604378.960   100750602.79843
 15 03 02 00 40 30.0000000  0  7G16G18G19G21G22G27G31
  20673332.360   108639101.62109  20673328.800    84653838.17748
  21838704.360   114763293.24209  21838701.180    89425989.64948
  23698709.660   124537568.62708  23698705.380    97042251.19946
  22358963.400   117497152.43109  22358959.280    91556211.53047
  22233122.220   116835975.72409  22233118.080    91040976.00547
  21742781.140   114259121.64509  21742780.220    89033092.96648
  24622510.140   129391992.08508  24622516.360   100824870.09744
 15 03 02 00 41  0.0000000  0  7G16G18G19G21G22G27G31
  20666798.000   108604763.33309  20666794.440    84627081.06848
  21834867.080   114743128.04709  21834863.820    89410276.52947
  23684689.720   124463893.19608  23684685.440    96984841.80646
  22371177.820   117561340.10409  22371173.800    91606227.88647
  22218161.460   116757356.54109  22218157.240    90979714.40048
  21732946.720   114207441.65809  21732945.840    88992822.85848
  24640630.920   129487215.20308  24640637.120   100899069.39245
 15 03 02 00 41 30.0000000  0  7G16G18G19G21G22G27G31
  20660352.560   108570892.44609  20660349.040    84600688.16448
  21831119.940   114723436.44909  21831116.620    89394932.44347
  23670684.180   124390293.32108  23670679.780    96927491.29146
  22383421.520   117625681.40809  22383417.600    91656363.96247
  22203253.660   116679015.67109  22203249.340    90918669.66048
  21723135.700   114155884.58409  21723134.820    88952648.51948
  24658735.240   129582351.88208  24658741.480   100973201.30643
 15 03 02 00 42  0.0000000  0  7G16G18G19G21G22G27G31
  20653994.380   108537479.89809  20653990.860    84574652.40948
  21827461.080   114704208.58509  21827457.660    89379949.69747
  23656691.040   124316758.52408  23656686.540    96870191.48147
  22395692.040   117690163.74109  22395688.180    91706609.92047
  22188397.320   116600945.30609  22188392.920    90857835.68548
  21713346.120   114104440.18009  21713345.280    88912561.98148
  24676819.780                                                  
 15 03 02 00 42 30.0000000  0  6G16G18G19G21G22G27
  20647727.620   108504547.68109  20647724.100    84548990.94148
  21823894.340   114685465.15009  21823890.900    89365344.44247
  23642714.080   124243308.78908  23642709.540    96812957.95747
  22407992.980   117754805.43609  22407989.060    91756980.08447
  22173596.660   116523167.68309  22173592.240    90797229.83448
  21703581.880   114053128.84709  21703581.040    88872579.14548
 15 03 02 00 43  0.0000000  0  6G16G18G19G21G22G27
  20641550.480   108472086.43109  20641546.960    84523696.45449
  21820418.020   114667196.99709  21820414.580    89351109.53047
  23628751.280   124169933.58508  23628746.700    96755782.50747
  22420321.900   117819594.52109  22420318.000    91807465.06947
  22158850.160   116445674.87809  22158845.760    90736845.91348
  21693841.000   114001940.23009  21693840.200    88832691.91948
 15 03 02 00 43 30.0000000  0  6G16G18G19G21G22G27
  20635463.760   108440100.15209  20635460.180    84498772.07949
  21817032.720   114649406.98609  21817029.240    89337247.20447
  23614803.060   124096635.10708  23614798.440    96698666.84147
  22432679.020   117884531.27309  22432674.960    91858065.14047
  22144158.880   116368472.16709  22144154.480    90676688.04348
  21684123.980   113950876.98209  21684123.200    88792902.38748
 15 03 02 00 44  0.0000000  0  6G16G18G19G21G22G27
  20629467.400   108408588.52109  20629463.720    84474217.55548
  21813738.100   114632093.71509  21813734.660    89323756.36648
  23600869.020   124023411.39808  23600864.380    96641609.43846
  22445063.520   117949612.19909  22445059.440    91908777.54447
  22129522.780   116291559.52309  22129518.440    90616756.19648
  21674430.480   113899937.41709  21674429.680    88753209.23148
 15 03 02 00 44 30.0000000  0  6G16G18G19G21G22G27
  20623561.760   108377553.85509  20623558.040    84450034.69749
  21810534.540   114615258.88509  21810531.060    89310638.33648
  23586949.300   123950263.09908  23586944.620    96584610.77747
  22457475.260   118014835.92809  22457471.140    91959601.22747
  22114942.440   116214939.98609  22114938.180    90557052.73948
  21664760.700   113849122.48509  21664759.880    88713613.18748
 15 03 02 00 45  0.0000000  0  6G16G18G19G21G22G27
  20617747.260   108346998.32309  20617743.540    84426225.18349
  21807422.220   114598903.69909  21807418.760    89297894.04548
  23573043.980   123877190.89608  23573039.380    96527671.43546
  22469913.960   118080201.40209  22469909.780    92010535.35647
  22100418.520   116138616.60209  22100414.280    90497580.05648
  21655114.840   113798433.12209  21655113.980    88674114.99248
 15 03 02 00 45 30.0000000  0  6G16G18G19G21G22G27
  20612024.360   108316924.13609  20612020.640    84402790.74749
  21804401.500   114583029.87609  21804398.060    89285524.84548
  23559153.340   123804195.83308  23559148.800    96470792.18446
  22482379.480   118145707.88109  22482375.280    92061579.35347
  22085951.700   116062593.23909  22085947.460    90438341.15248
  21645493.180   113747870.69009  21645492.260    88634715.70248
 15 03 02 00 46  0.0000000  0  6G16G18G19G21G22G27
  20606392.980   108287331.02609  20606389.260    84379731.17349
  21801472.200   114567636.29309  21801468.760    89273529.85948
  23545277.020   123731275.89708  23545272.520    96413971.46946
  22494871.220   118211351.86609  22494866.900    92112730.50847
  22071542.020   115986870.14909  22071537.760    90379336.21648
  21635895.400   113697433.66809  21635894.460    88595414.13248
 15 03 02 00 46 30.0000000  0  6G16G18G19G21G22G27
  20600853.240   108258219.63309  20600849.560    84357046.96649
  21798634.220   114552722.59709  21798630.760    89261908.81148
  23531414.920   123658430.47708  23531410.380    96357208.82846
  22507388.500   118277130.78409  22507384.220    92163986.79847
  22057189.740   115911448.76809  22057185.420    90320566.38548
  21626321.360   113647121.49109  21626320.380    88556209.84848
 15 03 02 00 47  0.0000000  0  6G16G18G19G21G22G27
  20595405.660   108229592.65309  20595402.020    84334740.21949
  21795887.860   114538290.38309  21795884.380    89250662.93948
  23517567.180   123585660.03108  23517562.620    96300504.59746
  22519931.260   118343043.52509  22519927.040    92215347.36547
  22042895.560   115836332.66609  22042891.220    90262034.42348
  21616771.280   113596935.32209  21616770.220    88517103.74448
 15 03 02 00 47 30.0000000  0  6G16G18G19G21G22G27
  20590051.500   108201456.36109  20590047.860    84312815.82949
  21793234.260   114524345.47909  21793230.700    89239796.79448
  23503734.740   123512969.92408  23503730.060    96243862.96946
  22532500.100   118409093.64009  22532495.980    92266814.97747
  22028660.940   115761529.45909  22028656.580    90203746.28348
  21607246.200   113546880.57309  21607245.080    88478100.05248
 15 03 02 00 48  0.0000000  0  6G16G18G19G21G22G27
  20584789.900   108173806.43409  20584786.240    84291270.42449
  21790672.380   114510882.68809  21790668.780    89229306.31948
  23489916.560   123440354.62208  23489911.880    96187279.64246
  22545093.660   118475273.47809  22545089.660    92318383.67247
  22014485.180   115687035.45009  22014480.780    90145699.06548
  21597745.120   113496951.98909  21597743.960    88439194.67248
 15 03 02 00 48 30.0000000  0  6G16G18G19G21G22G27
  20579621.440   108146646.05709  20579617.800    84270106.48549
  21788202.660   114497904.24209  21788199.040    89219193.25348
  23476112.880   123367815.41308  23476108.080    96130755.59746
  22557711.960   118541583.13209  22557708.000    92370053.51947
  22000369.040   115612854.86309  22000364.620    90087896.08148
  21588268.420   113447151.50009  21588267.200    88400389.10248
 15 03 02 00 49  0.0000000  0  6G16G18G19G21G22G27
  20574546.540   108119977.59009  20574542.960    84249325.85948
  21785825.400   114485411.92709  21785821.820    89209458.99648
  23462323.960   123295353.70508  23462319.060    96074291.95347
  22570354.800   118608022.03009  22570350.920    92421824.08347
  21986313.240   115538991.25109  21986308.800    90030340.08448
  21578816.340   113397480.45009  21578815.080    88361684.39848
 15 03 02 00 49 30.0000000  0  6G16G18G19G21G22G27
  20569565.660   108093803.09409  20569562.120    84228930.14648
  21783540.740   114473406.35709  21783537.200    89200104.02547
  23448549.820   123222969.96608  23448544.940    96017889.07146
  22583022.020   118674588.62909  22583018.100    92473694.15847
  21972318.200   115465447.17109  21972313.720    89973033.08048
  21569389.060   113347939.84109  21569387.840    88323081.34348
 15 03 02 00 50  0.0000000  0  6G16G18G19G21G22G27
  20564678.960   108068123.57509  20564675.480    84208920.12748
  21781348.840   114461888.25209  21781345.380    89191128.88747
  23434790.420   123150664.05708  23434785.620    95961546.82647
  22595713.160   118741281.09609  22595709.220    92525662.29647
  21958384.360   115392224.81809  21958379.860    89915976.75948
  21559986.580   113298529.75109  21559985.420    88284579.97248
 15 03 02 00 50 30.0000000  0  6G16G18G19G21G22G27
  20559886.860   108042941.11909  20559883.400    84189297.43249
  21779249.860   114450858.30909  21779246.400    89182534.13847
  23421045.800   123078436.00708  23421041.100    95905265.26147
  22608428.160   118808098.58009  22608424.180    92577727.86847
  21944512.280   115319327.17909  21944507.860    89859173.46548
  21550609.100   113249251.04809  21550607.980    88246180.98648
 15 03 02 00 51  0.0000000  0  6G16G18G19G21G22G27
  20555189.600   108018256.90409  20555186.160    84170062.97549
  21777243.860   114440317.06009  21777240.500    89174320.19248
  23407316.060   123006286.19908  23407311.480    95849044.66447
  22621166.620   118875039.35509  22621162.580    92629889.50947
  21930702.480   115246756.36909  21930698.060    89802624.84748
  21541256.700   113200104.20309  21541255.640    88207884.75248
 15 03 02 00 51 30.0000000  0  6G16G18G19G21G22G27
  20550587.560   107994072.99909  20550584.120    84151218.37448
  21775331.060   114430265.59009  21775327.800    89166487.89048
  23393601.200   122934214.69308  23393596.660    95792885.07647
  22633928.260   118942101.94809  22633924.160    92682146.07047
  21916955.500   115174515.73509  21916951.120    89746333.50448
  21531929.560   113151090.19309  21531928.600    88169692.02348
 15 03 02 00 52  0.0000000  0  6G16G18G19G21G22G27
  20546080.580   107970388.74909  20546077.160    84132763.10149
  21773511.320   114420702.90809  21773508.140    89159036.45748
  23379901.120   122862220.64408  23379896.640    95736785.82547
  22646712.520   119009283.44609  22646708.400    92734495.28347
  21903271.500   115102605.89509  21903267.040    89690299.91648
  21522627.420   113102207.57209  21522626.560    88131601.66948
 15 03 02 00 52 30.0000000  0  6G16G18G19G21G22G27
  20541669.180   107947206.56709  20541665.740    84114699.06048
  21771784.820   114411630.16009  21771781.620    89151966.79848
  23366215.900   122790304.67408  23366211.480    95680747.43447
  22659519.060   119076582.48109  22659515.020    92786936.08647
  21889651.060   115031030.07409  21889646.540    89634526.60748
  21513350.600   113053457.71709  21513349.780    88093614.77948
 15 03 02 00 53  0.0000000  0  6G16G18G19G21G22G27
  20537354.080   107924530.41909  20537350.600    84097029.33049
  21770152.120   114403050.32709  21770148.920    89145281.22848
  23352546.000   122718469.55608  23352541.740    95624772.05647
  22672348.220   119144000.29709  22672344.200    92839469.44547
  21876095.100   114959793.06009  21876090.520    89579017.30948
  21504099.640   113004843.71709  21504098.840    88055733.75148
 15 03 02 00 53 30.0000000  0  6G16G18G19G21G22G27
  20533134.640   107902357.01009  20533131.140    84079751.34249
  21768612.420   114394959.11209  21768609.200    89138976.39648
  23338890.700   122646710.89808  23338886.460    95568856.24247
  22685198.800   119211530.75609  22685194.780    92892090.57247
  21862603.180   114888892.66809  21862598.560    89523770.30048
  21494873.780   112956361.41709  21494872.960    88017955.33948
 15 03 02 00 54  0.0000000  0  6G16G18G19G21G22G27
  20529012.000   107880692.15709  20529008.460    84062869.64349
  21767166.700   114387361.71809  21767163.480    89133056.37148
  23325250.840   122575032.97108  23325246.600    95513003.34647
  22698071.360   119279176.79709  22698067.400    92944801.77047
  21849176.520   114818335.25409  21849171.880    89468790.56048
  21485673.920   112908015.66409  21485673.100    87980283.34048
 15 03 02 00 54 30.0000000  0  6G16G18G19G21G22G27
  20524985.640   107859533.50209  20524982.100    84046382.37649
  21765814.360   114380254.93109  21765811.100    89127518.62748
  23311625.740   122503432.50408  23311621.380    95457210.79646
  22710964.960   119346933.06709  22710961.100    92997598.85647
  21835814.960   114748120.07609  21835810.340    89414077.48048
  21476499.480   112859803.48809  21476498.660    87942715.40848
 15 03 02 00 55  0.0000000  0  6G16G18G19G21G22G27
  20521056.200   107838884.19809  20521052.660    84030292.01049
  21764555.700   114373640.43409  21764552.380    89122364.49248
  23298015.800   122431911.35508  23298011.340    95401480.04447
  22723879.520   119414799.63708  22723875.760    93050481.88347
  21822519.280   114678251.20009  21822514.660    89359634.25348
  21467350.900   112811727.14709  21467350.000    87905253.33349
 15 03 02 00 55 30.0000000  0  6G16G18G19G21G22G27
  20517224.340   107818747.58009  20517220.780    84014601.14149
  21763391.260   114367520.85609  21763387.820    89117595.99848
  23284421.280   122360471.59408  23284416.740    95345812.71647
  22736815.260   119482777.47808  22736811.520    93103451.62547
  21809290.380   114608733.02709  21809285.720    89305464.30548
  21458228.660   112763789.30209  21458227.700    87867899.18049
 15 03 02 00 56  0.0000000  0  6G16G18G19G21G22G27
  20513490.140   107799124.12909  20513486.560    83999310.13749
  21762320.940   114361896.20509  21762317.480    89113213.16748
  23270842.160   122289112.87108  23270837.620    95290208.54147
  22749771.600   119550863.50709  22749767.760    93156505.67047
  21796128.480   114539567.06209  21796123.840    89251568.80848
  21449132.720   112715989.56809  21449131.720    87830652.64649
 15 03 02 00 56 30.0000000  0  6G16G18G19G21G22G27
  20509853.320   107780012.20409  20509849.680    83984417.71949
  21761344.280   114356763.63509  21761340.740    89109213.77348
  23257277.960   122217832.48708  23257273.400    95234665.40147
  22762747.940   119619054.46609  22762743.980    93209641.47847
  21783033.520   114470752.85609  21783028.840    89197947.39348
  21440062.660   112668325.78109  21440061.640    87793512.03148
 15 03 02 00 57  0.0000000  0  6G16G18G19G21G22G27
  20506314.720   107761416.53009  20506311.040    83969927.58249
  21760461.900   114352126.73409  21760458.360    89105600.61748
