     2.11           OBSERVATION DATA    G                   RINEX VERSION / TYPE
SPIDER V4,0,0,3554                      2015 03 16 02:10    PGM / RUN BY / DATE 
ADJF                                                        MARKER NAME         
ADJF                                                        MARKER NUMBER       
                                                            OBSERVER / AGENCY   
496631              LEICA GRX1200+GNSS  8.20/4.007          REC # / TYPE / VERS 
103293              LEIAT504                                ANT # / TYPE        
  5273000.2084   285396.0090  3566759.2257                  APPROX POSITION XYZ 
        0.0480        0.0000        0.0000                  ANTENNA: DELTA H/E/N
     1     1                                                WAVELENGTH FACT L1/2
     4    C1    L1    P2    L2                              # / TYPES OF OBSERV 
    30.000                                                  INTERVAL            
  2015    03    02    00    00    0.0000000     GPS         TIME OF FIRST OBS   
  2015    03    02    23    59   30.0000000     GPS         TIME OF LAST OBS    
    16                                                      LEAP SECONDS        
    30                                                      # OF SATELLITES     
   G 1   834   834   834   834                              PRN / # OF OBS      
   G 2   932   932   932   932                              PRN / # OF OBS      
   G 3   854   852   853   852                              PRN / # OF OBS      
   G 4   853   853   853   853                              PRN / # OF OBS      
   G 5   667   667   667   667                              PRN / # OF OBS      
   G 6   761   761   761   761                              PRN / # OF OBS      
   G 7   658   658   657   657                              PRN / # OF OBS      
   G 9   798   798   798   798                              PRN / # OF OBS      
   G10   781   781   781   781                              PRN / # OF OBS      
   G11   797   797   797   797                              PRN / # OF OBS      
   G12   827   827   827   827                              PRN / # OF OBS      
   G13   822   822   822   822                              PRN / # OF OBS      
   G14   933   924   922   922                              PRN / # OF OBS      
   G15   727   727   727   727                              PRN / # OF OBS      
   G16   687   687   687   687                              PRN / # OF OBS      
   G17   935   935   935   935                              PRN / # OF OBS      
   G18   864   861   857   857                              PRN / # OF OBS      
   G19   778   778   778   778                              PRN / # OF OBS      
   G20   796   796   795   795                              PRN / # OF OBS      
   G21   696   665   651   646                              PRN / # OF OBS      
   G22   718   717   717   717                              PRN / # OF OBS      
   G23   740   740   740   740                              PRN / # OF OBS      
   G24   845   845   844   844                              PRN / # OF OBS      
   G25   861   861   858   858                              PRN / # OF OBS      
   G27   831   831   831   831                              PRN / # OF OBS      
   G28   897   897   897   897                              PRN / # OF OBS      
   G29   766   766   765   765                              PRN / # OF OBS      
   G30   704   704   704   704                              PRN / # OF OBS      
   G31   811   807   807   805                              PRN / # OF OBS      
   G32   753   753   753   753                              PRN / # OF OBS      
BIT 2 OF LLI FLAGS DATA COLLECTED UNDER A/S CONDITION       COMMENT             
SNR is mapped to RINEX snr flag value [2-9]                 COMMENT             
Lx:     = 25dBHz -> 1; 26-27dBHz -> 2; 28-31dBHz -> 3       COMMENT             
       32-35dBHz -> 4; 36-38dBHz -> 5; 39-41dBHz -> 6       COMMENT             
       42-44dBHz -> 7; 45-48dBHz -> 8; >=49dBHz -> 9        COMMENT             
                                                            END OF HEADER       
 15 03 02 00 00  0.0000000  0  7G16G18G21G22G27G29G31
  21489346.540   112927281.73809  21489343.740    87995273.80048
  22408950.260   117759911.87408  22408949.120    91760990.15047
  21532465.420   113153880.28109  21532462.440    88171849.21248
  23511392.400   123553219.26007  23511394.560    96275262.99546
  22608250.720   118807200.43708  22608251.060    92577048.48247
  24385882.840   128148665.70707  24385882.060    99856092.12945
  23072331.020   121245864.47508  23072331.200    94477273.56747
 15 03 02 00 00 30.0000000  0  7G16G18G21G22G27G29G31
  21476794.680   112861321.35509  21476791.840    87943876.10148
  22399048.540   117707878.25008  22399047.380    91720444.54047
  21541512.900   113201425.10109  21541509.900    88208897.12848
  23494044.720   123462058.64107  23494046.680    96204229.30946
  22596967.740   118747908.35508  22596968.060    92530846.88447
  24399794.240   128221770.38406  24399793.420    99913056.79445
  23089926.720   121338329.99808  23089926.940    94549324.46047
 15 03 02 00 01  0.0000000  0  7G16G18G21G22G27G29G31
  21464298.320   112795652.62109  21464295.440    87892705.66148
  22389211.940   117656186.75508  22389210.780    91680165.52047
  21550616.080   113249262.64009  21550613.080    88246173.13448
  23476709.220   123370962.42208  23476711.120    96133245.77146
  22585705.240   118688723.50208  22585705.560    92484728.84047
  24413707.720   128294886.18306  24413706.960    99970030.11545
  23107551.180   121430946.76108  23107551.560    94621493.21347
 15 03 02 00 01 30.0000000  0  7G16G18G21G22G27G29G31
  21451856.600   112730270.99409  21451853.740    87841758.94348
  22379439.680   117604833.33208  22379438.480    91640149.92547
  21559773.320   113297384.20909  21559770.320    88283670.46248
  23459385.360   123279926.72108  23459386.960    96062309.20346
  22574461.900   118629639.27308  22574462.080    92438689.20147
  24427621.960   128368006.44406  24427621.280   100027006.91145
  23125202.540   121523704.96308  23125203.140    94693772.14947
 15 03 02 00 02  0.0000000  0  7G16G18G21G22G27G29G31
  21439470.100   112665179.77009  21439467.300    87791038.52148
  22369732.420   117553821.36708  22369731.240    91600400.41447
  21568984.540   113345789.53609  21568981.580    88321388.90348
  23442073.780   123188955.40708  23442075.220    95991422.80446
  22563237.980   118570656.82808  22563237.980    92392728.87347
  24441537.540   128441132.68206  24441536.600   100083988.37145
  23142880.600   121616603.17308  23142881.160    94766160.20547
 15 03 02 00 02 30.0000000  0  7G16G18G21G22G27G29G31
  21427140.040   112600385.08109  21427137.240    87740549.15248
  22360091.320   117503156.75608  22360090.000    91560921.55647
  21578250.100   113394480.37409  21578247.200    88359329.81848
  23424775.660   123098054.92807  23424777.160    95920591.59246
  22552034.020   118511779.68208  22552033.920    92346850.59747
  24455454.840   128514268.47706  24455454.060   100140977.25546
  23160585.440   121709641.89908  23160585.920    94838657.74847
 15 03 02 00 03  0.0000000  0  7G16G18G21G22G27G29G31
  21414866.160   112535885.37209  21414863.320    87690289.64748
  22350516.000   117452838.05708  22350514.620    91521712.24847
  21587568.860   113443450.81009  21587565.980    88397488.60948
  23407491.100   123007224.98208  23407492.540    95849815.66646
  22540849.360   118453004.20908  22540849.180    92301051.55748
  24469373.420   128587410.30506  24469372.300   100197970.88745
  23178315.740   121802814.43508  23178316.200    94911259.56647
 15 03 02 00 03 30.0000000  0  7G16G18G21G22G27G29G31
  21402649.180   112471684.80009  21402646.360    87640263.22848
  22341007.180   117402869.11008  22341005.840    91482775.46947
  21596941.000   113492701.69309  21596938.140    88435865.92348
  23390220.620   122916469.36607  23390221.700    95779097.48146
  22529684.440   118394332.30308  22529684.340    92255333.21148
  24483293.440   128660560.30406  24483292.080   100254970.89446
  23196071.300   121896119.72308  23196071.860    94983964.81147
 15 03 02 00 04  0.0000000  0  7G16G18G21G22G27G29G31
  21390490.200   112407788.93709  21390487.420    87590474.24648
  22331565.900   117353255.16408  22331564.580    91444115.31147
  21606366.740   113542234.44409  21606363.920    88474462.87448
  23372965.320   122825793.76008  23372966.120    95708441.39546
  22518539.820   118335767.05908  22518539.920    92209697.98248
  24497215.480   128733721.58006  24497214.320   100311979.59945
  23213852.220   121989558.29008  23213852.740    95056773.90847
 15 03 02 00 04 30.0000000  0  7G16G18G21G22G27G29G31
  21378388.100   112344191.84409  21378385.280    87540918.06348
  22322191.020   117303990.26008  22322189.640    91405727.14047
  21615844.100   113592038.47509  21615841.300    88513271.21248
  23355724.420   122735193.60908  23355725.180    95637844.29846
  22507413.980   118277300.40608  22507414.280    92164139.58648
  24511138.260   128806886.26206  24511137.120   100368991.02945
  23231656.240   122083118.40808  23231656.660    95129677.73047
 15 03 02 00 05  0.0000000  0  7G16G18G21G22G27G29G31
  21366344.360   112280901.46009  21366341.540    87491600.88948
  22312884.220   117255082.78308  22312882.660    91367617.46447
  21625373.920   113642117.92009  21625371.040    88552294.16248
  23338499.540   122644677.59607  23338500.160    95567313.01046
  22496308.020   118218938.20808  22496308.460    92118662.59448
  24525062.800   128880060.20306  24525061.900   100426009.67046
  23249484.080   122176803.72408  23249484.540    95202679.09847
 15 03 02 00 05 30.0000000  0  7G16G18G21G22G27G29G31
  21354359.400   112217919.98909  21354356.600    87442524.41848
  22303645.820   117206534.61008  22303644.180    91329787.77547
  21634955.900   113692471.36709  21634952.920    88591530.61548
  23321290.900   122554247.84808  23321291.380    95496848.74346
  22485221.940   118160680.39608  22485222.300    92073266.91148
  24538989.180   128953243.54006  24538988.460   100483035.60845
  23267335.160   122270611.13908  23267335.740    95275775.60647
 15 03 02 00 06  0.0000000  0  7G16G18G21G22G27G29G31
  21342433.620   112155249.43709  21342430.860    87393690.22648
  22294476.060   117158347.33808  22294474.420    91292239.31447
  21644589.540   113743096.39309  21644586.480    88630978.69948
  23304099.120   122463906.68908  23304099.720    95426453.50846
  22474155.680   118102526.73708  22474155.840    92027952.40447
  24552917.140   129026435.89706  24552916.460   100540068.54745
  23285208.840   122364537.24208  23285209.560    95348964.59347
 15 03 02 00 06 30.0000000  0  6G16G18G21G22G27G31
  21330568.300   112092896.71809  21330565.540    87345103.70348
  22285376.320   117110528.33108  22285374.760    91254977.80647
  21654275.440   113793996.15609  21654272.360    88670640.85648
  23286925.700   122373661.55208  23286926.360    95356132.82747
  22463110.080   118044481.94008  22463110.020    91982722.70047
  23303105.540   122458583.88408  23303106.260    95422247.51347
 15 03 02 00 07  0.0000000  0  6G16G18G21G22G27G31
  21318761.140   112030849.93809  21318758.420    87296755.56248
  22276344.240   117063064.72208  22276342.700    91217993.22947
  21664010.500   113845154.24209  21664007.400    88710504.30448
  23269768.480   122283501.27908  23269769.080    95285878.17146
  22452082.480   117986531.67908  22452082.320    91937566.66947
  23321021.860   122552733.95408  23321022.560    95495610.99447
 15 03 02 00 07 30.0000000  0  6G16G18G21G22G27G31
  21307014.840   111969122.99109  21307012.180    87248656.65248
  22267382.540   117015970.82809  22267380.920    91181296.74747
  21673796.540   113896580.22709  21673793.500    88750576.50648
  23252630.240   122193440.57808  23252630.620    95215701.33146
  22441075.040   117928687.71208  22441075.040    91892493.47048
  23338959.500   122646995.91108  23338960.000    95569061.69446
 15 03 02 00 08  0.0000000  0  6G16G18G21G22G27G31
  21295328.740   111907712.17109  21295326.080    87200804.06748
  22258490.460   116969242.67709  22258488.700    91144885.24647
  21683632.180   113948266.93709  21683629.180    88790851.86548
  23235510.400   122103476.41008  23235510.580    95145599.98846
  22430086.740   117870944.14708  22430086.940    91847498.51148
  23356916.720   122741361.12608  23356917.200    95642592.82646
 15 03 02 00 08 30.0000000  0  6G16G18G21G22G27G31
  21283703.260   111846620.01609  21283700.620    87153199.79348
  22249668.520   116922882.84609  22249666.680    91108760.76047
  21693517.280   114000213.48809  21693514.340    88831329.70148
  23218409.480   122013612.01108  23218409.740    95075576.68847
  22419117.680   117813301.37708  22419117.980    91802582.09448
  23374893.120   122835827.18908  23374893.700    95716202.53247
 15 03 02 00 09  0.0000000  0  6G16G18G21G22G27G31
  21272140.140   111785855.48709  21272137.480    87105850.82148
  22240918.240   116876899.82509  22240916.320    91072929.87347
  21703452.500   114052423.34609  21703449.600    88872012.70848
  23201328.960   121923855.86108  23201329.120    95005637.60546
  22408169.100   117755765.98508  22408169.420    91757749.33748
  23392889.400   122930397.58208  23392890.140    95789893.53546
 15 03 02 00 09 30.0000000  0  6G16G18G21G22G27G31
  21260639.760   111725420.34809  21260637.000    87058758.49948
  22232240.000   116831295.28209  22232237.940    91037393.91347
  21713437.580   114104895.23709  21713434.660    88912899.89748
  23184269.280   121834209.47808  23184269.240    94935783.43046
  22397240.840   117698337.67008  22397241.180    91713000.02348
  23410904.840   123025068.99908  23410905.740    95863663.23846
 15 03 02 00 10  0.0000000  0  6G16G18G21G22G27G31
  21249201.240   111665310.36209  21249198.400    87011919.55948
  22223632.940   116786064.95509  22223630.840    91002149.55347
  21723470.920   114157620.67409  21723467.960    88953984.65948
  23167230.080   121744670.10307  23167229.900    94866012.57046
  22386331.760   117641010.12308  22386332.060    91668329.23448
  23428937.860   123119832.15708  23428938.920    95937504.44746
 15 03 02 00 10 30.0000000  0  7G16G18G19G21G22G27G31
  21237825.380   111605529.74909  21237822.520    86965337.26348
  22215097.700   116741212.53609  22215095.620    90967199.65547
  24542224.920   128970263.82206  24542222.320   100496287.56945
  21733552.460   114210599.46109  21733549.500    88995266.83148
  23150212.360   121655243.05408  23150212.240    94796329.23846
  22375442.220   117583785.27808  22375442.460    91623738.46648
  23446988.140   123214686.37508  23446989.220    96011416.59447
 15 03 02 00 11  0.0000000  0  7G16G18G19G21G22G27G31
  21226509.700   111546065.42809  21226506.820    86919001.43748
  22206631.820   116696724.74409  22206629.840    90932533.89447
  24527626.260   128893548.04506  24527623.300   100436509.07245
  21743678.940   114263814.54409  21743675.980    89036733.13148
  23133213.660   121565915.34708  23133213.580    94726723.30447
  22364569.260   117526647.66108  22364569.400    91579215.67048
  23465052.300   123309612.96508  23465053.280    96085385.14847
 15 03 02 00 11 30.0000000  0  7G16G18G19G21G22G27G31
  21215260.500   111486950.77209  21215257.680    86872938.06448
  22198241.620   116652634.48909  22198239.720    90898177.88647
  24513044.340   128816920.29507  24513041.540   100376799.23345
  21753856.080   114317295.89409  21753853.100    89078406.90448
  23116240.500   121476721.11008  23116240.400    94657221.46947
  22353718.860   117469628.47608  22353718.980    91534785.13748
  23483135.580   123404640.00808  23483136.480    96159431.95946
 15 03 02 00 12  0.0000000  0  7G16G18G19G21G22G27G31
  21204074.900   111428170.13909  21204072.120    86827134.98448
  22189924.080   116608926.05509  22189922.220    90864119.41547
  24498475.900   128740362.77106  24498473.320   100317144.07045
  21764080.040   114371023.07709  21764077.020    89120272.25648
  23099289.960   121387645.78108  23099289.880    94587812.57846
  22342887.640   117412710.11808  22342887.840    91490433.21048
  23501234.040   123499747.14008  23501234.980    96233541.16547
 15 03 02 00 12 30.0000000  0  7G16G18G19G21G22G27G31
  21192954.160   111369730.30909  21192951.380    86781597.46048
  22181680.540   116565606.23009  22181678.660    90830363.74947
  24483921.720   128663880.01206  24483919.080   100257547.13245
  21774351.340   114424999.19109  21774348.280    89162331.56948
  23082363.220   121298696.03908  23082363.020    94518501.52346
  22332076.540   117355897.29908  22332076.680    91446163.49748
  23519348.220   123594936.14908  23519349.140    96307714.17746
 15 03 02 00 13  0.0000000  0  7G16G18G19G21G22G27G31
  21181898.500   111311632.54109  21181895.780    86736326.47748
  22173511.060   116522675.80409  22173509.180    90796911.50547
  24469381.540   128587470.74806  24469378.600   100198007.46845
  21784669.440   114479221.19909  21784666.360    89204582.49148
  23065460.620   121209872.82308  23065460.040    94449288.67046
  22321285.300   117299188.86608  22321285.400    91401975.12248
  23537477.140   123690202.92908  23537478.140    96381947.75746
 15 03 02 00 13 30.0000000  0  7G16G18G19G21G22G27G31
  21170907.840   111253876.28909  21170905.160    86691321.61048
  22165415.540   116480133.99309  22165413.740    90763762.08147
  24454854.880   128511132.23806  24454851.720   100138522.93945
  21795033.520   114533684.97809  21795030.480    89247021.79948
  23048582.300   121121177.16008  23048581.340    94380175.37847
  22310513.380   117242582.23808  22310513.460    91357866.07648
  23555619.780   123785541.89508  23555620.860    96456237.59646
 15 03 02 00 14  0.0000000  0  7G16G18G19G21G22G27G31
  21159983.060   111196466.13209  21159980.400    86646586.43048
  22157394.840   116437985.11109  22157393.100    90730918.84447
  24440342.040   128434867.17706  24440338.840   100079095.68145
  21805443.620   114588390.57709  21805440.600    89289649.54748
  23031729.080   121032614.02108  23031728.120    94311165.30547
  22299761.340   117186079.88908  22299761.420    91313838.30148
  23573776.060   123880952.54708  23573777.140    96530583.29946
 15 03 02 00 14 30.0000000  0  7G16G18G19G21G22G27G31
  21149124.460   111139403.84609  21149121.780    86602122.32348
  22149449.160   116396230.37809  22149447.340    90698382.72547
  24425843.060   128358674.56006  24425839.800   100019724.84745
  21815899.420   114643336.33209  21815896.440    89332464.41948
  23014901.600   120944185.57408  23014900.720    94242260.14946
  22289029.020   117129681.25608  22289029.140    91269891.33448
  23591945.300   123976431.22108  23591946.440    96604981.96546
 15 03 02 00 15  0.0000000  0  7G16G18G19G21G22G27G31
  21138332.860   111082693.72909  21138330.180    86557932.62548
  22141579.280   116354873.97409  22141577.340    90666156.99447
  24411358.120   128282556.41405  24411355.180    99960412.08445
  21826400.840   114698521.77409  21826397.900    89375466.06648
  22998100.720   120855896.82708  22998100.040    94173463.90447
  22278316.840   117073388.60208  22278317.040    91226026.95748
  23610127.380   124071977.40608  23610128.660    96679433.25147
 15 03 02 00 15 30.0000000  0  7G16G18G19G21G22G27G31
  21127607.880   111026333.64409  21127605.200    86514015.67648
  22133784.700   116313913.06709  22133782.640    90634239.43947
  24396886.680   128206508.63106  24396883.780    99901154.09145
  21836946.760   114753941.08209  21836943.860    89418649.94248
  22981326.180   120767746.49708  22981325.300    94104775.61447
  22267624.040   117017197.59008  22267624.280    91182241.76748
  23628320.820   124167583.41208  23628322.140    96753931.13646
 15 03 02 00 16  0.0000000  0  7G16G18G19G21G22G27G31
  21116950.400   110970328.12709  21116947.680    86470375.01648
  22126066.220   116273352.11009  22126064.080    90602633.53947
  24382429.080   128130533.69806  24382426.420    99841952.90246
  21847537.340   114809594.99509  21847534.480    89462016.63248
  22964578.800   120679739.14108  22964577.740    94036198.56446
  22256951.060   116961110.96708  22256951.300    91138537.92648
  23646525.720   124263249.42008  23646527.120    96828475.76846
 15 03 02 00 16 30.0000000  0  7G16G18G19G21G22G27G31
  21106361.320   110914682.11009  21106358.540    86427014.48748
  22118424.820   116233195.99209  22118422.560    90571343.10447
  24367985.800   128054634.09306  24367983.160    99782810.44145
  21858172.780   114865484.53809  21858169.960    89505566.93348
  22947859.760   120591880.25608  22947858.680    93967737.01746
  22246298.500   116905131.41008  22246298.680    91094917.51048
  23664741.960   124358975.11508  23664743.440    96903066.90646
 15 03 02 00 17  0.0000000  0  7G16G18G19G21G22G27G31
  21095840.280   110859393.75609  21095837.460    86383932.65448
  22110859.900   116193441.88309  22110857.620    90540365.90847
  24353556.060   127978805.65506  24353553.260    99723723.35946
  21868851.800   114921603.22509  21868849.020    89549295.78048
  22931168.820   120504168.94208  22931167.720    93899390.57847
  22235665.520   116849254.81008  22235665.640    91051377.31848
  23682968.220   124454753.39908  23682969.800    96977699.01146
 15 03 02 00 17 30.0000000  0  7G16G18G19G21G22G27G31
  21085387.840   110804465.93409  21085385.040    86341131.75448
  22103372.020   116154092.75809  22103369.780    90509704.29347
  24339140.020   127903049.29306  24339137.260    99664692.46445
  21879574.280   114977950.22709  21879571.540    89593202.53748
  22914506.640   120416608.47208  22914505.500    93831161.62047
  22225052.240   116793482.03808  22225052.460    91007918.04948
  23701204.000   124550581.91108  23701205.620    97052370.23546
 15 03 02 00 18  0.0000000  0  7G16G18G19G21G22G27G31
  21075004.220   110749899.60609  21075001.420    86298612.53548
  22095961.320   116115149.19609  22095959.160    90479358.69747
  24324737.520   127827363.63606  24324734.720    99605716.67345
  21890339.720   115034522.98509  21890337.000    89637285.20448
  22897873.460   120329200.44208  22897872.360    93763051.29546
  22214458.600   116737812.10508  22214458.800    90964538.89748
  23719448.660   124646456.77808  23719450.260    97127077.57346
 15 03 02 00 18 30.0000000  0  7G16G18G19G21G22G27G31
  21064691.180   110695704.23309  21064688.400    86256382.37948
  22088629.520   116076620.40609  22088627.440    90449336.30247
  24310349.700   127751756.07806  24310346.760    99546801.72145
  21901149.040   115091326.46409  21901146.340    89681547.66548
  22881271.300   120241955.15008  22881270.160    93695067.95046
  22203885.960   116682252.33708  22203886.040    90921245.57448
  23737703.040   124742382.39508  23737704.700    97201824.47046
 15 03 02 00 19  0.0000000  0  7G16G18G19G21G22G27G31
  21054446.920   110641870.36209  21054444.180    86214433.91249
  22081374.620   116038495.94809  22081372.640    90419628.97647
  24295974.600   127676214.79607  24295971.860    99487938.43345
  21911999.700   115148347.30909  21911997.020    89725979.49448
  22864698.280   120154863.53908  22864697.180    93627204.57347
  22193332.060   116626790.94708  22193332.080    90878028.93648
  23755964.220   124838344.18207  23755965.900    97276599.54346
 15 03 02 00 19 30.0000000  0  7G16G18G19G21G22G27G31
  21044272.960   110588405.89109  21044270.280    86172773.28849
  22074198.020   116000782.86009  22074196.100    90390242.18547
  24281613.300   127600745.27407  24281610.640    99429131.04546
  21922892.380   115205589.04409  21922889.700    89770583.44248
  22848156.120   120067934.18308  22848154.980    93559467.66146
  22182797.900   116571433.87808  22182797.960    90834893.57648
  23774232.840   124934344.99908  23774234.760    97351404.99346
 15 03 02 00 20  0.0000000  0  7G16G18G19G21G22G27G31
  21034170.340   110535316.11809  21034167.640    86131404.62549
  22067100.780   115963486.93609  22067098.920    90361180.45247
  24267266.400   127525351.02006  24267263.520    99370382.28346
  21933827.500   115263053.41308  21933824.740    89815360.87148
  22831645.980   119981173.15308  22831644.700    93491861.97847
  22172284.260   116516184.61308  22172284.380    90791842.21348
  23792508.940   125030385.47808  23792510.960    97426241.33146
 15 03 02 00 20 30.0000000  0  7G16G18G19G21G22G27G31
  21024139.120   110482601.65909  21024136.420    86090328.42749
  22060082.840   115926607.89009  22060081.040    90332443.56447
  24252933.420   127450030.22607  24252930.420    99311690.80946
  21944804.400   115320737.29108  21944801.580    89860309.35148
  22815167.980   119894581.10208  22815166.600    93424387.88547
  22161790.800   116461041.60508  22161790.960    90748873.65248
  23810791.720   125126460.71907  23810793.600    97501104.77646
 15 03 02 00 21  0.0000000  0  7G16G18G19G21G22G27G31
  21014179.300   110430262.36209  21014176.600    86049544.56049
  22053144.160   115890145.48809  22053142.420    90304031.33547
  24238614.020   127374780.98206  24238611.100    99253055.06545
  21955822.260   115378636.49709  21955819.420    89905425.61348
  22798722.280   119808159.19008  22798720.800    93357046.33647
  22151317.260   116406003.02808  22151317.420    90705986.46148
  23829080.300   125222566.13508  23829082.080    97575991.72446
 15 03 02 00 21 30.0000000  0  7G16G18G19G21G22G27G31
  21004291.660   110378302.49509  21004288.980    86009056.35349
  22046285.480   115854103.49109  22046283.660    90275946.70147
  24224308.480   127299604.87506  24224305.560    99194476.33646
  21966881.060   115436750.88109  21966878.200    89950709.54248
  22782309.660   119721911.39608  22782308.260    93289840.32547
  22140864.020   116351070.63708  22140864.120    90663182.01448
  23847374.400   125318700.40308  23847376.220    97650901.14246
 15 03 02 00 22  0.0000000  0  7G16G18G19G21G22G27G31
  20994476.680   110326724.33809  20994473.980    85968865.58349
  22039507.100   115818483.31509  22039505.260    90248190.74947
  24210016.720   127224502.06605  24210013.880    99135954.70945
  21977980.500   115495078.77609  21977977.660    89996159.84648
  22765930.840   119635841.14608  22765929.500    93222772.75147
  22130431.040   116296244.81808  22130431.160    90620460.61148
  23865673.480   125414861.10907  23865675.560    97725831.14746
 15 03 02 00 22 30.0000000  0  7G16G18G19G21G22G27G31
  20984734.280   110275527.76409  20984731.540    85928972.15049
  22032809.000   115783284.83309  22032807.140    90220763.39347
  24195738.540   127149470.38806  24195735.500    99077488.52244
  21989119.960   115553616.70309  21989117.080    90041773.81748
  22749585.900   119549948.77908  22749584.500    93155843.79147
  22120017.920   116241523.55308  22120018.020    90577820.67948
  23883976.560   125511042.99608  23883978.780    97800777.64046
 15 03 02 00 23  0.0000000  0  7G16G18G19G21G22G27G31
  20975064.880   110224714.79009  20975062.160    85889377.62249
  22026191.340   115748508.90809  22026189.440    90193665.30447
  24181473.860   127074509.49806  24181470.900    99019077.46845
  22000298.980   115612362.68109  22000296.080    90087549.90448
  22733275.340   119464237.15108  22733273.980    93089055.79647
  22109624.640   116186906.79708  22109624.800    90535262.18848
  23902283.140   125607243.08108  23902285.420    97875738.29746
 15 03 02 00 23 30.0000000  0  7G16G18G19G21G22G27G31
  20965469.540   110174290.97209  20965466.840    85850086.33549
  22019655.240   115714161.33609  22019653.280    90166900.99847
  24167223.400   126999623.35606  24167220.400    98960724.66145
  22011517.840   115671317.99109  22011514.920    90133489.11548
  22717000.320   119378712.17908  22716998.900    93022413.03948
  22099251.980   116132398.34308  22099252.180    90492788.08248
  23920593.380   125703462.22408  23920595.620    97950713.81246
 15 03 02 00 24  0.0000000  0  7G16G18G19G21G22G27G31
  20955947.760   110124253.60909  20955945.000    85811096.18149
  22013199.960   115680238.33309  22013197.880    90140467.52347
  24152986.200   126924806.78306  24152983.380    98902426.08146
  22022775.240   115730475.85409  22022772.280    90179586.15348
  22700760.440   119293371.57208  22700758.940    92955913.88747
  22088899.040   116077993.21008  22088899.220    90450394.48148
  23938905.780   125799692.69107  23938907.960    98025698.15146
 15 03 02 00 24 30.0000000  0  7G16G18G19G21G22G27G31
  20946501.140   110074611.16009  20946498.380    85772413.74949
  22006827.020   115646747.87309  22006824.820    90114371.09247
  24138763.480   126850065.90407  24138760.740    98844186.46746
  22034072.020   115789840.81308  22034069.080    90225844.55848
  22684557.480   119208225.03108  22684556.020    92889566.04047
  22078567.040   116023698.12108  22078567.220    90408086.62748
  23957220.900   125895937.88007  23957223.460    98100693.91546
 15 03 02 00 25  0.0000000  0  7G16G18G19G21G22G27G31
  20937129.060   110025360.68409  20937126.360    85734036.75849
  22000535.740   115613686.70609  22000533.460    90088609.17847
  24124554.240   126775395.79606  24124551.400    98786002.02546
  22045406.940   115849406.33808  22045404.040    90272259.25548
  22668391.080   119123270.20708  22668389.640    92823367.65447
  22068255.020   115969508.17908  22068255.220    90365860.71748
  23975537.400   125992190.01807  23975540.240    98175695.09646
 15 03 02 00 25 30.0000000  0  7G16G18G19G21G22G27G31
  20927831.740   109976503.04309  20927829.060    85695965.87349
  21994326.180   115581055.20609  21994323.860    90063182.06647
  24110358.260   126700795.25207  24110355.440    98727871.78746
  22056779.500   115909169.73308  22056776.620    90318828.13048
  22652261.400   119038508.65008  22652259.980    92757319.90047
  22057962.760   115915422.37908  22057962.980    90323715.95848
  23993854.440   126088445.09707  23993857.420    98250698.53246
 15 03 02 00 26  0.0000000  0  7G16G18G19G21G22G27G31
  20918610.660   109928045.95609  20918607.980    85658207.10249
  21988199.580   115548859.95509  21988197.320    90038094.88447
  24096176.700   126626269.87407  24096173.760    98669800.10846
  22068190.420   115969134.67208  22068187.540    90365554.04948
  22636169.980   118953948.42208  22636168.400    92691429.01347
  22047691.420   115861446.42308  22047691.620    90281656.78648
  24012172.640   126184705.85707  24012175.760    98325706.37146
 15 03 02 00 26 30.0000000  0  7G16G18G19G21G22G27G31
  20909465.760   109879989.19009  20909463.120    85620760.27449
  21982155.940   115517100.94109  21982153.780    90013347.62747
  24082008.900   126551817.45307  24082005.840    98611785.29546
  22079638.900   116029296.84608  22079635.980    90412433.67148
  22620116.920   118869589.91308  22620115.240    92625695.32547
  22037440.620   115807578.13908  22037440.780    90239681.51248
  24030490.900   126280967.00007  24030494.160    98400714.50346
 15 03 02 00 27  0.0000000  0  7G16G18G19G21G22G27G31
  20900397.400   109832334.48409  20900394.780    85583626.73749
  21976195.400   115485778.84309  21976193.420    89988940.82447
  24067854.860   126477437.49707  24067851.660    98553826.95345
  22091124.500   116089654.07909  22091121.560    90459465.28148
  22604102.740   118785435.62708  22604100.960    92560120.76447
  22027210.320   115753817.41908  22027210.480    90197790.06048
  24048808.620   126377225.67907  24048811.980    98475720.75446
 15 03 02 00 27 30.0000000  0  7G16G18G19G21G22G27G31
  20891405.800   109785083.12309  20891403.120    85546807.49049
  21970318.120   115454894.36409  21970316.320    89964875.02347
  24053714.420   126403129.19607  24053711.300    98495924.42645
  22102646.740   116150203.82708  22102643.760    90506646.90148
  22588127.820   118701487.52408  22588126.060    92494706.85447
  22017000.400   115700163.69608  22017000.540    90155981.97248
  24067125.280   126473478.24907  24067128.980    98550722.27946
 15 03 02 00 28  0.0000000  0  7G16G18G19G21G22G27G31
  20882491.800   109738239.83709  20882489.120    85510306.23049
  21964525.040   115424452.01709  21964523.340    89941153.73847
  24039588.040   126328895.24606  24039585.040    98438079.83745
  22114205.760   116210946.72109  22114202.740    90553979.02648
  22572193.120   118617750.84308  22572191.420    92429457.69347
  22006811.340   115646619.79508  22006811.580    90114259.46948
  24085440.740   126569724.66207  24085444.580    98625719.03246
 15 03 02 00 28 30.0000000  0  7G16G18G19G21G22G27G31
  20873655.100   109691802.71509  20873652.420    85474121.45449
  21958815.560   115394448.68609  21958813.840    89917774.54247
  24025475.040   126254731.54807  24025472.240    98380289.99346
  22125800.480   116271877.20009  22125797.420    90601457.31348
  22556298.460   118534224.36408  22556296.640    92364372.29947
  21996642.420   115593181.96208  21996642.720    90072619.61148
  24103753.620   126665957.86707  24103757.620    98700705.49746
 15 03 02 00 29  0.0000000  0  7G16G18G19G21G22G27G31
  20864896.180   109645774.45009  20864893.500    85438255.27849
  21953190.120   115364886.59709  21953188.200    89894739.18547
  24011375.640   126180639.06407  24011372.800    98322555.65746
  22137430.780   116332994.50509  22137427.680    90649081.19848
  22540444.480   118450911.76208  22540442.520    92299453.58347
  21986493.880   115539851.08208  21986494.060    90031063.10648
  24122063.680   126762175.87107  24122067.720    98775680.09845
 15 03 02 00 29 30.0000000  0  7G16G18G19G21G22G27G31
  20856215.820   109600158.99009  20856213.120    85402710.75549
  21947649.380   115335769.22809  21947647.260    89872050.34847
  23997290.240   126106619.29107  23997287.140    98264877.93845
  22149096.660   116394298.85009  22149093.500    90696850.81148
  22524631.980   118367817.43308  22524629.980    92234704.91947
  21976366.120   115486629.22908  21976366.140    89989591.52848
  24140370.580   126858378.10107  24140374.780    98850642.39146
 15 03 02 00 30  0.0000000  0  7G16G18G19G21G22G27G31
  20847614.480   109554958.73009  20847611.760    85367489.77349
  21942193.660   115307098.55909  21942191.320    89849709.59847
  23983218.700   126032672.64707  23983215.420    98207257.21646
  22160797.760   116455788.39609  22160794.620    90744764.74148
  22508861.620   118284944.53108  22508859.700    92170128.81647
  21966259.300   115433517.12409  21966259.180    89948205.48248
  24158674.100   126954561.85607  24158678.260    98925590.29546
 15 03 02 00 30 30.0000000  0  7G16G18G19G21G22G27G31
  20839092.240   109510173.92509  20839089.500    85332592.52349
  21936822.780   115278873.86109  21936820.280    89827716.35347
  23969160.720   125958797.66806  23969157.440    98149692.33046
  22172533.480   116517459.93908  22172530.400    90792820.48948
  22493133.640   118202293.98208  22493131.680    92105725.95547
  21956173.040   115380513.24608  21956172.920    89906903.77448
  24176973.280   127050722.69907  24176977.520    99000520.30046
 15 03 02 00 31  0.0000000  0  7G16G18G19G21G22G27G31
  20830650.140   109465810.16209  20830647.380    85298023.36249
  21931537.660   115251100.05809  21931535.080    89806074.45548
  23955117.020   125884997.73907  23955113.680    98092185.97045
  22184304.080   116579314.88608  22184301.000    90841019.14948
  22477449.120   118119871.91108  22477447.140    92041501.13147
  21946107.980   115327621.20108  21946107.960    89865689.20848
  24195268.140   127146861.23907  24195272.560    99075432.93446
 15 03 02 00 31 30.0000000  0  7G16G18G19G21G22G27G31
  20822288.160   109421867.48909  20822285.400    85263782.31749
  21926338.080   115223776.01709  21926335.500    89784783.01648
  23941087.120   125811270.68707  23941083.960    98034736.36846
  22196108.860   116641349.58708  22196105.780    90889357.87448
  22461808.300   118037679.39108  22461806.180    91977455.16947
  21936063.840   115274839.32608  21936064.000    89824560.49248
  24213557.860   127242972.68007  24213562.720    99150324.45646
 15 03 02 00 32  0.0000000  0  7G16G18G19G21G22G27G31
  20814006.360   109378346.31009  20814003.640    85229869.71049
  21921224.100   115196902.01509  21921221.620    89763842.26248
  23927070.760   125737614.88607  23927067.760    97977342.29945
  22207947.180   116703560.62208  22207944.140    90937834.00448
  22446211.260   117955717.02608  22446209.040    91913588.54647
  21926040.440   115222166.19509  21926040.660    89783516.50648
  24231841.680   127339053.01306  24231846.500    99225191.80645
 15 03 02 00 32 30.0000000  0  7G16G18G19G21G22G27G31
  20805805.360   109335249.88309  20805802.700    85196288.07849
  21916196.280   115170480.85609  21916193.860    89743254.36348
  23913068.260   125664031.90606  23913065.220    97920004.95746
  22219819.040   116765947.87308  22219816.000    90986447.44048
  22430658.780   117873989.13808  22430656.640    91849904.64147
  21916038.100   115169603.43309  21916038.200    89742558.51448
  24250119.180   127435100.68407  24250124.040    99300033.63345
 15 03 02 00 33  0.0000000  0  7G16G18G19G21G22G27G31
  20797685.180   109292578.38009  20797682.580    85163037.55849
  21911254.480   115144511.83909  21911252.120    89723018.79348
  23899079.360   125590519.99507  23899076.200    97862723.00145
  22231723.840   116828508.02208  22231720.760    91035195.60248
  22415151.160   117792496.71208  22415148.980    91786404.20147
  21906056.520   115117149.62609  21906056.440    89701685.42448
  24268389.720   127531111.23807  24268394.800    99374846.59546
 15 03 02 00 33 30.0000000  0  7G16G18G19G21G22G27G31
  20789646.780   109250336.52909  20789644.180    85130121.83449
  21906399.420   115118998.65509  21906397.120    89703138.41248
  23885104.560   125517082.11207  23885101.300    97805498.72046
  22243661.640   116891241.60808  22243658.520    91084078.91948
  22399689.420   117711245.22208  22399687.220    91723091.50147
  21896096.120   115064807.59509  21896095.920    89660899.43448
  24286653.260   127627084.54707  24286658.480    99449630.57045
 15 03 02 00 34  0.0000000  0  7G16G18G19G21G22G27G31
  20781690.260   109208524.83609  20781687.660    85097541.29749
  21901631.140   115093941.56909  21901628.860    89683613.43848
  23871143.480   125443716.46407  23871140.440    97748330.72446
  22255631.820   116954145.27608  22255628.700    91133094.76048
  22384273.720   117630235.99708  22384271.520    91659967.57748
  21886156.800   115012576.34708  21886156.640    89620199.77448
  24304908.760   127723016.31507  24304914.220    99524382.06945
 15 03 02 00 34 30.0000000  0  7G16G18G19G21G22G27G31
  20773816.460   109167147.62509  20773813.860    85065299.31849
  21896950.280   115069343.88309  21896948.040    89664446.43348
  23857196.580   125370425.29407  23857193.700    97691220.75246
  22267634.540   117017219.96908  22267631.440    91182243.87448
  22368904.960   117549473.49808  22368902.760    91597035.90747
  21876239.060   114960458.28709  21876239.020    89579588.31348
  24323156.140   127818906.13507  24323161.900    99599100.84845
 15 03 02 00 35  0.0000000  0  7G16G18G19G21G22G27G31
  20766025.280   109126204.44309  20766022.640    85033395.53249
  21892356.560   115045204.09209  21892354.400    89645636.22148
  23843263.420   125297206.17307  23843260.520    97634166.93646
  22279669.020   117080461.53008  22279665.900    91231523.00348
  22353583.280   117468958.25208  22353580.980    91534296.87748
  21866342.520   114908451.35009  21866342.560    89539063.43448
  24341394.740   127914748.81707  24341400.760    99673782.79845
 15 03 02 00 35 30.0000000  0  7G16G18G19G21G22G27G31
  20758317.300   109085698.61909  20758314.620    85001832.55249
  21887850.480   115021524.90209  21887848.380    89627184.92648
  23829344.320   125224060.86907  23829341.380    97577170.65946
  22291735.120   117143869.34308  22291732.000    91280931.68848
  22338309.500   117388694.55008  22338307.200    91471753.88547
  21856467.440   114856557.36809  21856467.460    89498626.57748
  24359623.940   128010542.54307  24359630.080    99748426.22045
 15 03 02 00 36  0.0000000  0  7G16G18G19G21G22G27G31
  20750692.260   109045628.75609  20750689.560    84970609.28649
  21883431.840   114998305.07609  21883429.800    89609091.58648
  23815438.620   125150985.97807  23815435.620    97520229.22846
  22303832.020   117207439.11808  22303828.980    91330466.57748
  22323083.540   117308681.96408  22323081.180    91409406.55448
  21846613.240   114804773.32309  21846613.240    89458275.39248
  24377843.160   128106282.49507  24377849.360    99823027.76646
 15 03 02 00 36 30.0000000  0  7G16G18G19G21G22G27G31
  20743151.280   109006000.56709  20743148.580    84939730.17649
  21879101.420   114975548.79709  21879099.400    89591359.44748
  23801547.060   125077985.37907  23801543.980    97463345.66945
  22315960.020   117271172.31908  22315957.080    91380128.80647
  22307906.480   117228926.34308  22307904.040    91347259.44448
  21836780.680   114753103.06609  21836780.600    89418012.86048
  24396052.400   128201969.59606  24396058.820    99897588.32345
 15 03 02 00 37  0.0000000  0  7G16G18G19G21G22G27G31
  20735694.220   108966813.30809  20735691.480    84909194.64149
  21874858.960   114953254.56909  21874856.920    89573987.33147
  23787669.060   125005056.09107  23787665.880    97406517.67846
  22328118.340   117335064.67508  22328115.400    91429915.05347
  22292778.300   117149427.96108  22292775.900    91285312.77448
  21826969.380   114701544.48709  21826969.300    89377837.34548
  24414250.700   128297598.48507  24414257.100    99972103.75146
 15 03 02 00 37 30.0000000  0  7G16G18G19G21G22G27G31
  20728321.400   108928068.99809  20728318.660    84879004.26849
  21870704.680   114931423.56709  21870702.580    89556976.18848
  23773804.680   124932198.52407  23773801.500    97349745.57446
  22340306.640   117399114.54508  22340303.700    91479824.03047
  22277699.620   117070189.59909  22277697.300    91223568.74148
  21817179.400   114650097.83409  21817179.360    89337749.05548
  24432437.440   128393166.56806  24432444.180   100046571.88545
 15 03 02 00 38  0.0000000  0  7G16G18G19G21G22G27G31
  20721033.980   108889773.32409  20721031.260    84849163.47749
  21866639.520   114910060.82009  21866637.300    89540329.91648
  23759954.760   124859416.70407  23759951.420    97293032.50646
  22352525.340   117463324.24408  22352522.440    91529857.55647
  22262671.740   116991218.15608  22262669.400    91162032.68248
  21807411.540   114598767.44609  21807411.560    89297751.35848
  24450612.660   128488675.13307  24450619.300   100120993.72646
 15 03 02 00 38 30.0000000  0  7G16G18G19G21G22G27G31
  20713832.060   108851927.06009  20713829.360    84819672.87349
  21862663.400   114889166.09809  21862661.100    89524048.33348
  23746119.000   124786709.63807  23746115.780    97236377.71146
  22364773.860   117527690.76108  22364771.000    91580013.26847
  22247694.860   116912514.64608  22247692.480    91100705.39248
  21797665.560   114547552.15709  21797665.660    89257843.34748
  24468775.600   128584119.79607  24468782.340   100195365.68345
 15 03 02 00 39  0.0000000  0  7G16G18G19G21G22G27G31
  20706715.460   108814529.05909  20706712.740    84790531.57249
  21858776.100   114868737.95409  21858773.760    89508130.32148
  23732296.860   124714073.95507  23732293.760    97179778.52446
  22377051.480   117592209.94008  22377048.520    91630287.95648
  22232768.980   116834078.92909  22232766.500    91039586.77548
  21787941.120   114496449.88009  21787941.140    89218023.40748
  24486925.200   128679495.44705  24486932.380   100269683.97344
 15 03 02 00 39 30.0000000  0  7G16G18G19G21G22G27G31
  20699684.540   108777581.33809  20699681.840    84761741.13649
  21854977.720   114848777.28309  21854975.320    89492576.57248
  23718488.380   124641510.25707  23718485.360    97123235.43546
  22389357.740   117656879.66808  22389354.720    91680679.94447
  22217894.560   116755913.68509  22217892.080    90978678.90748
  21778238.220   114445460.82509  21778238.180    89178291.68448
  24505061.180   128774799.38607  24505068.380   100343946.47144
 15 03 02 00 40  0.0000000  0  7G16G18G19G21G22G27G31
  20692740.180   108741088.38009  20692737.480    84733305.05849
  21851268.980   114829287.65709  21851266.580    89477389.86748
  23704694.180   124569020.93207  23704691.120    97066750.29146
  22401692.880   117721701.09308  22401689.840    91731190.14547
  22203072.620   116678024.22409  22203070.120    90917985.93448
  21768557.440   114394587.77309  21768557.340    89138650.34948
  24523183.520   128870031.49107  24523190.760   100418152.92345
 15 03 02 00 40 30.0000000  0  7G16G18G19G21G22G27G31
  20685879.660   108705035.95509  20685876.960    84705212.25749
  21847646.980   114810254.10509  21847644.640    89462558.54848
  23690911.080   124496590.02607  23690907.880    97010310.62246
  22414053.540   117786656.57908  22414050.440    91781804.80747
  22188300.580   116600397.06609  22188298.000    90857497.35848
  21758895.740   114343815.29109  21758895.680    89099087.38648
  24541288.960                    24541292.340                  
 15 03 02 00 41  0.0000000  0  6G16G18G19G21G22G27
  20679108.560   108669453.45809  20679105.840    84677485.62649
  21844117.220   114791705.34609  21844114.880    89448104.97648
  23677144.320   124424245.22207  23677141.060    96953938.07846
  22426444.560   117851771.87808  22426441.480    91832543.99247
  22173584.280   116523062.70109  22173581.640    90797236.92448
  21749258.460   114293171.20009  21749258.480    89059624.46748
 15 03 02 00 41 30.0000000  0  7G16G18G19G21G22G27G31
  20672425.440   108634333.35709  20672422.700    84650119.31049
  21840678.080   114773632.82409  21840675.800    89434022.51048
  23663392.000   124351977.05207  23663388.940    96897625.25645
  22438863.920   117917036.08408  22438860.900    91883399.21147
  22158922.320   116446013.98809  22158919.680    90737199.08348
  21739643.940   114242646.50709  21739644.000    89020254.58848
  24577459.300                                                  
 15 03 02 00 42  0.0000000  0  6G16G18G19G21G22G27
  20665830.160   108599674.86409  20665827.420    84623112.68549
  21837329.240   114756034.86109  21837327.020    89420309.82648
  23649653.860   124279783.28007  23649650.920    96841370.41646
  22451310.760   117982444.81508  22451307.740    91934367.04747
  22144314.780   116369251.33109  22144312.040    90677384.13348
  21730051.740   114192239.12709  21730051.740    88980976.12448
 15 03 02 00 42 30.0000000  0  6G16G18G19G21G22G27
  20659323.200   108565480.76809  20659320.520    84596467.92949
  21834070.980   114738912.86309  21834068.800    89406968.02548
  23635930.020   124207664.57407  23635927.120    96785174.04846
  22463784.940   118047997.14408  22463781.920    91985446.78047
  22129762.220   116292777.71909  22129759.420    90617794.40848
  21720482.100   114141950.19009  21720482.020    88941789.94848
 15 03 02 00 43  0.0000000  0  7G16G18G19G21G22G27G31
  20652903.620   108531745.77409  20652900.920    84570180.92149
  21830902.340   114722261.66809  21830900.140    89393993.08848
  23622219.320   124135614.37507  23622216.380    96729031.06046
  22476284.940   118113685.09008  22476281.880    92036632.19647
  22115263.920   116216589.24009  22115261.120    90558426.86748
  21710933.740   114091773.31709  21710933.640    88902691.10448
  24631591.960                    24631576.160                  
 15 03 02 00 43 30.0000000  0  7G16G18G19G21G22G27G31
  20646573.100   108498478.79809  20646570.420    84544258.59649
  21827824.800   114706088.97809  21827822.560    89381391.01148
  23608523.020   124063639.71207  23608519.960    96672946.92546
  22488811.740   118179513.84208  22488808.680    92087927.31347
  22100821.860   116140696.03609  22100819.040    90499289.41648
  21701408.120   114041716.00109  21701408.020    88863685.40748
  24649603.260   129534539.91107                                
 15 03 02 00 44  0.0000000  0  7G16G18G19G21G22G27G31
  20640331.760   108465680.23509  20640329.100    84518701.26849
  21824838.160   114690394.02909  21824835.880    89369161.19947
  23594840.860   123991739.24207  23594837.640    96616920.60146
  22501364.760   118245480.50408  22501361.760    92139329.90347
  22086436.160   116065098.78009  22086433.160    90440382.57048
  21691905.060   113991777.19609  21691904.940    88824772.06848
  24667596.800   129629101.44806                                
 15 03 02 00 44 30.0000000  0  7G16G18G19G21G22G27G31
  20634179.800   108433351.28009  20634177.100    84493509.86749
  21821942.540   114675177.28609  21821940.180    89357304.01348
  23581172.740   123919912.39207  23581169.400    96560951.65846
  22513943.560   118311582.56608  22513940.620    92190837.99547
  22072107.100   115989799.25309  22072104.040    90381707.70448
  21682424.520   113941956.62509  21682424.400    88785950.85348
  24685571.960                                                  
 15 03 02 00 45  0.0000000  0  6G16G18G19G21G22G27
  20628118.080   108401496.62209  20628115.360    84468688.05549
  21819138.600   114660442.42909  21819136.240    89345822.33148
  23567519.140   123848162.26407  23567515.900    96505042.51946
  22526548.400   118377821.43408  22526545.460    92242452.68947
  22057835.720   115914803.05709  22057832.600    90323269.21648
  21672967.100   113892257.67609  21672967.040    88747224.41448
 15 03 02 00 45 30.0000000  0  6G16G18G19G21G22G27
  20622146.100   108370113.51109  20622143.360    84444233.67849
  21816425.700   114646186.12709  21816423.380    89334713.54348
  23553879.380   123776484.86207  23553876.100    96449190.03546
  22539178.180   118444191.32008  22539175.200    92294169.48447
  22043621.860   115840108.96609  22043618.660    90265066.12648
  21663532.140   113842676.65609  21663532.080    88708589.86548
 15 03 02 00 46  0.0000000  0  6G16G18G19G21G22G27
  20616264.600   108339205.92209  20616261.860    84420149.83549
  21813804.440   114632411.40009  21813802.100    89323980.00148
  23540253.880   123704882.35007  23540250.540    96393395.91746
  22551833.020   118510692.99008  22551830.060    92345988.95547
  22029466.300   115765721.50809  22029463.100    90207101.97048
  21654120.100   113793216.17009  21654120.000    88670049.23948
 15 03 02 00 46 30.0000000  0  6G16G18G19G21G22G27
  20610473.580   108308773.91709  20610470.820    84396436.58249
  21811274.600   114619117.19509  21811272.300    89313620.89948
  23526642.340   123633353.38507  23526638.820    96337659.06946
  22564512.340   118577323.12708  22564509.400    92397908.53847
  22015369.260   115691641.40709  22015366.040    90149377.31248
  21644730.800   113743875.04209  21644730.640    88631601.61148
 15 03 02 00 47  0.0000000  0  6G16G18G19G21G22G27
  20604773.620   108278820.55709  20604770.860    84373096.29549
  21808836.600   114606305.44809  21808834.280    89303637.73648
  23513044.960   123561898.74407  23513041.280    96281980.13646
  22577215.960   118644081.00608  22577213.040    92449927.65247
  22001331.440   115617872.56209  22001328.280    90091895.17748
  21635364.500   113694654.70009  21635364.300    88593248.10448
 15 03 02 00 47 30.0000000  0  6G16G18G19G21G22G27
  20599165.060   108249347.55909  20599162.340    84350130.31749
  21806490.620   114593977.29509  21806488.300    89294031.39948
  23499461.860   123490519.11907  23499458.180    96226359.67446
  22589943.680   118710965.53208  22589940.720    92502045.45847
  21987353.440   115544417.96509  21987350.260    90034657.91548
  21626021.280   113645555.89309  21626021.140    88554989.30148
 15 03 02 00 48  0.0000000  0  6G16G18G19G21G22G27
  20593648.300   108220356.84209  20593645.600    84327540.14349
  21804236.880   114582133.73209  21804234.540    89284802.66148
  23485893.120   123419215.08807  23485889.400    96170798.10746
  22602695.200   118777975.23808  22602692.180    92554260.79947
  21973435.660   115471280.09509  21973432.460    89977667.45248
  21616701.380   113596579.52209  21616701.300    88516825.90948
 15 03 02 00 48 30.0000000  0  6G16G18G19G21G22G27
  20588223.860   108191851.19909  20588221.140    84305327.95249
  21802075.680   114570776.51609  21802073.360    89275952.90748
  23472338.860   123347987.45207  23472335.120    96115296.05546
  22615470.500   118845109.77408  22615467.480    92606573.42647
  21959578.880   115398462.75509  21959575.640    89920926.74848
  21607405.040   113547727.05709  21607404.980    88478759.06648
 15 03 02 00 49  0.0000000  0  6G16G18G19G21G22G27
  20582891.380   108163828.70909  20582888.660    84283492.24849
  21800006.480   114559903.02209  21800004.160    89267480.07348
  23458798.560   123276833.29707  23458795.020    96059851.31046
  22628268.600   118912364.22208  22628265.700    92658979.48847
  21945782.960   115325965.13509  21945779.720    89864435.19248
  21598131.740   113498995.44209  21598131.640    88440786.39148
 15 03 02 00 49 30.0000000  0  6G16G18G19G21G22G27
  20577651.680   108136294.02109  20577649.000    84262036.64249
  21798029.900   114549516.38709  21798027.660    89259386.60348
  23445272.900   123205755.59207  23445269.460    96004466.11446
  22641089.680   118979739.59708  22641086.820    92711479.77247
  21932048.840   115253792.32309  21932045.620    89808196.71548
  21588882.120   113450388.22909  21588881.940    88402910.64348
 15 03 02 00 50  0.0000000  0  6G16G18G19G21G22G27
  20572504.680   108109246.52909  20572502.060    84240960.67349
  21796145.760   114539615.63409  21796143.540    89251671.74448
  23431761.520   123134752.52407  23431758.100    95949139.07947
  22653933.120   119047232.39008  22653930.240    92764071.54247
  21918376.660   115181944.87309  21918373.400    89752211.76148
  21579655.820   113401903.80309  21579655.700    88365130.58148
 15 03 02 00 50 30.0000000  0  6G16G18G19G21G22G27
  20567450.700   108082687.70909  20567448.120    84220265.48449
  21794354.100   114530200.74409  21794351.900    89244335.47648
  23418264.240   123063823.31607  23418260.780    95893869.59346
  22666798.600   119114841.03808  22666795.820    92816753.61247
  21904766.820   115110425.03609  21904763.580    89696482.10448
  21570452.920   113353542.26309  21570452.800    88327446.27548
 15 03 02 00 51  0.0000000  0  6G16G18G19G21G22G27
  20562490.780   108056623.08209  20562488.200    84199955.38149
  21792655.860   114521276.52509  21792653.680    89237381.55348
  23404781.820   122992972.59507  23404778.300    95838661.26646
  22679686.660   119182568.14808  22679683.900    92869527.96947
  21891220.580   115039239.25409  21891217.280    89641012.73748
  21561274.320   113305308.38709  21561274.200    88289861.44248
 15 03 02 00 51 30.0000000  0  6G16G18G19G21G22G27
  20557624.640   108031051.25509  20557622.080    84180029.27049
  21791050.540   114512840.46409  21791048.320    89230808.00748
  23391313.620   122922196.96507  23391309.960    95783511.46346
  22692596.300   119250408.67308  22692593.500    92922390.70347
  21877737.860   114968387.28709  21877734.540    89585803.48848
  21552119.520   113257199.56509  21552119.360    88252374.05248
 15 03 02 00 52  0.0000000  0  6G16G18G19G21G22G27
  20552852.620   108005973.86509  20552850.020    84160488.44549
  21789538.400   114504893.81509  21789536.080    89224615.83048
  23377859.880   122851497.63907  23377855.960    95728421.08546
  22705527.440   119318362.00408  22705524.580    92975341.35347
  21864319.220   114897872.06009  21864315.860    89530856.62948
  21542988.640   113209216.57909  21542988.480    88214984.71348
 15 03 02 00 52 30.0000000  0  6G16G18G19G21G22G27
  20548174.820   107981391.76309  20548172.220    84141333.55849
  21788119.300   114497436.03709  21788116.880    89218804.59048
  23364420.520   122780873.65707  23364416.480    95673389.42746
  22718479.460   119386425.07108  22718476.480    93028377.51547
  21850964.960   114827695.12109  21850961.580    89476173.38048
  21533881.660   113161359.14209  21533881.480    88177693.20548
 15 03 02 00 53  0.0000000  0  6G16G18G19G21G22G27
  20543591.880   107957308.09909  20543589.240    84122567.06049
  21786793.640   114490469.20509  21786791.140    89213375.90348
  23350995.880   122710326.86307  23350992.100    95618417.91846
  22731452.380   119454598.28108  22731449.360    93081499.48247
  21837675.820   114757860.34509  21837672.360    89421756.73948
  21524799.000   113113629.41809  21524798.860    88140501.21348
 15 03 02 00 53 30.0000000  0  6G16G18G19G21G22G27
  20539103.420   107933720.98709  20539100.740    84104187.49549
  21785560.800   114483990.36109  21785558.220    89208327.47148
  23337585.420   122639854.17807  23337581.660    95563504.16247
  22744445.360   119522876.86208  22744442.400    93134703.56847
  21824451.640   114688366.94709  21824448.100    89367606.11348
  21515740.080   113066024.60309  21515740.020    88103406.56049
 15 03 02 00 54  0.0000000  0  6G16G18G19G21G22G27
  20534710.840   107910637.82909  20534708.180    84086200.61249
  21784422.040   114478006.21109  21784419.440    89203664.50748
  23324190.100   122569461.34407  23324186.420    95508652.64246
  22757459.260   119591265.25208  22757456.320    93187993.21947
  21811293.860   114619222.79309  21811290.300    89313727.62348
  21506706.160   113018551.05409  21506706.120    88066414.18648
 15 03 02 00 54 30.0000000  0  6G16G18G19G21G22G27
  20530413.600   107888055.85109  20530410.980    84068604.25749
  21783376.700   114472512.98609  21783374.060    89199384.08648
  23310809.200   122499144.55007  23310805.660    95453860.35146
  22770492.960   119659757.60608  22770489.940    93241363.87147
  21798202.320   114550426.63209  21798198.780    89260120.29148
  21497696.560   112971205.25509  21497696.460    88029521.35049
 15 03 02 00 55  0.0000000  0  6G16G18G19G21G22G27
  20526212.480   107865978.86709  20526209.840    84051401.41049
  21782425.180   114467512.98809  21782422.580    89195487.99848
  23297443.260   122428906.27907  23297439.640    95399129.24146
  22783546.560   119728354.64508  22783543.480    93294816.10947
  21785177.860   114481983.14809  21785174.360    89206787.77348
  21488711.800   112923990.08609  21488711.680    87992730.31748
 15 03 02 00 55 30.0000000  0  6G16G18G19G21G22G27
  20522107.060   107844404.67309  20522104.400    84034590.33849
  21781566.920   114463003.15809  21781564.400    89191973.85848
  23284091.720   122358742.97408  23284087.860    95344456.55046
  22796619.180   119797051.71608  22796616.120    93348346.29347
  21772220.300   114413891.07909  21772216.760    89153729.07348
  21479751.300   112876902.51709  21479751.220    87956038.70949
 15 03 02 00 56  0.0000000  0  6G16G18G19G21G22G27
  20518098.260   107823338.16109  20518095.600    84018174.87049
  21780802.800   114458987.84609  21780800.300    89188845.05748
  23270755.120   122288658.50007  23270751.200    95289845.28647
  22809711.100   119865850.04408  22809708.080    93401955.38047
  21759330.720   114346156.32309  21759327.200    89100948.81548
  21470815.840   112829946.49909  21470815.800    87919449.61249
 15 03 02 00 56 30.0000000  0  6G16G18G19G21G22G27
  20514186.080   107802779.36609  20514183.400    84002155.02649
  21780132.540   114455465.77109  21780130.120    89186100.59448
  23257433.220   122218651.78407  23257429.440    95235294.63647
  22822821.920   119934748.04408  22822818.920    93455642.12347
  21746509.340   114278780.01509  21746505.880    89048447.86648
  21461905.340   112783121.48209  21461905.300    87882962.58649
 15 03 02 00 57  0.0000000  0  6G16G18G19G21G22G27
  20510371.280   107782732.28609  20510368.560    83986533.91449
