     2.11           OBSERVATION DATA    G                   RINEX VERSION / TYPE
SPIDER V4,0,0,3554                      2015 03 16 01:40    PGM / RUN BY / DATE 
AKET                                                        MARKER NAME         
AKET                                                        MARKER NUMBER       
                                                            OBSERVER / AGENCY   
496661              LEICA GRX1200+GNSS  8.20/4.007          REC # / TYPE / VERS 
10271023            LEIAR25         NONE                    ANT # / TYPE        
  5151584.4739   350346.6892  3733756.9574                  APPROX POSITION XYZ 
        0.0480        0.0000        0.0000                  ANTENNA: DELTA H/E/N
     1     1                                                WAVELENGTH FACT L1/2
     4    C1    L1    P2    L2                              # / TYPES OF OBSERV 
    30.000                                                  INTERVAL            
  2015    03    02    00    00    0.0000000     GPS         TIME OF FIRST OBS   
  2015    03    02    23    59   30.0000000     GPS         TIME OF LAST OBS    
    16                                                      LEAP SECONDS        
    30                                                      # OF SATELLITES     
   G 1   644   644   644   644                              PRN / # OF OBS      
   G 2   858   857   856   856                              PRN / # OF OBS      
   G 3   682   682   682   682                              PRN / # OF OBS      
   G 4   787   787   786   786                              PRN / # OF OBS      
   G 5   595   595   590   590                              PRN / # OF OBS      
   G 6   626   626   621   621                              PRN / # OF OBS      
   G 7   575   575   575   575                              PRN / # OF OBS      
   G 9   628   628   628   628                              PRN / # OF OBS      
   G10   579   579   579   579                              PRN / # OF OBS      
   G11   696   696   696   696                              PRN / # OF OBS      
   G12   781   781   781   781                              PRN / # OF OBS      
   G13   755   755   750   750                              PRN / # OF OBS      
   G14   867   866   865   865                              PRN / # OF OBS      
   G15   649   648   648   648                              PRN / # OF OBS      
   G16   610   610   606   606                              PRN / # OF OBS      
   G17   754   754   754   754                              PRN / # OF OBS      
   G18   852   852   852   852                              PRN / # OF OBS      
   G19   691   691   691   691                              PRN / # OF OBS      
   G20   591   590   591   590                              PRN / # OF OBS      
   G21   607   607   607   607                              PRN / # OF OBS      
   G22   648   648   648   648                              PRN / # OF OBS      
   G23   555   555   555   555                              PRN / # OF OBS      
   G24   772   772   769   769                              PRN / # OF OBS      
   G25   768   768   768   768                              PRN / # OF OBS      
   G27   749   749   747   747                              PRN / # OF OBS      
   G28   834   834   832   832                              PRN / # OF OBS      
   G29   669   669   668   668                              PRN / # OF OBS      
   G30   624   624   624   624                              PRN / # OF OBS      
   G31   721   721   721   721                              PRN / # OF OBS      
   G32   629   629   629   629                              PRN / # OF OBS      
BIT 2 OF LLI FLAGS DATA COLLECTED UNDER A/S CONDITION       COMMENT             
SNR is mapped to RINEX snr flag value [2-9]                 COMMENT             
Lx:     = 25dBHz -> 1; 26-27dBHz -> 2; 28-31dBHz -> 3       COMMENT             
       32-35dBHz -> 4; 36-38dBHz -> 5; 39-41dBHz -> 6       COMMENT             
       42-44dBHz -> 7; 45-48dBHz -> 8; >=49dBHz -> 9        COMMENT             
                                                            END OF HEADER       
 15 03 02 00 00  0.0000000  0  6G16G18G21G27G29G31
  21416453.000   112544227.33909  21416448.900    87696790.58148
  22459899.740   118027602.49008  22459897.060    91969573.18546
  21443189.420   112684728.56309  21443185.340    87806268.10348
  22607332.780   118802364.50108  22607332.340    92573279.73548
  24269138.240   127535169.23708  24269136.160    99378038.09345
  23266263.200   122264995.28807  23266262.500    95271399.55145
 15 03 02 00 00 30.0000000  0  6G16G18G21G27G29G31
  21404211.520   112479897.20409  21404207.280    87646663.20648
  22449263.360   117971708.50709  22449260.800    91926019.47446
  21451525.500   112728534.44609  21451521.340    87840402.56048
  22595395.100   118739631.49008  22595394.660    92524396.87848
  24283508.060   127610684.90807  24283506.160    99436881.39445
  23284223.400   122359376.44007  23284222.760    95344943.10944
 15 03 02 00 01  0.0000000  0  6G16G18G21G27G29G31
  21392028.960   112415876.60509  21392024.560    87596777.03748
  22438689.560   117916142.95209  22438687.100    91882721.69247
  21459918.840   112772641.63308  21459914.540    87874771.79648
  22583478.000   118677006.74408  22583477.560    92475598.42147
  24297881.260   127686217.59308  24297879.640    99495737.98645
  23302207.620   122453883.78806  23302207.180    95418585.03344
 15 03 02 00 01 30.0000000  0  6G16G18G21G27G29G31
  21379905.560   112352167.47709  21379901.100    87547133.56048
  22428178.720   117860908.30709  22428176.240    91839681.75047
  21468369.040   112817047.98608  21468364.660    87909374.15748
  22571581.460   118614490.33309  22571581.120    92426884.36347
  24312257.860   127761767.03908  24312256.520    99554607.68045
  23320215.240   122548514.06306  23320214.740    95492322.71445
 15 03 02 00 02  0.0000000  0  6G16G18G21G27G29G31
  21367842.020   112288773.25409  21367837.560    87497735.47348
  22417731.560   117806008.13609  22417728.980    91796902.45047
  21476876.040   112861753.47408  21476871.720    87944209.60348
  22559705.860   118552083.61808  22559705.500    92378255.78347
  24326638.100   127837334.80108  24326636.620    99613491.67745
  23338245.920   122643265.92106  23338245.680    95566155.18143
 15 03 02 00 02 30.0000000  0  6G16G18G21G27G29G31
  21355839.580   112225700.27409  21355835.120    87448587.70248
  22407349.280   117751448.64809  22407346.600    91754388.58146
  21485440.320   112906760.13308  21485436.140    87979279.73948
  22547851.900   118489790.55309  22547851.500    92329715.75147
  24341022.560   127912924.70808  24341020.860    99672392.89545
  23356299.820   122738140.23405  23356299.800    95640082.99044
 15 03 02 00 03  0.0000000  0  6G16G18G21G27G29G31
  21343897.980   112162947.04509  21343893.540    87399689.09048
  22397031.580   117697228.51609  22397028.800    91712139.15246
  21494060.860   112952062.25708  21494056.840    88014580.10148
  22536018.940   118427607.68709  22536018.480    92281261.59848
  24355410.540   127988533.16208  24355408.800    99731308.55646
  23374375.720   122833130.23905  23374375.960    95714101.01243
 15 03 02 00 03 30.0000000  0  6G16G18G21G27G29G31
  21332017.060   112100512.75609  21332012.700    87351038.99848
  22386778.200   117643346.66409  22386775.360    91670153.33347
  21502736.900   112997655.78008  21502733.000    88050107.52248
  22524206.360   118365532.02109  22524205.860    92232890.97048
  24369801.540   128064157.22908  24369799.740    99790236.37646
  23392472.520   122928230.05604  23392473.200    95788204.54343
 15 03 02 00 04  0.0000000  0  6G16G18G21G27G29G31
  21320199.220   112038409.51709  21320194.900    87302646.86548
  22376591.480   117589814.99709  22376588.600    91628440.37847
  21511470.000   113043548.75408  21511466.140    88085868.29348
  22512416.000   118303573.36909  22512415.540    92184611.53748
  24384197.280   128139806.51008  24384195.400    99849183.82246
  23410591.660   123023446.73804  23410592.620    95862399.15544
 15 03 02 00 04 30.0000000  0  5G16G18G21G27G29
  21308442.120   111976625.45009  21308437.780    87254503.43948
  22366469.200   117536621.67309  22366466.280    91586991.04947
  21520257.100   113089724.79509  21520253.100    88121849.61848
  22500645.300   118241717.87309  22500644.860    92136412.46448
  24398595.200   128215467.15508  24398593.120    99908140.12846
 15 03 02 00 05  0.0000000  0  5G16G18G21G27G29
  21296748.920   111915176.96709  21296744.480    87206621.52048
  22356414.480   117483783.62609  22356411.640    91545818.58647
  21529100.460   113136196.59808  21529096.320    88158061.41448
  22488897.020   118179980.01109  22488896.520    92088305.07448
  24412997.960   128291153.42408  24412995.540    99967116.38445
 15 03 02 00 05 30.0000000  0  5G16G18G21G27G29
  21285118.740   111854060.09609  21285114.420    87158997.98648
  22346426.500   117431296.65309  22346423.640    91504919.68647
  21537998.680   113182956.65508  21537994.420    88194497.81848
  22477169.880   118118353.64509  22477169.280    92040284.54148
  24427404.300   128366859.16208  24427401.760   100026107.82745
 15 03 02 00 06  0.0000000  0  5G16G18G21G27G29
  21273551.700   111793275.66309  21273547.700    87111633.49348
  22336505.440   117379161.24909  22336502.480    91464294.73347
  21546951.080   113230001.45808  21546946.700    88231156.10748
  22465463.740   118056837.58209  22465462.960    91992349.94948
  24441813.920   128442582.74108  24441811.580   100085113.20745
 15 03 02 00 06 30.0000000  0  5G16G18G21G27G29
  21262049.380   111732831.15209  21262045.700    87064533.87248
  22326652.780   117327385.41509  22326649.860    91423949.97547
  21555958.320   113277334.83208  21555953.880    88268039.24748
  22453779.620   117995437.14909  22453778.660    91944505.49248
  24456227.840   128518329.86507  24456225.920   100144136.89246
 15 03 02 00 07  0.0000000  0  5G16G18G21G27G29
  21250610.500   111672719.49209  21250606.900    87017693.62148
  22316867.060   117275961.21209  22316864.140    91383879.20247
  21565018.280   113324945.30108  21565013.860    88305138.31348
  22442115.720   117934143.04309  22442114.700    91896743.87648
  24470644.540   128594091.02908  24470643.000   100203171.52746
 15 03 02 00 07 30.0000000  0  5G16G18G21G27G29
  21239236.340   111612947.85409  21239232.640    86971118.32348
  22307149.720   117224896.30109  22307146.720    91344088.40147
  21574131.520   113372835.78508  21574127.140    88342455.57348
  22430473.040   117872960.41809  22430472.080    91849069.11948
  24485065.040   128669871.03108  24485063.580   100262220.84746
 15 03 02 00 08  0.0000000  0  5G16G18G21G27G29
  21227927.560   111553520.10009  21227923.680    86924810.98748
  22297501.420   117174194.37309  22297498.340    91304580.44047
  21583298.140   113421006.80508  21583293.800    88379991.43048
  22418851.920   117811891.10709  22418851.000    91801482.66248
  24499489.560   128745671.92808  24499488.020   100321286.43646
 15 03 02 00 08 30.0000000  0  5G16G18G21G27G29
  21216684.040   111494435.57209  21216680.120    86878771.09648
  22287922.140   117123854.96509  22287919.040    91265354.95047
  21592517.360   113469454.38808  21592513.020    88417742.79948
  22407251.860   117750932.46709  22407251.060    91753982.44148
  24513917.680   128821490.87808  24513915.900   100380366.12946
 15 03 02 00 09  0.0000000  0  5G16G18G21G27G29
  21205506.400   111435697.52009  21205502.800    86833001.19248
  22278412.320   117073880.88309  22278409.300    91226414.15247
  21601788.800   113518176.38708  21601784.520    88455707.99348
  22395673.080   117690085.53309  22395672.340    91706569.26448
  24528349.400   128897328.54608  24528347.280   100439460.37346
 15 03 02 00 09 30.0000000  0  5G16G18G21G27G29
  21194395.380   111377309.39409  21194392.180    86787503.93948
  22268972.700   117024275.59709  22268969.620    91187760.71147
  21611112.620   113567173.31308  21611108.360    88493887.41348
  22384115.860   117629351.77708  22384115.020    91659244.28448
  24542784.920   128973186.53408  24542782.460   100498570.47745
 15 03 02 00 10  0.0000000  0  5G16G18G21G27G29
  21183351.000   111319271.08809  21183348.020    86742279.28948
  22259603.260   116975039.10209  22259600.120    91149394.63447
  21620487.980   113616440.92809  21620483.700    88532277.76148
  22372579.860   117568729.24409  22372579.020    91612005.97148
  24557223.900   129049062.90008  24557220.980   100557694.89645
 15 03 02 00 10 30.0000000  0  4G16G18G21G27
  21172377.960   111261607.07409  21172374.920    86697346.28748
  22250308.600   116926195.40009  22250305.520    91111334.63747
  21629918.700   113665999.34909  21629914.440    88570894.71548
  22361069.240   117508240.22209  22361068.280    91564871.69048
 15 03 02 00 11  0.0000000  0  4G16G18G21G27
  21161462.400   111204244.42609  21161459.060    86652648.13848
  22241074.780   116877671.48809  22241071.800    91073523.84947
  21639390.120   113715771.85608  21639385.900    88609678.49648
  22349569.720   117447809.59809  22349568.720    91517782.90848
 15 03 02 00 11 30.0000000  0  4G16G18G21G27
  21150623.540   111147284.91709  21150619.820    86608264.10748
  22231921.180   116829568.75809  22231918.140    91036041.22848
  21648920.980   113765856.83908  21648916.800    88648705.75648
  22338100.220   117387537.07909  22338099.280    91470817.32348
 15 03 02 00 12  0.0000000  0  5G16G18G19G21G27
  21139851.400   111090676.90009  21139847.660    86564153.97648
  22222837.940   116781835.61609  22222834.800    90998846.60447
  24545835.400   128989233.86408  24545830.880   100511074.78447
  21658500.620   113816198.01109  21658496.420    88687932.65448
  22326650.560   117327369.23209  22326649.680    91423933.31948
 15 03 02 00 12 30.0000000  0  5G16G18G19G21G27
  21129153.520   111034459.96509  21129150.040    86520348.56048
  22213832.560   116734511.73309  22213829.340    90961970.88247
  24530633.560   128909359.62207  24530630.960   100448835.33945
  21668135.920   113866831.35009  21668131.600    88727387.20148
  22315228.020   117267343.73409  22315227.120    91377160.20048
 15 03 02 00 13  0.0000000  0  5G16G18G19G21G27
  21118519.180   110978576.31809  21118515.820    86476802.86348
  22204893.940   116687539.00509  22204890.680    90925368.77447
  24515440.420   128829524.64707  24515437.360   100386626.17044
  21677815.060   113917694.93309  21677810.560    88767021.15048
  22303821.140   117207400.54309  22303820.220    91330451.23648
 15 03 02 00 13 30.0000000  0  5G16G18G19G21G27
  21107952.360   110923046.59709  21107948.900    86433532.95948
  22196026.000   116640937.91209  22196022.780    90889056.28047
  24500259.100   128749747.37606  24500256.300   100324462.08546
  21687541.280   113968805.89109  21687536.620    88806847.86648
  22292433.520   117147558.41709  22292432.540    91283821.02648
 15 03 02 00 14  0.0000000  0  5G16G18G19G21G27
  21097458.640   110867900.96509  21097454.920    86390562.33848
  22187234.420   116594738.47009  22187231.160    90853056.75547
  24485094.420   128670056.30308  24485092.660   100262365.37445
  21697319.420   114020189.94908  21697314.740    88846887.39648
  22281070.540   117087845.53609  22281069.480    91237291.53748
 15 03 02 00 14 30.0000000  0  5G16G18G19G21G27
  21087038.700   110813143.73909  21087034.800    86347894.37348
  22178520.060   116548944.56209  22178516.800    90817373.21147
  24469946.200   128590452.96005  24469952.980   100200370.55744
  21707149.580   114071848.10308  21707145.020    88887140.50948
  22269732.580   117028264.08809  22269731.340    91190864.44148
 15 03 02 00 15  0.0000000  0  5G16G18G19G21G27
  21076696.640   110758796.00009  21076692.720    86305545.48048
  22169886.900   116503577.26309  22169883.620    90782022.09547
  24454818.860   128510956.66708  24454822.160   100138425.50746
  21717034.900   114123796.77508  21717030.560    88927619.99648
  22258423.300   116968833.24709  22258421.900    91144554.70148
 15 03 02 00 15 30.0000000  0  5G16G18G19G21G27
  21066407.500   110704725.76809  21066403.500    86263412.84348
  22161309.760   116458504.04609  22161306.480    90746900.14147
  24439686.040   128431433.15108  24439679.820   100076402.03043
  21726949.720   114175900.46508  21726945.640    88968220.27648
  22247117.100   116909419.03309  22247115.760    91098257.95048
 15 03 02 00 16  0.0000000  0  5G16G18G19G21G27
  21056185.700   110651009.33109  21056181.680    86221555.87748
  22152803.140   116413801.20909  22152799.840    90712066.78647
  24424563.000   128351957.46807  24424557.820   100014473.02146
  21736907.920   114228231.68709  21736903.940    89008997.84748
  22235828.220   116850096.12009  22235827.020    91052032.31148
 15 03 02 00 16 30.0000000  0  5G16G18G19G21G27
  21046051.480   110597753.40709  21046047.520    86180057.75448
  22144387.280   116369575.58209  22144383.920    90677605.28747
  24409468.160   128272633.28908  24409463.020    99952662.03345
  21746929.080   114280893.43008  21746925.120    89050032.97648
  22224576.680   116790969.09409  22224575.540    91005959.32248
 15 03 02 00 17  0.0000000  0  5G16G18G19G21G27
  21035985.160   110544854.84009  21035981.320    86138838.08548
  22136042.420   116325723.06509  22136038.980    90643434.52147
  24394382.560   128193355.92607  24394377.960    99890887.47146
  21756992.700   114333777.93209  21756988.720    89091241.67648
  22213342.380   116731932.70109  22213341.240    90959956.93848
 15 03 02 00 17 30.0000000  0  5G16G18G19G21G27
  21025995.860   110492361.04309  21025992.100    86097933.82448
  22127777.660   116282291.36409  22127774.140    90609591.64947
  24379313.820   128114170.43707  24379309.640    99829184.63645
  21767107.060   114386929.06008  21767103.100    89132658.13248
  22202133.960   116673032.51609  22202132.940    90914060.70948
 15 03 02 00 18  0.0000000  0  5G16G18G19G21G27
  21016076.940   110440236.59609  21016073.060    86057317.38048
  22119586.160   116239244.81209  22119582.620    90576048.90647
  24364256.140   128035039.85006  24364252.060    99767524.35745
  21777264.800   114440308.00309  21777260.940    89174252.12348
  22190944.380   116614231.37509  22190943.440    90868241.64448
 15 03 02 00 18 30.0000000  0  5G16G18G19G21G27
  21006233.620   110388509.53409  21006229.680    86017010.58948
  22111473.220   116196611.29709  22111469.740    90542828.02547
  24349213.380   127955989.84208  24349209.540    99705927.10145
  21787470.380   114493938.36409  21787466.520    89216042.02448
  22179778.600   116555555.35209  22179777.840    90822520.08448
 15 03 02 00 19  0.0000000  0  5G16G18G19G21G27
  20996465.420   110337177.43909  20996461.560    85977011.54148
  22103438.320   116154387.55509  22103434.880    90509926.42047
  24334184.620   127877015.80007  24334181.440    99644388.97646
  21797722.600   114547813.98908  21797718.700    89258023.03048
  22168635.780   116496999.81309  22168635.060    90776892.40648
 15 03 02 00 19 30.0000000  0  5G16G18G19G21G27
  20986770.100   110286228.28809  20986766.360    85937310.90848
  22095478.980   116112560.83609  22095475.520    90477334.19447
  24319168.280   127798103.93306  24319165.740    99582899.19646
  21808018.320   114601918.56808  21808014.340    89300182.43848
  22157513.320   116438551.01309  22157512.560    90731347.89048
 15 03 02 00 20  0.0000000  0  6G16G18G19G21G22G27
  20977151.240   110235680.81609  20977147.560    85897923.26248
  22087598.820   116071150.50709  22087595.380    90445066.43447
  24304166.840   127719270.84607  24304163.960    99521470.73945
  21818360.460   114656267.40308  21818356.500    89342532.18248
  22979867.620   120760019.16705  22979862.300    94098697.74643
  22146414.460   116380225.96509  22146413.580    90685899.81948
 15 03 02 00 20 30.0000000  0  6G16G18G19G21G22G27
  20967608.820   110185534.86409  20967605.020    85858848.49848
  22079797.720   116030155.67409  22079794.320    90413122.44047
  24289179.920   127640514.35807  24289177.900    99460102.26847
  21828748.360   114710856.69308  21828744.460    89385069.29948
  22962872.560   120670710.71405  22962867.660    94029106.97344
  22135338.740   116322022.61909  22135337.820    90640546.58348
 15 03 02 00 21  0.0000000  0  6G16G18G19G21G22G27
  20958141.180   110135782.17209  20958137.200    85820080.16848
  22072074.120   115989568.11809  22072070.760    90381495.80647
  24274205.580   127561824.52908  24274203.420    99398785.52046
  21839179.700   114765674.28608  21839175.800    89427784.29448
  22945906.480   120581554.48705  22945902.080    93959634.78642
  22124284.360   116263931.17409  22124283.300    90595280.53048
 15 03 02 00 21 30.0000000  0  6G16G18G19G21G22G27
  20948747.140   110086416.77909  20948743.160    85781613.61848
  22064426.780   115949381.50409  22064423.500    90350181.57547
  24259242.860   127483193.08108  24259240.440    99337514.31345
  21849652.520   114820709.92808  21849648.680    89470669.20048
  22928968.420   120492544.49106  22928964.240    93890276.49644
  22113249.640   116205943.31309  22113248.560    90550095.18048
 15 03 02 00 22  0.0000000  0  6G16G18G19G21G22G27
  20939431.760   110037464.46809  20939427.900    85743468.95648
  22056860.480   115909620.88809  22056857.180    90319199.29647
  24244295.660   127404643.63308  24244292.760    99276306.94146
  21860171.060   114875985.56208  21860167.280    89513741.11448
  22912063.120   120403707.25206  22912059.000    93821052.85144
  22102239.120   116148083.11509  22102238.100    90505009.32648
 15 03 02 00 22 30.0000000  0  6G16G18G19G21G22G27
  20930193.420   109988916.39809  20930189.540    85705639.29348
  22049373.680   115870277.62009  22049370.340    90288542.22347
  24229361.700   127326165.52507  24229358.780    99215155.27445
  21870732.980   114931489.10008  21870729.240    89556990.63048
  22895189.220   120315034.61106  22895185.180    93751957.42844
  22091250.900   116090340.05809  22091249.940    90460014.74248
 15 03 02 00 23  0.0000000  0  6G16G18G19G21G22G27
  20921032.020   109940772.66109  20921028.060    85668124.69548
  22041966.160   115831350.74309  22041962.820    90258209.61547
  24214441.320   127247756.86108  24214437.740    99154057.60946
  21881337.520   114987216.75408  21881333.900    89600414.77448
  22878346.720   120226527.36706  22878342.620    93682990.89844
  22080284.680   116032712.27709  22080283.760    90415110.00048
 15 03 02 00 23 30.0000000  0  6G16G18G19G21G22G27
  20911948.800   109893040.17309  20911944.860    85630930.56548
  22034639.280   115792847.58109  22034635.820    90228207.17747
  24199534.980   127169422.88508  24199531.160    99093018.23746
  21891985.220   115043171.28408  21891981.760    89644015.70948
  22861537.200   120138193.49507  22861533.020    93614159.47144
  22069341.420   115975205.17609  22069340.580    90370299.27848
 15 03 02 00 24  0.0000000  0  6G16G18G19G21G22G27
  20902943.020   109845715.13909  20902939.140    85594053.91348
  22027392.120   115754763.37709  22027388.640    90198531.19047
  24184641.560   127091157.63206  24184637.140    99032032.34245
  21902674.580   115099344.93308  21902671.320    89687787.38848
  22844759.980   120050029.27307  22844755.800    93545460.23845
  22058420.000   115917812.79509  22058419.280    90325577.96348
 15 03 02 00 24 30.0000000  0  6G16G18G19G21G22G27
  20894016.560   109798806.68309  20894012.720    85557501.87948
  22020226.340   115717106.96009  22020222.900    90169188.55847
  24169762.740   127012968.22508  24169758.020    98971105.53146
  21913406.720   115155743.05108  21913403.600    89731733.97148
  22828016.980   119962045.01607  22828012.920    93476901.21945
  22047521.900   115860542.78809  22047521.160    90280951.98748
 15 03 02 00 25  0.0000000  0  6G16G18G19G21G22G27
  20885170.160   109752318.29509  20885166.280    85521277.15848
  22013142.520   115679881.65009  22013139.180    90140181.84947
  24154898.360   126934856.10608  24154893.920    98910239.10046
  21924181.720   115212365.67208  21924178.580    89775855.48148
  22811308.980   119874244.80807  22811305.060    93408485.61845
  22036647.320   115803396.81809  22036646.620    90236422.67448
 15 03 02 00 25 30.0000000  0  6G16G18G19G21G22G27
  20876402.720   109706244.62709  20876398.800    85485375.60648
  22006139.620   115643081.81609  22006136.420    90111506.67747
  24140047.260   126856814.14208  24140042.540    98849427.19246
  21934997.920   115269203.99909  21934994.580    89820145.08948
  22794635.180   119786624.19707  22794631.160    93340209.95645
  22025795.060   115746367.88509  22025794.340    90191984.56048
 15 03 02 00 26  0.0000000  0  6G16G18G19G21G22G27
  20867713.360   109660581.61609  20867709.400    85449794.03348
  21999216.680   115606702.35409  21999213.640    90083159.07247
  24125208.680   126778836.46007  24125204.220    98788665.39746
  21945853.700   115326250.00208  21945850.080    89864596.51848
  22777994.860   119699179.51807  22777990.620    93272071.37345
  22014964.020   115689450.05809  22014963.180    90147633.01648
 15 03 02 00 26 30.0000000  0  6G16G18G19G21G22G27
  20859106.140   109615350.18909  20859102.220    85414548.76948
  21992377.920   115570764.63509  21992374.820    90055155.67147
  24110385.740   126700942.03308  24110381.000    98727968.46045
  21956752.160   115383520.71409  21956748.380    89909223.04848
  22761392.200   119611932.46908  22761387.900    93204086.80845
  22004157.800   115632662.54409  22004156.780    90103383.01648
 15 03 02 00 27  0.0000000  0  6G16G18G19G21G22G27
  20850578.760   109570538.57509  20850574.960    85379630.63948
  21985620.860   115535255.92709  21985617.720    90027486.57147
  24095576.060   126623117.13107  24095571.460    98667325.76745
  21967690.300   115441000.52308  21967686.420    89954012.51248
  22744825.120   119524872.07808  22744820.680    93136247.66846
  21993373.820   115575991.89009  21993372.640    90059224.07048
 15 03 02 00 27 30.0000000  0  6G16G18G19G21G22G27
  20842132.700   109526154.56909  20842129.060    85345045.69748
  21978946.860   115500183.66809  21978943.700    90000157.54447
  24080780.680   126545367.65408  24080776.420    98606741.75346
  21978668.940   115498693.57908  21978665.000    89998968.13648
  22728295.120   119438006.93008  22728290.640    93068560.68546
  21982613.260   115519444.26309  21982611.900    90015161.01148
 15 03 02 00 28  0.0000000  0  6G16G18G19G21G22G27
  20833768.280   109482199.14309  20833764.680    85310794.71448
  21972356.080   115465548.74609  21972352.920    89973169.31547
  24065999.380   126467692.72007  24065995.180    98546215.86746
  21989687.540   115556596.83608  21989683.580    90044087.55547
  22711802.540   119351338.53408  22711798.100    93001027.00346
  21971876.000   115463018.90309  21971874.380    89971193.21148
 15 03 02 00 28 30.0000000  0  6G16G18G19G21G22G27
  20825485.340   109438671.32209  20825481.480    85276876.93548
  21965848.100   115431349.15109  21965844.880    89946520.29547
  24051231.940   126390089.41708  24051227.900    98485745.89045
  22000745.260   115614705.82308  22000741.300    90089367.28148
  22695347.380   119264866.75208  22695343.060    92933646.52046
  21961161.460   115406713.17209  21961159.680    89927318.62048
 15 03 02 00 29  0.0000000  0  6G16G18G19G21G22G27
  20817284.380   109395574.59209  20817280.360    85243295.06848
  21959423.560   115397588.11009  21959420.360    89920213.00447
  24036478.480   126312559.63207  24036474.240    98425333.01746
  22011842.200   115673020.69108  22011838.240    90134807.43647
  22678930.420   119178596.09008  22678926.240    92866422.73946
  21950470.020   115350528.98309  21950468.180    89883538.74048
 15 03 02 00 29 30.0000000  0  6G16G18G19G21G22G27
  20809165.620   109352910.34909  20809161.640    85210050.19748
  21953082.680   115364266.66009  21953079.540    89894248.26547
  24021738.860   126235102.51408  24021734.700    98364976.95245
  22022977.920   115731539.21908  22022973.940    90180406.28748
  22662552.020   119092528.45508  22662547.980    92799357.16946
  21939801.600   115294466.02109  21939799.700    89839853.32148
 15 03 02 00 30  0.0000000  0  6G16G18G19G21G22G27
  20801129.900   109310682.35009  20801126.040    85177145.26148
  21946826.160   115331388.39209  21946822.920    89868628.84347
  24007013.520   126157720.13308  24007009.120    98304678.98746
  22034152.380   115790261.05809  22034148.260    90226163.56847
  22646213.180   119006668.55908  22646209.200    92732453.47346
  21929156.560   115238526.54209  21929154.700    89796264.12248
 15 03 02 00 30 30.0000000  0  6G16G18G19G21G22G27
  20793176.820   109268888.41709  20793173.020    85144578.55148
  21940653.420   115298950.26609  21940650.180    89843352.40347
  23992301.740   126080408.77108  23992297.520    98244436.43546
  22045364.500   115849180.73108  22045360.260    90272074.99248
  22629913.720   118921014.90408  22629909.700    92665710.46647
  21918534.240   115182706.82509  21918532.640    89752768.24548
 15 03 02 00 31  0.0000000  0  6G16G18G19G21G22G27
  20785308.320   109227538.85309  20785304.440    85112358.11248
  21934566.320   115266962.15409  21934563.060    89818426.62547
  23977604.820   126003176.59207  23977600.260    98184255.53946
  22056615.400   115908304.48409  22056611.080    90318145.44447
  22613655.720   118835578.44308  22613651.600    92599136.70047
  21907936.340   115127015.40409  21907935.040    89709372.32848
 15 03 02 00 31 30.0000000  0  6G16G18G19G21G22G27
  20777523.200   109186627.61909  20777519.180    85080479.22648
  21928563.500   115235416.99309  21928560.160    89793846.00347
  23962921.700   125926015.77108  23962917.420    98124130.27146
  22067903.300   115967622.69108  22067898.920    90364367.42647
  22597438.120   118750354.19808  22597433.840    92532728.30946
  21897361.380   115071444.68909  21897360.440    89666070.49548
 15 03 02 00 32  0.0000000  0  6G16G18G19G21G22G27
  20769822.740   109146161.79909  20769818.660    85048947.42448
  21922646.300   115204321.88409  21922642.940    89769616.07047
  23948252.940   125848931.34008  23948248.540    98064064.50346
  22079228.760   116027138.71808  22079224.380    90410743.54547
  22581262.240   118665349.60908  22581257.900    92466491.08546
  21886810.420   115016000.13409  21886809.820    89622866.97448
 15 03 02 00 32 30.0000000  0  6G16G18G19G21G22G27
  20762207.040   109106141.43009  20762202.980    85017762.71748
  21916814.700   115173676.62709  21916811.320    89745736.66948
  23933598.400   125771921.99307  23933594.240    98004057.26846
  22090591.260   116086849.40808  22090586.880    90457271.34947
  22565128.340   118580565.83408  22565123.920    92400425.91647
  21876283.240   114960680.32509  21876282.960    89579760.62648
 15 03 02 00 33  0.0000000  0  6G16G18G19G21G22G27
  20754675.960   109066565.65509  20754671.940    84986924.44548
  21911068.500   115143479.71909  21911064.980    89722206.63248
  23918957.800   125694985.18107  23918953.960    97944106.54146
  22101989.980   116146750.52508  22101985.700    90503947.52847
  22549036.540   118496002.92008  22549031.980    92334532.83746
  21865779.440   114905483.05109  21865779.300    89536749.76348
 15 03 02 00 33 30.0000000  0  6G16G18G19G21G22G27
  20747230.540   109027439.66409  20747226.580    84956436.66248
  21905408.400   115113735.43509  21905404.740    89699029.29047
  23904331.740   125618124.52608  23904327.800    97884215.14546
  22113425.180   116206843.22208  22113420.980    90550773.02247
  22532987.900   118411666.95708  22532983.240    92268816.61946
  21855299.700   114850411.78809  21855299.480    89493837.11348
 15 03 02 00 34  0.0000000  0  6G16G18G19G21G22G27
  20739871.220   108988765.86409  20739867.280    84926301.23548
  21899834.780   115084446.14009  21899831.140    89676206.49447
  23889720.180   125541340.24108  23889715.840    97824383.27246
  22124896.560   116267126.15408  22124892.500    90597746.72947
  22516983.120   118327561.25508  22516978.320    92203279.80946
  21844844.220   114795467.67809  21844843.780    89451023.52748
 15 03 02 00 34 30.0000000  0  6G16G18G19G21G22G27
  20732597.920   108950544.16209  20732593.920    84896518.07948
  21894347.560   115055610.94609  21894343.900    89653737.52247
  23875122.820   125464630.54107  23875118.440    97764609.53346
  22136403.540   116327595.98908  22136399.700    90644866.07548
  22501022.140   118243685.96008  22501017.260    92137922.53846
  21834412.720   114740648.86609  21834412.060    89408307.58048
 15 03 02 00 35  0.0000000  0  6G16G18G19G21G22G27
  20725410.980   108912776.53509  20725406.980    84867088.75548
  21888946.900   115027230.93309  21888943.280    89631623.24847
  23860539.760   125387995.59708  23860535.360    97704894.02146
  22147945.820   116388251.15008  22147942.100    90692129.82348
  22485105.520   118160044.10408  22485100.660    92072747.15246
  21824005.260   114685955.94709  21824004.400    89365689.73548
 15 03 02 00 35 30.0000000  0  6G16G18G19G21G22G27
  20718311.160   108875466.95209  20718307.180    84838016.34948
  21883633.600   114999309.65709  21883630.060    89609866.42947
  23845971.280   125311437.88908  23845966.620    97645238.69746
  22159523.460   116449091.74708  22159519.840    90739538.07848
  22469234.340   118076640.76608  22469229.500    92007757.61846
  21813622.280   114631391.55809  21813621.140    89323172.05048
 15 03 02 00 36  0.0000000  0  6G16G18G19G21G22G27
  20711298.040   108838612.86309  20711294.020    84809298.89348
  21878407.220   114971844.96309  21878403.640    89588465.39547
  23831416.660   125234953.20208  23831411.960    97585640.30546
  22171135.420   116510112.53809  22171131.840    90787086.74647
  22453408.220   117993474.49008  22453403.460    91942952.81646
  21803262.980   114576951.80809  21803261.540    89280751.47548
 15 03 02 00 36 30.0000000  0  6G16G18G19G21G22G27
  20704372.260   108802217.85909  20704368.240    84780939.14148
  21873268.160   114944839.08409  21873264.460    89567421.86147
  23816876.540   125158543.57808  23816871.740    97526100.32046
  22182781.580   116571312.96508  22182777.880    90834775.38948
  22437627.940   117910549.13508  22437623.200    91878335.72146
  21792927.620   114522638.59309  21792926.100    89238429.49648
 15 03 02 00 37  0.0000000  0  6G16G18G19G21G22G27
  20697535.380   108766290.09909  20697531.480    84752943.47748
  21868217.840   114918299.61009  21868214.100    89546741.75947
  23802351.620   125082215.03408  23802347.400    97466623.63646
  22194462.800   116632697.80709  22194458.980    90882607.72047
  22421895.240   117827873.92408  22421890.480    91813913.54846
  21782617.620   114468458.92509  21782616.100    89196211.58048
 15 03 02 00 37 30.0000000  0  6G16G18G19G21G22G27
  20690785.960   108730822.07209  20690782.220    84725306.04648
  21863254.720   114892218.39109  21863251.040    89526418.74647
  23787840.460   125005958.69408  23787836.060    97407203.10646
  22206177.020   116694256.03809  22206172.940    90930575.15947
  22406208.900   117745442.18708  22406204.160    91749681.08347
  21772331.240   114414403.71809  21772329.720    89154090.63448
 15 03 02 00 38  0.0000000  0  6G16G18G19G21G22G27
  20684124.960   108695818.79109  20684121.340    84698030.76248
  21858379.720   114866600.01909  21858376.040    89506456.39747
  23773343.620   124929778.13708  23773338.580    97347841.64146
  22217924.640   116755989.40509  22217920.180    90978679.08147
  22390570.160   117663260.37908  22390565.460    91685643.38747
  21762069.260   114360476.83809  21762067.820    89112069.70148
 15 03 02 00 38 30.0000000  0  6G16G18G19G21G22G27
  20677552.700   108661281.43409  20677549.200    84671118.53248
  21853592.860   114841444.87109  21853589.180    89486854.99147
  23758861.340   124853673.17608  23758856.500    97288539.13546
  22229705.120   116817895.51709  22229700.400    91026917.60247
  22374979.260   117581330.01508  22374974.580    91621801.61047
  21751831.580   114306677.78709  21751830.240    89070148.37948
 15 03 02 00 39  0.0000000  0  6G16G18G19G21G22G27
  20671070.260   108627215.41909  20671066.680    84644573.59148
  21848895.160   114816758.24909  21848891.480    89467618.67847
  23744394.260   124777647.12508  23744388.940    97229297.98147
  22241518.940   116879976.88009  22241514.020    91075292.68047
  22359437.400   117499657.62008  22359432.720    91558160.85047
  21741619.060   114253011.19509  21741617.760    89028330.26848
 15 03 02 00 39 30.0000000  0  6G16G18G19G21G22G27
  20664678.120   108593623.90609  20664674.340    84618398.37848
  21844286.980   114792542.41209  21844283.340    89448749.21147
  23729942.320   124701701.86408  23729936.600    97170119.91145
  22253365.900   116942232.64109  22253360.900    91123803.65647
  22343945.420   117418247.15908  22343940.780    91494724.19846
  21731431.940   114199478.66109  21731430.740    88986616.61748
 15 03 02 00 40  0.0000000  0  6G16G18G19G21G22G27
  20658375.160   108560501.34409  20658371.380    84592588.57948
  21839767.100   114768791.08909  21839763.600    89430241.70847
  23715504.180   124625829.98008  23715499.460    97110999.07547
  22265244.320   117004654.09409  22265239.380    91172443.73547
  22328502.440   117337094.01208  22328497.880    91431488.03246
  21721268.980   114146073.14909  21721267.860    88945001.94548
 15 03 02 00 40 30.0000000  0  6G16G18G19G21G22G27
  20652162.000   108527850.96709  20652158.200    84567146.73648
  21835336.240   114745507.06009  21835332.800    89412098.32247
  23701080.580   124550033.38808  23701075.320    97051936.73846
  22277154.140   117067241.21908  22277149.400    91221212.92847
  22313109.260   117256202.32609  22313104.740    91368455.61547
  21711130.660   114092796.89209  21711129.640    88903487.98948
 15 03 02 00 41  0.0000000  0  6G16G18G19G21G22G27
  20646040.120   108495680.48409  20646036.240    84542078.82248
  21830995.720   114722697.47809  21830992.220    89394324.63747
  23686672.520   124474318.18508  23686667.300    96992937.92845
  22289096.200   117129998.15608  22289091.780    91270114.43947
  22297767.520   117175580.96209  22297763.040    91305633.82647
  21701018.200   114039656.20309  21701017.400    88862079.67248
 15 03 02 00 41 30.0000000  0  6G16G18G19G21G22G27
  20640010.140   108463992.49409  20640006.060    84517386.88448
  21826745.840   114700364.18709  21826742.240    89376922.08347
  23672279.640   124398685.27408  23672275.140    96934003.27146
  22301070.460   117192924.35008  22301066.400    91319147.83147
  22282477.800   117095233.11209  22282473.380    91243025.17147
  21690931.860   113986652.49109  21690931.220    88820778.08648
 15 03 02 00 42  0.0000000  0  6G16G18G19G21G22G27
  20634071.060   108432781.90809  20634066.800    84493066.95348
  21822585.560   114678501.45809  21822581.960    89359886.19447
  23657901.300   124323128.40008  23657896.600    96875127.80646
  22313075.340   117256011.24208  22313071.560    91368306.44847
  22267239.440   117015155.04508  22267234.980    91180626.73647
  21680870.400   113933779.64509  21680869.900    88779578.46448
 15 03 02 00 42 30.0000000  0  6G16G18G19G21G22G27
  20628222.660   108402048.31109  20628218.440    84469118.69448
  21818514.520   114657107.64909  21818510.880    89343215.71647
  23643537.260   124247645.23908  23643532.740    96816309.78946
  22325110.120   117319254.85608  22325106.440    91417587.18047
  22252052.400   116935346.62908  22252047.820    91118438.43947
  21670833.580   113881035.67909  21670833.000    88738479.27848
 15 03 02 00 43  0.0000000  0  6G16G18G19G21G22G27
  20622466.100   108371797.46309  20622461.980    84445546.59248
  21814533.800   114636188.90609  21814530.280    89326915.41147
  23629188.140   124172240.55608  23629183.780    96757552.92647
  22337175.360   117382658.40608  22337171.620    91466992.54047
  22236918.020   116855815.13608  22236913.380    91056465.91247
  21660822.400   113828425.57809  21660821.520    88697484.40048
 15 03 02 00 43 30.0000000  0  6G16G18G19G21G22G27
  20616801.360   108342029.62109  20616797.460    84422350.86748
  21810643.340   114615744.48509  21810639.820    89310984.71948
  23614853.860   124096912.94608  23614849.280    96698856.08146
  22349270.400   117446218.53908  22349266.600    91516519.92047
  22221836.660   116776562.20108  22221832.000    90994710.45247
  21650836.540   113775948.33909  21650835.260    88656593.07648
 15 03 02 00 44  0.0000000  0  6G16G18G19G21G22G27
  20611228.960   108312747.21809  20611225.240    84399533.39648
  21806843.480   114595775.90709  21806839.900    89295424.79548
  23600534.500   124021663.35808  23600530.080    96640220.06746
  22361395.120   117509934.61408  22361391.300    91566168.78947
  22206808.840   116697590.70308  22206804.200    90933174.27947
  21640876.140   113723605.23209  21640874.580    88615806.24148
 15 03 02 00 44 30.0000000  0  6G16G18G19G21G22G27
  20605750.240   108283956.72109  20605746.640    84377099.23848
  21803135.320   114576289.11609  21803131.600    89280240.29148
  23586230.860   123946496.71608  23586226.300    96581648.65347
  22373550.060   117573809.46008  22373546.260    91615941.39447
  22191835.960   116618907.86009  22191831.300    90871863.03347
  21630942.120   113671401.44709  21630940.540    88575127.97348
 15 03 02 00 45  0.0000000  0  6G16G18G19G21G22G27
  20600364.520   108255654.89909  20600360.960    84355045.86948
  21799518.060   114557280.11009  21799514.280    89265428.09147
  23571942.040   123871408.45708  23571937.640    96523138.37146
  22385734.120   117637836.78809  22385730.240    91665832.80947
  22176917.600   116540511.42009  22176912.840    90810774.94947
  21621033.820   113619332.68009  21621032.360    88534554.91448
 15 03 02 00 45 30.0000000  0  6G16G18G19G21G22G27
  20595072.260   108227844.09809  20595068.720    84333375.11448
  21795992.040   114538750.86809  21795988.220    89250989.74747
  23557668.360   123796399.93308  23557664.480    96464690.22847
  22397947.120   117702016.00808  22397943.160    91715842.59547
  22162054.500   116462405.48909  22162049.680    90749913.22747
  21611151.520   113567400.56709  21611150.120    88494088.33748
 15 03 02 00 46  0.0000000  0  6G16G18G19G21G22G27
  20589872.980   108200521.96009  20589869.420    84312085.13548
  21792556.740   114520698.30309  21792552.860    89236922.81347
  23543409.260   123721467.23908  23543404.880    96406301.08147
  22410187.980   117766341.70208  22410183.960    91765966.50247
  22147246.360   116384588.33009  22147241.620    90689276.52347
  21601294.580   113515601.60309  21601293.140    88453725.51848
 15 03 02 00 46 30.0000000  0  6G16G18G19G21G22G27
  20584768.100   108173695.80009  20584764.560    84291181.63348
  21789213.360   114503128.89809  21789209.580    89223232.39047
  23529165.720   123646616.54308  23529161.260    96347975.91446
  22422457.420   117830818.00208  22422453.520    91816207.76047
  22132494.720   116307068.18609  22132490.060    90628871.27547
  21591464.180   113463942.07409  21591462.660    88413471.35048
 15 03 02 00 47  0.0000000  0  6G16G18G19G21G22G27
  20579758.200   108147369.02609  20579754.800    84270667.25848
  21785962.420   114486045.14109  21785958.640    89209920.38647
  23514937.940   123571849.14608  23514933.600    96289715.64047
  22434755.460   117895444.66808  22434751.780    91866566.20147
  22117800.380   116229849.39709  22117795.840    90568700.84547
  21581660.720   113412423.98709  21581659.140    88373327.38848
 15 03 02 00 47 30.0000000  0  6G16G18G19G21G22G27
  20574843.040   108121539.94409  20574839.800    84250540.68648
  21782803.520   114469444.97809  21782799.620    89196985.20648
  23500725.300   123497162.57208  23500721.120    96231518.37746
  22447081.300   117960217.31808  22447077.660    91917038.39047
  22103163.320   116152931.65509  22103158.840    90508765.00047
  21571883.620   113361044.88809  21571882.000    88333291.72848
 15 03 02 00 48  0.0000000  0  6G16G18G19G21G22G27
  20570022.440   108096207.36709  20570019.200    84230801.01048
  21779736.320   114453326.56709  21779732.400    89184425.41847
  23486527.720   123422554.63408  23486523.400    96173382.35046
  22459434.060   118025131.56808  22459430.400    91967620.91647
  22088583.520   116076314.59409  22088578.980    90449063.43347
  21562132.480   113309802.87209  21562130.860    88293362.88048
 15 03 02 00 48 30.0000000  0  6G16G18G19G21G22G27
  20565297.460   108071376.99609  20565294.020    84211452.65848
  21776761.660   114437694.78909  21776757.840    89172244.82647
  23472345.860   123348029.29008  23472341.640    96115310.69247
  22471814.340   118090190.10009  22471810.540    92018315.86147
  22074062.280   116000005.02609  22074057.600    90389601.47947
  21552408.320   113258702.47109  21552406.700    88253544.38848
 15 03 02 00 49  0.0000000  0  6G16G18G19G21G22G27
  20560667.460   108047045.59109  20560663.760    84192493.12648
  21773878.820   114422545.94109  21773875.080    89160440.53947
  23458179.120   123273582.53408  23458174.980    96057300.27846
  22484221.000   118155386.82809  22484217.000    92069118.51147
  22059599.220   115924000.96209  22059594.420    90330377.56347
  21542710.340   113207739.56509  21542708.720    88213833.03548
 15 03 02 00 49 30.0000000  0  6G16G18G19G21G22G27
  20556132.540   108023213.94709  20556128.640    84173923.01648
  21771087.780   114407879.56209  21771084.080    89149012.21247
  23444027.340   123199213.70308  23444023.100    95999350.53047
  22496653.460   118220719.12209  22496649.320    92120026.79047
  22045194.480   115848303.84209  22045189.680    90271392.84047
  21533038.480   113156914.06309  21533036.920    88174228.75248
 15 03 02 00 50  0.0000000  0  6G16G18G19G21G22G27
  20551694.780   107999892.84909  20551690.900    84155750.73148
  21768390.560   114393706.30309  21768386.980    89137968.12747
  23429892.260   123124932.62908  23429887.320    95941469.15946
  22509113.180   118286194.96409  22509109.020    92171046.92547
  22030850.420   115772925.76509  22030845.600    90212656.72747
  21523394.620   113106235.99609  21523393.200    88134739.36748
 15 03 02 00 50 30.0000000  0  6G16G18G19G21G22G27
  20547352.760   107977074.60409  20547348.860    84137970.28148
  21765785.480   114380017.22509  21765781.960    89127301.32547
  23415772.000   123050729.67808  23415766.840    95883648.71246
  22521598.180   118351803.83209  22521594.060    92222170.70247
  22016565.880   115697860.03809  22016560.940    90154163.99047
  21513777.160   113055696.56709  21513775.920    88095357.99248
 15 03 02 00 51  0.0000000  0  6G16G18G19G21G22G27
  20543107.560   107954765.29709  20543103.620    84120586.39748
  21763273.620   114366817.92109  21763270.140    89117016.15547
  23401667.640   122976610.30608  23401662.640    95825893.38447
  22534109.080   118417548.96908  22534105.040    92273400.67447
  22002342.120   115623113.75309  22002337.140    90095920.16047
  21504187.180   113005301.26309  21504186.040    88056088.91648
 15 03 02 00 51 30.0000000  0  6G16G18G19G21G22G27
  20538959.260   107932965.48709  20538955.200    84103599.53648
  21760855.060   114354108.12709  21760851.540    89107112.42747
  23387578.920   122902573.24208  23387573.860    95768202.18546
  22546645.320   118483427.54608  22546641.420    92324734.62947
  21988179.520   115548688.85409  21988174.580    90037926.78147
  21494624.640   112955049.70509  21494623.560    88016931.87248
 15 03 02 00 52  0.0000000  0  6G16G18G19G21G22G27
  20534908.160   107911676.69709  20534904.000    84087010.86148
  21758530.000   114341889.20509  21758526.400    89097591.20048
  23373506.020   122828619.96808  23373500.880    95710576.29346
  22559206.800   118549438.90809  22559203.060    92376172.05147
  21974078.640   115474588.30009  21974073.720    89980186.14147
  21485089.620   112904942.80809  21485088.500    87977887.54548
 15 03 02 00 52 30.0000000  0  6G16G18G19G21G22G27
  20530954.360   107890899.36709  20530950.180    84070820.72748
  21756298.200   114330160.48109  21756294.540    89088451.93048
  23359448.820   122754749.34608  23359443.940    95653014.77746
  22571793.000   118615579.79609  22571789.360    92427710.39747
  21960039.700   115400813.42709  21960034.800    89922699.26647
  21475581.940   112854980.10409  21475580.880    87938955.57248
 15 03 02 00 53  0.0000000  0  6G16G18G19G21G22G27
  20527097.940   107870633.86909  20527093.780    84055029.42248
  21754159.520   114318921.45809  21754155.860    89079694.26248
  23345407.160   122680960.62908  23345402.500    95595517.10247
  22584403.480   118681847.98709  22584399.840    92479347.95147
  21946063.000   115327365.49109  21946058.060    89865467.14548
  21466101.460   112805161.19509  21466100.600    87900135.64748
 15 03 02 00 53 30.0000000  0  6G16G18G19G21G22G27
  20523340.240   107850886.78809  20523336.180    84039642.07648
  21752115.040   114308177.92109  21752111.540    89071322.70047
  23331382.100   122607259.56608  23331377.420    95538087.68847
  22597038.980   118748247.32609  22597035.200    92531087.69347
  21932150.000   115254252.37209  21932145.060    89808495.92248
  21456649.480   112755492.00309  21456648.880    87861432.39748
 15 03 02 00 54  0.0000000  0  6G16G18G19G21G22G27
  20519680.260   107831653.26409  20519676.200    84024654.90248
  21750163.860   114297924.55609  21750160.400    89063333.08347
  23317372.560   122533639.83508  23317367.960    95480721.69147
  22609698.020   118814770.16009  22609693.940    92582923.66847
  21918299.860   115181469.86009  21918295.000    89751782.32648
  21447225.100   112705966.82309  21447224.540    87822841.36048
 15 03 02 00 54 30.0000000  0  6G16G18G19G21G22G27
  20516119.320   107812940.18009  20516115.220    84010073.27048
  21748307.040   114288167.52909  21748303.680    89055730.22547
  23303379.720   122460107.63208  23303375.440    95423423.90746
  22622381.320   118881420.47409  22622376.980    92634858.96747
  21904514.280   115109026.56109  21904509.420    89695333.04548
  21437829.540   112656592.07609  21437828.840    87784367.54748
 15 03 02 00 55  0.0000000  0  6G16G18G19G21G22G27
  20512655.940   107794739.88509  20512651.900    83995891.21548
  21746543.060   114278897.91209  21746539.680    89048507.16347
  23289401.840   122386654.16208  23289397.860    95366187.46647
  22635086.840   118948187.64409  22635082.260    92686885.33447
  21890792.020   115036915.87609  21890787.060    89639142.94047
  21428461.060   112607359.38209  21428460.260    87746004.41848
 15 03 02 00 55 30.0000000  0  6G16G18G19G21G22G27
  20509291.480   107777059.24409  20509287.400    83982114.08949
  21744873.080   114270122.01109  21744869.580    89041668.79047
  23275440.260   122313285.20708  23275436.000    95309016.84147
  22647815.340   119015076.27108  22647810.640    92739006.33247
  21877134.540   114965145.77309  21877129.500    89583218.21348
  21419120.700   112558275.02109  21419119.840    87707756.86948
 15 03 02 00 56  0.0000000  0  6G16G18G19G21G22G27
  20506027.060   107759904.35709  20506022.900    83968746.64248
  21743298.140   114261845.60809  21743294.600    89035219.64447
  23261495.880   122240006.16208  23261491.260    95251916.30547
  22660567.300   119082088.98308  22660562.660    92791224.01747
  21863543.220   114893723.54609  21863538.260    89527564.57248
  21409809.540   112509344.38909  21409808.580    87669629.10748
 15 03 02 00 56 30.0000000  0  6G16G18G19G21G22G27
  20502861.060   107743267.13809  20502857.000    83955782.57149
  21741816.460   114254059.56909  21741812.960    89029152.61947
  23247566.900   122166808.06408  23247562.200    95194878.86547
  22673340.940   119149216.18808  22673336.540    92843530.92847
  21850016.900   114822642.45909  21850011.980    89472176.74748
  21400526.040   112460559.09209  21400524.960    87631614.59748
 15 03 02 00 57  0.0000000  0  6G16G18G19G21G22G27
  20499794.440   107727152.07009  20499790.340    83943225.37148
  21740428.740   114246767.41109  21740425.300    89023470.43447
  23233654.040   122093694.15108  23233649.460    95137907.02446
  22686136.500   119216459.06508  22686132.460    92895927.97147
  21836556.600   114751908.22909  21836551.620    89417059.19248
  21391270.920   112411922.82709  21391269.720    87593716.22348
 15 03 02 00 57 30.0000000  0  6G16G18G19G21G22G27
  20496828.840   107711567.92909  20496824.720    83931081.88148
  21739136.700   114239977.49509  21739133.220    89018179.59748
  23219758.580   122020672.46708  23219754.100    95081007.01447
  22698955.200   119283823.46208  22698951.580    92948419.69647
  21823164.140   114681530.53709  21823159.120    89362219.46248
  21382045.760   112363443.91809  21382044.480    87555940.45748
 15 03 02 00 58  0.0000000  0  6G16G18G19G21G22G27
  20493962.840   107696507.16009  20493958.680    83919346.21548
  21737938.600   114233681.29809  21737935.160    89013273.48748
  23205878.820   121947734.27408  23205874.140    95024172.07947
  22711795.160   119351299.29408  22711791.800    93000998.24947
  21809838.360   114611503.08209  21809833.320    89307652.63948
  21372848.980   112315114.06409  21372847.680    87518280.83248
 15 03 02 00 58 30.0000000  0  6G16G18G19G21G22G27
  20491197.380   107681975.02409  20491193.360    83908022.46248
  21736835.340   114227883.44409  21736831.900    89008755.68747
  23192015.760   121874884.39008  23192011.220    94967405.97346
  22724657.020   119418889.25808  22724653.740    93053665.74547
  21796580.460   114541832.61809  21796575.540    89253363.99948
  21363681.580   112266938.39509  21363680.180    87480741.35648
 15 03 02 00 59  0.0000000  0  6G16G18G19G21G22G27
  20488532.300   107667970.74309  20488528.420    83897110.03848
  21735826.580   114222582.18809  21735823.140    89004624.85548
  23178169.220   121802121.56608  23178165.040    94910707.69547
  22737540.120   119486590.08308  22737536.860    93106419.62847
  21783390.440   114472519.25009  21783385.620    89199353.62148
  21354543.220   112218915.46909  21354541.760    87443320.89648
 15 03 02 00 59 30.0000000  0  6G16G18G19G21G22G27
  20485967.720   107654494.84609  20485964.080    83886609.32048
  21734912.320   114217777.50609  21734908.900    89000880.95548
  23164339.020   121729444.69108  23164335.020    94854076.38846
  22750444.120   119554399.62309  22750440.700    93159258.22747
  21770268.760   114403564.97309  21770264.020    89145623.04848
  21345433.900   112171045.43309  21345432.440    87406019.57148
 15 03 02 01 00  0.0000000  0  6G16G18G19G21G22G27
  20483504.060   107641548.68509  20483500.560    83876521.40448
  21734092.700   114213470.05609  21734089.200    88997524.51548
  23150525.400   121656854.65608  23150521.560    94797512.73747
  22763368.640   119622316.87308  22763364.980    93212180.76747
  21757215.860   114334971.79909  21757211.160    89092173.85748
  21336353.800   112123329.17209  21336352.360    87368838.08748
 15 03 02 01 00 30.0000000  0  6G16G18G19G21G22G27
  20481141.620   107629134.11809  20481138.200    83866847.71049
  21733367.880   114209660.56009  21733364.260    88994556.07847
  23136728.800   121584352.79408  23136724.680    94741017.80447
  22776313.400   119690341.18708  22776309.540    93265186.72047
  21744232.480   114266743.95509  21744227.780    89039009.33648
  21327303.240   112075768.34209  21327301.880    87331777.70348
 15 03 02 01 01  0.0000000  0  6G16G18G19G21G22G27
  20478880.160   107617249.68809  20478876.740    83857587.10648
  21732737.480   114206347.33609  21732733.760    88991974.35248
  23122948.600   121511936.65508  23122944.060    94684589.64447
  22789277.740   119758468.59408  22789273.620    93318273.00947
  21731318.620   114198881.05009  21731313.780    88986129.16448
  21318281.880   112028361.15109  21318280.620    87294837.02848
 15 03 02 01 01 30.0000000  0  6G16G18G19G21G22G27
  20476720.460   107605900.21909  20476716.980    83848743.36548
  21732202.160   114203534.14809  21732198.420    88989782.27347
  23109185.620   121439610.72708  23109180.680    94628231.81347
  22802262.060   119826701.26008  22802257.720    93371441.31047
  21718475.280   114131388.75109  21718470.340    88933537.78748
  21309290.600   111981112.09209  21309289.480    87258019.58648
 15 03 02 01 02  0.0000000  0  6G16G18G19G21G22G27
  20474662.440   107595085.14309  20474658.880    83840316.03348
  21731761.640   114201219.30209  21731757.860    88987978.49347
  23095439.480   121367373.36008  23095434.240    94571942.96147
  22815265.820   119895036.21408  22815261.280    93424689.32647
  21705702.580   114064267.61809  21705697.540    88881235.63448
  21300329.200   111934019.99009  21300328.260    87221324.44549
 15 03 02 01 02 30.0000000  0  6G16G18G19G21G22G27
  20472706.260   107584805.72909  20472702.660    83832306.08748
  21731416.140   114199403.71309  21731412.340    88986563.75148
  23081710.340   121295225.45108  23081704.960    94515723.82047
  22828288.800   119963472.55208  22828284.260    93478016.33047
  21693001.080   113997520.54009  21692995.920    88829224.94048
  21291397.960   111887086.08609  21291397.060    87184752.57849
 15 03 02 01 03  0.0000000  0  6G16G18G19G21G22G27
  20470852.160   107575062.75409  20470848.640    83824714.16548
  21731165.660   114198087.69009  21731161.980    88985538.30248
  23067998.200   121223167.07008  23067992.940    94459574.46747
  22841330.700   120032008.74308  22841326.300    93531421.14247
  21680371.200   113931149.72309  21680366.000    88777507.44748
  21282496.940   111840311.04209  21282495.960    87148304.50648
 15 03 02 01 03 30.0000000  0  6G16G18G19G21G22G27
  20469100.680   107565858.72209  20469097.260    83817542.17848
  21731010.380   114197272.07709  21731006.900    88984902.77648
  23054303.480   121151200.12108  23054298.120    94403496.34347
  22854391.560   120100644.62408  22854387.380    93584903.63347
  21667813.500   113865158.46709  21667808.360    88726085.72448
  21273626.460   111793696.84109  21273625.400    87111981.76648
 15 03 02 01 04  0.0000000  0  6G16G18G19G21G22G27
  20467452.600   107557197.37009  20467449.140    83810793.06848
  21730950.980   114196960.09809  21730947.540    88984659.69048
  23040626.580   121079327.74708  23040621.420    94347491.92347
  22867471.760   120169381.89908  22867467.740    93638465.13347
  21655329.040   113799552.29009  21655323.980    88674964.06248
  21264787.340   111747247.18809  21264786.140    87075787.23448
 15 03 02 01 04 30.0000000  0  6G16G18G19G21G22G27
  20465907.080   107549075.19009  20465903.500    83804464.09948
  21730986.660   114197147.70809  21730983.180    88984805.89848
  23026966.860   121007545.91808  23026961.740    94291558.05047
  22880570.200   120238214.53508  22880566.160    93692100.95547
  21642917.340   113734328.85209  21642912.360    88624140.64748
  21255978.920   111700958.34209  21255977.620    87039718.01448
 15 03 02 01 05  0.0000000  0  6G16G18G19G21G22G27
  20464464.280   107541493.14609  20464460.640    83798556.00248
  21731117.460   114197835.33209  21731114.000    88985341.71547
  23013324.480   120935854.96608  23013319.320    94235695.00147
  22893686.560   120307141.29808  22893682.480    93745810.10547
  21630578.860   113669490.22209  21630574.000    88573617.07048
  21247201.320   111654831.16509  21247199.920    87003774.76748
 15 03 02 01 05 30.0000000  0  6G16G18G19G21G22G27
  20463123.600   107534448.30908  20463120.000    83793066.51748
  21731342.700   114199018.83209  21731339.100    88986263.93547
  22999698.780   120864251.32708  22999693.540    94179899.97247
  22906819.780   120376156.77708  22906815.720    93799588.40347
