     2.11           OBSERVATION DATA    G                   RINEX VERSION / TYPE
SPIDER V4,0,0,3554                      2015 04 17 04:53    PGM / RUN BY / DATE 
CABS                                                        MARKER NAME         
CABS                                                        MARKER NUMBER       
                                                            OBSERVER / AGENCY   
462287              LEICA GRX1200PRO    8.10/2.127          REC # / TYPE / VERS 
103298              LEIAT504                                ANT # / TYPE        
  5116912.3402   671231.6412  3737143.4301                  APPROX POSITION XYZ 
        0.0600        0.0000        0.0000                  ANTENNA: DELTA H/E/N
     1     1                                                WAVELENGTH FACT L1/2
     4    C1    L1    P2    L2                              # / TYPES OF OBSERV 
    30.000                                                  INTERVAL            
  2015    03    02    00    00    0.0000000     GPS         TIME OF FIRST OBS   
  2015    03    02    23    59   30.0000000     GPS         TIME OF LAST OBS    
    16                                                      LEAP SECONDS        
    30                                                      # OF SATELLITES     
   G 1   801   801   801   801                              PRN / # OF OBS      
   G 2   937   937   937   937                              PRN / # OF OBS      
   G 3   847   847   847   847                              PRN / # OF OBS      
   G 4   831   831   831   831                              PRN / # OF OBS      
   G 5   656   656   656   656                              PRN / # OF OBS      
   G 6   830   830   830   830                              PRN / # OF OBS      
   G 7   674   674   674   674                              PRN / # OF OBS      
   G 9   807   807   807   807                              PRN / # OF OBS      
   G10   750   750   750   750                              PRN / # OF OBS      
   G11   769   769   769   769                              PRN / # OF OBS      
   G12   798   798   798   798                              PRN / # OF OBS      
   G13   791   791   791   791                              PRN / # OF OBS      
   G14   922   922   922   922                              PRN / # OF OBS      
   G15   686   686   686   686                              PRN / # OF OBS      
   G16   664   664   664   664                              PRN / # OF OBS      
   G17   942   942   942   942                              PRN / # OF OBS      
   G18   904   904   904   904                              PRN / # OF OBS      
   G19   749   749   749   749                              PRN / # OF OBS      
   G20   766   766   766   766                              PRN / # OF OBS      
   G21   693   693   693   693                              PRN / # OF OBS      
   G22   653   653   646   646                              PRN / # OF OBS      
   G23   753   753   753   753                              PRN / # OF OBS      
   G24   814   814   814   814                              PRN / # OF OBS      
   G25   833   833   833   833                              PRN / # OF OBS      
   G27   799   799   799   799                              PRN / # OF OBS      
   G28   875   875   875   875                              PRN / # OF OBS      
   G29   753   753   752   752                              PRN / # OF OBS      
   G30   720   720   720   720                              PRN / # OF OBS      
   G31   873   873   873   873                              PRN / # OF OBS      
   G32   767   767   767   767                              PRN / # OF OBS      
BIT 2 OF LLI FLAGS DATA COLLECTED UNDER A/S CONDITION       COMMENT             
SNR is mapped to RINEX snr flag value [2-9]                 COMMENT             
Lx:     = 25dBHz -> 1; 26-27dBHz -> 2; 28-31dBHz -> 3       COMMENT             
       32-35dBHz -> 4; 36-38dBHz -> 5; 39-41dBHz -> 6       COMMENT             
       42-44dBHz -> 7; 45-48dBHz -> 8; >=49dBHz -> 9        COMMENT             
                                                            END OF HEADER       
 15 03 02 00 00  0.0000000  0  7G16G18G21G22G27G29G31
  21545552.620   113222651.07708  21545553.760    88225450.20548
  22273075.360   117045900.58308  22273077.100    91204661.58147
  21333693.400   112109438.09808  21333694.260    87358078.58748
  23633608.440   124195491.80207  23633613.000    96775748.83646
  22863131.700   120146583.05407  22863135.660    93620733.55947
  23959052.020   125905941.06806  23959055.240    98108665.15646
  23409095.120   123015601.47707  23409098.640    95856326.29946
 15 03 02 00 00 30.0000000  0  7G16G18G21G22G27G29G31
  21532773.960   113155498.66308  21532775.020    88173123.64648
  22262169.680   116988592.23808  22262171.740    91160005.76846
  21341373.880   112149799.15908  21341374.720    87389528.76848
  23615401.900   124099816.92106  23615406.400    96701197.30646
  22850424.180   120079804.51707  22850428.080    93568698.34447
  23973098.080   125979751.93806  23973101.060    98166180.07446
  23426777.180   123108520.13407  23426780.700    95928730.16046
 15 03 02 00 01  0.0000000  0  7G16G18G21G22G27G29G31
  21520057.400   113088672.49808  21520058.380    88121051.31848
  22251329.920   116931630.00508  22251332.180    91115619.65646
  21349111.400   112190460.03208  21349112.240    87421212.57048
  23597206.840   124004202.33606  23597211.220    96626692.77346
  22837734.340   120013119.20207  22837738.180    93516735.77847
  23987153.140   126053610.22906  23987155.820    98223731.95546
  23444481.580   123201556.48807  23444485.260    96001225.70346
 15 03 02 00 01 30.0000000  0  7G16G18G21G22G27G29G31
  21507402.500   113022170.44408  21507403.440    88069231.54448
  22240555.840   116875012.22408  22240558.060    91071501.94146
  21356904.800   112231414.51808  21356905.620    87453125.16448
  23579023.120   123908646.63907  23579027.240    96552234.11246
  22825061.500   119946523.15507  22825065.300    93464842.78247
  24001216.320   126127511.66406  24001218.720    98281317.46845
  23462207.000   123294703.05307  23462210.820    96073807.09246
 15 03 02 00 02  0.0000000  0  7G16G18G21G22G27G29G31
  21494809.860   112955995.54608  21494810.820    88017666.69648
  22229848.000   116818741.91708  22229850.000    91027654.98346
  21364754.000   112272662.14508  21364754.780    87485266.17548
  23560851.100   123813153.12606  23560855.080    96477823.88246
  22812405.780   119880017.34107  22812409.560    93413020.10147
  24015287.860   126201457.28406  24015290.040    98338937.41345
  23479953.040   123387957.58807  23479956.940    96146472.35846
 15 03 02 00 02 30.0000000  0  7G16G18G21G22G27G29G31
  21482280.000   112890150.65808  21482281.000    87966359.00248
  22219206.820   116762821.67108  22219208.560    90984080.80946
  21372658.680   112314201.50108  21372659.460    87517634.50548
  23542691.400   123717724.88406  23542695.240    96403464.53546
  22799767.320   119813602.19607  22799771.120    93361268.06247
  24029367.720   126275447.36806  24029370.060    98396592.00246
  23497719.420   123481318.10907  23497723.360    96219220.35546
 15 03 02 00 03  0.0000000  0  7G16G18G21G22G27G29G31
  21469812.980   112824635.97108  21469814.040    87915308.59648
  22208632.320   116707251.74908  22208633.820    90940779.61046
  21380618.100   112356028.48808  21380618.880    87550226.97348
  23524544.120   123622362.54707  23524547.880    96329156.51945
  22787145.800   119747275.94707  22787149.620    93309585.29947
  24043455.580   126349479.88506  24043458.180    98454279.60545
  23515504.900   123574778.90507  23515508.860    96292046.29846
 15 03 02 00 03 30.0000000  0  7G16G18G21G22G27G29G31
  21457409.440   112759454.96509  21457410.520    87864518.20848
  22198125.040   116652035.29108  22198126.380    90897753.83646
  21388632.280   112398143.36208  21388633.060    87583043.75848
  23506410.080   123527070.05107  23506413.840    96254902.92945
  22774541.480   119681039.98207  22774545.320    93257972.88847
  24057551.820   126423556.10506  24057554.480    98512001.31145
  23533309.260   123668338.97007  23533313.260    96364949.80746
 15 03 02 00 04  0.0000000  0  7G16G18G21G22G27G29G31
  21445069.580   112694608.50809  21445070.620    87813988.50948
  22187685.000   116597172.77108  22187686.340    90855003.85247
  21396700.580   112440542.91108  21396701.400    87616082.37048
  23488289.580   123431848.45907  23488293.280    96180704.58145
  22761954.120   119614892.84307  22761957.960    93206429.68547
  24071656.060   126497674.32606  24071658.600    98569755.79745
  23551131.620   123761993.97106  23551135.720    96437927.46346
 15 03 02 00 04 30.0000000  0  7G16G18G21G22G27G29G31
  21432794.060   112630100.27209  21432795.060    87763722.36048
  22177312.920   116542667.82208  22177314.380    90812532.50047
  21404822.880   112483226.26908  21404823.780    87649342.12848
  23470183.580   123336701.88507  23470186.980    96106564.68045
  22749384.000   119548836.21707  22749387.800    93154957.01247
  24085768.520   126571836.34306  24085771.020    98627544.37145
  23568971.440   123855741.52807  23568975.740    96510977.27046
 15 03 02 00 05  0.0000000  0  7G16G18G21G22G27G29G31
  21420583.520   112565933.55208  21420584.500    87713722.32048
  22167009.620   116488524.13008  22167011.180    90770342.64746
  21412999.120   112526193.05008  21413000.060    87682822.73848
  23452092.660   123241634.15507  23452095.760    96032486.23245
  22736831.360   119482871.50708  22736835.160    93103555.96247
  24099889.480   126646043.09006  24099891.840    98685367.75844
  23586828.500   123949580.44906  23586832.980    96584098.26646
 15 03 02 00 05 30.0000000  0  7G16G18G21G22G27G29G31
  21408437.780   112502107.43609  21408438.780    87663987.68448
  22156774.940   116434740.42308  22156776.500    90728433.30347
  21421228.480   112569438.75508  21421229.440    87716520.70248
  23434016.840   123146645.03207  23434019.580    95958469.02946
  22724295.640   119416995.62507  22724299.420    93052224.11847
  24114018.580   126720291.42106  24114020.840    98743223.58744
  23604701.740   124043504.63106  23604706.320    96657285.76445
 15 03 02 00 06  0.0000000  0  7G16G18G21G22G27G29G31
  21396357.580   112438625.64309  21396358.580    87614521.35848
  22146609.440   116381320.00308  22146610.960    90686807.03647
  21429510.840   112612962.79308  21429511.760    87750435.54148
  23415956.660   123051738.17207  23415959.140    95884515.91845
  22711777.140   119351210.31907  22711780.900    93000962.85947
  24128155.980   126794582.55606  24128157.680    98801112.82745
  23622590.880   124137512.10806  23622595.480    96730538.11046
 15 03 02 00 06 30.0000000  0  7G16G18G21G22G27G29G31
  21384343.820   112375492.74009  21384344.800    87565326.88648
  22136514.000   116328267.81308  22136515.480    90645467.70247
  21437846.340   112656766.04108  21437847.220    87784567.94648
  23397913.080   122956918.92907  23397915.340    95810631.08346
  22699276.300   119285517.99307  22699280.080    92949774.04847
  24142301.960   126868919.14206  24142303.340    98859037.37845
  23640495.880   124231602.15906  23640500.400    96803854.62446
 15 03 02 00 07  0.0000000  0  7G16G18G21G22G27G29G31
  21372396.420   112312708.68709  21372397.380    87516404.25448
  22126488.400   116275582.81208  22126489.820    90604414.49747
  21446234.140   112700844.07008  21446234.960    87818914.46448
  23379886.140   122862187.72107  23379888.320    95736814.82345
  22686792.740   119219916.42107  22686796.520    92898655.96347
  24156456.060   126943298.89806  24156457.420    98916995.58445
  23658415.780   124325769.92007  23658420.220    96877231.77846
 15 03 02 00 07 30.0000000  0  7G16G18G21G22G27G29G31
  21360516.060   112250277.01109  21360517.000    87467756.19448
  22116533.340   116223268.93108  22116534.800    90563650.46547
  21454674.080   112745196.15408  21454674.860    87853474.53048
  23361876.460   122767548.05607  23361878.740    95663069.89746
  22674326.740   119154407.12307  22674330.480    92847609.76647
  24170618.480   127017722.67906  24170620.000    98974988.06145
  23676350.080   124420013.20607  23676354.480    96950667.72646
 15 03 02 00 08  0.0000000  0  7G16G18G21G22G27G29G31
  21348703.260   112188200.40909  21348704.220    87419384.81548
  22106649.340   116171328.58608  22106650.900    90523177.50447
  21463166.060   112789821.64708  21463166.820    87888247.64548
  23343884.780   122673003.21507  23343887.260    95589398.85746
  22661878.380   119088990.82307  22661882.100    92796636.04747
  24184789.380   127092191.38206  24184791.100    99033015.57845
  23694298.260   124514329.91707  23694302.740    97024160.91346
 15 03 02 00 08 30.0000000  0  7G16G18G21G22G27G29G31
  21336958.480   112126481.27909  21336959.420    87371291.98648
  22096836.880   116119764.19208  22096838.540    90482997.48347
  21471709.840   112834719.60908  21471710.640    87923233.07048
  23325911.840   122578556.03407  23325914.420    95515803.90946
  22649447.780   119023667.88407  22649451.500    92745735.08247
  24198968.760   127166705.07306  24198970.580    99091078.20145
  23712259.880   124608717.56406  23712264.540    97097709.46145
 15 03 02 00 09  0.0000000  0  7G16G18G21G22G27G29G31
  21325281.800   112065120.00309  21325282.800    87323478.00548
  22087095.960   116068575.61408  22087097.620    90443110.31247
  21480304.520   112879885.04908  21480305.360    87958426.91748
  23307957.640   122484207.36407  23307960.280    95442285.70846
  22637034.600   118958436.51907  22637038.320    92694905.46147
  24213156.220   127241261.58206  24213158.540    99149174.14245
  23730233.980   124703170.94606  23730238.820    97171309.25946
 15 03 02 00 09 30.0000000  0  7G16G18G21G22G27G29G31
  21313673.820   112004119.59909  21313674.820    87275945.22248
  22077427.160   116017765.75608  22077428.760    90403518.24147
  21488950.140   112925318.04708  21488950.980    87993829.25748
  23290022.920   122389960.64107  23290025.540    95368846.93146
  22624639.060   118893297.84707  22624642.780    92644148.07747
  24227352.060   127315861.98206  24227354.780    99207304.33345
  23748220.160   124797687.96207  23748225.120    97244958.66346
 15 03 02 00 10  0.0000000  0  7G16G18G21G22G27G29G31
  21302134.580   111943480.54109  21302135.600    87228694.00648
  22067830.540   115967335.05608  22067832.020    90364221.62347
  21497645.940   112971014.90508  21497646.820    88029437.19948
  23272107.800   122295816.84307  23272110.420    95295488.35746
  22612260.900   118828250.44807  22612264.600    92593461.81547
  24241556.100   127390504.81606  24241559.220    99265467.48845
  23766217.620   124892264.09906  23766222.680    97318654.19246
 15 03 02 00 10 30.0000000  0  7G16G18G21G22G27G29G31
  21290664.760   111883206.47209  21290665.820    87181727.20148
  22058306.680   115917286.63708  22058308.060    90325222.89047
  21506391.860   113016974.99608  21506392.720    88065250.26148
  23254213.040   122201780.35907  23254215.740    95222213.39146
  22599900.440   118763295.90807  22599904.160    92542847.90447
  24255768.580   127465191.41906  24255771.320    99323664.85444
  23784226.000   124986897.86306  23784231.120    97392394.60746
 15 03 02 00 11  0.0000000  0  7G16G18G21G22G27G29G31
  21279264.740   111823299.24409  21279265.840    87135046.24448
  22048855.860   115867622.10108  22048857.160    90286523.28247
  21515187.480   113063196.26708  21515188.320    88101266.83848
  23236338.940   122107853.14506  23236341.860    95149023.58446
  22587557.600   118698433.82008  22587561.300    92492306.04147
  24269989.340   127539920.98406  24269991.660    99381895.66345
  23802244.580   125081585.62507  23802249.720    97466177.10946
 15 03 02 00 11 30.0000000  0  7G16G18G21G22G27G29G31
  21267935.400   111763763.46009  21267936.560    87088654.72448
  22039478.840   115818345.58608  22039480.140    90248126.02647
  21524033.020   113109680.05408  21524033.900    88137487.97148
  23218486.580   122014040.27006  23218489.720    95075922.88246
  22575232.900   118633666.79308  22575236.560    92441838.24847
  24284218.760   127614695.63006  24284220.840    99440161.56645
  23820273.160   125176326.55206  23820278.480    97540001.03446
 15 03 02 00 12  0.0000000  0  7G16G18G21G22G27G29G31
  21256677.220   111704601.50609  21256678.420    87042554.50248
  22030176.060   115769459.40708  22030177.380    90210032.92647
  21532928.080   113156424.05708  21532928.980    88173911.87148
  23200656.720   121920344.81406  23200659.920    95002913.64046
  22562926.420   118568995.49408  22562930.020    92391445.04547
  24298456.800   127689516.41307  24298458.700    99498463.41344
  23838311.380   125271118.36406  23838316.980    97613864.55646
 15 03 02 00 12 30.0000000  0  7G16G18G21G22G27G29G31
  21245489.980   111645812.17809  21245491.200    86996744.63748
  22020947.340   115720962.36108  22020948.680    90172243.04947
  21541871.760   113203423.51508  21541872.700    88210534.82348
  23182849.160   121826765.95907  23182852.240    94929995.25946
  22550637.520   118504416.83608  22550641.120    92341124.02747
  24312702.760   127764380.05506  24312704.640    99556798.65345
  23856358.200   125365954.78806  23856363.980    97687762.80746
 15 03 02 00 13  0.0000000  0  7G16G18G21G22G27G29G31
  21234374.380   111587399.20409  21234375.600    86951228.03148
  22011793.300   115672857.68308  22011794.720    90134758.90847
  21550863.940   113250677.97108  21550864.900    88247356.48648
  23165064.660   121733307.68907  23165067.460    94857170.83346
  22538366.540   118439932.32708  22538370.120    92290876.37247
  24326957.060   127839287.41405  24326959.100    99615168.01045
  23874413.320   125460834.28306  23874419.200    97761694.61645
 15 03 02 00 13 30.0000000  0  7G16G18G21G22G27G29G31
  21223331.500   111529368.24909  21223332.700    86906009.11248
  22002715.020   115625150.83608  22002716.480    90097584.76347
  21559905.080   113298189.64008  21559906.060    88284378.56748
  23147304.340   121639976.12807  23147306.780    94784445.14046
  22526114.180   118375545.78508  22526117.740    92240705.05547
  24341220.440   127914242.29006  24341222.140    99673574.48044
  23892476.900   125555757.33106  23892482.640    97835660.27446
 15 03 02 00 14  0.0000000  0  7G16G18G21G22G27G29G31
  21212360.820   111471716.78709  21212362.000    86861085.89048
  21993711.900   115577838.98208  21993713.360    90060718.40647
  21568993.880   113345951.53808  21568994.840    88321595.62948
  23129567.780   121546769.61307  23129569.900    94711816.88246
  22513879.560   118311252.75708  22513883.140    92190606.60047
  24355491.820   127989240.18305  24355493.700    99732014.32946
  23910547.400   125650716.44506  23910553.020    97909654.03245
 15 03 02 00 14 30.0000000  0  7G16G18G21G22G27G29G31
  21201463.140   111414448.83409  21201464.280    86816461.51248
  21984784.580   115530925.61708  21984786.020    90024162.56147
  21578130.440   113393964.43208  21578131.400    88359008.27648
  23111855.740   121453692.39607  23111857.680    94639289.37246
  22501663.100   118247055.15708  22501666.700    92140582.50947
  24369771.780   128064282.27606  24369774.160    99790488.66245
  23928624.500   125745710.27606  23928629.940    97983674.84146
 15 03 02 00 15  0.0000000  0  7G16G18G21G22G27G29G31
  21190639.140   111357568.19409  21190640.260    86772138.93748
  21975933.780   115484414.42808  21975935.220    89987920.10147
  21587314.640   113442227.41908  21587315.560    88396615.79848
  23094169.020   121360748.72807  23094170.880    94566865.93546
  22489465.160   118182954.96508  22489468.840    92090634.31547
  24384060.320   128139370.61006  24384063.080    99848998.93444
  23946707.920   125840737.70206  23946713.320    98057721.79746
 15 03 02 00 15 30.0000000  0  7G16G18G21G22G27G29G31
  21179888.020   111301070.63209  21179889.140    86728114.86748
  21967158.520   115438300.45108  21967159.980    89951987.16347
  21596544.940   113490732.73408  21596545.840    88434412.15148
  23076506.960   121267935.06707  23076508.840    94494543.79946
  22477284.580   118118945.90108  22477288.320    92040757.13647
  24398356.800   128214498.51004  24398359.380    99907540.31545
  23964795.860   125935788.82906  23964801.300    98131787.13745
 15 03 02 00 16  0.0000000  0  7G16G18G21G22G27G29G31
  21169212.020   111244967.88108  21169213.120    86684398.44648
  21958461.080   115392595.39308  21958462.580    89916372.86047
  21605822.900   113539488.41208  21605823.740    88472403.59548
  23058871.920   121175263.70607  23058873.840    94422332.52746
  22465123.360   118055038.18708  22465127.120    91990958.93247
  24412662.580   128289676.15406  24412665.200    99966120.19544
  23982889.720   126030871.12606  23982895.280    98205876.69446
 15 03 02 00 16 30.0000000  0  7G16G18G21G22G27G29G31
  21158609.760   111189252.88709  21158610.880    86640984.16648
  21949840.040   115347292.14208  21949841.580    89881071.65247
  21615146.420   113588483.65908  21615147.180    88510581.70348
  23041262.720   121082728.12307  23041264.620    94350227.05646
  22452979.700   117991222.71008  22452983.480    91941232.61147
  24426976.120   128364894.10705  24426978.660   100024731.57046
  24000987.100   126125972.30906  24000992.900    98279980.89846
 15 03 02 00 17  0.0000000  0  7G16G18G21G22G27G29G31
  21148083.000   111133934.35309  21148084.080    86597878.82148
  21941296.960   115302398.41608  21941298.460    89846089.55547
  21624516.300   113637722.64508  21624517.020    88548949.74648
  23023681.140   120990337.21907  23023682.860    94278234.31146
  22440854.880   117927506.10408  22440858.600    91891583.32647
  24441298.700   128440158.68806  24441301.220   100083379.20145
  24019088.840   126221096.21306  24019094.960    98354102.91345
 15 03 02 00 17 30.0000000  0  7G16G18G21G22G27G29G31
  21137631.400   111079010.83709  21137632.500    86555081.28548
  21932831.640   115257912.90908  21932833.020    89811425.55047
  21633931.620   113687200.33508  21633932.300    88587503.79548
  23006127.000   120898090.47307  23006128.540    94206353.91546
  22428748.280   117863885.15008  22428751.900    91842008.57347
  24455629.440   128515466.59405  24455632.020   100142060.61944
  24037193.640   126316235.87606  24037200.020    98428237.18746
 15 03 02 00 18  0.0000000  0  7G16G18G21G22G27G29G31
  21127256.760   111024491.66209  21127257.880    86512598.81348
  21924445.740   115213844.56508  21924447.040    89777086.60147
  21643393.500   113736922.70908  21643394.160    88626248.50148
  22988602.220   120805997.67207  22988603.580    94134593.44646
  22416661.300   117800367.43108  22416664.820    91792514.26147
  24469969.700   128590825.10306  24469972.200   100200781.53944
  24055302.400   126411395.88206  24055308.880    98502387.32146
 15 03 02 00 18 30.0000000  0  7G16G18G21G22G27G29G31
  21116957.540   110970368.72509  21116958.620    86470425.09648
  21916137.640   115170185.09508  21916138.900    89743066.26347
  21652899.580   113786877.28108  21652900.200    88665174.14648
  22971105.260   120714051.11707  22971106.580    94062946.94846
  22404592.020   117736942.96308  22404595.480    91743092.60247
  24484317.520   128666223.92905  24484320.100   100259533.85945
  24073412.540   126506563.15306  24073419.200    98576543.09345
 15 03 02 00 19  0.0000000  0  7G16G18G21G22G27G29G31
  21106735.340   110916650.86209  21106736.440    86428567.02448
  21907908.820   115126942.34008  21907910.060    89709370.63347
  21662450.780   113837069.13108  21662451.380    88704284.68548
  22953637.860   120622259.84907  22953639.220    93991421.45346
  22392541.700   117673618.47508  22392545.180    91693748.86347
  24498674.420   128741669.29305  24498676.940   100318322.42645
  24091524.760   126601741.45406  24091531.640    98650707.51446
 15 03 02 00 19 30.0000000  0  7G16G18G21G22G27G29G31
  21096590.120   110863337.58609  21096591.240    86387024.21648
  21899758.980   115084114.97308  21899760.320    89675998.67747
  21672046.200   113887493.52908  21672046.840    88743576.42248
  22936200.080   120530624.34607  22936201.560    93920017.30346
  22380509.980   117610391.73808  22380513.480    91644481.29247
  24513039.580   128817158.90005  24513042.340   100377145.40046
  24109637.980   126696925.23106  24109645.040    98724876.16946
 15 03 02 00 20  0.0000000  0  7G16G18G21G22G27G29G31
  21086522.420   110810431.64709  21086523.580    86345798.81348
  21891688.800   115041706.26908  21891690.280    89642952.95647
  21681685.720   113938149.81408  21681686.440    88783048.85448
  22918792.560   120439148.04107  22918794.260    93848737.21346
  22368497.080   117547263.92708  22368500.640    91595290.79847
  24527413.380   128892693.28705  24527416.260   100436003.40344
  24127752.000   126792112.49706  24127759.140    98799047.51245
 15 03 02 00 20 30.0000000  0  7G16G18G21G22G27G29G31
  21076532.640   110757935.19309  21076533.820    86304892.49048
  21883698.500   114999717.52408  21883700.160    89610234.47847
  21691369.120   113989036.53808  21691369.880    88822700.84448
  22901415.840   120347833.38207  22901417.760    93777583.07847
  22356503.040   117484235.28608  22356506.680    91546177.58047
  24541795.800   128968272.96505  24541798.680   100494896.58346
  24145866.180   126887300.12906  24145873.300    98873219.17445
 15 03 02 00 21  0.0000000  0  7G16G18G21G22G27G29G31
  21066621.180   110705850.20409  21066622.360    86264306.78548
  21875788.500   114958150.63508  21875790.260    89577844.72347
  21701096.020   114040151.79508  21701096.800    88862530.91848
  22884070.520   120256683.54907  22884072.520    93706557.38047
  22344528.020   117421306.31508  22344531.700    91497142.03547
  24556186.880   129043897.92806  24556189.740   100553825.07645
  24163979.920   126982485.64506  24163986.960    98947389.19546
 15 03 02 00 21 30.0000000  0  6G16G18G21G22G27G31
  21056787.860   110654175.76909  21056789.040    86224040.99248
  21867958.620   114917004.25908  21867960.320    89545782.63947
  21710865.400   114091490.43508  21710866.240    88902535.05648
  22866756.400   120165697.48307  22866758.380    93635659.29346
  22332571.420   117358473.85008  22332575.120    91448181.68148
  24182092.080   127077662.65606  24182099.000    99021552.61645
 15 03 02 00 22  0.0000000  0  6G16G18G21G22G27G31
  21047035.540   110602926.97109  21047036.740    86184106.86848
  21860211.500   114876292.63008  21860213.140    89514059.30147
  21720679.420   114143063.69808  21720680.340    88942722.01448
  22849476.540   120074890.96507  22849478.240    93564901.09946
  22320635.700   117295751.33108  22320639.400    91399306.99347
  24200204.480   127172841.58506  24200211.400    99095717.54746
 15 03 02 00 22 30.0000000  0  7G16G18G19G21G22G27G31
  21037362.860   110552096.52909  21037364.020    86144498.73348
  21852545.740   114836008.50508  21852547.300    89482669.10747
  24534810.420   128931299.96505  24534810.220   100465945.23645
  21730536.060   114194861.11108  21730537.060    88983083.62848
  22832229.520   119984257.31507  22832230.900    93494277.61446
  22308719.200   117233129.81208  22308722.900    91350511.01347
  24218314.760   127268010.35406  24218321.800    99169874.74445
 15 03 02 00 23  0.0000000  0  7G16G18G19G21G22G27G31
  21027763.460   110501651.18409  21027764.580    86105190.67248
  21844954.740   114796117.53408  21844956.260    89451585.25047
  24519475.120   128850712.98705  24519475.200   100403150.21545
  21740428.300   114246845.55608  21740429.400    89023590.98648
  22815009.060   119893763.87307  22815010.180    93423763.37846
  22296815.260   117170574.25008  22296818.980    91301766.43947
  24236415.720   127363130.53206  24236422.860    99243994.09346
 15 03 02 00 23 30.0000000  0  7G16G18G19G21G22G27G31
  21018250.440   110451659.91309  21018251.520    86066236.43548
  21837451.660   114756688.92908  21837453.180    89420861.68247
  24504155.160   128770206.39005  24504155.400   100340417.87845
  21750368.500   114299081.90108  21750369.640    89064294.63448
  22797828.520   119803480.60607  22797829.400    93353412.89546
  22284936.720   117108152.09308  22284940.460    91253125.80748
  24254519.600   127458266.45406  24254526.860    99318125.75946
 15 03 02 00 24  0.0000000  0  7G16G18G19G21G22G27G31
  21008818.060   110402092.54809  21008819.100    86027612.51648
  21830030.640   114717691.53208  21830032.180    89390474.11847
  24488844.240   128689747.54105  24488844.540   100277722.70345
  21760350.220   114351536.06008  21760351.340    89105168.00448
  22780682.180   119713377.40007  22780682.960    93283202.72746
  22273077.480   117045831.13308  22273081.180    91204564.04448
  24272619.740   127553383.16106  24272627.220    99392242.61246
 15 03 02 00 24 30.0000000  0  7G16G18G19G21G22G27G31
  20999467.320   110352954.04809  20999468.320    85989322.78148
  21822692.560   114679129.85308  21822694.140    89360426.07747
  24473542.920   128609339.42305  24473543.420   100215067.09445
  21770373.660   114404209.22808  21770374.740    89146212.02748
  22763571.260   119623460.21907  22763572.040    93213137.50946
  22261238.140   116983614.86308  22261241.840    91156083.84848
  24290716.080   127648480.14306  24290723.760    99466343.96245
 15 03 02 00 25  0.0000000  0  7G16G18G19G21G22G27G31
  20990198.060   110304243.60809  20990199.060    85951366.59448
  21815437.220   114641002.81808  21815438.820    89330716.72647
  24458250.760   128528979.28905  24458251.400   100152448.84545
  21780437.940   114457097.19708  21780439.000    89187423.43648
  22746495.780   119533728.82607  22746496.620    93143217.05747
  22249418.200   116921500.78508  22249421.940    91107683.28247
  24308807.660   127743552.11406  24308815.600    99540425.81646
 15 03 02 00 25 30.0000000  0  7G16G18G19G21G22G27G31
  20981010.960   110255964.78009  20981011.980    85913746.73048
  21808265.240   114603313.58808  21808266.820    89301348.51747
  24442968.080   128448668.81606  24442968.800   100089869.28445
  21790543.120   114510200.09508  21790544.140    89228802.31348
  22729456.620   119444187.56207  22729457.480    93073444.75647
  22237618.080   116859490.84408  22237621.820    91059363.87247
  24326894.320   127838597.73606  24326902.560    99614487.13546
 15 03 02 00 26  0.0000000  0  7G16G18G19G21G22G27G31
  20971905.820   110208117.02309  20971906.900    85876462.76148
  21801176.200   114566060.51008  21801177.800    89272320.17047
  24427694.480   128368405.49005  24427695.160   100027326.46845
  21800688.360   114563513.50208  21800689.360    89270345.21748
  22712453.700   119354836.23308  22712454.580    93003820.43847
  22225837.340   116797582.73408  22225841.080    91011123.79148
  24344975.020   127933611.47306  24344983.340    99688523.50645
 15 03 02 00 26 30.0000000  0  7G16G18G19G21G22G27G31
  20962883.400   110160703.77009  20962884.460    85839517.37548
  21794170.840   114529247.27908  21794172.480    89243634.55547
  24412430.220   128288191.17606  24412430.860    99964821.87145
  21810873.520   114617036.94008  21810874.520    89312051.78848
  22695487.740   119265678.93108  22695488.600    92934347.31647
  22214076.320   116735778.21508  22214080.060    90962964.43748
  24363049.520   128028592.11106  24363057.880    99762534.23245
 15 03 02 00 27  0.0000000  0  7G16G18G19G21G22G27G31
  20953944.340   110113728.57709  20953945.320    85802913.32748
  21787249.640   114492876.47908  21787251.360    89215293.69347
  24397175.560   128208027.13606  24397176.120    99902356.42445
  21821098.660   114670770.21608  21821099.640    89353921.87148
  22678559.460   119176719.99508  22678560.360    92865028.75547
  22202335.460   116674079.29308  22202339.140    90914887.37248
  24381117.440   128123538.35806  24381125.760    99836518.11945
 15 03 02 00 27 30.0000000  0  7G16G18G19G21G22G27G31
  20945088.620   110067191.29209  20945089.560    85766650.50748
  21780412.460   114456947.45008  21780414.280    89187297.06147
  24381930.140   128127911.56906  24381930.500    99839928.75945
  21831363.040   114724709.55508  21831363.940    89395952.52148
  22661668.920   119087959.94008  22661669.940    92795865.17247
  22190614.340   116612484.24408  22190617.980    90866891.23648
  24399177.880   128218445.27006  24399186.260    99910471.33746
 15 03 02 00 28  0.0000000  0  7G16G18G19G21G22G27G31
  20936316.980   110021095.91009  20936317.920    85730732.02848
  21773660.060   114421464.01308  21773662.000    89159647.65247
  24366694.280   128047846.49806  24366694.540    99777540.44945
  21841666.600   114778854.96608  21841667.460    89438143.74848
  22644816.980   118999403.25708  22644818.140    92726860.06047
  22178913.400   116550995.39808  22178917.060    90818977.86148
  24417230.780   128313312.16106  24417239.140    99984393.34946
 15 03 02 00 28 30.0000000  0  7G16G18G19G21G22G27G31
  20927629.680   109975443.88009  20927630.640    85695159.01548
  21766992.640   114386426.47908  21766994.480    89132345.69247
  24351467.920   127967831.33106  24351468.080    99715191.01944
  21852009.000   114833204.45008  21852009.820    89480493.98948
  22628004.140   118911052.09308  22628005.400    92658015.09247
  22167232.680   116489612.63108  22167236.340    90771147.14548
  24435275.360   128408135.56306  24435283.780   100058281.53344
 15 03 02 00 29  0.0000000  0  7G16G18G19G21G22G27G31
  20919027.040   109930236.98309  20919028.060    85659932.86748
  21760410.380   114351836.27508  21760412.100    89105392.30947
  24336251.080   127887866.39406  24336251.260    99652880.73045
  21862389.920   114887756.54008  21862390.760    89523002.10948
  22611230.940   118822909.24908  22611232.200    92589332.45247
  22155572.220   116428336.26908  22155575.860    90723399.33848
  24453311.080   128502912.53706  24453319.500   100132133.41944
 15 03 02 00 29 30.0000000  0  7G16G18G19G21G22G27G31
  20910509.460   109885477.16509  20910510.520    85625055.08648
  21753913.620   114317694.89508  21753915.160    89078788.66547
  24321043.680   127807951.39106  24321044.020    99590609.35045
  21872809.100   114942509.56908  21872809.900    89565666.80548
  22594497.880   118734977.10008  22594499.040    92520813.98947
  22143932.020   116367166.59208  22143935.660    90675734.67548
  24471337.540   128597640.69206  24471345.920   100205947.33146
 15 03 02 00 30  0.0000000  0  7G16G18G19G21G22G27G31
  20902077.300   109841166.15709  20902078.380    85590527.02748
  21747502.560   114284003.77008  21747503.920    89052535.86147
  24305845.800   127728086.32906  24305846.180    99528376.84745
  21883266.060   114997461.24908  21883266.840    89608486.28648
  22577805.400   118647258.15608  22577806.380    92452461.64547
  22132312.180   116306103.95508  22132315.800    90628153.41448
  24489354.040   128692316.54906  24489362.360   100279720.35344
 15 03 02 00 30 30.0000000  0  7G16G18G19G21G22G27G31
  20893731.680   109797309.63609  20893732.760    85556353.11348
  21741178.000   114250767.66508  21741179.220    89026637.60747
  24290658.180   127648275.38005  24290658.740    99466186.52245
  21893761.280   115052613.98908  21893762.060    89651462.44348
  22561154.720   118559758.78308  22561155.520    92384280.38747
  22120713.500   116245152.56208  22120717.100    90580658.83048
  24507360.660   128786941.50805  24507369.200   100353453.73145
 15 03 02 00 31  0.0000000  0  7G16G18G19G21G22G27G31
  20885472.440   109753906.92109  20885473.520    85522532.81648
  21734939.700   114217985.33708  21734940.900    89001092.95747
  24275480.280   127568515.80306  24275480.960    99404036.24246
  21904293.880   115107963.08408  21904294.640    89694591.60848
  22544545.840   118472478.85108  22544546.480    92316270.13847
  22109135.500   116184310.06908  22109139.140    90533249.11148
  24525356.420   128881509.83305  24525365.260   100427142.89745
 15 03 02 00 31 30.0000000  0  7G16G18G19G21G22G27G31
  20877299.480   109710957.77609  20877300.560    85489065.94748
  21728787.460   114185655.44508  21728788.700    88975900.84747
  24260311.780   127488805.42206  24260312.540    99341924.28045
  21914863.120   115163504.80108  21914863.860    89737870.86048
  22527978.940   118385419.18208  22527979.460    92248431.51447
  22097577.880   116123574.79408  22097581.540    90485922.93848
  24543340.400   128976016.39706  24543349.560   100500783.92645
 15 03 02 00 32  0.0000000  0  7G16G18G19G21G22G27G31
  20869213.760   109668467.15709  20869214.860    85455956.36648
  21722722.220   114153782.88008  21722723.560    88951065.09447
  24245153.320   127409147.38806  24245154.020    99279853.13445
  21925469.260   115219240.44108  21925469.960    89781301.23048
  22511454.960   118298584.94208  22511455.420    92180768.54947
  22086041.300   116062950.14808  22086045.000    90438682.96848
  24561312.820   129070462.17506  24561322.240   100574377.54845
 15 03 02 00 32 30.0000000  0  7G16G18G19G21G22G27G31
  20861215.160   109626434.21509  20861216.240    85423203.42449
  21716743.820   114122366.43008  21716745.260    88926584.75947
  24230004.480   127329539.37306  24230005.160    99217820.95945
  21936111.500   115275166.00008  21936112.200    89824879.58648
  22494973.920   118211976.38708  22494974.420    92113281.44547
  22074525.440   116002433.93708  22074529.140    90391527.49248
  24579272.740   129164841.42906  24579282.320   100647919.33346
 15 03 02 00 33  0.0000000  0  7G16G18G19G21G22G27G31
  20853303.960   109584860.74909  20853305.100    85390808.51349
  21710852.440   114091407.14808  21710853.920    88902460.66147
  24214865.220   127249981.53906  24214865.720    99155827.86445
  21946789.580   115331279.95908  21946790.340    89868604.75148
  22478536.280   118125596.10308  22478536.880    92045972.20547
  22063030.340   115942026.68208  22063033.980    90344456.91548
  24597219.720   129259151.63806  24597229.200   100721407.29345
 15 03 02 00 33 30.0000000  0  7G16G18G19G21G22G27G31
  20845480.960   109543750.49609  20845482.120    85358774.54849
  21705048.620   114060907.78408  21705050.100    88878694.94147
  24199735.820   127170475.99706  24199736.220    99093875.52946
  21957503.480   115387582.06008  21957504.260    89912476.51648
  22462142.800   118039448.66708  22462143.620    91978844.40247
  22051556.380   115881730.55508  22051559.980    90297472.92848
  24615153.500   129353391.67106  24615162.760   100794840.58145
 15 03 02 00 34  0.0000000  0  7G16G18G19G21G22G27G31
  20837746.740   109503106.71709  20837747.860    85327104.06749
  21699332.840   114030871.47608  21699334.440    88855290.04648
  24184616.600   127091024.04906  24184616.960    99031964.97545
  21968253.140   115444071.88608  21968253.940    89956494.55248
  22445794.400   117953538.19408  22445795.400    91911901.23447
  22040103.980   115821547.63708  22040107.500    90250577.16848
  24633073.760   129447560.23506  24633082.820   100868218.15145
 15 03 02 00 34 30.0000000  0  7G16G18G19G21G22G27G31
  20830101.300   109462929.35409  20830102.360    85295797.02649
  21693704.940   114001297.25008  21693706.700    88832245.21348
  24169507.200   127011623.73406  24169507.560    98970094.65445
  21979037.880   115500746.20908  21979038.700    90000656.35648
  22429491.140   117867864.78808  22429492.240    91845142.79547
  22028672.760   115761476.16008  22028676.260    90203768.23848
  24650979.640   129541652.72806  24650988.400   100941536.40645
 15 03 02 00 35  0.0000000  0  7G16G18G19G21G22G27G31
  20822545.000   109423220.49309  20822545.980    85264855.05549
  21688165.240   113972186.24008  21688167.060    88809561.32848
  24154407.760   126932275.43406  24154408.020    98908264.85846
  21989857.440   115557603.59308  21989858.300    90044960.79948
  22413233.620   117782431.51708  22413234.680    91778571.46647
  22017262.900   115701517.00908  22017266.420    90157046.83648
  24668870.600   129635666.78406  24668879.140   101014793.56745
 15 03 02 00 35 30.0000000  0  7G16G18G19G21G22G27G31
  20815078.140   109383981.94709  20815079.140    85234279.56449
  21682713.960   113943539.73108  21682715.760    88787239.38947
  24139318.320   126852979.64206  24139318.480    98846475.95846
  22000711.500   115614642.13708  22000712.400    90089406.41148
  22397022.460   117697241.23808  22397023.340    91712189.49047
  22005874.540   115641670.75208  22005878.060    90110413.40148
  24686746.000   129729599.45806  24686754.500   101087987.25445
 15 03 02 00 36  0.0000000  0  7G16G18G19G21G22G27G31
  20807701.480   109345217.31909  20807702.480    85204073.35448
  21677351.860   113915361.61008  21677353.620    88765282.42647
  24124239.120   126773738.20506  24124239.300    98784729.42145
  22011600.220   115671862.71508  22011601.120    90133993.87348
  22380858.500   117612298.58508  22380859.120    91646000.48347
  21994508.100   115581939.73108  21994511.660    90063869.76048
  24704605.880   129823451.13106  24704614.420   101161118.03145
 15 03 02 00 36 30.0000000  0  6G16G18G19G21G22G27
  20800413.500   109306918.59409  20800414.460    85174230.19249
  21672077.100   113887642.41508  21672078.860    88743683.07047
  24109168.400   126694541.50506  24109168.660    98723017.73345
  22022521.320   115729253.29908  22022522.180    90178713.80248
  22364740.240   117527595.70608  22364740.500    91579998.31147
  21983161.740   115522314.37208  21983165.340    90017408.45648
 15 03 02 00 37  0.0000000  0  6G16G18G19G21G22G27
  20793217.700   109269104.39709  20793218.640    85144764.57649
  21666893.100   113860400.13808  21666894.840    88722455.34247
  24094109.320   126615406.27006  24094109.700    98661353.93646
  22033477.700   115786829.18608  22033478.500    90223578.13048
  22348671.280   117443152.27808  22348671.280    91514198.30747
  21971838.860   115462812.24908  21971842.440    89971043.17248
 15 03 02 00 37 30.0000000  0  6G16G18G19G21G22G27
  20786112.780   109231767.71409  20786113.700    85115671.05249
  21661798.380   113833627.06208  21661800.060    88701593.21247
  24079060.420   126536324.08706  24079060.860    98599731.48746
  22044467.360   115844579.92408  22044468.060    90268578.70148
  22332650.440   117358962.09308  22332650.280    91448595.62547
  21960537.780   115403424.93608  21960541.400    89924767.35548
 15 03 02 00 38  0.0000000  0  6G16G18G19G21G22G27
  20779099.200   109194911.32009  20779100.180    85086951.78149
  21656793.360   113807325.40108  21656794.980    88681098.41648
  24064021.900   126457296.31306  24064022.340    98538151.42546
  22055490.200   115902505.08208  22055490.800    90313715.17748
  22316678.420   117275029.22608  22316678.320    91383193.44747
  21949258.880   115344154.10308  21949262.520    89878582.30748
 15 03 02 00 38 30.0000000  0  6G16G18G19G21G22G27
  20772177.100   109158535.46309  20772178.140    85058606.96149
  21651877.920   113781494.51108  21651879.460    88660970.46047
  24048993.580   126378321.74806  24048994.020    98476612.80346
  22066545.580   115960601.38508  22066546.160    90358985.02248
  22300755.400   117191354.23708  22300755.560    91317992.21047
  21938001.900   115284998.48108  21938005.520    89832487.00748
 15 03 02 00 39  0.0000000  0  6G16G18G19G21G22G27
  20765347.040   109122643.41308  20765348.140    85030639.12649
  21647052.600   113756137.48608  21647054.100    88641211.75147
  24033975.580   126299401.71206  24033976.040    98415116.67946
  22077633.600   116018869.28208  22077634.160    90404388.57948
  22284882.200   117107941.43808  22284882.780    91252995.27647
  21926767.340   115225960.67508  21926770.960    89786483.52648
 15 03 02 00 39 30.0000000  0  6G16G18G19G21G22G27
  20758609.340   109087236.72309  20758610.460    85003049.49549
  21642317.560   113731254.93508  21642319.020    88621822.76347
  24018968.020   126220536.58106  24018968.420    98353663.35546
  22088753.660   116077182.43408  22088754.400    90449755.01948
  22269059.460   117024793.13708  22269060.320    91188204.44247
  21915555.240   115167040.81008  21915558.840    89740571.94948
 15 03 02 00 40  0.0000000  0  6G16G18G19G21G22G27
  20751964.260   109052316.55809  20751965.360    84975838.97749
  21637672.900   113706847.20008  21637674.300    88602803.76147
  24003970.820   126141725.65506  24003971.140    98292252.27346
  22099905.680   116135786.86308  22099906.480    90495420.80048
  22253287.560   116941911.35308  22253288.520    91123621.27547
  21904365.540   115108238.66808  21904369.100    89694752.09248
 15 03 02 00 40 30.0000000  0  6G16G18G19G21G22G27
  20745411.920   109017883.65009  20745413.000    84949008.13649
  21633118.640   113682914.39408  21633119.980    88584154.83647
  23988983.900   126062968.36206  23988984.200    98230882.97446
  22111089.080   116194556.12908  22111089.920    90541215.02548
  22237566.780   116859297.64008  22237567.620    91059247.00147
  21893198.180   115049554.07908  21893201.760    89649023.85348
 15 03 02 00 41  0.0000000  0  6G16G18G19G21G22G27
  20738953.200   108983942.71109  20738954.260    84922560.64249
  21628655.520   113659460.68508  21628656.820    88565879.23247
  23974007.740   125984267.95006  23974007.960    98169557.98646
  22122304.120   116253491.53608  22122305.000    90587138.72148
  22221898.140   116776957.87608  22221898.740    90995086.19247
  21882053.920   114990990.59208  21882057.500    89603389.97648
 15 03 02 00 41 30.0000000  0  6G16G18G19G21G22G27
  20732588.140   108950494.19709  20732589.240    84896496.86349
  21624283.540   113636485.64908  21624284.800    88547976.62747
  23959042.100   125905623.18606  23959042.340    98108276.36846
  22133550.260   116312590.36608  22133551.120    90633189.75148
  22206281.760   116694893.00908  22206282.100    90931139.59147
  21870932.600   114932547.50308  21870936.180    89557849.91348
 15 03 02 00 42  0.0000000  0  6G16G18G19G21G22G27
  20726317.000   108917539.08209  20726318.080    84870817.55249
  21620002.700   113613989.52208  21620003.940    88530447.18948
  23944087.020   125827033.87306  23944087.320    98047037.97746
  22144827.060   116371850.25308  22144827.920    90679366.28247
  22190718.060   116613105.30008  22190718.160    90867408.95647
  21859834.200   114874224.86508  21859837.780    89512403.71148
 15 03 02 00 42 30.0000000  0  6G16G18G19G21G22G27
  20720140.620   108885081.69409  20720141.660    84845526.07549
  21615813.560   113591975.37508  21615814.820    88513293.32248
  23929142.960   125748502.51806  23929143.320    97985844.73446
  22156134.680   116431272.03208  22156135.520    90725668.96147
  22175207.880   116531599.38208  22175207.940    90803897.90847
  21848759.220   114816025.66608  21848762.880    89467053.68848
 15 03 02 00 43  0.0000000  0  6G16G18G19G21G22G27
  20714058.580   108853120.18509  20714059.580    84820621.00149
  21611715.760   113570441.60308  21611717.120    88496513.76847
  23914209.420   125670026.37206  23914209.760    97924694.52746
  22167472.220   116490851.38308  22167473.100    90772094.42547
  22159751.180   116450374.77908  22159751.360    90740606.06947
  21837707.260   114757947.33408  21837711.000    89421797.86148
 15 03 02 00 43 30.0000000  0  6G16G18G19G21G22G27
  20708071.620   108821658.24009  20708072.600    84796105.19449
  21607709.840   113549390.88008  21607711.360    88480110.61548
  23899286.780   125591607.53506  23899287.080    97863588.94846
  22178839.760   116550588.51608  22178840.700    90818642.83847
  22144348.980   116369436.54708  22144349.380    90677537.35847
  21826678.840   114699992.52508  21826682.600    89376638.29248
 15 03 02 00 44  0.0000000  0  6G16G18G19G21G22G27
  20702179.920   108790697.08409  20702180.880    84771979.61049
  21603795.920   113528823.41208  21603797.540    88464084.02848
  23884374.880   125513245.72806  23884375.260    97802527.80445
  22190237.020   116610481.59008  22190237.960    90865312.75647
  22129001.680   116288786.25408  22129002.220    90614693.01147
  21815673.980   114642161.33508  21815677.680    89331575.03248
 15 03 02 00 44 30.0000000  0  6G16G18G19G21G22G27
  20696383.520   108760236.93108  20696384.500    84748244.42349
  21599973.960   113508738.78708  21599975.600    88448433.68648
  23869473.620   125434939.72506  23869474.080    97741510.18046
  22201663.340   116670527.33008  22201664.280    90912101.64047
  22113709.360   116208424.84308  22113710.060    90552073.76447
  21804692.480   114584452.86908  21804696.100    89286607.41048
 15 03 02 00 45  0.0000000  0  6G16G18G19G21G22G27
  20690682.820   108730279.79208  20690683.820    84724901.19249
  21596244.180   113489138.21908  21596245.740    88433160.52948
  23854583.200   125356690.28906  23854583.720    97680536.62746
  22213118.560   116730724.75708  22213119.480    90959008.72047
  22098472.620   116128355.27108  22098473.380    90489681.92747
  21793734.480   114526868.24008  21793738.060    89241736.28548
 15 03 02 00 45 30.0000000  0  6G16G18G19G21G22G27
  20685078.200   108700827.63308  20685079.280    84701951.45049
  21592606.800   113470023.20708  21592608.260    88418265.72648
  23839703.800   125278498.50105  23839704.220    97619608.00046
  22224602.500   116791073.00408  22224603.380    91006033.32647
  22083292.100   116048581.17608  22083292.880    90427520.34147
  21782800.300   114469408.79708  21782803.860    89196962.70948
 15 03 02 00 46  0.0000000  0  6G16G18G19G21G22G27
  20679570.340   108671883.63308  20679571.440    84679397.68249
  21589062.280   113451396.14008  21589063.600    88403751.14447
  23824835.660   125200365.97705  23824836.020    97558725.52846
  22236115.180   116851572.27808  22236116.020    91053175.61547
  22068168.540   115969106.36108  22068169.260    90365591.95147
  21771890.400   114412076.73608  21771893.920    89152288.38448
 15 03 02 00 46 30.0000000  0  6G16G18G19G21G22G27
  20674159.120   108643447.45408  20674160.220    84657239.61449
  21585610.300   113433255.73608  21585611.520    88389615.77947
  23809978.500   125122291.26105  23809978.820    97497888.10146
  22247655.960   116912219.11308  22247656.740    91100432.88947
  22053102.020   115889931.25608  22053102.600    90303897.11947
  21761004.480   114354870.80808  21761007.960    89107712.34348
 15 03 02 00 47  0.0000000  0  6G16G18G19G21G22G27
  20668845.220   108615522.75808  20668846.340    84635480.10449
  21582251.400   113415604.68408  21582252.520    88375861.72348
  23795132.660   125044276.12106  23795132.900    97437097.11345
  22259224.820   116973013.63308  22259225.580    91147805.24347
  22038093.380   115811060.50908  22038093.840    90242439.44847
  21750143.000   114297793.46908  21750146.520    89063236.50648
 15 03 02 00 47 30.0000000  0  6G16G18G19G21G22G27
  20663628.400   108588108.21008  20663629.560    84614118.11549
  21578985.180   113398441.23608  21578986.360    88362487.61647
  23780297.900   124966318.47906  23780298.020    97376350.93046
  22270821.060   117033951.92008  22270821.780    91195289.62447
  22023142.580   115732494.10108  22023142.980    90181218.91247
  21739305.600   114240842.76908  21739309.200    89018859.34348
 15 03 02 00 48  0.0000000  0  6G16G18G19G21G22G27
  20658509.320   108561207.36808  20658510.500    84593156.41449
  21575812.260   113381768.21208  21575813.560    88349495.65648
  23765474.560   124888420.95506  23765474.640    97315651.59346
  22282444.720   117095034.44208  22282445.420    91242886.38947
  22008250.580   115654236.32808  22008250.880    90120238.87147
  21728492.880   114184021.61208  21728496.500    88974583.13248
 15 03 02 00 48 30.0000000  0  6G16G18G19G21G22G27
  20653488.540   108534823.05408  20653489.760    84572597.20049
  21572733.020   113365587.53008  21572734.500    88336887.33848
  23750662.780   124810584.63606  23750662.920    97254999.92646
  22294095.760   117156261.10808  22294096.500    91290595.47947
  21993418.120   115576291.09008  21993418.380    90059502.35747
  21717705.160   114127331.89508  21717708.760    88930409.33448
 15 03 02 00 49  0.0000000  0  6G16G18G19G21G22G27
  20648565.560   108508952.48608  20648566.760    84552438.30749
  21569746.900   113349895.91208  21569748.520    88324660.11848
  23735862.060   124732806.14406  23735862.200    97194393.33746
  22305773.140   117217626.35908  22305773.960    91338412.55147
  21978644.900   115498656.85408  21978645.140    89999008.18148
  21706941.840   114070770.08808  21706945.360    88886335.21148
 15 03 02 00 49 30.0000000  0  6G16G18G19G21G22G27
  20643741.180   108483599.93008  20643742.360    84532683.06249
  21566854.520   113334696.28708  21566856.140    88312816.26648
  23721072.900   124655088.30706  23721073.060    97133834.01346
  22317477.100   117279131.14108  22317477.940    91386338.35447
  21963931.760   115421338.45508  21963932.040    89938760.12248
  21696203.520   114014339.72808  21696207.000    88842363.50848
 15 03 02 00 50  0.0000000  0  6G16G18G19G21G22G27
  20639015.580   108458766.70508  20639016.740    84513332.49249
  21564055.980   113319989.74708  21564057.560    88301356.64148
  23706295.360   124577431.65506  23706295.440    97073322.35046
  22329207.340   117340774.08208  22329208.240    91434371.81047
  21949279.240   115344338.47008  21949279.500    89878760.16247
  21685490.340   113958041.50008  21685493.760    88798494.76648
 15 03 02 00 50 30.0000000  0  6G16G18G19G21G22G27
  20634389.140   108434454.65408  20634390.300    84494388.03449
  21561351.400   113305776.85208  21561352.900    88290281.66848
  23691529.420   124499836.12206  23691529.500    97012858.32346
  22340963.720   117402554.26508  22340964.620    91482512.20247
  21934687.780   115267659.68108  21934688.000    89819010.49148
  21674802.440   113901876.30408  21674805.860    88754729.68448
 15 03 02 00 51  0.0000000  0  6G16G18G19G21G22G27
  20629862.120   108410665.13208  20629863.320    84475850.74849
  21558740.940   113292058.41108  21558742.340    88279591.98448
  23676775.160   124422302.55406  23676775.400    96952442.58846
  22352745.960   117464470.38308  22352746.860    91530758.52647
  21920157.820   115191304.44408  21920158.020    89759512.94247
  21664140.000   113845845.06908  21664143.480    88711068.98548
 15 03 02 00 51 30.0000000  0  6G16G18G19G21G22G27
  20625434.880   108387399.98108  20625436.140    84457722.05549
  21556224.680   113278835.34708  21556226.080    88269288.31048
  23662032.740   124344831.05506  23662033.020    96892075.19946
  22364553.720   117526520.91708  22364554.660    91579109.57947
  21905690.020   115115275.95108  21905690.140    89700269.99847
  21653503.280   113789948.85908  21653506.780    88667513.51048
 15 03 02 00 52  0.0000000  0  6G16G18G19G21G22G27
  20621107.540   108364659.51208  20621108.800    84440002.20549
  21553802.700   113266107.76908  21553804.120    88259370.73148
  23647302.200   124267421.96806  23647302.480    96831756.47146
  22376386.760   117588704.13808  22376387.680    91627564.03147
  21891284.660   115039575.86508  21891284.720    89641282.95347
  21642892.260   113734187.55508  21642895.740    88624063.14048
 15 03 02 00 52 30.0000000  0  6G16G18G19G21G22G27
  20616880.020   108342443.57108  20616881.240    84422691.07649
  21551474.740   113253874.30408  21551476.200    88249838.17748
  23632583.260   124190073.58706  23632583.580    96771485.03846
  22388244.360   117651016.31208  22388245.280    91676118.96347
  21876941.900   114964204.91208  21876941.960    89582552.37747
  21632306.700   113678560.22408  21632310.220    88580717.17948
 15 03 02 00 53  0.0000000  0  6G16G18G19G21G22G27
  20612752.940   108320755.38208  20612754.080    84405791.18549
  21549241.260   113242137.31708  21549242.740    88240692.48548
  23617876.300   124112788.24606  23617876.640    96711262.71646
  22400126.660   117713458.16008  22400127.540    91724774.95347
  21862662.640   114889167.18608  21862662.660    89524081.46047
  21621747.160   113623069.52208  21621750.700    88537477.67548
 15 03 02 00 53 30.0000000  0  6G16G18G19G21G22G27
  20608726.480   108299596.09808  20608727.600    84389303.42049
  21547102.300   113230897.06108  21547103.800    88231933.85348
  23603181.380   124035566.28506  23603181.720    96651089.79546
  22412033.360   117776028.18808  22412034.200    91773530.80947
  21848447.260   114814465.06408  21848447.280    89465872.05247
  21611213.700   113567716.07408  21611217.260    88494345.12448
 15 03 02 00 54  0.0000000  0  6G16G18G19G21G22G27
  20604800.920   108278966.97208  20604802.000    84373228.77349
  21545058.020   113220154.27608  21545059.500    88223562.86248
  23588498.520   123958407.58506  23588498.880    96590966.17346
  22423964.180   117838724.99408  22423965.000    91822385.45947
  21834296.120   114740100.40308  21834296.200    89407925.60248
  21600706.520   113512500.46808  21600710.100    88451319.99048
 15 03 02 00 54 30.0000000  0  6G16G18G19G21G22G27
  20600976.380   108258868.84508  20600977.440    84357567.89049
  21543108.400   113209909.04308  21543109.900    88215579.57148
  23573827.800   123881312.39606  23573828.160    96530892.03145
  22435918.760   117901546.62608  22435919.580    91871337.36947
  21820209.700   114666075.76108  21820209.820    89350244.09148
  21590225.680   113457423.23408  21590229.280    88408402.67048
 15 03 02 00 55  0.0000000  0  6G16G18G19G21G22G27
  20597253.040   108239302.58208  20597254.120    84342321.45049
  21541253.360   113200160.88408  21541254.900    88207983.61348
  23559169.200   123804280.54206  23559169.460    96470867.21846
  22447896.720   117964491.09108  22447897.540    91920385.00447
  21806188.320   114592392.99108  21806188.520    89292828.97648
  21579771.220   113402484.68408  21579774.860    88365593.41448
 15 03 02 00 55 30.0000000  0  6G16G18G19G21G22G27
  20593631.600   108220271.82108  20593632.700    84327492.28349
  21539493.500   113190912.82008  21539495.040    88200777.34648
  23544523.140   123727314.77506  23544523.360    96410893.91146
  22459898.320   118027559.88508  22459899.120    91969529.51347
  21792232.820   114519056.85308  21792233.160    89235683.95648
  21569343.820   113347688.09108  21569347.440    88322894.78248
 15 03 02 00 56  0.0000000  0  6G16G18G19G21G22G27
  20590112.120   108201776.86808  20590113.260    84313080.62749
  21537828.820   113182164.80208  21537830.320    88193960.71548
  23529889.540   123650414.70906  23529889.780    96350971.80446
  22471922.980   118090749.94508  22471923.760    92018768.51247
  21778343.520   114446068.77708  21778343.960    89178810.15748
  21558943.340   113293033.19708  21558946.960    88280306.55548
 15 03 02 00 56 30.0000000  0  6G16G18G19G21G22G27
  20586694.460   108183817.15108  20586695.660    84299086.04549
  21536258.980   113173915.14808  21536260.460    88187532.42748
  23515268.180   123573579.02807  23515268.420    96291099.88246
  22483970.280   118154059.32808  22483971.120    92068100.49747
  21764520.680   114373429.49908  21764521.040    89122208.15148
  21548569.700   113238519.26908  21548573.280    88237828.17248
 15 03 02 00 57  0.0000000  0  6G16G18G19G21G22G27
  20583378.920   108166393.93608  20583380.140    84285509.51049
  21534784.020   113166164.10708  21534785.520    88181492.67048
  23500659.160   123496807.84907  23500659.340    96231278.21146
  22496039.940   118217486.06608  22496040.800    92117523.92347
  21750764.740   114301141.47908  21750764.900    89065879.86447
  21538222.980   113184147.01708  21538226.560    88195460.19248
 15 03 02 00 57 30.0000000  0  6G16G18G19G21G22G27
  20580166.160   108149510.65308  20580167.340    84272353.69849
  21533404.480   113158914.63408  21533406.000    88175843.74148
