     2.11           OBSERVATION DATA    G                   RINEX VERSION / TYPE
SPIDER V4,0,0,3554                      2015 03 23 00:16    PGM / RUN BY / DATE 
CBCK                                                        MARKER NAME         
CBCK                                                        MARKER NUMBER       
                                                            OBSERVER / AGENCY   
496514              LEICA GRX1200+GNSS  8.10/4.007          REC # / TYPE / VERS 
10301041            LEIAR25         NONE                    ANT # / TYPE        
  5163537.3641   764112.0288  3655122.6807                  APPROX POSITION XYZ 
        0.0720        0.0000        0.0000                  ANTENNA: DELTA H/E/N
     1     1                                                WAVELENGTH FACT L1/2
     4    C1    L1    P2    L2                              # / TYPES OF OBSERV 
    30.000                                                  INTERVAL            
  2015    03    02    09    06    0.0000000     GPS         TIME OF FIRST OBS   
  2015    03    02    23    59   30.0000000     GPS         TIME OF LAST OBS    
    16                                                      LEAP SECONDS        
    26                                                      # OF SATELLITES     
   G 1    32    32    32    32                              PRN / # OF OBS      
   G 2   945   944   944   944                              PRN / # OF OBS      
   G 3   189   189   189   189                              PRN / # OF OBS      
   G 5   663   662   662   662                              PRN / # OF OBS      
   G 6   598   598   598   598                              PRN / # OF OBS      
   G 7   557   557   557   557                              PRN / # OF OBS      
   G 9   477   477   477   477                              PRN / # OF OBS      
   G10   602   602   602   602                              PRN / # OF OBS      
   G12   818   818   818   818                              PRN / # OF OBS      
   G13   781   781   781   781                              PRN / # OF OBS      
   G14   447   447   447   447                              PRN / # OF OBS      
   G15   657   657   656   656                              PRN / # OF OBS      
   G16   187   187   187   187                              PRN / # OF OBS      
   G17   498   498   498   498                              PRN / # OF OBS      
   G18   462   462   462   462                              PRN / # OF OBS      
   G20   556   556   556   556                              PRN / # OF OBS      
   G21   401   400   400   400                              PRN / # OF OBS      
   G22    62    62    60    60                              PRN / # OF OBS      
   G23   288   288   288   288                              PRN / # OF OBS      
   G24   820   819   819   819                              PRN / # OF OBS      
   G25   842   841   841   841                              PRN / # OF OBS      
   G27   130   130   129   129                              PRN / # OF OBS      
   G28   601   601   600   600                              PRN / # OF OBS      
   G29   710   710   709   709                              PRN / # OF OBS      
   G30   724   724   724   724                              PRN / # OF OBS      
   G31   530   530   530   530                              PRN / # OF OBS      
BIT 2 OF LLI FLAGS DATA COLLECTED UNDER A/S CONDITION       COMMENT             
SNR is mapped to RINEX snr flag value [2-9]                 COMMENT             
Lx:     = 25dBHz -> 1; 26-27dBHz -> 2; 28-31dBHz -> 3       COMMENT             
       32-35dBHz -> 4; 36-38dBHz -> 5; 39-41dBHz -> 6       COMMENT             
       42-44dBHz -> 7; 45-48dBHz -> 8; >=49dBHz -> 9        COMMENT             
                                                            END OF HEADER       
 15 03 02 09 06  0.0000000  0 10G01G03G06G07G09G10G17G20G23G30
  24146887.900   126892737.69308  24146898.400    98877495.64446
  21958068.740   115390424.06709  21958072.760    89914631.91148
  21243384.480   111634740.13409  21243388.320    86988123.04448
  22313014.600   117255684.73909  22313017.240    91368078.77248
  20399667.920   107200976.18309  20399669.400    83533234.25949
  22257190.860   116962322.56808  22257192.240    91139482.21047
  23799830.880   125068945.95308  23799835.960    97456335.40246
  21615146.240   113588361.45509  21615146.560    88510410.20947
  21068279.440   110714552.74209  21068277.320    86271071.64048
  24654519.520   129560383.32507  24654532.560   100956170.62146
 15 03 02 09 06 30.0000000  0 11G01G02G03G06G07G09G10G17G20G23G30
  24167638.780   127001783.02108  24167649.280    98962465.59746
  24854749.420                                                  
  21968286.800   115444120.35909  21968290.900    89956473.04248
  21233822.040   111584489.47509  21233825.940    86948966.68048
  22295674.100   117164559.87509  22295676.720    91297072.44248
  20399150.420   107198257.04109  20399151.960    83531115.41349
  22243283.360   116889238.61909  22243284.800    91082533.67546
  23814283.740   125144895.95108  23814288.780    97515516.90946
  21602734.160   113523135.67409  21602734.660    88459584.92547
  21076802.660   110759342.30009  21076800.520    86305972.52948
  24633383.580   129449314.56108  24633396.740   100869624.00245
 15 03 02 09 07  0.0000000  0 11G01G02G03G06G07G09G10G17G20G23G30
  24188411.860   127110944.43508  24188422.160    99047525.99346
  24835410.060   130510964.41507  24835409.460   101696847.66345
  21978547.020   115498038.37809  21978551.240    89998486.94448
  21224355.100   111534740.25909  21224358.960    86910201.04948
  22278384.640   117073703.25009  22278387.220    91226275.12248
  20398703.820   107195910.56309  20398705.500    83529286.95949
  22229401.000   116816286.88009  22229402.500    91025688.15546
  23828766.840   125221004.52208  23828771.860    97574822.00446
  21590352.140   113458067.47309  21590352.580    88408882.42047
  21085373.140   110804380.23509  21085371.020    86341066.94748
  24612244.800   129338231.57707  24612258.040   100783066.31345
 15 03 02 09 07 30.0000000  0 11G01G02G03G06G07G09G10G17G20G23G30
  24209204.420   127220208.21808  24209214.740    99132666.16746
  24816092.080   130409448.07907  24816091.660   101617743.94745
  21988847.280   115552166.79409  21988851.640    90040664.75648
  21214981.780   111485482.93809  21214985.580    86871818.69948
  22261144.480   116983105.63709  22261147.020    91155679.62548
  20398325.800   107193924.12809  20398327.560    83527739.04749
  22215541.820   116743456.61309  22215543.480    90968937.27746
  23843277.520   125297257.36208  23843282.500    97634239.49046
  21577998.120   113393146.43609  21577998.500    88358294.57947
  21093988.460   110849653.70509  21093986.320    86376344.90148
  24591101.560   129227125.29507  24591114.760   100696490.39145
 15 03 02 09 08  0.0000000  0 11G01G02G03G06G07G09G10G17G20G23G30
  24230017.800   127329581.60208  24230028.220    99217891.65045
  24796798.300   130308058.70908  24796798.020   101538739.15345
  21999189.500   115606515.42209  21999193.980    90083014.17348
  21205704.260   111436729.19209  21205707.980    86833828.75648
  22243956.000   116892779.58809  22243958.560    91085295.74448
  20398017.980   107192306.39209  20398019.760    83526478.43049
  22201707.800   116670758.60208  22201709.520    90912289.46246
  23857816.900   125373660.74808  23857821.940    97693774.28346
  21565674.100   113328383.26109  21565674.520    88307829.75347
  21102650.080   110895170.86009  21102647.980    86411812.73748
  24569956.260   129116008.01607  24569969.380   100609905.89845
 15 03 02 09 08 30.0000000  0 11G01G02G03G06G07G09G10G17G20G23G30
  24250850.860   127439057.98008  24250861.340    99303197.37845
  24777528.300   130206794.10507  24777528.160   101459831.60045
  22009572.840   115661079.90309  22009577.420    90125531.79648
  21196522.100   111388476.47309  21196525.780    86796229.22148
  22226818.820   116802723.06309  22226821.380    91015121.88548
  20397779.180   107191051.69709  20397781.080    83525500.70149
  22187898.260   116598189.27408  22187900.020    90855741.92246
  23872383.420   125450207.07708  23872388.540    97753420.46646
  21553379.540   113263774.78809  21553379.980    88257485.46647
  21111356.920   110940925.61309  21111354.860    86447465.72048
  24548808.440   129004877.69007  24548821.540   100523311.24645
 15 03 02 09 09  0.0000000  0 11G01G02G03G06G07G09G10G17G20G23G30
  24271703.380   127548636.84908  24271714.160    99388583.03346
  24758282.700   130105658.15207  24758282.760   101381024.32545
  22019997.620   115715861.95309  22020002.280    90168218.95248
  21187435.940   111340728.32509  21187439.620    86759022.84948
  22209733.740   116712940.23009  22209736.260    90945161.27548
  20397609.580   107190160.57709  20397611.640    83524806.26849
  22174113.720   116525751.07209  22174115.440    90799296.54547
  23886976.960   125526894.99708  23886982.040    97813176.97846
  21541114.960   113199323.89609  21541115.380    88207263.96747
  21120109.020   110986917.99609  21120107.020    86483303.86148
  24527659.060   128893738.47708  24527671.860   100436709.66745
 15 03 02 09 09 30.0000000  0 11G01G02G03G06G07G09G10G17G20G23G30
  24292574.900   127658315.47008  24292585.880    99474046.39646
  24739062.040   130004652.90908  24739062.180   101302318.88045
  22030463.820   115770861.43209  22030468.460    90211075.53448
  21178446.140   111293486.33109  21178449.740    86722210.88648
  22192701.140   116623433.53609  22192703.700    90875415.84148
  20397508.940   107189631.52609  20397511.060    83524393.96649
  22160354.320   116453444.50309  22160355.960    90742953.74847
  23901596.740   125603720.76508  23901601.640    97873040.86046
  21528880.460   113135031.00709  21528880.860    88157165.59647
  21128906.020   111033146.31209  21128904.060    86519325.86048
  24506508.440   128782592.50608  24506521.000   100350102.81945
 15 03 02 09 10  0.0000000  0 11G01G02G03G06G07G09G10G17G20G23G30
  24313464.760   127768090.23108  24313475.740    99559584.54846
  24719866.500   129903779.51108  24719866.680   101223716.16645
  22040971.200   115826077.34609  22040975.900    90254100.77648
  21169552.880   111246751.37009  21169556.400    86685794.01648
  22175721.360   116534204.39309  22175723.900    90805886.68548
  20397476.820   107189462.46609  20397478.920    83524262.18449
  22146619.900   116381269.55709  22146621.560    90686713.51847
  23916241.900   125680680.22108  23916246.800    97933008.94246
  21516676.180   113070896.77509  21516676.540    88107190.84347
  21137747.400   111079607.73809  21137745.460    86555529.50548
  24485356.800   128671441.22008  24485369.260   100263491.86346
 15 03 02 09 10 30.0000000  0 11G01G02G03G06G07G09G10G17G20G23G30
  24334373.240   127877962.52808  24334384.400    99645198.68545
  24700697.220   129803043.82608  24700697.340   101145220.76145
  22051520.360   115881513.16709  22051525.180    90297297.36248
  21160757.060   111200528.63209  21160760.500    86649776.26848
  22158795.560   116445258.79509  22158798.020    90736578.46448
  20397513.620   107189655.50209  20397515.680    83524412.54049
  22132911.340   116309230.71208  22132913.060    90630579.33247
  23930912.540   125757773.56408  23930917.400    97993081.34546
  21504502.940   113006925.34509  21504503.220    88057342.94047
  21146633.400   111126303.89709  21146631.540    86591916.04248
  24464205.300   128560290.41508  24464217.580   100176881.20445
 15 03 02 09 11  0.0000000  0 11G01G02G03G06G07G09G10G17G20G23G30
  24355298.660   127987924.14608  24355310.080    99730882.44946
  24681553.580   129702442.44908  24681553.500   101066829.95745
  22062110.340   115937163.11809  22062115.160    90340660.81348
  21152057.920   111154814.09609  21152061.380    86614154.53148
  22141923.040   116356593.30909  22141925.460    90667488.52148
  20397618.000   107190203.63709  20397620.060    83524839.60649
  22119227.640   116237323.01108  22119229.520    90574547.35746
  23945607.040   125834991.91708  23945611.880    98053251.18446
  21492359.720   112943111.94909  21492359.880    88007618.18748
  21155562.700   111173227.82409  21155560.960    86628480.06848
  24443053.260   128449136.72908  24443065.400   100090268.30145
 15 03 02 09 11 30.0000000  0 11G01G02G03G06G07G09G10G17G20G23G30
  24376241.800   128097979.22908  24376253.560    99816639.02946
  24662437.140   129601984.00608  24662437.060   100988550.57846
  22072742.340   115993033.71909  22072747.160    90384196.18148
  21143457.040   111109616.02209  21143460.500    86578935.22348
  22125105.580   116268217.00709  22125107.880    90598623.92048
  20397790.880   107191112.11109  20397792.980    83525547.45349
  22105570.340   116165553.84308  22105572.160    90518623.31847
  23960325.780   125912338.18808  23960330.760    98113520.65146
  21480248.080   112879464.38909  21480248.100    87958022.65748
  21164536.240   111220384.08509  21164534.580    86665225.13048
  24421902.320   128337989.00308  24421914.300   100003660.00746
 15 03 02 09 12  0.0000000  0 11G01G02G03G06G07G09G10G17G20G23G30
  24397201.940   128208123.07708  24397213.840    99902464.80846
  24643347.680   129501668.15407  24643347.720   100910382.35046
  22083415.900   116049122.58909  22083420.700    90427901.63448
  21134954.320   111064933.80809  21134957.780    86544117.88848
  22108343.100   116180129.92209  22108345.320    90529984.68848
  20398031.700   107192377.35609  20398033.780    83526533.30349
  22091939.180   116093921.57509  22091940.960    90462805.95447
  23975067.860   125989806.99908  23975073.060    98173885.60846
  21468167.720   112815981.39809  21468167.720    87908555.36947
  21173553.240   111267768.66309  21173551.660    86702148.10748
  24400752.520   128226847.33108  24400764.460    99917056.39145
 15 03 02 09 12 30.0000000  0 11G01G02G03G06G07G09G10G17G20G23G30
  24418178.420   128318352.68308  24418190.300    99988357.48845
  24624285.720   129401496.86508  24624285.820   100832326.76346
  22094130.780   116105429.06709  22094135.620    90471776.64848
  21126550.000   111020768.47509  21126553.400    86509703.32048
  22091636.060   116092333.98109  22091638.220    90461572.31648
  20398340.080   107193997.36009  20398342.120    83527795.60149
  22078334.300   116022426.37609  22078336.020    90407095.40747
  23989832.540   126067394.30808  23989837.840    98234342.88946
  21456118.680   112752663.26809  21456118.700    87859216.54648
  21182613.240   111315379.11609  21182611.680    86739247.09648
  24379604.200   128115713.52108  24379616.100    99830458.89545
 15 03 02 09 13  0.0000000  0 11G01G02G03G06G07G09G10G17G20G23G30
  24439171.220   128428668.15908  24439183.200   100074316.98846
  24605252.160   129301474.65108  24605252.160   100754387.30645
  22104887.560   116161955.80509  22104892.440    90515823.29248
  21118244.860   110977124.37309  21118248.200    86475694.88548
  22074985.380   116004834.01209  22074987.500    90393390.55948
  20398716.240   107195973.57909  20398718.280    83529335.46549
  22064756.220   115951071.90409  22064757.740    90351494.51247
  24004619.620   126145099.35408  24004624.960    98294891.94546
  21444101.700   112689513.89509  21444101.920    87810009.21848
  21191716.480   111363216.76609  21191714.920    86776523.11248
  24358458.360   128004592.58508  24358470.160    99743871.41946
 15 03 02 09 13 30.0000000  0 11G01G02G03G06G07G09G10G17G20G23G30
  24460179.120   128539062.64108  24460190.940   100160338.19645
  24586246.600   129201599.29108  24586246.500   100676562.28345
  22115685.440   116218698.21709  22115690.280    90560037.99548
  21110038.380   110933998.61409  21110041.680    86442090.36348
  22058390.660   115917628.16709  22058392.760    90325437.99548
  20399159.060   107198300.07809  20399161.020    83531148.26749
  22051204.140   115879854.25009  22051205.400    90296000.23247
  24019427.640   126222914.65008  24019433.120    98355526.87946
  21432116.160   112626529.85709  21432116.440    87760930.72248
  21200861.760   111411275.24809  21200860.200    86813971.19648
  24337314.660   127893482.64808  24337326.400    99657292.56746
 15 03 02 09 14  0.0000000  0 11G01G02G03G06G07G09G10G17G20G23G30
  24481202.080   128649536.66608  24481214.020   100246421.27245
  24567269.960   129101876.34107  24567269.820   100598856.02944
  22126524.940   116275659.23309  22126529.700    90604423.04748
  21101931.340   110891395.79209  21101934.700    86408893.32848
  22041852.900   115830722.19009  22041855.080    90257719.10648
  20399668.800   107200978.56409  20399670.680    83533235.35549
  22037678.740   115808777.30709  22037679.920    90240615.60147
  24034256.580   126300839.65008  24034262.180    98416247.32846
  21420162.960   112563715.15709  21420163.220    87711984.16647
  21210049.360   111459555.91709  21210047.780    86851592.41748
  24316173.960   127782388.73608  24316185.600    99570726.21245
 15 03 02 09 14 30.0000000  0 11G01G02G03G06G07G09G10G17G20G23G30
  24502240.340   128760091.52208  24502252.180   100332567.34645
  24548323.380   129002311.69508  24548323.240   100521273.13144
  22137406.780   116332842.65309  22137411.460    90648981.39448
  21093924.820   110849321.38709  21093928.240    86376108.04348
  22025373.200   115744121.47909  22025375.460    90190238.08748
  20400245.960   107204011.56309  20400247.820    83535598.69649
  22024180.880   115737845.80809  22024182.200    90185344.31147
  24049106.400   126378874.97208  24049112.120    98477053.70046
  21408242.880   112501074.59809  21408243.200    87663173.32848
  21219279.660   111508060.69109  21219278.000    86889388.26748
  24295037.580   127671317.20008  24295049.060    99484177.26046
 15 03 02 09 15  0.0000000  0 11G01G02G03G06G07G09G10G17G20G23G30
  24523292.060   128870716.56108  24523304.160   100418767.98145
  24529405.980   128902899.55908  24529405.720   100443809.00045
  22148329.400   116390240.26009  22148333.980    90693706.64348
  21086017.520   110807768.85209  21086021.100    86343729.39548
  22008950.540   115657820.49809  22008952.840    90122990.61148
  20400888.760   107207389.57809  20400890.640    83538230.86849
  22010709.180   115667052.44809  22010710.760    90130180.65847
  24063975.080   126457009.25108  24063980.900    98537937.19846
  21396354.600   112438601.32809  21396355.020    87614492.82148
  21228550.760   111556779.85109  21228548.960    86927351.16148
  24273904.400   127560262.26708  24273915.800    99397641.21146
 15 03 02 09 15 30.0000000  0 11G01G02G03G06G07G09G10G17G20G23G30
  24544358.720   128981420.64908  24544370.880   100505030.39145
  24510520.020   128803652.64908  24510519.780   100366473.65945
  22159294.740   116447862.74909  22159299.360    90738607.12648
  21078211.900   110766750.51309  21078215.540    86311767.00848
  21992587.440   115571832.47909  21992589.780    90055987.00648
  20401599.020   107211122.05409  20401600.960    83541139.24649
  21997266.040   115596408.96109  21997267.760    90075133.78347
  24078863.980   126535250.05008  24078869.840    98598903.68846
  21384500.420   112376307.27309  21384500.840    87565951.96348
  21237864.420   111605722.74009  21237862.580    86965488.39148
  24252776.880   127449237.11808  24252788.220    99311128.35545
 15 03 02 09 16  0.0000000  0 11G01G02G03G06G07G09G10G17G20G23G30
  24565438.160   129092192.42707  24565450.780   100591345.52645
  24491664.220   128704564.59708  24491663.880   100289262.12445
  22170301.140   116505701.31409  22170305.880    90783675.97648
  21070506.620   110726259.19309  21070510.300    86280215.27448
  21976282.740   115486151.04409  21976285.180    89989222.29548
  20402374.800   107215198.89009  20402376.820    83544315.95449
  21983849.920   115525907.43109  21983851.880    90020197.52947
  24093770.840   126613585.13508  24093776.860    98659943.64146
  21372678.720   112314184.42509  21372679.240    87517544.51748
  21247218.560   111654878.71509  21247216.700    87003791.65648
  24231653.860   127338235.44208  24231665.000    99224633.75645
 15 03 02 09 16 30.0000000  0 11G01G02G03G06G07G09G10G17G20G23G30
  24586531.100   129203034.74107  24586543.760   100677715.67545
  24472840.040   128605643.27808  24472839.780   100212180.52045
  22181349.680   116563761.42409  22181354.500    90828917.46648
  21062903.000   110686301.94709  21062906.780    86249079.71348
  21960037.920   115400784.09609  21960040.380    89922702.64248
  20403216.920   107219624.23409  20403218.980    83547764.23149
  21970462.100   115455554.32809  21970464.160    89965376.93247
  24108696.060   126692016.71808  24108702.160    98721058.80446
  21360891.000   112252239.83009  21360891.620    87469275.97348
  21256613.940   111704251.62009  21256612.160    87042263.95948
  24210536.800   127227265.12108  24210547.740    99138163.61146
 15 03 02 09 17  0.0000000  0 11G01G02G03G06G07G09G10G17G20G23G30
  24607636.380   129313942.12808  24607649.460   100764136.24146
  24454047.600   128506888.41808  24454047.560   100135228.63245
  22192439.840   116622040.20309  22192444.680    90874329.33848
  21055400.740   110646877.54109  21055404.700    86218359.33849
  21943852.960   115315731.44409  21943855.420    89856427.88648
  20404124.620   107224393.97509  20404126.660    83551480.86549
  21957102.200   115385347.59309  21957104.200    89910670.37947
  24123638.540   126770539.03208  24123644.920    98782244.63146
  21349136.880   112190471.69909  21349137.480    87421144.92548
  21266049.780   111753837.05509  21266048.040    87080901.85448
  24189425.620   127116325.87308  24189436.480    99051717.65745
 15 03 02 09 17 30.0000000  0 11G01G02G03G06G07G09G10G17G20G23G30
  24628753.900   129424913.38708  24628767.220   100850606.66445
  24435287.420   128408302.71008  24435287.400   100058408.55245
  22203571.720   116680538.35409  22203576.660    90919912.14747
  21048000.340   110607988.22909  21048004.460    86188055.94148
  21927728.380   115230996.19709  21927730.840    89790400.46548
  20405097.760   107229507.51609  20405099.780    83555465.39749
  21943770.460   115315288.97809  21943772.420    89856079.25447
  24138597.820   126849149.09708  24138604.280    98843498.86945
  21337416.740   112128881.69009  21337417.340    87373152.67647
  21275525.980   111803634.41009  21275524.280    87119704.90048
  24168320.860   127005420.82508  24168331.680    98965298.35345
 15 03 02 09 18  0.0000000  0 11G01G02G03G06G07G09G10G17G20G23G30
  24649883.440   129535947.21508  24649897.040   100937126.07246
  24416560.040   128309889.18608  24416559.980    99981722.64845
  22214745.480   116739256.59409  22214750.520    90965666.45448
  21040702.300   110569636.29209  21040706.460    86158171.26548
  21911664.640   115146580.89709  21911667.100    89724622.34648
  20406136.240   107234964.30009  20406138.240    83559717.38849
  21930467.320   115245380.26409  21930469.180    89801604.91647
  24153573.380   126927844.64308  24153579.800    98904819.69345
  21325730.880   112067471.67609  21325731.340    87325300.67848
  21285042.240   111853642.54909  21285040.580    87158672.17848
  24147223.180   126894553.17108  24147234.000    98878908.20145
 15 03 02 09 18 30.0000000  0 11G01G02G03G06G07G09G10G17G20G23G30
  24671024.540   129647042.22808  24671038.240   101023693.09646
  24397866.100   128211651.72608  24397866.100    99905173.94846
  22225961.340   116798196.32309  22225966.540    91011593.36848
  21033507.120   110531824.69909  21033511.260    86128707.63749
  21895662.640   115062489.89809  21895665.040    89659096.94148
  20407240.020   107240764.44309  20407242.020    83564236.93549
  21917193.200   115175623.80909  21917194.880    89747249.23747
  24168564.900   127006623.55208  24168571.280    98966205.51245
  21314079.860   112006244.51409  21314080.240    87277591.17348
  21294598.680   111903861.46009  21294597.100    87197803.70148
  24126133.280   126783726.84608  24126144.240    98792550.28646
 15 03 02 09 19  0.0000000  0 11G01G02G03G06G07G09G10G17G20G23G30
  24692176.160   129758191.92208  24692189.980   101110302.70546
  24379205.320   128113588.62608  24379205.440    99828761.10645
  22237218.640   116857353.55809  22237223.880    91057689.75148
  21026414.260   110494551.00809  21026418.300    86099663.14749
  21879722.040   114978721.54509  21879724.400    89593822.93948
  20408408.120   107246902.68109  20408410.120    83569019.93349
  21903947.360   115106016.36909  21903948.940    89693009.67347
  24183571.000   127085479.16208  24183577.300    99027651.10846
  21302463.220   111945197.75509  21302463.460    87230022.23748
  21304194.180   111954285.46209  21304192.580    87237095.03348
  24105051.000   126672940.44308  24105062.060    98706223.45446
 15 03 02 09 19 30.0000000  0 11G01G02G03G06G07G09G10G17G20G23G30
  24713338.620   129869398.59608  24713352.460   101196956.60146
  24360578.940   128015706.67208  24360579.080    99752489.39445
  22248518.260   116916732.77109  22248523.580    91103959.10447
  21019424.880   110457821.22909  21019428.820    86071042.49148
  21863844.180   114895282.72809  21863846.500    89528805.72048
  20409641.180   107253382.21409  20409643.180    83574068.87449
  21890730.980   115036563.83109  21890732.500    89638890.80247
  24198591.940   127164412.88408  24198598.220    99089157.52046
  21290881.880   111884336.98809  21290882.160    87182598.24048
  21313829.180   112004917.16909  21313827.520    87276548.21948
  24083977.680   126562200.95108  24083988.800    98619933.19346
 15 03 02 09 20  0.0000000  0 11G01G02G03G06G07G09G10G17G20G23G30
  24734511.040   129980657.81808  24734525.020   101283651.47945
  24341987.100   127918006.20308  24341987.240    99676359.11645
  22259859.740   116976331.74609  22259865.140    91150399.70248
  21012538.880   110421634.63709  21012542.740    86042845.10049
  21848029.100   114812173.58809  21848031.300    89464045.38248
  20410938.540   107260199.53209  20410940.480    83579381.02149
  21877543.680   114967264.81109  21877545.380    89584891.57447
  24213626.600   127243419.00808  24213633.000    99150720.36346
  21279335.620   111823660.96609  21279335.880    87135318.20048
  21323503.120   112055753.44109  21323501.440    87316160.80548
  24062913.400   126451508.58708  24062924.540    98533679.66346
 15 03 02 09 20 30.0000000  0 11G01G02G03G06G07G09G10G17G20G23G30
  24755693.160   130091968.09608  24755707.160   101370386.23144
  24323430.380   127820490.42308  24323430.700    99600372.75446
  22271243.140   117036151.23909  22271248.560    91197012.12847
  21005756.600   110385993.51509  21005760.440    86015072.75048
  21832277.220   114729397.05509  21832279.360    89399544.23048
  20412300.060   107267354.11509  20412302.000    83584955.98049
  21864386.000   114898121.17509  21864387.760    89531013.41447
  24228674.660   127322495.21308  24228681.020    99212337.82945
  21267824.980   111763171.82909  21267825.220    87088183.77748
  21333215.840   112106793.46209  21333214.160    87355932.14548
  24041858.740   126340866.73008  24041869.840    98447465.50746
 15 03 02 09 21  0.0000000  0 11G01G02G03G06G07G09G10G17G20G23G30
  24776884.460   130203327.10608  24776898.480   101457159.03544
  24304909.340   127723161.80908  24304909.780    99524532.24146
  22282668.480   117096191.28909  22282673.940    91243796.42948
  20999078.320   110350899.34809  20999082.240    85987726.60748
  21816589.100   114646955.97409  21816591.300    89335304.47248
  20413725.560   107274844.71109  20413727.480    83590792.76749
  21851258.060   114829133.87609  21851259.920    89477257.07947
  24243735.360   127401638.19908  24243741.960    99274007.31746
  21256350.120   111702871.02809  21256350.480    87041196.12548
  21342967.040   112158035.69109  21342965.400    87395861.06048
  24020814.240   126230277.93408  24020825.240    98361292.68246
 15 03 02 09 21 30.0000000  0 11G01G02G03G06G07G09G10G17G20G23G30
  24798084.740   130314733.10307  24798098.340   101543968.42543
  24286424.520   127626023.08008  24286425.040    99448839.66545
  22294136.000   117156452.53009  22294141.440    91290753.07448
  20992504.580   110316354.24009  20992508.580    85960808.28948
  21800965.380   114564853.25509  21800967.660    89271328.35848
  20415214.880   107282670.68409  20415216.720    83596890.87049
  21838160.160   114760304.32309  21838162.140    89423623.65547
  24258808.220   127480845.81208  24258815.200    99335727.13246
  21244911.440   111642760.24009  21244911.800    86994356.51848
  21352756.440   112209479.13009  21352754.880    87435946.75548
  23999780.360   126119745.31608  23999791.320    98275163.63646
 15 03 02 09 22  0.0000000  0 10G02G03G06G07G09G10G17G20G23G30
  24267976.100   127529075.85708  24267976.500    99373296.31645
  22305645.420   117216934.08409  22305650.860    91337881.40448
  20986035.480   110282358.77409  20986039.540    85934318.27548
  21785406.420   114483090.29209  21785408.640    89207616.99148
  20416767.540   107290829.86209  20416769.400    83603248.62449
  21825092.420   114691633.08209  21825094.440    89370113.60247
  24273892.600   127560113.90708  24273899.960    99397494.11246
  21233508.980   111582839.80609  21233509.320    86947665.25648
  21362583.580   112261121.24709  21362582.100    87476187.27948
  23978757.600   126009270.63408  23978768.360    98189079.71646
 15 03 02 09 22 30.0000000  0 10G02G03G06G07G09G10G17G20G23G30
  24249564.940   127432324.23808  24249565.240    99297905.38245
  22317197.100   117277637.66809  22317202.520    91385182.74747
  20979671.600   110248916.09409  20979675.660    85908259.00748
  21769912.940   114401671.12209  21769915.000    89144173.51648
  20418383.640   107299322.68009  20418385.560    83609866.36149
  21812055.340   114623122.99309  21812057.380    89316729.12547
  24288988.180   127639440.72508  24288995.800    99459306.83446
  21222143.480   111523113.17509  21222143.740    86901125.00848
  21372448.580   112312962.59509  21372447.220    87516583.05148
  23957746.660   125898858.15508  23957757.200    98103044.28346
 15 03 02 09 23  0.0000000  0 10G02G03G06G07G09G10G17G20G23G30
  24231190.660   127335766.17208  24231191.080    99222665.28045
  22328790.100   117338558.45409  22328795.500    91432653.31548
  20973412.320   110216022.84009  20973416.340    85882627.84748
  21754484.440   114320593.55509  21754486.360    89080996.21448
  20420062.080   107308143.07809  20420064.060    83616739.34449
  21799048.320   114554770.56809  21799050.360    89263467.48547
  24304093.560   127718818.91108  24304101.160    99521159.57346
  21210814.000   111463576.31909  21210814.320    86854732.63248
  21382350.360   112364996.77609  21382349.120    87557129.07848
  23936747.180   125788505.64508  23936757.500    98017055.54546
 15 03 02 09 23 30.0000000  0 10G02G03G06G07G09G10G17G20G23G30
  24212854.580   127239408.91208  24212855.040    99147581.65145
  22340425.380   117399701.53209  22340430.820    91480297.10848
  20967258.820   110183685.46209  20967262.720    85857429.83749
  21739122.300   114239864.85909  21739124.160    89018090.77048
  20421803.640   107317294.82709  20421805.580    83623870.53249
  21786072.460   114486581.77709  21786074.460    89210333.35847
  24319209.080   127798250.23308  24319216.720    99583053.73746
  21199521.880   111404236.06709  21199522.240    86808493.45848
  21392289.580   112417227.28809  21392288.300    87597828.09948
  23915760.540   125678220.70908  23915770.600    97931119.48046
 15 03 02 09 24  0.0000000  0 10G02G03G06G07G09G10G17G20G23G30
  24194557.200   127143255.51208  24194557.720    99072656.88146
  22352103.040   117461067.56609  22352108.500    91528114.63447
  20961211.480   110151906.00509  20961215.300    85832666.57748
  21723827.120   114159488.24009  21723828.980    88955459.67148
  20423608.180   107326777.30209  20423610.100    83631259.43349
  21773128.100   114418558.14109  21773130.160    89157327.92947
  24334334.300   127877732.19508  24334342.140    99644987.33846
  21188267.580   111345094.42409  21188267.900    86762409.04348
  21402266.040   112469653.47209  21402264.720    87638679.59248
  23894787.360   125568006.63508  23894797.320    97845238.62846
 15 03 02 09 24 30.0000000  0 10G02G03G06G07G09G10G17G20G23G30
  24176298.400   127047304.53208  24176298.880    98997889.84046
  22363822.320   117522652.40709  22363827.780    91576102.66548
  20955269.740   110120681.72009  20955273.560    85808335.92249
  21708598.560   114079461.97509  21708600.460    88893101.57948
  20425474.640   107336585.13309  20425476.480    83638901.85549
  21760214.680   114350696.85709  21760216.720    89104449.00747
  24349467.820   127957257.64508  24349475.560    99706954.85145
  21177050.460   111286148.46809  21177050.820    86716477.11648
  21412278.600   112522269.57509  21412277.320    87679679.07748
  23873827.340   125457861.85308  23873837.260    97759411.77046
 15 03 02 09 25  0.0000000  0 10G02G03G06G07G09G10G17G20G23G30
  24158078.960   126951559.97408  24158079.540    98923283.66146
  22375583.540   117584457.61209  22375589.100    91624262.40047
  20949434.160   110090015.51609  20949438.080    85784440.13849
  21693437.320   113999789.51509  21693439.260    88831019.17148
  20427403.020   107346718.55409  20427404.820    83646797.98049
  21747332.680   114283000.63109  21747334.560    89051698.69247
  24364609.260   128036824.77608  24364616.940    99768954.83945
  21165871.180   111227401.13609  21165871.620    86670699.95848
  21422327.280   112575075.81009  21422326.060    87720826.71848
  23852881.340   125347790.56408  23852891.140    97673642.17346
 15 03 02 09 25 30.0000000  0 10G02G03G06G07G09G10G17G20G23G30
  24139899.740   126856027.07108  24139900.460    98848842.40546
  22387387.360   117646486.54009  22387393.000    91672596.44748
  20943705.720   110059912.09309  20943709.700    85760982.86949
  21678344.580   113920476.98009  21678346.560    88769217.22148
  20429393.740   107357179.64509  20429395.460    83654949.42949
  21734482.800   114215473.90309  21734484.600    88999080.45347
  24379758.760   128116434.06508  24379766.400    99830987.67145
  21154730.600   111168856.96709  21154731.020    86625081.10748
  21432412.420   112628073.91009  21432411.400    87762123.85248
  23831950.420   125237798.66408  23831960.200    97587934.44546
 15 03 02 09 26  0.0000000  0 10G02G03G06G07G09G10G17G20G23G30
  24121760.820   126760705.99108  24121761.460    98774566.19146
  22399233.200   117708736.21609  22399238.920    91721102.50047
  20938084.120   110030369.78909  20938088.080    85737962.84349
  21663320.160   113841523.51409  21663322.240    88707695.07448
  20431445.960   107367964.20009  20431447.720    83663352.93549
  21721664.740   114148114.87509  21721666.440    88946592.87747
  24394915.120   128196079.36908  24394922.700    99893048.57745
  21143628.420   111110514.60109  21143628.800    86579619.49748
  21442533.360   112681259.80809  21442532.400    87803567.33248
  23811034.520   125127885.84308  23811044.280    97502288.33646
 15 03 02 09 26 30.0000000  0 10G02G03G06G07G09G10G17G20G23G30
  24103662.520   126665598.12308  24103662.980    98700456.10946
  22411120.860   117771205.83109  22411126.640    91769779.94448
  20932569.380   110001389.09909  20932573.320    85715380.44249
  21648364.400   113762930.80709  21648366.500    88646454.03248
  20433559.280   107379070.07609  20433561.160    83672006.82349
  21708878.620   114080923.81009  21708880.320    88894236.18747
  24410077.600   128275757.08408  24410085.260    99955134.76045
  21132564.620   111052374.35509  21132565.040    86534315.39248
  21452689.660   112734631.15509  21452688.680    87845155.32648
  23790133.980   125018053.88608  23790143.780    97416705.23146
 15 03 02 09 27  0.0000000  0 10G02G03G06G07G09G10G17G20G23G30
  24085605.560   126570707.86908  24085605.940    98626515.63546
  22423050.740   117833897.37409  22423056.620    91818630.32547
  20927162.100   109972973.32209  20927165.980    85693238.24248
  21633478.120   113684703.34209  21633480.260    88585497.59948
  20435733.960   107390498.07309  20435735.880    83680911.72149
  21696125.140   114013903.98309  21696126.860    88842012.93547
  24425246.040   128355466.02408  24425253.660   100017245.30345
  21121540.000   110994439.90409  21121540.460    86489171.64848
  21462881.380   112788188.64709  21462880.360    87886888.36648
  23769249.680   124908307.40208  23769259.500    97331188.73446
 15 03 02 09 27 30.0000000  0 10G02G03G06G07G09G10G17G20G23G30
  24067590.320   126476037.11708  24067590.800    98552746.19845
  22435022.760   117896810.25409  22435028.760    91867653.16447
  20921862.420   109945123.16309  20921866.300    85671536.78049
  21618661.640   113606842.57209  21618663.820    88524826.89548
  20437969.600   107402246.26709  20437971.540    83690066.11949
  21683404.380   113947056.06109  21683406.180    88789923.63247
  24440419.760   128435202.77908  24440427.480   100079377.48945
  21110554.660   110936711.83909  21110555.140    86444188.71948
  21473108.040   112841929.83809  21473107.040    87928764.53648
  23748382.080   124798648.49808  23748391.860    97245740.49546
 15 03 02 09 28  0.0000000  0 10G02G03G06G07G09G10G17G20G23G30
  24049617.560   126381589.67108  24049618.040    98479150.76246
  22447037.100   117959945.51909  22447043.240    91916849.28448
  20916670.760   109917840.88509  20916674.640    85650277.81949
  21603915.640   113529352.14709  21603917.840    88464444.77548
  20440266.180   107414314.48309  20440268.120    83699469.88049
  21670716.780   113880382.10309  21670718.580    88737969.87547
  24455598.240   128514965.30508  24455606.240   100141529.70945
  21099609.120   110879192.67009  21099609.640    86399368.56548
  21483369.600   112895854.70709  21483368.620    87970783.82748
  23727531.880   124689080.82008  23727541.500    97160363.33346
 15 03 02 09 28 30.0000000  0 10G02G03G06G07G09G10G17G20G23G30
  24031687.260   126287365.39508  24031687.740    98405729.21246
  22459093.280   118023300.45009  22459099.500    91966216.56847
  20911586.820   109891125.05409  20911590.800    85629460.24449
  21589240.080   113452231.56109  21589242.200    88404350.83748
  20442622.840   107426698.72209  20442624.800    83709119.88649
  21658062.040   113813880.55609  21658063.800    88686150.45747
  24470780.460   128594747.35608  24470788.540   100203697.18345
  21088703.140   110821881.12109  21088703.600    86354710.19348
  21493665.420   112949959.27009  21493664.420    88012943.13748
  23706699.000   124579604.31008  23706708.540    97075057.21646
 15 03 02 09 29  0.0000000  0 10G02G03G06G07G09G10G17G20G23G30
  24013800.220   126193368.38908  24013800.600    98332484.76146
  22471191.660   118086877.13308  22471197.940    92015756.65948
  20906611.340   109864978.94009  20906615.400    85609086.61449
  21574635.660   113375484.84309  21574637.740    88344548.23348
  20445039.800   107439399.80909  20445041.740    83719016.78449
  21645440.740   113747554.80409  21645442.420    88634468.03347
  24485966.300   128674548.37808  24485974.520   100265879.43545
  21077837.340   110764780.59709  21077837.880    86310216.26248
  21503995.580   113004244.25709  21503994.620    88055243.04448
  23685884.320   124470223.64008  23685893.840    96989825.76746
 15 03 02 09 29 30.0000000  0 10G02G03G06G07G09G10G17G20G23G30
  23995957.120   126099601.97408  23995957.420    98259420.00546
  22483332.380   118150676.19609  22483338.640    92065470.03247
  20901744.740   109839404.37009  20901748.800    85589158.34849
  21560103.040   113299115.39909  21560105.100    88285039.60748
  20447516.900   107452417.16009  20447518.840    83729160.12349
  21632853.220   113681406.86609  21632854.980    88582924.16747
  24501155.360   128754366.06608  24501163.700   100328074.69645
  21067012.160   110707893.42209  21067012.700    86265888.57848
  21514359.940   113058708.83209  21514359.020    88097682.89748
  23665088.520   124360942.13008  23665098.020    96904671.59346
 15 03 02 09 30  0.0000000  0 10G02G03G06G07G09G10G17G20G23G30
  23978157.740   126006065.40108  23978158.020    98186534.35046
  22495514.760   118214694.27108  22495521.000    92115354.05347
  20896986.520   109814399.22409  20896990.540    85569673.78049
  21545642.040   113223122.16009  21545644.060    88225824.12948
  20450053.320   107465746.05109  20450055.240    83739546.21649
  21620299.060   113615434.51309  21620300.920    88531517.11547
  24516346.320   128834193.93308  24516354.940   100390277.85445
  21056227.260   110651217.70109  21056227.740    86221725.66748
  21524757.500   113113348.04809  21524756.580    88140258.81948
  23644311.480   124251759.17208  23644320.920    96819594.22346
 15 03 02 09 30 30.0000000  0 10G02G03G06G07G09G10G17G20G23G30
  23960403.900   125912767.71708  23960404.020    98113834.81546
  22507740.020   118278937.65509  22507746.240    92165413.65547
  20892338.020   109789970.90509  20892342.020    85550638.69049
  21531254.200   113147513.59209  21531256.260    88166908.39248
  20452650.040   107479391.58309  20452651.980    83750179.04549
  21607779.760   113549645.16009  21607781.620    88480252.65847
  24531539.880   128914035.28708  24531548.640   100452491.54046
  21045484.040   110594761.03209  21045484.440    86177733.44548
  21535189.260   113168167.23209  21535188.460    88182974.97948
  23623554.900   124142683.61908  23623564.180    96734600.53446
 15 03 02 09 31  0.0000000  0 10G02G03G06G07G09G10G17G20G23G30
  23942694.420   125819703.77108  23942694.440    98041317.43845
  22520006.740   118343398.87809  22520012.960    92215642.99747
  20887798.040   109766113.17609  20887802.080    85532048.21648
  21516938.580   113072284.48609  21516940.600    88108288.33648
  20455305.280   107493345.04009  20455307.320    83761051.81349
  21595294.120   113484032.72709  21595296.000    88429126.07247
  24546734.040   128993879.83108  24546742.980   100514707.68546
  21034781.340   110538517.49109  21034781.720    86133907.29348
  21545653.680   113223157.55809  21545652.820    88225824.50348
  23602817.840   124033710.75008  23602827.020    96649686.86446
 15 03 02 09 31 30.0000000  0  9G02G03G06G07G09G10G20G23G30
  23925030.320   125726878.70408  23925030.540    97968986.21946
  22532315.420   118408080.52409  22532321.580    92266044.10047
  20883367.300   109742829.68509  20883371.380    85513905.19549
  21502696.080   112997439.71709  21502698.080    88049967.76348
  20458019.400   107507607.77609  20458021.480    83772165.57749
  21582843.020   113418601.11109  21582844.680    88378140.36947
  21024119.840   110482490.98009  21024120.280    86090250.26148
  21556150.900   113278320.16409  21556150.060    88268808.25448
  23582101.340   123924845.75408  23582110.500    96564857.24046
 15 03 02 09 32  0.0000000  0  9G02G03G06G07G09G10G20G23G30
  23907412.520   125634296.65808  23907412.720    97896844.34545
  22544666.460   118472984.46909  22544672.560    92316618.42447
  20879046.440   109720123.45709  20879050.500    85496212.00048
  21488527.560   112922983.64709  21488529.580    87991950.07548
  20460792.560   107522180.39909  20460794.620    83783520.80449
  21570426.860   113353353.50509  21570428.460    88327298.06647
  21013500.200   110426685.10209  21013500.760    86046765.15948
  21566681.100   113333655.59309  21566680.000    88311926.68648
  23561406.220   123816093.25508  23561415.320    96480115.27146
 15 03 02 09 32 30.0000000  0  9G02G03G06G07G09G10G20G23G30
  23889841.780   125541962.45008  23889842.040    97824895.61346
  22557060.120   118538112.55409  22557066.220    92367367.40147
  20874836.000   109697997.48509  20874840.020    85478970.95849
  21474433.780   112848920.32809  21474435.740    87934238.42548
  20463624.820   107537063.59009  20463626.880    83795118.03849
  21558046.240   113288293.14209  21558047.840    88276601.68147
  21002923.160   110371103.17209  21002923.880    86003454.56148
  21577244.300   113389164.61709  21577243.080    88355180.38148
  23540733.400   123707457.81408  23540742.420    96395464.52846
 15 03 02 09 33  0.0000000  0  9G02G03G06G07G09G10G20G23G30
  23872317.820   125449873.69208  23872318.220    97753138.12346
  22569495.460   118603460.12109  22569501.640    92418287.40147
  20870735.300   109676448.14209  20870739.340    85462179.23649
  21460414.120   112775246.83509  21460416.080    87876830.53948
  20466515.060   107552251.36009  20466517.140    83806952.60049
  21545700.680   113223416.62109  21545702.120    88226048.52547
  20992388.200   110315742.09409  20992389.000    85960316.05048
  21587839.420   113444841.07409  21587838.060    88398564.55748
  23520082.440   123598937.41408  23520091.420    96310903.41547
 15 03 02 09 33 30.0000000  0  9G02G03G06G07G09G10G20G23G30
  23854841.600   125358035.91208  23854842.260    97681576.23546
  22581973.100   118669030.06009  22581979.360    92469380.67347
  20866745.140   109655479.37909  20866749.160    85445839.90749
  21446469.680   112701968.72609  21446471.680    87819730.74948
  20469463.540   107567745.41909  20469465.700    83819025.83249
  21533390.880   113158727.82509  21533392.220    88175641.64947
  20981896.140   110260605.83109  20981896.940    85917352.71348
  21598466.540   113500686.52009  21598465.220    88442080.39348
  23499454.480   123490537.70608  23499463.400    96226436.34146
 15 03 02 09 34  0.0000000  0  9G02G03G06G07G09G10G20G23G30
  23837413.420   125266449.95808  23837414.000    97610210.53846
  22594492.780   118734820.71309  22594499.080    92520645.92347
  20862865.340   109635090.67409  20862869.280    85429952.57249
  21432600.580   112629086.68109  21432602.660    87762939.58448
  20472469.780   107583542.90709  20472471.860    83831335.50449
  21521116.800   113094226.73709  21521118.160    88125381.05147
  20971446.920   110205694.63609  20971447.700    85874564.75748
  21609125.240   113556698.30909  21609124.040    88485725.84448
  23478849.700   123382259.75808  23478858.600    96142064.14146
 15 03 02 09 34 30.0000000  0  9G02G03G06G07G09G10G20G23G30
  23820033.540   125175117.47608  23820033.920    97539042.35046
  22607054.240   118800830.92609  22607060.580    92572082.26347
  20859095.900   109615281.85509  20859099.780    85414517.09849
  21418807.080   112556601.90709  21418809.260    87706457.98648
  20475533.240   107599641.45609  20475535.300    83843879.77249
  21508878.380   113029913.40509  21508879.740    88075266.75447
  20961040.580   110151008.72109  20961041.240    85831952.34848
  21619815.060   113612873.96809  21619813.980    88529498.98748
  23458268.400   123274105.08508  23458277.200    96057788.00446
 15 03 02 09 35  0.0000000  0  9G02G03G06G07G09G10G20G23G30
  23802702.840   125084043.34508  23802703.080    97468075.47646
  22619657.940   118867063.09409  22619664.320    92623691.55647
  20855437.400   109596056.32309  20855441.320    85399536.13549
  21405090.100   112484519.04509  21405092.320    87650289.56148
  20478654.180   107616042.21209  20478656.280    83856659.53049
  21496676.380   112965791.60209  21496677.900    88025301.70447
  20950677.880   110096552.25709  20950678.520    85789518.73148
  21630536.340   113669214.74009  21630535.420    88573400.78748
  23437711.560   123166078.89208  23437720.320    95973611.96946
 15 03 02 09 35 30.0000000  0  9G02G03G06G07G09G10G20G23G30
  23785421.640   124993229.36908  23785421.760    97397311.32846
  22632303.660   118933516.35208  22632310.160    92675473.11647
  20851889.860   109577414.18509  20851893.940    85385009.76149
  21391449.820   112412839.05509  21391452.020    87594435.06148
  20481832.240   107632743.09809  20481834.440    83869673.16149
  21484510.920   112901861.94909  21484512.500    87975486.38647
  20940358.980   110042325.84609  20940359.480    85747264.37548
  21641288.620   113725718.29209  21641287.800    88617429.43548
  23417179.480   123058182.95608  23417188.160    95889537.42046
 15 03 02 09 36  0.0000000  0  9G02G03G06G07G09G10G20G23G30
  23768190.200   124902676.99608  23768190.240    97326751.01646
  22644991.340   119000189.95609  22644997.880    92727426.38447
  20848453.380   109559355.73409  20848457.620    85370938.21049
  21377886.540   112341563.63509  21377888.720    87538895.81348
  20485067.060   107649742.17609  20485069.340    83882919.15549
  21472382.100   112838124.99209  21472383.820    87925821.22347
  20930083.980   109988330.30109  20930084.400    85705189.91448
  21652071.500   113782382.79309  21652070.820    88661583.48548
  23396672.640   122950419.35208  23396681.160    95805565.97546
 15 03 02 09 36 30.0000000  0  9G02G03G06G07G09G10G20G23G30
  23751009.560   124812391.67208  23751009.460    97256398.79046
  22657721.500   119067086.42708  22657728.080    92779553.30747
  20845128.680   109541884.44109  20845132.960    85357324.17449
  21364401.160   112270697.52409  21364403.360    87483675.51448
  20488358.860   107667040.79409  20488361.200    83896398.55649
  21460290.760   112774584.78209  21460292.480    87876309.36547
  20919853.600   109934569.63609  20919854.020    85663298.47248
  21662885.340   113839209.60409  21662884.660    88705864.02548
  23376191.960   122842793.33708  23376200.420    95721701.74747
 15 03 02 09 37  0.0000000  0  9G02G03G06G07G09G10G20G23G30
  23733879.760   124722373.83708  23733879.540    97186255.00446
  22670493.580   119134203.62108  22670500.260    92831852.20547
  20841915.540   109524999.10009  20841919.760    85344166.72549
  21350993.740   112200241.15909  21350995.920    87428774.49148
  20491707.000   107684635.59109  20491709.440    83910108.75149
  21448236.780   112711240.67909  21448238.620    87826950.31647
  20909667.820   109881043.47609  20909668.360    85621589.76248
  21673729.400   113896195.25309  21673728.720    88750268.31647
  23355737.560   122735305.50508  23355745.920    95637945.17047
 15 03 02 09 37 30.0000000  0  9G02G03G06G07G09G10G20G23G30
  23716801.040   124632624.49408  23716800.840    97116320.43746
  22683307.360   119201539.91408  22683314.180    92884321.82847
  20838813.760   109508699.02309  20838817.940    85331465.32849
  21337664.300   112130194.51109  21337666.420    87374192.73548
  20495111.000   107702523.75209  20495113.480    83924047.54749
  21436220.100   112648092.40009  21436221.940    87777743.86447
  20899526.620   109827751.85709  20899527.360    85580063.82548
  21684603.240   113953337.45809  21684602.600    88794794.61748
  23335309.640   122627956.98808  23335317.980    95554297.16047
 15 03 02 09 38  0.0000000  0  9G02G03G06G07G09G10G20G23G30
  23699775.120   124543153.02508  23699774.960    97046602.38946
  22696164.200   119269102.18208  22696171.080    92936967.53247
  20835824.820   109492991.99809  20835829.020    85319226.04849
  21324414.620   112060567.03509  21324416.680    87319937.60248
  20498571.960   107720710.96209  20498574.480    83938219.36949
  21424242.300   112585148.17909  21424244.100    87728696.40548
  20889431.740   109774703.17809  20889432.520    85538727.17948
  21695507.860   114010641.21609  21695507.180    88839446.79648
  23314910.020   122520757.47508  23314918.440    95470765.26047
 15 03 02 09 38 30.0000000  0  9G02G03G06G07G09G10G20G23G30
  23682800.760   124453952.94408  23682800.780    96977095.82045
  22709062.260   119336881.15308  22709069.200    92989782.09247
  20832947.160   109477869.60109  20832951.400    85307442.31949
  21311243.320   111991351.25009  21311245.300    87266003.26748
  20502087.820   107739186.76909  20502090.400    83952616.06049
  21412301.820   112522400.00009  21412303.460    87679801.70947
  20879381.740   109721889.67209  20879382.480    85497573.76948
  21706441.220   114068096.44209  21706440.640    88884216.98748
  23294537.520   122413700.42408  23294546.000    95387344.36147
 15 03 02 09 39  0.0000000  0  9G02G03G06G07G09G10G20G23G30
  23665879.540   124365032.05308  23665879.680    96907806.78545
  22722002.500   119404882.02708  22722009.560    93042769.56547
  20830181.920   109463337.90409  20830186.200    85296118.87449
  21298151.800   111922554.78509  21298153.660    87212395.66748
  20505659.320   107757955.14109  20505661.960    83967240.72949
  21400399.860   112459854.60409  21400401.420    87631065.03047
  20869377.860   109669318.15009  20869378.500    85456608.92748
  21717404.240   114125706.99109  21717403.660    88929108.22648
  23274193.700   122306793.83508  23274202.160    95304040.72047
 15 03 02 09 39 30.0000000  0  9G02G03G06G07G09G10G20G23G30
  23649011.680   124276390.97108  23649011.920    96838735.78846
  22734984.620   119473102.94808  22734991.800    93095928.50647
  20827528.900   109449395.96409  20827533.200    85285254.97949
  21285140.160   111854178.25209  21285141.900    87159115.29748
  20509285.960   107777013.11309  20509288.620    83982091.06249
  21388536.360   112397511.44109  21388537.980    87582485.93947
  20859420.060   109616988.69609  20859420.560    85415832.70448
  21728396.300   114183470.23809  21728395.780    88974118.44247
  23253878.760   122200038.65109  23253887.160    95220855.05747
 15 03 02 09 40  0.0000000  0  9G02G03G06G07G09G10G20G23G30
  23632197.260   124188030.80008  23632197.460    96769883.68646
  22748008.340   119541542.35408  22748015.560    93149257.68347
  20824987.900   109436043.00309  20824992.260    85274850.01949
  21272208.360   111786221.88109  21272210.180    87106162.32148
  20512967.200   107796357.93609  20512969.840    83997164.90749
  21376711.240   112335370.47809  21376712.860    87534064.40048
  20849508.260   109564901.10509  20849508.680    85375244.94448
  21739416.880   114241383.27809  21739416.320    89019245.38148
  23233592.900   122093436.04208  23233601.120    95137788.27147
 15 03 02 09 40 30.0000000  0  9G02G03G06G07G09G10G20G23G30
  23615437.400   124099956.62108  23615437.700    96701254.43746
  22761074.160   119610202.69809  22761081.400    93202759.02847
  20822559.680   109423282.30009  20822563.960    85264906.56149
  21259357.400   111718690.41309  21259359.380    87053540.43548
  20516703.280   107815990.89609  20516705.860    84012463.27249
  21364925.360   112273435.79409  21364927.060    87485803.60948
  20839643.160   109513059.48109  20839643.620    85334848.85148
  21750466.280   114299447.62809  21750465.700    89064490.23048
  23213337.060   121986991.32008  23213345.200    95054844.52347
 15 03 02 09 41  0.0000000  0  9G02G03G06G07G09G10G20G23G30
  23598732.620   124012171.80308  23598732.780    96632850.64646
  22774182.160   119679084.49909  22774189.420    93256432.93247
  20820244.420   109411115.19809  20820248.680    85255425.64849
  21246587.860   111651586.59509  21246589.940    87001251.77648
  20520494.000   107835911.36409  20520496.600    84027985.66549
  21353179.100   112211709.44909  21353180.920    87437705.16247
  20829825.260   109461466.26009  20829825.820    85294646.31748
  21761544.320   114357662.53509  21761543.740    89109852.38648
  23193111.860   121880707.75808  23193119.900    94972026.34147
 15 03 02 09 41 30.0000000  0  9G02G03G06G07G09G10G20G23G30
  23582082.620   123924675.37808  23582082.740    96564671.57746
  22787331.680   119748184.25609  22787338.960    93310276.67147
  20818041.560   109399538.89409  20818045.820    85246405.10149
  21233899.420   111584908.86909  21233901.580    86949295.14148
  20524338.580   107856114.69209  20524341.220    84043728.46549
  21341472.200   112150189.35809  21341474.080    87389767.43147
  20820054.220   109410119.12209  20820054.840    85254635.52948
  21772650.140   114416023.39909  21772649.540    89155328.27547
  23172917.200   121774584.68108  23172925.220    94889333.21647
 15 03 02 09 42  0.0000000  0  9G02G03G06G07G09G10G20G23G30
  23565488.980   123837475.06108  23565489.180    96496723.26646
  22800523.600   119817506.96309  22800530.860    93364294.14147
  20815952.260   109388559.29809  20815956.540    85237849.52649
  21221293.480   111518664.63009  21221295.720    86897676.28848
  20528237.780   107876604.79009  20528240.380    84059694.72849
  21329805.780   112088882.10709  21329807.600    87341995.55747
  20810331.400   109359025.26109  20810332.060    85214822.11248
  21783784.540   114474534.37409  21783783.940    89200921.14947
  23152754.500   121668629.95808  23152762.500    94806771.28946
 15 03 02 09 42 30.0000000  0  9G02G03G06G07G09G10G20G23G30
  23548951.020   123750566.98308  23548951.240    96429002.65646
  22813756.760   119887046.54508  22813764.040    93418480.59147
  20813975.480   109378170.90509  20813979.760    85229754.61649
  21208769.240   111452849.77709  21208771.580    86846392.02148
  20532190.180   107897374.30309  20532192.700    84075878.69949
  21318178.920   112027782.87909  21318180.760    87294385.76948
  20800655.860   109308180.00709  20800656.500    85175202.40448
  21794946.140   114533188.01709  21794945.460    89246625.18648
  23132623.160   121562840.19808  23132631.220    94724337.89647
 15 03 02 09 43  0.0000000  0  9G02G03G06G07G09G10G20G23G30
  23532470.180   123663959.15608  23532470.300    96361516.00546
  22827032.100   119956807.92908  22827039.380    93472839.89247
  20812112.260   109368379.39509  20812116.540    85222124.81948
  21196328.100   111387471.11109  21196330.320    86795447.64048
  20536196.460   107918427.11809  20536198.960    84092283.42749
  21306592.980   111966898.31109  21306594.760    87246943.25347
  20791028.880   109257590.08009  20791029.440    85135781.66748
  21806135.720   114591988.61309  21806134.920    89292443.75347
  23112524.680   121457223.17808  23112532.780    94642039.11847
 15 03 02 09 43 30.0000000  0  9G02G03G06G07G09G10G20G23G30
  23516046.600   123577652.56608  23516046.700    96294264.10446
  22840349.300   120026789.55408  22840356.720    93527370.79147
  20810362.520   109359183.95509  20810366.760    85214959.48449
  21183970.180   111322529.51409  21183972.240    86744843.82348
  20540256.220   107939760.55509  20540258.620    84108906.82249
  21295047.980   111906228.53809  21295049.760    87199668.10947
  20781450.580   109207255.87709  20781451.180    85096560.18948
  21817352.580   114650933.32109  21817351.840    89338374.60047
  23092459.360   121351780.20308  23092467.480    94559875.95347
 15 03 02 09 44  0.0000000  0  9G02G03G06G07G09G10G20G23G30
  23499680.720   123491648.95708  23499680.840    96227248.27946
  22853708.280   120096990.46408  22853715.740    93582072.56247
  20808726.140   109350584.30009  20808730.380    85208258.39649
  21171695.720   111258026.03509  21171697.620    86694581.39248
  20544369.020   107961372.57709  20544371.360    84125747.29949
  21283543.940   111845773.95809  21283545.600    87152560.64547
  20771921.060   109157178.00009  20771921.680    85057538.44948
  21828596.420   114710020.37009  21828595.820    89384416.36647
  23072427.560   121246513.14608  23072435.620    94477849.85747
 15 03 02 09 44 30.0000000  0  9G02G03G06G07G09G10G20G23G30
  23483372.920   123405951.02108  23483373.120    96160470.65446
  22867109.040   120167410.81709  22867116.460    93636945.33047
  20807203.280   109342581.24009  20807207.500    85202022.19149
  21159505.000   111193962.86709  21159506.820    86644662.06548
  20548534.600   107983262.16209  20548536.900    84142804.05549
  21272081.120   111785536.35909  21272082.800    87105622.25147
  20762440.700   109107358.13109  20762441.280    85018717.75348
  21839867.080   114769248.65809  21839866.680    89430568.18948
  23052429.780   121141424.96708  23052437.740    94395963.14147
 15 03 02 09 45  0.0000000  0  9G02G03G06G07G09G10G20G23G30
  23467123.540   123320560.32608  23467123.700    96093932.43846
  22880551.280   120238049.42409  22880558.720    93691988.16747
