     2.11           OBSERVATION DATA    G                   RINEX VERSION / TYPE
SPIDER V4,0,0,3554                      2015 03 24 00:24    PGM / RUN BY / DATE 
CBEJ                                                        MARKER NAME         
CBEJ                                                        MARKER NUMBER       
                                                            OBSERVER / AGENCY   
496519              LEICA GRX1200+GNSS  8.10/4.007          REC # / TYPE / VERS 
                    LEIAR25         NONE                    ANT # / TYPE        
  5095766.4657   453329.2088  3797108.6657                  APPROX POSITION XYZ 
        0.0730        0.0000        0.0000                  ANTENNA: DELTA H/E/N
     1     1                                                WAVELENGTH FACT L1/2
     4    C1    L1    P2    L2                              # / TYPES OF OBSERV 
    30.000                                                  INTERVAL            
  2015    03    02    00    00    0.0000000     GPS         TIME OF FIRST OBS   
  2015    03    02    23    59   30.0000000     GPS         TIME OF LAST OBS    
    16                                                      LEAP SECONDS        
    30                                                      # OF SATELLITES     
   G 1   811   811   810   810                              PRN / # OF OBS      
   G 2   859   859   859   859                              PRN / # OF OBS      
   G 3   833   833   833   833                              PRN / # OF OBS      
   G 4   831   831   831   831                              PRN / # OF OBS      
   G 5   615   615   615   615                              PRN / # OF OBS      
   G 6   686   684   681   679                              PRN / # OF OBS      
   G 7   648   648   647   647                              PRN / # OF OBS      
   G 9   788   788   787   787                              PRN / # OF OBS      
   G10   747   747   747   747                              PRN / # OF OBS      
   G11   777   777   776   776                              PRN / # OF OBS      
   G12   790   790   790   790                              PRN / # OF OBS      
   G13   799   799   799   799                              PRN / # OF OBS      
   G14   855   855   854   854                              PRN / # OF OBS      
   G15   690   690   689   689                              PRN / # OF OBS      
   G16   642   641   641   641                              PRN / # OF OBS      
   G17   854   854   854   854                              PRN / # OF OBS      
   G18   850   850   847   847                              PRN / # OF OBS      
   G19   758   758   758   758                              PRN / # OF OBS      
   G20   771   769   770   769                              PRN / # OF OBS      
   G21   654   640   619   619                              PRN / # OF OBS      
   G22   683   683   682   682                              PRN / # OF OBS      
   G23   724   724   715   715                              PRN / # OF OBS      
   G24   822   822   821   821                              PRN / # OF OBS      
   G25   837   837   836   836                              PRN / # OF OBS      
   G27   807   807   807   807                              PRN / # OF OBS      
   G28   802   802   801   801                              PRN / # OF OBS      
   G29   667   667   666   666                              PRN / # OF OBS      
   G30   670   669   661   660                              PRN / # OF OBS      
   G31   755   754   744   743                              PRN / # OF OBS      
   G32   738   738   736   736                              PRN / # OF OBS      
BIT 2 OF LLI FLAGS DATA COLLECTED UNDER A/S CONDITION       COMMENT             
SNR is mapped to RINEX snr flag value [2-9]                 COMMENT             
Lx:     = 25dBHz -> 1; 26-27dBHz -> 2; 28-31dBHz -> 3       COMMENT             
       32-35dBHz -> 4; 36-38dBHz -> 5; 39-41dBHz -> 6       COMMENT             
       42-44dBHz -> 7; 45-48dBHz -> 8; >=49dBHz -> 9        COMMENT             
                                                            END OF HEADER       
 15 03 02 00 00  0.0000000  0  7G16G18G21G22G27G29G31
  21424260.680   112585243.99409  21424258.360    87728773.14848
  22432266.900   117882472.80209  22432264.240    91856496.32147
  21385452.360   112381319.98307  21385449.140    87569847.72147
  23726580.380   124684100.30408  23726578.320    97156460.39946
  22672276.620   119143632.75809  22672275.700    92839207.12047
  24150634.380   126912418.13708  24150632.640    98892798.61746
  23371130.560   122816081.85608  23371131.340    95700818.01447
 15 03 02 00 00 30.0000000  0  7G16G18G21G22G27G29G31
  21411997.120   112520797.72109  21411994.480    87678555.29448
  22421306.180   117824873.77209  22421303.360    91811614.02147
  21393367.640   112422914.89708  21393364.260    87602259.35147
  23708563.740   124589422.97908  23708561.300    97082686.19145
  22659915.620   119078674.86008  22659914.160    92788590.60547
  24165084.040   126988350.89808  24165082.520    98951966.96445
  23389143.500   122910740.15308  23389144.420    95774577.54347
 15 03 02 00 01  0.0000000  0  7G16G18G21G22G27G29G31
  21399795.520   112456678.92309  21399792.800    87628592.58448
  22410409.280   117767610.00709  22410406.340    91766992.94546
  21401342.420   112464821.10408  21401338.620    87634913.55646
  23690556.720   124494795.66308  23690554.680    97008950.97046
  22647575.540   119013829.23008  22647574.580    92738061.55947
  24179540.260   127064317.82008  24179538.340    99011161.93545
  23407180.020   123005521.17008  23407180.480    95848432.68146
 15 03 02 00 01 30.0000000  0  7G16G18G21G22G27G29G31
  21387655.040   112392880.35709  21387652.300    87578879.40548
  22399574.940   117710674.80609  22399571.860    91722627.90147
  21409374.380   112507027.29208  21409370.200    87667801.52847
  23672557.740   124400212.00108  23672556.700    96935249.79046
  22635255.240   118949086.65208  22635255.320    92687612.81647
  24194001.240   127140309.47908  24193998.820    99070376.16645
  23425237.760   123100412.45209  23425237.420    95922373.71246
 15 03 02 00 02  0.0000000  0  7G16G18G21G22G27G29G31
  21375576.960   112329409.06609  21375574.060    87529421.27948
  22388804.500   117654075.37309  22388801.360    91678524.50847
  21417463.900   112549537.17107  21417459.600    87700926.10947
  23654568.340   124305679.10208  23654567.680    96861588.09846
  22622955.740   118884452.33308  22622955.980    92637248.41947
  24208467.760   127216330.96408  24208465.180    99129613.64545
  23443316.960   123195416.27608  23443315.480    95996402.44946
 15 03 02 00 02 30.0000000  0  7G16G18G21G22G27G29G31
  21363561.480   112266266.94909  21363558.460    87480219.63348
  22378098.020   117597813.44808  22378095.420    91634684.06747
  21425610.480   112592348.29507  21425606.220    87734285.44646
  23636589.180   124211199.25308  23636588.580    96787967.76046
  22610676.580   118819925.68108  22610676.480    92586967.94048
  24222939.520   127292381.53008  24222937.280    99188873.80046
  23461416.780   123290528.91508  23461414.220    96070515.97546
 15 03 02 00 03  0.0000000  0  7G16G18G21G22G27G29G31
  21351609.120   112203455.24409  21351605.680    87431275.44148
  22367456.120   117541890.43709  22367454.020    91591107.71647
  21433813.560   112635457.73107  21433809.720    87767877.19246
  23618620.460   124116774.25808  23618619.740    96714390.14346
  22598417.980   118755506.09608  22598417.940    92536770.86947
  24237416.600   127368460.33908  24237414.860    99248155.98346
  23479536.480   123385746.54208  23479533.760    96144711.29146
 15 03 02 00 03 30.0000000  0  7G16G18G21G22G27G29G31
  21339720.560   112140978.60509  21339716.660    87382592.37148
  22356879.680   117486310.71209  22356877.620    91547798.89047
  21442073.540   112678866.97806  21442070.320    87801702.53746
  23600663.020   124022409.33208  23600661.580    96640859.34446
  22586180.220   118691196.11208  22586180.660    92486659.23648
  24251899.440   127444569.92408  24251898.320    99307462.14147
  23497675.940   123481068.55008  23497673.860    96218987.96747
 15 03 02 00 04  0.0000000  0  7G16G18G21G22G27G29G31
  21327897.120   112078845.18409  21327893.000    87334176.72448
  22346369.960   117431082.21809  22346367.860    91504763.73747
  21450391.840   112722580.06307  21450388.700    87835764.69346
  23582718.460   123928112.83108  23582716.480    96567381.86046
  22573963.940   118627001.70208  22573964.860    92436637.60447
  24266389.380   127520715.74008  24266388.440    99366796.54346
  23515835.800   123576498.11809  23515834.540    96293348.45746
 15 03 02 00 04 30.0000000  0  7G16G18G21G22G27G29G31
  21316136.620   112017042.82909  21316132.560    87286019.04148
  22335924.540   117376192.87408  22335922.520    91461992.84747
  21458765.120   112766580.33307  21458761.520    87870050.63446
  23564784.900   123833873.09708  23564782.800    96493948.61346
  22561767.200   118562908.59408  22561768.080    92386694.95747
  24280883.720   127596883.79808  24280882.600    99426148.25847
  23534012.660   123672017.35309  23534011.940    96367778.79246
 15 03 02 00 05  0.0000000  0  7G16G18G21G22G27G29G31
  21304441.060   111955582.34409  21304437.260    87238127.77248
  22325545.780   117321653.95809  22325543.860    91419495.02446
  21467194.400   112810875.02207  21467190.440    87904565.97846
  23546864.540   123739701.62108  23546862.640    96420568.56046
  22549591.660   118498925.84108  22549592.580    92336838.29347
  24295383.920   127673082.55808  24295382.620    99485523.91146
  23552207.700   123767632.70208  23552207.420    96442284.05246
 15 03 02 00 05 30.0000000  0  7G16G18G21G22G27G29G31
  21292810.440   111894463.17809  21292806.780    87190502.46348
  22315233.840   117267464.70509  22315232.080    91377269.69347
  21475678.840   112855460.00907  21475674.940    87939307.51247
  23528957.240   123645598.56908  23528956.020    96347241.80946
  22537436.600   118435050.81208  22537437.980    92287065.56548
  24309889.620   127749309.39408  24309888.100    99544921.40846
  23570419.880   123863338.41208  23570419.900    96516859.71546
 15 03 02 00 06  0.0000000  0  7G16G18G21G22G27G29G31
  21281245.440   111833688.61409  21281241.760    87143145.66048
  22304989.140   117213628.05209  22304987.600    91335319.08147
  21484218.160   112900334.32307  21484214.340    87974274.52246
  23511063.340   123551567.21308  23511062.740    96273970.89746
  22525302.320   118371284.75308  22525303.900    92237377.71948
  24324400.820   127825565.03208  24324399.120    99604341.37047
  23588648.840   123959132.40608  23588648.780    96591504.15046
 15 03 02 00 06 30.0000000  0  7G16G18G21G22G27G29G31
  21269746.160   111773259.89209  21269742.540    87096058.33549
  22294811.880   117160145.81109  22294810.460    91293644.58348
  21492812.000   112945495.54907  21492808.400    88009465.05146
  23493183.400   123457609.67808  23493182.840    96200757.50747
  22513188.760   118307626.82508  22513189.800    92187774.16348
  24338917.360   127901848.80608  24338915.580    99663783.25147
  23606893.860   124055010.88308  23606893.240    96666214.39447
 15 03 02 00 07  0.0000000  0  7G16G18G21G22G27G29G31
  21258313.420   111713181.15809  21258309.900    87049243.74348
  22284702.920   117107021.16509  22284701.060    91252248.79447
  21501460.400   112990943.49207  21501456.900    88044879.03945
  23475318.520   123363730.63408  23475317.900    96127605.30347
  22501096.220   118244079.00508  22501097.000    92138256.41648
  24353439.580   127978162.57008  24353437.640    99723248.47946
  23625154.840   124150972.78908  23625153.620    96740989.66546
 15 03 02 00 07 30.0000000  0  7G16G18G21G22G27G29G31
  21246947.680   111653454.11109  21246944.180    87002703.18848
  22274662.480   117054256.40209  22274659.860    91211133.44447
  21510162.920   113036675.63007  21510159.440    88080514.48145
  23457469.300   123269931.78309  23457468.580    96054515.57546
  22489024.540   118180641.07108  22489025.460    92088824.26648
  24367967.260   128054505.52108  24367965.320    99782736.45646
  23643431.080   124247014.44308  23643429.900    96815827.07646
 15 03 02 00 08  0.0000000  0  7G16G18G21G22G27G29G31
  21235649.720   111594083.99809  21235646.300    86956440.75148
  22264691.180   117001856.55208  22264688.220    91170302.42046
  21518920.080   113082693.86007  21518916.500    88116372.86545
  23439636.600   123176218.98208  23439635.660    95981492.89447
  22476974.220   118117316.22708  22476974.960    92039480.24948
  24382500.880   128130880.96908  24382499.240    99842249.78447
  23661722.660   124343136.18508  23661722.040    96890726.88146
 15 03 02 00 08 30.0000000  0  7G16G18G21G22G27G29G31
  21224419.100   111535067.95809  21224415.840    86910454.22548
  22254788.460   116949818.95208  22254785.480    91129753.65346
  21527730.700   113128992.10707  21527726.660    88152449.47844
  23421819.520   123082590.05408  23421818.280    95908535.55946
  22464944.280   118054099.77508  22464944.560    91990220.68548
  24397039.840   128207283.99008  24397038.500    99901784.59547
  23680028.080   124439330.34008  23680027.940    96965683.09946
 15 03 02 00 09  0.0000000  0  7G16G18G21G22G27G29G31
  21213257.020   111476409.94609  21213253.500    86864746.69348
  22244955.340   116898147.12109  22244952.200    91089489.93846
  21536594.060   113175568.97306  21536589.820    88188743.16144
  23404019.020   122989049.40108  23404017.220    95835646.98146
  22452935.480   117990993.43808  22452935.640    91941046.94148
  24411584.320   128283715.83008  24411583.060    99961341.84046
  23698346.980   124535595.39808  23698347.080    97040694.56946
 15 03 02 00 09 30.0000000  0  7G16G18G21G22G27G29G31
  21202163.300   111418110.83509  21202159.480    86819318.82948
  22235192.220   116846841.96809  22235189.100    91049511.94847
  21545509.420   113222422.44705  21545505.120    88225252.35944
  23386235.600   122895598.46708  23386233.040    95762828.32846
  22440947.420   117927996.27308  22440947.640    91891958.23748
  24426133.980   128360175.48708  24426132.640   100020920.75546
  23716678.600   124631927.18508  23716679.100    97115758.03247
 15 03 02 00 10  0.0000000  0  7G16G18G21G22G27G29G31
  21191138.620   111360176.07109  21191134.940    86774174.84948
  22225500.220   116795908.99509  22225497.140    91009823.96647
  21554477.240   113269553.81104  21554474.040    88261978.05544
  23368470.600   122802243.11109  23368467.600    95690084.16146
  22428981.040   117865111.79109  22428981.000    91842957.36448
  24440689.520   128436666.45408  24440688.340   100080524.07746
  23735022.920   124728326.20208  23735024.300    97190873.89647
 15 03 02 00 10 30.0000000  0  7G16G18G21G22G27G29G31
  21180182.540   111302601.67109  21180179.060    86729311.66148
  22215878.220   116745343.76909  22215875.140    90970422.52647
  21563497.120   113316954.83606  21563494.080    88298913.86445
  23350722.880   122708980.31208  23350720.300    95617412.08546
  22417035.060   117802333.96809  22417034.740    91794039.61947
  24455250.100   128513182.50308  24455248.740   100140146.91545
  23753378.240   124824783.52608  23753380.280    97266035.19546
 15 03 02 00 11  0.0000000  0  7G16G18G21G22G27G29G31
  21169297.520   111245399.78009  21169294.000    86684738.77348
  22206328.300   116695158.45109  22206325.320    90931317.11447
  21572570.400   113364633.82206  21572567.020    88336066.32646
  23332994.980   122615822.44108  23332993.080    95544821.73546
  22405111.140   117739672.85908  22405110.720    91745212.80848
  24469817.380   128589733.21908  24469815.720   100199796.78546
  23771745.840   124921305.91608  23771747.720    97341247.18146
 15 03 02 00 11 30.0000000  0  7G16G18G21G22G27G29G31
  21158482.600   111188567.67509  21158478.960    86640454.03748
  22196849.700   116645349.92508  22196847.060    90892505.28647
  21581695.740   113412584.76207  21581692.020    88373430.71745
  23315287.120   122522767.14509  23315285.160    95472311.34246
  22393208.280   117677123.72508  22393208.060    91696473.24347
  24484390.160   128666313.44808  24484388.380   100259469.68546
  23790124.220   125017885.32008  23790125.220    97416503.57946
 15 03 02 00 12  0.0000000  0  7G16G18G21G22G27G29G31
  21147736.780   111132100.99209  21147733.420    86596454.02048
  22187441.900   116595913.82708  22187439.660    90853983.65447
  21590871.000   113460798.66707  21590866.840    88410999.99646
  23297598.340   122429810.88108  23297595.780    95399878.13546
  22381325.800   117614680.44808  22381325.520    91647816.15548
  24498967.520   128742917.30909  24498965.740   100319160.98446
  23808511.800   125114512.69708  23808512.080    97491797.37546
 15 03 02 00 12 30.0000000  0  7G16G18G21G22G27G29G31
  21137061.980   111076006.58609  21137059.100    86552744.09148
  22178106.420   116546857.17308  22178104.500    90815757.69747
  21600096.580   113509278.91506  21600092.080    88448776.79246
  23279929.480   122336961.01708  23279926.420    95327527.80946
  22369464.540   117552348.04709  22369464.180    91599245.47948
  24513550.420   128819549.79609  24513548.300   100378874.54146
  23826909.100   125211190.11508  23826908.540    97567130.12946
 15 03 02 00 13  0.0000000  0  7G16G18G21G22G27G29G31
  21126459.900   111020292.00909  21126457.200    86509330.14148
  22168844.780   116498187.15709  22168842.820    90777833.03047
  21609373.380   113558028.87607  21609368.580    88486763.77846
  23262281.980   122244225.47208  23262278.880    95255266.56646
  22357625.300   117490131.91108  22357624.900    91550765.40648
  24528139.540   128896215.63509  24528137.160   100438614.10646
  23845316.520   125307919.77908  23845315.160    97642503.59445
 15 03 02 00 13 30.0000000  0  7G16G18G21G22G27G29G31
  21115930.000   110964955.98109  21115927.040    86466211.17948
  22159656.720   116449902.37009  22159654.460    90740208.57847
  21618700.600   113607043.85007  21618695.860    88524957.26946
  23244656.160   122151603.50108  23244653.320    95183093.80547
  22345807.380   117428028.98708  22345807.220    91502373.53248
  24542734.340   128972911.73708  24542731.740   100498377.28146
  23863732.920   125404695.43508  23863731.060    97717912.90546
 15 03 02 00 14  0.0000000  0  7G16G18G21G22G27G29G31
  21105471.860   110909998.79608  21105468.720    86423387.38048
  22150542.000   116402002.92409  22150539.340    90702884.37947
  21628077.220   113656319.67107  21628072.740    88563354.00046
  23227052.500   122059096.19808  23227049.740    95111010.39746
  22334010.700   117366037.54108  22334011.360    91454068.52148
  24557334.480   129049636.22708  24557331.760   100558162.54645
  23882157.280   125501512.29008  23882155.700    97793354.30446
 15 03 02 00 14 30.0000000  0  6G16G18G21G22G27G31
  21095094.180   110855464.56609  21095090.980    86380893.18348
  22141508.840   116354532.60709  22141505.940    90665894.54247
  21637511.260   113705897.27107  21637507.280    88601985.88646
  23209479.100   121966748.14908  23209476.640    95039051.06647
  22322243.080   117304199.75708  22322244.480    91405883.22048
  23900596.720   125598409.20908  23900595.960    97868858.10546
 15 03 02 00 15  0.0000000  0  6G16G18G21G22G27G31
  21084784.920   110801288.48409  21084781.640    86338678.05748
  22132545.000   116307426.58509  22132541.940    90629188.56147
  21646989.800   113755707.17707  21646985.900    88640798.80047
  23191923.880   121874494.96809  23191921.780    94967165.64747
  22310491.460   117242448.98908  22310492.780    91357765.73648
  23919037.720   125695316.66108  23919037.960    97944370.13146
 15 03 02 00 15 30.0000000  0  7G16G18G19G21G22G27G31
  21074545.920   110747481.75309  21074542.680    86296750.72348
  22123652.520   116260695.43509  22123649.400    90592774.69947
  24533452.180   128924156.04106  24533450.800   100460379.49644
  21656514.200   113805757.06008  21656510.200    88679798.70646
  23174389.060   121782348.67008  23174386.580    94895363.52946
  22298758.760   117180794.33008  22298759.320    91309723.18247
  23937481.340   125792240.24408  23937482.720    98019894.75146
 15 03 02 00 16  0.0000000  0  7G16G18G19G21G22G27G31
  21064371.540   110694015.80609  21064368.360    86255088.92248
  22114825.980   116214310.67509  22114822.920    90556630.75847
  24518017.820   128843046.60006  24518016.280   100397177.35744
  21666078.280   113856014.68508  21666073.860    88718960.51246
  23156869.040   121690281.32909  23156865.380    94823622.95146
  22287039.140   117119205.81108  22287039.220    91261732.12847
  23955921.780   125889147.29908  23955924.220    98095406.44746
 15 03 02 00 16 30.0000000  0  7G16G18G19G21G22G27G31
  21054278.480   110640975.80809  21054275.240    86213759.05748
  22106081.600   116168357.65209  22106078.660    90520823.23348
  24502602.960   128762036.55206  24502600.000   100334052.71444
  21675697.240   113906561.61508  21675692.400    88758347.74146
  23139380.440   121598378.76509  23139376.220    94752010.77847
  22275348.140   117057766.54009  22275347.540    91213857.41948
  23974374.440   125986117.82708  23974377.700    98170967.59946
 15 03 02 00 17  0.0000000  0  7G16G18G19G21G22G27G31
  21044259.340   110588323.56309  21044256.080    86172731.36148
  22097411.800   116122797.24009  22097408.940    90485321.62448
  24487199.640   128681085.47107  24487193.820   100270974.03844
  21685362.880   113957355.01707  21685358.020    88797927.01346
  23121916.060   121506603.03109  23121912.240    94680497.39747
  22263677.660   116996436.29808  22263677.080    91166067.62648
  23992831.060   126083108.40107  23992834.760    98246544.37547
 15 03 02 00 17 30.0000000  0  7G16G18G19G21G22G27G31
  21034315.920   110536069.76409  21034312.840    86132014.11448
  22088818.700   116077640.40509  22088815.700    90450134.48447
  24471808.980   128600202.38007  24471800.880   100207948.36343
  21695076.640   114008402.07607  21695072.080    88837703.94346
  23104478.060   121414965.75409  23104474.680    94609091.91747
  22252029.500   116935223.98209  22252029.040    91118369.72948
  24011292.800   126180124.52807  24011296.200    98322141.08645
 15 03 02 00 18  0.0000000  0  7G16G18G19G21G22G27G31
  21024450.420   110484225.38109  21024447.180    86091615.88448
  22080304.440   116032897.85609  22080301.080    90415270.21147
  24456432.180   128519396.13307  24456422.500   100144982.50144
  21704839.900   114059710.43007  21704835.740    88877684.46546
  23087068.440   121323478.54809  23087065.280    94537803.34147
  22240405.580   116874138.89009  22240405.160    91070770.96948
  24029760.720   126277172.55508  24029763.300    98397762.61846
 15 03 02 00 18 30.0000000  0  7G16G18G19G21G22G27G31
  21014659.660   110432773.82809  21014656.180    86051523.78148
  22071865.840   115988552.91409  22071862.060    90380715.78247
  24441065.900   128438648.37207  24441056.880   100082062.23544
  21714648.880   114111259.13007  21714645.260    88917852.28646
  23069684.420   121232125.24209  23069680.920    94466619.12547
  22228802.100   116813162.58808  22228802.020    91023256.96348
  24048230.600   126374230.93408  24048232.280    98473392.23245
 15 03 02 00 19  0.0000000  0  7G16G18G19G21G22G27G31
  21004949.620   110381747.54609  21004946.280    86011763.04648
  22063508.800   115944637.21809  22063505.120    90346495.78647
  24425716.180   128357989.36407  24425710.040   100019211.00544
  21724509.300   114163076.89308  21724506.340    88958229.76046
  23052332.100   121140938.57409  23052328.420    94395564.74047
  22217225.100   116752325.38409  22217224.860    90975851.35548
  24066707.660   126471327.03108  24066708.260    98549051.23845
 15 03 02 00 19 30.0000000  0  7G16G18G19G21G22G27G31
  20995316.600   110331126.53909  20995313.520    85972318.11148
  22055229.300   115901130.10408  22055226.120    90312594.11647
  24410379.360   128277396.86807  24410375.760    99956411.69644
  21734416.440   114215139.49907  21734413.800    88998798.02646
  23035007.760   121049899.56408  23035004.400    94324625.40647
  22205670.520   116691605.56909  22205669.900    90928537.23748
  24085187.200   126568435.97508  24085186.900    98624720.24745
 15 03 02 00 20  0.0000000  0  7G16G18G19G21G22G27G31
  20985761.220   110280912.75709  20985758.280    85933190.48548
  22047028.160   115858034.08609  22047025.260    90279012.81247
  24395055.420   128196871.17906  24395052.920    99893664.43944
  21744369.760   114267445.55307  21744367.200    89039555.98646
  23017712.020   120959011.03509  23017709.040    94253803.33147
  22194138.340   116631003.56509  22194137.540    90881314.88648
  24103668.740   126665555.09708  24103668.160    98700397.19145
 15 03 02 00 20 30.0000000  0  7G16G18G19G21G22G27G31
  20976283.600   110231107.09609  20976280.560    85894380.88348
  22038905.580   115815349.33609  22038902.380    90245752.03247
  24379743.660   128116411.21305  24379741.620    99830968.36045
  21754368.740   114319992.41007  21754365.920    89080501.58145
  23000445.300   120868274.13009  23000442.520    94183099.40447
  22182628.500   116570518.33509  22182627.320    90834183.56247
  24122151.520   126762679.95608  24122151.100    98776078.61445
 15 03 02 00 21  0.0000000  0  7G16G18G19G21G22G27G31
  20966882.280   110181702.13809  20966879.020    85855883.50748
  22030859.920   115773068.55009  22030856.660    90212805.99047
  24364442.920   128036007.89406  24364441.120    99768316.44545
  21764411.720   114372768.63707  21764408.440    89121625.91145
  22983206.300   120777682.81309  22983202.840    94112508.89846
  22171139.400   116510141.01509  22171137.480    90787136.31848
  24140633.300   126859798.78108  24140633.140    98851755.29745
 15 03 02 00 21 30.0000000  0  7G16G18G19G21G22G27G31
  20957558.160   110132702.95509  20957554.780    85817702.32548
  22022892.000   115731196.47209  22022888.720    90180178.39947
  24349153.720   127955663.86906  24349150.860    99705710.76744
  21774498.760   114425775.17607  21774495.020    89162929.72446
  22965995.720   120687242.04408  22965991.600    94042035.73846
  22159671.280   116449874.46309  22159669.160    90740175.37748
  24159113.980   126956911.17208  24159114.000    98927426.99545
 15 03 02 00 22  0.0000000  0  7G16G18G19G21G22G27G31
  20948314.540   110084126.95709  20948311.160    85779850.91948
  22015004.840   115689749.81509  22015001.860    90147882.30547
  24333879.020   127875394.70307  24333874.740    99643163.45444
  21784632.200   114479025.64808  21784628.380    89204423.59745
  22948817.240   120596970.07309  22948813.500    93971694.04946
  22148227.180   116389734.45809  22148225.100    90693313.07047
  24177595.900   127054029.96008  24177596.180    99003103.69145
 15 03 02 00 22 30.0000000  0  7G16G18G19G21G22G27G31
  20939147.960   110035956.28309  20939144.620    85742315.32549
  22007195.320   115648710.83409  22007192.520    90115903.89648
  24318614.780   127795180.68007  24318610.420    99580659.04045
  21794808.180   114532498.93708  21794804.240    89246091.10747
  22931667.880   120506849.64909  22931664.380    93901470.46247
  22136803.300   116329701.49209  22136801.340    90646534.14248
  24196074.680   127151132.30908  24196075.240    99078767.54946
 15 03 02 00 23  0.0000000  0  7G16G18G19G21G22G27G31
  20930060.440   109988201.57409  20930057.040    85705103.87348
  21999465.320   115608089.20209  21999462.500    90084250.72047
  24303362.760   127715030.43207  24303358.820    99518204.36044
  21805028.020   114586201.91008  21805023.780    89287937.58346
  22914549.820   120416892.09609  22914545.940    93831373.82647
  22125401.160   116269784.41609  22125399.420    90599845.53648
  24214551.400   127248224.00008  24214552.180    99154423.09746
 15 03 02 00 23 30.0000000  0  7G16G18G19G21G22G27G31
  20921054.340   109940874.08609  20921050.760    85668225.30148
  21991816.800   115567896.64909  21991813.980    90052931.85447
  24288124.900   127634953.76307  24288120.740    99455806.97646
  21815292.920   114640141.71708  21815288.300    89329968.60646
  22897464.840   120327109.77308  22897460.780    93761413.68547
  22114022.920   116209992.95608  22114021.680    90553254.79648
  24233027.180   127345311.68908  24233027.980    99230075.51845
 15 03 02 00 24  0.0000000  0  7G16G18G19G21G22G27G31
  20912126.960   109893959.78309  20912123.280    85631668.69948
  21984247.020   115528118.20909  21984244.460    90021935.69147
  24272898.360   127554934.47107  24272894.280    99393454.31045
  21825599.180   114694300.42007  21825594.100    89372170.21346
  22880410.240   120237488.78309  22880406.120    93691579.28047
  22102665.760   116150311.08708  22102664.980    90506749.46448
  24251498.400   127442376.46908  24251499.100    99305710.09146
 15 03 02 00 24 30.0000000  0  7G16G18G19G21G22G27G31
  20903281.660   109847476.75609  20903277.980    85595448.15048
  21976759.520   115488771.65109  21976757.040    89991276.08547
  24257685.820   127474988.54707  24257682.020    99331158.76245
  21835949.280   114748692.38107  21835944.560    89414553.55746
  22863389.820   120148048.30208  22863386.020    93621885.51447
  22091332.680   116090755.42909  22091332.020    90460342.46248
  24269967.420   127539431.41708  24269968.240    99381336.99346
 15 03 02 00 25  0.0000000  0  7G16G18G19G21G22G27G31
  20894517.300   109801419.17609  20894513.580    85559559.10949
  21969353.060   115449851.05909  21969350.660    89960948.37347
  24242486.080   127395108.36108  24242482.040    99268914.52145
  21846341.480   114803308.39005  21846337.880    89457111.46045
  22846402.900   120058783.18209  22846399.460    93552328.39047
  22080022.340   116031318.49508  22080021.440    90414027.98448
  24288432.300   127636466.11208  24288433.580    99456948.09446
 15 03 02 00 25 30.0000000  0  7G16G18G19G21G22G27G31
  20885834.480   109755790.45209  20885830.760    85524004.25348
  21962028.300   115411359.54009  21962026.040    89930954.97147
  24227299.120   127315295.54408  24227293.960    99206722.81245
  21856776.160   114858148.51406  21856773.940    89499843.95246
  22829450.400   119969697.63809  22829447.320    93482911.19547
  22068734.600   115972002.04508  22068734.080    90367807.38048
  24306892.960   127733479.18508  24306894.940    99532542.33445
 15 03 02 00 26  0.0000000  0  7G16G18G19G21G22G27G31
  20877233.600   109710592.55709  20877229.880    85488785.11248
  21954785.460   115373298.13809  21954783.100    89901296.74047
  24212124.180   127235550.26307  24212117.780    99144583.66244
  21867253.940   114913210.76007  21867252.040    89542749.55346
  22812532.620   119880794.16709  22812530.100    93413635.84747
  22057469.580   115912806.41208  22057469.780    90321680.89248
  24325349.080   127830467.86708  24325351.640    99608117.53945
 15 03 02 00 26 30.0000000  0  7G16G18G19G21G22G27G31
  20868714.360   109665823.63509  20868710.640    85453900.25048
  21947624.260   115335665.38109  21947621.580    89871972.55547
  24196960.720   127155868.98507  24196953.220    99082494.41844
  21877773.440   114968489.29207  21877771.220    89585823.76146
  22795649.120   119792071.59809  22795646.500    93344501.48647
  22046226.920   115853728.00808  22046227.580    90275645.77448
  24343799.280   127927425.22908  24343802.060    99683668.35545
 15 03 02 00 27  0.0000000  0  7G16G18G19G21G22G27G31
  20860278.540   109621493.51709  20860274.960    85419357.29548
  21940546.360   115298470.21609  21940543.500    89842989.32847
  24181810.800   127076259.52507  24181802.960    99020461.13244
  21888335.380   115023990.32007  21888332.660    89629071.32046
  22778802.100   119703540.60709  22778798.460    93275516.40347
  22035008.500   115794775.03609  22035009.460    90229708.40648
  24362244.640   128024356.65008  24362247.320    99759198.93746
 15 03 02 00 27 30.0000000  0  7G16G18G19G21G22G27G31
  20851925.120   109577597.03109  20851921.820    85385152.24948
  21933550.600   115261707.11809  21933547.600    89814342.79947
  24166673.380   126996714.89108  24166666.460    98958478.35444
  21898938.000   115079705.04708  21898934.840    89672485.40546
  22761990.960   119615196.75809  22761986.600    93206677.16747
  22023812.980   115735940.83609  22023813.740    90183863.58548
  24380683.280   128121252.14108  24380685.920    99834701.50846
 15 03 02 00 28  0.0000000  0  7G16G18G19G21G22G27G31
  20843655.040   109534137.84909  20843651.760    85351287.95549
  21926637.660   115225379.75409  21926634.740    89786035.78047
  24151549.180   126917236.98308  24151543.600    98896547.58846
  21909581.200   115135633.23407  21909577.520    89716065.84046
  22745216.180   119527044.34709  22745211.740    93137987.08547
  22012640.520   115677227.41309  22012640.340    90138112.90248
  24399115.140   128218110.85308  24399117.580    99910175.37546
 15 03 02 00 28 30.0000000  0  7G16G18G19G21G22G27G31
  20835469.160   109491120.06509  20835465.680    85317767.61648
  21919808.160   115189491.23609  21919805.500    89758070.71548
  24136438.260   126837827.91707  24136433.620    98834670.38746
  21920265.080   115191775.45508  21920261.160    89759813.05246
  22728478.660   119439088.31409  22728474.740    93069450.00747
  22001491.380   115618637.38509  22001490.500    90092458.36848
  24417540.020   128314931.83408  24417542.360    99985619.82645
 15 03 02 00 29  0.0000000  0  7G16G18G19G21G22G27G31
  20827369.800   109448556.47209  20827366.120    85284601.18449
  21913064.620   115154054.04809  21913062.080    89730457.33147
  24121341.820   126758499.15207  24121338.520    98772855.75146
  21930991.480   115248141.29407  21930987.360    89803734.51245
  22711780.940   119351342.48308  22711777.600    93001076.70047
  21990367.740   115560181.92609  21990366.880    90046908.67048
  24435959.380   128411723.49608  24435961.660   100061041.42846
 15 03 02 00 29 30.0000000  0  7G16G18G19G21G22G27G31
  20819353.620   109406430.57609  20819349.920    85251775.81548
  21906403.960   115119051.44709  21906401.220    89703182.59347
  24106256.940   126679231.92907  24106254.680    98711089.09845
  21941756.500   115304710.65807  21941752.180    89847814.55645
  22695120.140   119263790.85909  22695116.920    92932854.75347
  21979266.160   115501842.99208  21979265.300    90001449.76448
  24454369.100   128508464.74208  24454371.180   100136423.71545
 15 03 02 00 30  0.0000000  0  7G16G18G19G21G22G27G31
  20811421.800   109364748.80409  20811418.220    85219296.51248
  21899827.380   115084489.69709  21899824.360    89676251.39647
  24091185.060   126600031.04807  24091182.520    98649374.20845
  21952560.360   115361485.97707  21952556.240    89892055.06944
  22678497.760   119176440.81108  22678494.620    92864789.87747
  21968187.640   115443625.62608  21968186.700    89956085.57548
  24472769.600   128605157.34508  24472771.420   100211768.06045
 15 03 02 00 30 30.0000000  0  7G16G18G19G21G22G27G31
  20803574.880   109323513.46209  20803571.400    85187165.07148
  21893335.060   115050370.28109  21893331.680    89649664.88547
  24076126.280   126520897.33407  24076123.280    98587711.61345
  21963403.120   115418466.31307  21963399.320    89936455.33943
  22661914.260   119089295.39109  22661911.460    92796884.41247
  21957132.520   115385530.66209  21957131.740    89910816.75548
  24491160.520   128701799.05808  24491161.920   100287072.71144
 15 03 02 00 31  0.0000000  0  7G16G18G19G21G22G27G31
  20795812.820   109282724.14509  20795809.380    85155381.19348
  21886926.580   115016692.42709  21886923.020    89623422.42048
  24061080.260   126441828.40208  24061077.220    98526099.51945
  21974284.120   115475647.17406  21974280.020    89981011.83344
  22645370.080   119002354.80509  22645367.140    92729138.58147
  21946100.700   115327555.98109  21946099.980    89865641.69648
  24509540.780   128798384.56608  24509541.860   100362333.55045
 15 03 02 00 31 30.0000000  0  7G16G18G19G21G22G27G31
  20788137.260   109242389.43309  20788133.780    85123951.55048
  21880603.260   114983463.74709  21880599.820    89597529.93248
  24046048.020   126362831.01208  24046044.440    98464543.14845
  21985204.420   115533033.67507  21985199.960    90025728.60444
  22628866.920   118915628.75009  22628863.060    92661559.93947
  21935093.040   115269708.76309  21935092.380    89820565.95248
  24527911.040   128894917.69108  24527912.000   100437553.52845
 15 03 02 00 32  0.0000000  0  7G16G18G19G21G22G27G31
  20780548.140   109202508.36509  20780544.700    85092875.38448
  21874365.240   114950683.32209  21874361.900    89571986.74448
  24031028.660   126283902.47408  24031024.140    98403040.40745
  21996163.060   115590621.25206  21996158.640    90070601.99941
  22612404.300   118829116.62309  22612399.500    92594147.97646
  21924108.700   115211986.54709  21924108.100    89775587.57748
  24546270.320   128991393.34208  24546271.400   100512728.71345
 15 03 02 00 32 30.0000000  0  7G16G18G19G21G22G27G31
  20773046.260   109163085.75309  20773042.900    85062156.47048
  21868213.460   114918355.74209  21868209.960    89546796.45647
  24016022.880   126205046.09208  24016018.260    98341593.90145
  22007160.160   115648411.53906  22007156.060    90115633.32241
  22595983.180   118742824.40208  22595978.420    92526907.36947
  21913149.060   115154392.70909  21913147.920    89730709.28248
  24564618.680   129087811.68008  24564619.880   100587859.19745
 15 03 02 00 33  0.0000000  0  7G16G18G19G21G22G27G31
  20765631.920   109124122.65509  20765628.520    85031795.62349
  21862147.900   114886481.47109  21862144.500    89521959.39548
  24001030.400   126126261.33607  24001026.340    98280203.22746
  22018195.260   115706402.31906  22018191.960    90160820.91244
  22579604.180   118656754.07609  22579600.020    92459839.61948
  21902213.620   115096927.12809  21902212.160    89685930.92348
  24582955.460   129184169.31008  24582956.740   100662942.34146
 15 03 02 00 33 30.0000000  0  7G16G18G19G21G22G27G31
  20758306.920   109085628.52009  20758303.300    85001800.19148
  21856170.100   114855069.12109  21856166.980    89497482.25747
  23986052.660   126047556.25007  23986049.280    98218874.65645
  22029269.080   115764599.11706  22029266.780    90206169.03244
  22563269.700   118570915.96009  22563265.940    92392952.84647
  21891303.940   115039597.60009  21891302.540    89641258.58848
  24601281.600   129280470.92008  24601283.060   100737981.83845
 15 03 02 00 34  0.0000000  0  7G16G18G19G21G22G27G31
  20751068.360   109047588.90509  20751064.520    84972158.92448
  21850277.320   114824104.27909  21850274.700    89473353.79148
  23971087.140   125968914.35508  23971084.060    98157595.27845
  22040379.020   115822983.62306  22040377.440    90251663.46044
  22546976.980   118485296.51509  22546973.320    92326236.46847
  21880417.220   114982388.54609  21880415.580    89596680.09748
  24619593.440   129376697.71408  24619595.180   100812962.99145
 15 03 02 00 34 30.0000000  0  7G16G18G19G21G22G27G31
  20743916.360   109010004.86509  20743912.540    84942872.66548
  21844469.920   114793587.18409  21844467.740    89449574.22448
  23956133.880   125890334.94508  23956130.980    98096364.56345
  22051524.700   115881553.86507  22051522.900    90297302.62845
  22530725.920   118399897.17609  22530722.420    92259691.58947
  21869553.220   114925299.30908  21869551.620    89552194.99348
  24637890.380   129472846.20008  24637892.840   100887883.11545
 15 03 02 00 35  0.0000000  0  7G16G18G19G21G22G27G31
  20736853.100   108972887.13809  20736849.320    84913949.76249
  21838749.840   114763527.73509  21838747.680    89426151.29948
  23941194.620   125811827.04308  23941190.980    98035189.61345
  22062706.960   115940317.02507  22062704.780    90343092.10144
  22514519.220   118314729.64309  22514515.480    92193327.36248
  21858713.760   114868339.36809  21858713.020    89507810.62748
  24656173.560   129568922.59708  24656176.780   100962747.06446
 15 03 02 00 35 30.0000000  0  7G16G18G19G21G22G27G31
  20729878.760   108936237.06009  20729875.060    84885391.24349
  21833117.020   114733926.92709  21833114.600    89403085.75747
  23926269.140   125733390.65208  23926264.380    97974070.40645
  22073925.320   115999270.74207  22073922.580    90389030.05145
  22498357.180   118229796.38609  22498352.980    92127145.67947
  21847899.360   114811508.82309  21847899.100    89463527.11148
  24674442.260   129664923.78108  24674446.280   101037552.39245
 15 03 02 00 36  0.0000000  0  7G16G18G19G21G22G27G31
  20722993.420   108900055.00309  20722989.760    84857197.42448
  21827571.660   114704785.52209  21827569.060    89380378.20747
  23911356.660   125655024.57007  23911351.580    97913005.98446
  22085179.580   116058412.68207  22085176.340    90435114.71745
  22482239.880   118145098.92209  22482235.520    92061147.72347
  21837109.440   114754806.83609  21837109.320    89419343.75048
  24692695.900   129760846.39007  24692700.660   101112296.49345
 15 03 02 00 36 30.0000000  0  6G16G18G19G21G22G27
  20716198.020   108864345.60309  20716194.520    84829371.91148
  21822114.380   114676106.90709  21822111.700    89358031.24947
  23896457.580   125576731.91708  23896452.940    97851998.75546
  22096470.040   116117743.40707  22096466.580    90481346.44644
  22466168.160   118060642.19109  22466164.120    91995337.32847
  21826344.760   114698236.44409  21826344.440    89375262.92848
 15 03 02 00 37  0.0000000  0  6G16G18G19G21G22G27
  20709492.920   108829110.54209  20709489.500    84801916.02448
  21816745.360   114647892.20609  21816742.660    89336045.77648
  23881572.500   125498512.41708  23881567.900    97791048.54446
  22107796.180   116177261.29507  22107792.380    90527724.02944
  22450142.660   117976428.95209  22450138.860    91929716.69047
  21815605.340   114641798.25909  21815604.680    89331285.12848
 15 03 02 00 37 30.0000000  0  6G16G18G19G21G22G27
  20702877.120   108794344.85209  20702873.700    84774825.87348
  21811463.560   114620135.88909  21811460.780    89314417.49247
  23866700.360   125420359.78708  23866695.600    97730150.41145
  22119156.180   116236957.95406  22119152.100    90574240.93145
  22434162.740   117892455.13809  22434158.900    91864282.60547
  21804889.700   114585485.87009  21804888.600    89287405.34948
 15 03 02 00 38  0.0000000  0  6G16G18G19G21G22G27
  20696351.380   108760052.81309  20696348.100    84748104.79249
  21806269.620   114592841.87609  21806266.700    89293149.46447
  23851841.780   125342276.93308  23851837.280    97669306.68946
  22130550.280   116296834.46105  22130546.120    90620897.98244
  22418229.540   117808726.46909  22418225.580    91799039.54347
  21794198.460   114529302.52809  21794196.860    89243626.15748
 15 03 02 00 38 30.0000000  0  6G16G18G19G21G22G27
  20689916.380   108726238.03109  20689913.320    84721755.59749
  21801164.060   114566013.01509  21801161.100    89272243.86647
  23836997.080   125264266.08408  23836992.860    97608519.05547
  22141978.820   116356890.90905  22141974.540    90667695.22944
  22402343.780   117725246.90209  22402339.920    91733990.57548
  21783532.020   114473250.24909  21783530.540    89199949.05648
 15 03 02 00 39  0.0000000  0  6G16G18G19G21G22G27
  20683572.340   108692900.98509  20683569.460    84695778.67349
  21796147.200   114539649.71609  21796144.280    89251701.04447
  23822165.680   125186325.89908  23822161.500    97547786.44646
  22153441.800   116417124.84305  22153436.700    90714630.85244
  22386505.680   117642018.08109  22386502.060    91669136.98947
  21772890.560   114417328.85209  21772889.340    89156373.95048
 15 03 02 00 39 30.0000000  0  5G16G18G19G22G27
  20677319.860   108660044.60909  20677317.240    84670176.30049
  21791219.440   114513754.06809  21791216.580    89231522.61948
  23807348.060   125108458.13208  23807344.360    97487110.24946
  22370716.240   117559043.71709  22370712.520    91604481.70448
  21762274.180   114361539.80309  21762272.720    89112901.98648
 15 03 02 00 40  0.0000000  0  6G16G18G19G21G22G27
  20671161.500   108627682.07709  20671159.000    84644958.75349
  21786383.160   114488338.60109  21786380.280    89211718.38448
  23792546.560   125030674.09008  23792543.340    97426499.36046
  22176470.140   116538136.69904  22176464.840    90808906.81944
  22354978.020   117476338.01909  22354974.140    91540035.75248
  21751685.300   114305894.87109  21751683.660    89069542.33648
 15 03 02 00 40 30.0000000  0  5G16G18G19G22G27
  20665093.940   108595796.05909  20665091.420    84620112.51249
  21781634.820   114463385.51709  21781631.860    89192274.43947
  23777757.380   124952955.14208  23777753.480    97365939.20546
  22339287.900   117393884.53409  22339283.720    91475786.35147
  21741120.240   114250375.89909  21741119.000    89026280.79448
 15 03 02 00 41  0.0000000  0  6G16G18G19G21G22G27
  20659115.260   108564376.67209  20659112.760    84595629.86749
  21776972.500   114438884.53409  21776969.200    89173182.79547
  23762978.220   124875290.04808  23762973.200    97305420.96646
  22199625.060   116659814.33605  22199616.980    90903741.15144
  22323644.000   117311674.65109  22323639.840    91411726.76248
  21730576.920   114194971.71409  21730575.880    88983108.70348
 15 03 02 00 41 30.0000000  0  6G16G18G19G21G22G27
  20653235.040   108533474.39709  20653232.400    84571550.16349
  21772405.560   114414885.37109  21772402.260    89154482.16847
  23748218.420   124797727.72108  23748212.520    97244982.80846
  22211255.360   116720930.70904  22211248.080    90951364.31043
  22308056.000   117229759.40009  22308052.140    91347896.71048
  21720064.640   114139731.66908  21720063.840    88940064.52648
 15 03 02 00 42  0.0000000  0  6G16G18G19G21G22G27
  20647454.460   108503095.36809  20647451.380    84547878.17449
  21767935.080   114391393.58309  21767932.020    89136176.87747
  23733479.180   124720273.09208  23733473.040    97184628.57845
  22222925.760   116782250.02805  22222919.220    90999091.60044
  22292525.420   117148146.29809  22292521.560    91284302.12848
  21709584.760   114084660.97609  21709584.560    88897152.29248
 15 03 02 00 42 30.0000000  0  6G16G18G19G21G22G27
  20641759.020   108473164.23109  20641755.580    84524555.20649
  21763546.700   114368332.69009  21763543.760    89118207.36248
  23718745.880   124642849.01708  23718740.180    97124298.17346
  22234619.240   116843693.35805  22234607.220    91046989.50643
  22277038.120   117066760.36509  22277034.000    91220884.57848
  21699122.860   114029682.88909  21699123.080    88854312.22048
 15 03 02 00 43  0.0000000  0  5G16G18G19G22G27
  20636159.240   108443736.50509  20636155.620    84501624.50749
  21759250.900   114345758.61409  21759248.080    89100617.17347
  23704028.500   124565510.19507  23704024.040    97064034.17446
  22261605.160   116985658.65909  22261600.640    91157688.49448
  21688689.120   113974852.22009  21688689.040    88811587.02148
 15 03 02 00 43 30.0000000  0  5G16G18G19G22G27
  20630652.580   108414798.87409  20630648.900    84479075.70849
  21755045.020   114323657.11209  21755042.340    89083395.24647
  23689324.540   124488241.71908  23689320.820    97003824.95246
  22246223.980   116904829.23809  22246219.240    91094704.58548
  21678280.720   113920154.55009  21678280.000    88768965.49348
 15 03 02 00 44  0.0000000  0  5G16G18G19G22G27
  20625238.860   108386350.52709  20625235.240    84456908.16849
  21750928.720   114302026.54209  21750926.160    89066540.24247
  23674633.920   124411041.35408  23674630.220    96943668.84646
  22230894.180   116824271.83009  22230889.580    91031932.59947
  21667897.240   113865587.95609  21667896.600    88726446.08448
 15 03 02 00 44 30.0000000  0  6G16G18G19G21G22G27
  20619919.400   108358397.52209  20619915.900    84435126.60049
  21746903.220   114280872.47309  21746900.680    89050056.56047
  23659957.400   124333913.75108  23659953.340    96883569.44945
  22281701.400   117091128.79504  22281701.600    91239842.70853
  22215617.540   116743993.25409  22215612.960    90969377.88548
  21657539.620   113811157.38109  21657538.920    88684032.65348
 15 03 02 00 45  0.0000000  0  6G16G18G19G21G22G27
  20614695.520   108330946.90609  20614692.220    84413736.50849
  21742969.700   114260201.26309  21742967.080    89033949.14647
  23645295.700   124256864.80408  23645291.020    96823531.32546
  22293549.960   117153388.12205                                
  22200395.800   116664001.54309  22200390.940    90907046.75248
  21647208.720   113756868.91808  21647207.680    88641729.97748
 15 03 02 00 45 30.0000000  0  6G16G18G19G21G22G27
  20609566.580   108303994.60209  20609563.360    84392734.70049
  21739127.320   114240008.49709  21739124.540    89018214.55847
  23630647.980   124179889.49108  23630642.320    96763550.58546
  22305427.740   117215803.58905                                
  22185228.200   116584294.42909  22185223.000    90844937.37748
  21636903.760   113702717.87209  21636903.120    88599534.35448
 15 03 02 00 46  0.0000000  0  6G16G18G19G21G22G27
  20604533.280   108277544.61309  20604530.080    84372124.30949
  21735376.580   114220297.56109  21735373.620    89002855.42647
  23616014.960   124102990.26108  23616008.360    96703629.15346
  22317335.680   117278376.09806                                
  22170115.440   116504876.65209  22170110.340    90783053.42848
  21626625.620   113648707.27209  21626625.400    88557448.16448
 15 03 02 00 46 30.0000000  0  5G16G18G19G22G27
  20599595.600   108251596.86109  20599592.380    84351905.28748
  21731717.220   114201067.58109  21731714.120    88987871.06547
  23601396.000   124026166.10108  23601389.580    96643766.16646
  22155057.840   116425749.04509  22155052.980    90721395.59147
  21616374.240   113594836.06409  21616374.060    88515470.59848
 15 03 02 00 47  0.0000000  0  5G16G18G19G22G27
  20594756.820   108226168.23909  20594753.500    84332090.77049
  21728152.460   114182334.58609  21728149.280    88973273.95048
  23586793.940   123949431.95008  23586788.040    96583973.32546
  22140058.920   116346929.45309  22140054.020    90659977.76548
  21606152.680   113541119.87409  21606152.180    88473613.84149
 15 03 02 00 47 30.0000000  0  5G16G18G19G22G27
  20590013.660   108201241.69809  20590010.200    84312667.49649
  21724678.940   114164081.32209  21724675.920    88959050.61648
  23572205.520   123872770.08908  23572199.920    96524236.85347
  22125115.640   116268402.30809  22125111.000    90598787.82648
  21595957.360   113487541.04109  21595956.420    88431864.11549
 15 03 02 00 48  0.0000000  0  5G16G18G19G22G27
  20585368.100   108176827.99109  20585364.360    84293643.82249
  21721298.640   114146317.88409  21721295.680    88945208.95147
  23557632.280   123796190.38608  23557627.620    96464564.33846
  22110230.000   116190179.22109  22110225.800    90537834.78848
  21585789.900   113434109.69309  21585788.760    88390229.30048
 15 03 02 00 48 30.0000000  0  6G16G18G19G21G22G27
  20580812.200   108152885.95409  20580808.240    84274987.68949
  21718003.600   114129002.35809  21718000.600    88931716.31148
  23543066.980   123719649.93308  23543062.640    96404922.44546
  22377308.580   117593545.89904  22377301.800    91631319.86043
  22095394.740   116112220.15709  22095390.460    90477087.50748
  21575642.380   113380783.63709  21575641.280    88348676.54249
 15 03 02 00 49  0.0000000  0  6G16G18G19G21G22G27
  20576358.060   108129478.93909  20576354.040    84256748.46749
  21714805.840   114112197.69309  21714802.800    88918621.77348
  23528521.640   123643211.45008  23528516.220    96345360.06346
  22389387.200   117657025.52705  22389381.800    91680784.47541
  22080622.240   116034589.77509  22080617.820    90416596.34548
  21565526.800   113327625.46909  21565525.760    88307254.60748
 15 03 02 00 49 30.0000000  0  6G16G18G19G21G22G27
  20572003.540   108106595.60309  20571999.480    84238917.29448
  21711702.940   114095891.35409  21711699.740    88905915.56247
  23513993.280   123566862.28808  23513986.860    96285867.24846
  22401496.120   117720662.10605  22401492.620    91730371.33844
  22065910.180   115957277.45409  22065905.600    90356353.02547
  21555440.600   113274623.09709  21555439.760    88265954.06048
 15 03 02 00 50  0.0000000  0  6G16G18G19G21G22G27
  20567746.180   108084223.07509  20567742.100    84221484.15549
  21708692.400   114080070.46309  21708688.980    88893587.60347
  23499478.860   123490588.76708  23499472.560    96226433.39946
  22413632.560   117784440.16505  22413630.100    91780068.49644
  22051256.340   115880271.68309  22051251.660    90296348.56748
  21545381.380   113221762.97909  21545380.300    88224764.38248
 15 03 02 00 50 30.0000000  0  5G16G18G19G22G27
  20563590.400   108062384.61109  20563586.300    84204467.16449
  21705778.360   114064757.05309  21705774.540    88881655.09047
  23484982.120   123414412.34607  23484976.800    96167075.14946
  22036665.480   115803596.70909  22036660.980    90236601.85648
  21535353.480   113169067.37009  21535352.240    88183702.90948
 15 03 02 00 51  0.0000000  0  5G16G18G19G22G27
  20559531.720   108041056.21409  20559527.640    84187847.63848
  21702956.120   114049926.77809  21702952.280    88870099.02547
  23470498.720   123338308.53007  23470495.480    96107773.44846
  22022133.380   115727229.61909  22022128.720    90177095.07847
  21525352.060   113116511.91508  21525351.360    88142750.58048
 15 03 02 00 51 30.0000000  0  5G16G18G19G22G27
  20555569.840   108020236.64109  20555565.800    84171624.58049
  21700225.620   114035577.52309  21700221.740    88858917.80047
  23456028.960   123262274.20808  23456027.320    96048525.88947
  22007659.920   115651170.61909  22007654.880    90117828.36648
  21515377.100   113064094.42409  21515376.720    88101905.78148
 15 03 02 00 52  0.0000000  0  5G16G18G19G22G27
  20551705.160   107999928.25209  20551701.100    84155799.85748
  21697587.220   114021711.63109  21697583.240    88848113.24348
  23441573.580   123186311.88208  23441572.640    95989334.50147
  21993245.880   115575423.56309  21993240.840    90058804.72248
  21505429.100   113011816.83909  21505428.780    88061170.01848
 15 03 02 00 52 30.0000000  0  6G16G18G19G21G22G27
  20547939.660   107980141.40409  20547935.700    84140381.52449
  21695042.540   114008338.39309  21695038.380    88837692.57148
  23427134.120   123110430.50208  23427132.820    95930206.13947
  22474722.300   118105469.10706                                
  21978893.380   115499999.74109  21978888.400    90000032.94848
  21495509.680   112959688.71109  21495509.460    88020550.69949
 15 03 02 00 53  0.0000000  0  6G16G18G19G21G22G27
  20544271.820   107960868.03309  20544268.120    84125363.30249
  21692589.880   113995449.02409  21692585.360    88827648.92947
  23412708.800   123034620.97108  23412706.140    95871133.81046
  22487015.540   118170070.74006  22487013.720    92080565.66243
  21964601.000   115424892.07909  21964595.720    89941507.52548
  21485617.080   112907701.34409  21485616.880    87980041.05449
 15 03 02 00 53 30.0000000  0  6G16G18G19G21G22G27
  20540703.580   107942118.11409  20540700.180    84110752.97249
  21690231.120   113983052.71009  21690226.460    88817989.50747
  23398298.920   122958892.53908  23398294.900    95812124.69546
  22499334.220   118234806.83106                                
  21950370.880   115350111.82009  21950365.360    89883237.24148
  21475753.100   112855864.15009  21475752.540    87939648.46049
 15 03 02 00 54  0.0000000  0  6G16G18G19G21G22G27
  20537236.960   107923902.00409  20537233.880    84096558.59449
  21687967.900   113971159.51409  21687963.240    88808722.08847
  23383905.840   122883254.30408  23383901.360    95753185.82547
  22511680.080   118299685.07906                                
  21936205.060   115275670.09709  21936199.520    89825230.73248
  21465919.240   112804186.89109  21465918.580    87899380.48049
 15 03 02 00 54 30.0000000  0  6G16G18G19G21G22G27
  20533871.540   107906216.84409  20533868.680    84082777.95049
  21685799.700   113959765.84009  21685795.200    88799843.91747
  23369528.820   122807702.74108  23369524.400    95694314.51847
  22524052.040   118364699.63106  22524050.880    92232222.27741
  21922103.240   115201565.77009  21922098.020    89767487.13648
  21456114.920   112752666.24709  21456114.660    87859234.51848
 15 03 02 00 55  0.0000000  0  6G16G18G19G21G22G27
  20530604.660   107889048.99509  20530601.940    84069400.41049
  21683723.700   113948856.89909  21683719.500    88791343.45747
  23355165.440   122732223.20308  23355160.840    95635499.33746
  22536446.980   118429834.15406  22536441.380    92282957.59841
  21908062.900   115127786.34909  21908058.260    89709996.70048
  21446337.520   112701288.01008  21446337.700    87819199.55048
 15 03 02 00 55 30.0000000  0  6G16G18G19G21G22G27
  20527437.580   107872405.53609  20527434.860    84056431.49549
  21681741.080   113938439.27709  21681737.260    88783225.84048
  23340817.000   122656821.87808  23340812.760    95576745.07047
  22548865.820   118495093.44105  22548858.920    92333809.08744
  21894086.100   115054340.11609  21894081.760    89652765.89648
  21436588.220   112650058.90808  21436588.920    87779280.75348
 15 03 02 00 56  0.0000000  0  6G16G18G19G21G22G27
  20524373.920   107856305.17709  20524371.120    84043885.75249
  21679855.500   113928531.42309  21679851.940    88775505.42848
  23326486.760   122581516.79708  23326483.180    95518065.75947
  22561311.060   118560492.91506  22561304.540    92384769.72644
  21880176.860   114981246.93909  21880172.600    89595810.20548
  21426871.220   112598996.93409  21426872.360    87739492.18648
 15 03 02 00 56 30.0000000  0  6G16G18G19G21G22G27
  20521411.460   107840735.83309  20521408.440    84031753.79249
  21678064.440   113919120.33009  21678061.040    88768172.10548
  23312172.540   122506295.17408  23312169.540    95459451.52848
  22573780.380   118626018.96606  22573774.680    92435829.09844
  21866332.920   114908496.19109  21866328.500    89539121.33748
  21417184.160   112548089.82109  21417184.840    87699824.30249
 15 03 02 00 57  0.0000000  0  6G16G18G19G21G22G27
  20518549.500   107825694.55009  20518546.160    84020033.30249
  21676367.060   113910202.14609  21676363.940    88761222.86248
  23297873.840   122431152.88508  23297870.060    95400899.14947
  22586272.580   118691665.43406  22586267.220    92486982.25744
  21852553.920   114836086.22009  21852549.020    89482698.02948
  21407526.320   112497334.01909  21407526.120    87660274.35749
 15 03 02 00 57 30.0000000  0  6G16G18G19G21G22G27
  20515788.540   107811184.14709  20515784.740    84008726.48949
  21674764.020   113901779.33509  21674761.180    88754659.64248
  23283590.680   122356092.25508  23283585.080    95342410.40946
  22598787.600   118757432.42607  22598781.980    92538229.31144
  21838840.640   114764020.78909  21838835.500    89426543.19148
  21397897.580   112446732.04809  21397897.040    87620844.26149
 15 03 02 00 58  0.0000000  0  6G16G18G19G21G22G27
  20513130.340   107797214.38109  20513126.320    83997840.95649
  21673257.200   113893860.78009  21673254.540    88748489.36748
  23269324.280   122281121.96708  23269318.440    95283992.03246
  22611326.880   118823327.21807  22611320.820    92589575.90043
  21825194.800   114692310.99809  21825189.940    89370665.44248
  21388299.680   112396293.03509  21388298.940    87581541.14949
 15 03 02 00 58 30.0000000  0  6G16G18G19G21G22G27
  20510574.040   107783780.92309  20510569.980    83987373.32049
  21671845.480   113886441.55809  21671842.900    88742708.17648
  23255073.880   122206237.32008  23255068.340    95225640.38146
