     2.11           OBSERVATION DATA    G                   RINEX VERSION / TYPE
SPIDER V4,0,0,3554                      2015 03 24 01:48    PGM / RUN BY / DATE 
CFKZ                                                        MARKER NAME         
CFKZ                                                        MARKER NUMBER       
                                                            OBSERVER / AGENCY   
496632              LEICA GRX1200+GNSS  8.10/4.007          REC # / TYPE / VERS 
10301036            LEIAR25         NONE                    ANT # / TYPE        
  5212138.8290   540257.5452  3624418.8863                  APPROX POSITION XYZ 
        0.0720        0.0000        0.0000                  ANTENNA: DELTA H/E/N
     1     1                                                WAVELENGTH FACT L1/2
     4    C1    L1    P2    L2                              # / TYPES OF OBSERV 
    30.000                                                  INTERVAL            
  2015    03    02    00    00    0.0000000     GPS         TIME OF FIRST OBS   
  2015    03    02    23    59   30.0000000     GPS         TIME OF LAST OBS    
    16                                                      LEAP SECONDS        
    30                                                      # OF SATELLITES     
   G 1   820   820   820   820                              PRN / # OF OBS      
   G 2   940   939   939   939                              PRN / # OF OBS      
   G 3   855   854   854   854                              PRN / # OF OBS      
   G 4   844   844   844   844                              PRN / # OF OBS      
   G 5   628   628   627   627                              PRN / # OF OBS      
   G 6   785   785   785   785                              PRN / # OF OBS      
   G 7   669   669   669   669                              PRN / # OF OBS      
   G 9   808   808   808   808                              PRN / # OF OBS      
   G10   757   757   757   757                              PRN / # OF OBS      
   G11   783   783   783   783                              PRN / # OF OBS      
   G12   807   807   807   807                              PRN / # OF OBS      
   G13   775   775   775   775                              PRN / # OF OBS      
   G14   906   903   902   902                              PRN / # OF OBS      
   G15   656   656   656   656                              PRN / # OF OBS      
   G16   673   673   673   673                              PRN / # OF OBS      
   G17   936   936   935   935                              PRN / # OF OBS      
   G18   904   899   897   897                              PRN / # OF OBS      
   G19   762   762   762   762                              PRN / # OF OBS      
   G20   778   778   778   778                              PRN / # OF OBS      
   G21   685   675   670   669                              PRN / # OF OBS      
   G22   661   659   657   655                              PRN / # OF OBS      
   G23   752   752   752   752                              PRN / # OF OBS      
   G24   816   815   815   815                              PRN / # OF OBS      
   G25   832   832   832   832                              PRN / # OF OBS      
   G27   815   815   815   815                              PRN / # OF OBS      
   G28   869   868   868   868                              PRN / # OF OBS      
   G29   729   729   728   728                              PRN / # OF OBS      
   G30   716   716   716   716                              PRN / # OF OBS      
   G31   851   851   851   851                              PRN / # OF OBS      
   G32   767   767   767   767                              PRN / # OF OBS      
BIT 2 OF LLI FLAGS DATA COLLECTED UNDER A/S CONDITION       COMMENT             
SNR is mapped to RINEX snr flag value [2-9]                 COMMENT             
Lx:     = 25dBHz -> 1; 26-27dBHz -> 2; 28-31dBHz -> 3       COMMENT             
       32-35dBHz -> 4; 36-38dBHz -> 5; 39-41dBHz -> 6       COMMENT             
       42-44dBHz -> 7; 45-48dBHz -> 8; >=49dBHz -> 9        COMMENT             
                                                            END OF HEADER       
 15 03 02 00 00  0.0000000  0  7G16G18G21G22G27G29G31
  21563587.580   113317425.72409  21563584.020    88299282.27548
  22277606.060   117069676.59709  22277603.200    91223166.60147
  21424146.140   112584801.09409  21424142.060    87728408.88048
  23515587.020   123575315.42508  23515586.460    96292502.33546
  22796180.240   119794760.48908  22796179.700    93346579.51447
  24124702.440   126776509.97708  24124700.340    98787029.20645
  23223908.500   122042434.28109  23223908.200    95097985.88847
 15 03 02 00 00 30.0000000  0  7G16G18G21G22G27G29G31
  21550700.040   113249701.30209  21550696.480    88246509.99848
  22267319.940   117015622.67409  22267317.060    91181046.70347
  21432544.440   112628934.27709  21432540.340    87762798.36948
  23497792.580   123481806.70408  23497792.080    96219638.59946
  22784148.940   119731535.97508  22784148.360    93297313.68347
  24138490.960   126848970.41507  24138488.580    98843491.86346
  23241399.500   122134349.41808  23241399.260    95169607.82347
 15 03 02 00 01  0.0000000  0  7G16G18G21G22G27G29G31
  21537869.900   113182278.49009  21537866.340    88193972.74648
  22257099.520   116961914.08609  22257096.640    91139195.91247
  21440997.380   112673354.45409  21440993.260    87797411.50448
  23480010.440   123388361.90808  23480010.000    96146824.68346
  22772134.660   119668400.76809  22772134.100    93248117.45947
  24152284.960   126921458.81108  24152283.000    98899976.25945
  23258915.600   122226396.10608  23258915.340    95241332.27847
 15 03 02 00 01 30.0000000  0  7G16G18G21G22G27G29G31
  21525096.800   113115155.40709  21525093.240    88141669.05148
  22246944.520   116908549.34309  22246941.560    91097613.04847
  21449503.740   112718055.56709  21449499.640    87832243.54448
  23462240.320   123294979.98508  23462239.740    96074059.75647
  22760136.680   119605350.98109  22760136.240    93198987.76147
  24166083.840   126993971.03008  24166081.660    98956479.24845
  23276455.380   122318567.14809  23276455.100    95313153.62147
 15 03 02 00 02  0.0000000  0  7G16G18G21G22G27G29G31
  21512382.260   113048339.98209  21512378.720    88089605.08248
  22236856.460   116855536.40609  22236853.420    91056304.31347
  21458064.400   112763042.00509  21458060.300    87867297.92248
  23444483.660   123201669.12908  23444483.160    96001350.34246
  22748156.040   119542392.40608  22748155.640    93149929.15947
  24179888.300   127066513.29208  24179885.480    99013005.68644
  23294019.320   122410865.64809  23294019.100    95385074.26047
 15 03 02 00 02 30.0000000  0  7G16G18G21G22G27G29G31
  21499726.180   112981831.80409  21499722.620    88037780.53348
  22226835.220   116802874.53709  22226832.060    91015269.12547
  21466678.480   112808308.95609  21466674.340    87902570.86948
  23426740.460   123108429.07208  23426739.960    95928696.01846
  22736192.180   119479522.08408  22736191.680    93100939.30648
  24193698.160   127139082.48608  24193695.000    99069553.11345
  23311606.400   122503285.52509  23311606.240    95457089.48347
 15 03 02 00 03  0.0000000  0  7G16G18G21G22G27G29G31
  21487129.920   112915637.89009  21487126.300    87986200.86448
  22216882.140   116750570.83509  22216878.900    90974513.03947
  21475346.360   112853859.14109  21475342.240    87938064.52448
  23409012.140   123015267.21408  23409011.620    95856102.62747
  22724246.040   119416744.99909  22724245.520    93052022.14747
  24207513.660   127211683.62808  24207510.380    99126125.37245
  23329216.920   122595828.60509  23329216.880    95529200.69747
 15 03 02 00 03 30.0000000  0  7G16G18G21G22G27G29G31
  21474592.780   112849754.67009  21474589.100    87934863.29448
  22206996.440   116698621.29109  22206993.140    90934032.92847
  21484066.800   112899685.63909  21484062.760    87973773.48748
  23391298.160   122922180.71708  23391297.560    95783567.96846
  22712316.580   119354055.36109  22712316.220    93003173.08847
  24221334.220   127284310.93308  24221331.220    99182718.10146
  23346849.240   122688485.96309  23346849.260    95601400.95346
 15 03 02 00 04  0.0000000  0  7G16G18G21G22G27G29G31
  21462115.960   112784188.43009  21462112.260    87883772.71848
  22197179.200   116647031.83309  22197176.020    90893833.38347
  21492840.200   112945790.61109  21492836.280    88009699.44748
  23373599.740   122829176.00108  23373599.120    95711097.08246
  22700404.540   119291457.01309  22700404.200    92954395.18148
  24235160.380   127356968.33008  24235157.940    99239334.15946
  23364503.580   122781258.82209  23364503.600    95673691.21647
 15 03 02 00 04 30.0000000  0  7G16G18G21G22G27G29G31
  21449699.100   112718937.30709  21449695.400    87832927.68848
  22187430.120   116595800.50009  22187427.060    90853912.91547
  21501665.340   112992167.57309  21501661.500    88045837.34048
  23355916.660   122736251.59808  23355916.040    95638688.75546
  22688509.160   119228946.00109  22688508.720    92905685.33147
  24248991.520   127429651.92608  24248989.240    99295970.73545
  23382178.420   122874139.50109  23382178.500    95746065.46646
 15 03 02 00 05  0.0000000  0  7G16G18G21G22G27G29G31
  21437343.820   112654009.74309  21437340.140    87782334.79848
  22177750.860   116544936.08209  22177747.940    90814278.35747
  21510543.100   113038821.16908  21510539.380    88082190.80348
  23338250.560   122643416.47208  23338249.820    95566349.94046
  22676631.640   119166528.76909  22676631.060    92857048.52647
  24262828.680   127502367.97808  24262826.520    99352632.58845
  23399874.500   122967132.06708  23399874.580    95818526.90146
 15 03 02 00 05 30.0000000  0  7G16G18G21G22G27G29G31
  21425049.660   112589403.24909  21425045.980    87731992.08048
  22168140.880   116494435.75309  22168138.040    90774927.48247
  21519472.380   113085745.29909  21519468.800    88118755.05048
  23320601.120   122550668.97408  23320600.260    95494079.41847
  22664771.040   119104200.56109  22664770.260    92808481.11247
  24276671.140   127575111.91508  24276669.360    99409316.11046
  23417590.340   123060228.62308  23417590.440    95891069.37546
 15 03 02 00 06  0.0000000  0  7G16G18G21G22G27G29G31
  21412816.600   112525118.24509  21412812.960    87681899.87148
  22158600.160   116444299.43009  22158597.380    90735860.26147
  21528452.420   113132935.96909  21528448.800    88155527.01348
  23302968.360   122458009.44008  23302967.620    95421877.48547
  22652926.980   119041959.69009  22652926.200    92759981.76347
  24290518.760   127647881.56507  24290516.900    99466019.73346
  23435325.040   123153424.19108  23435325.200    95963688.99346
 15 03 02 00 06 30.0000000  0  7G16G18G21G22G27G29G31
  21400646.240   112461162.92709  21400642.680    87632064.56248
  22149130.380   116394535.67609  22149127.540    90697083.36147
  21537484.060   113180397.63409  21537480.440    88192510.12948
  23285354.120   122365446.89608  23285353.360    95349751.12046
  22641100.640   118979812.09508  22641099.880    92711555.08648
  24304372.500   127720683.36808  24304370.660    99522748.35346
  23453079.200   123246721.82508  23453079.460    96036388.13347
 15 03 02 00 07  0.0000000  0  7G16G18G21G22G27G29G31
  21388538.100   112397534.19309  21388534.500    87582483.73048
  22139730.740   116345140.34809  22139727.820    90658593.53547
  21546565.840   113228122.69108  21546562.220    88229698.48348
  23267757.760   122272978.60608  23267756.940    95277698.15546
  22629291.000   118917752.32809  22629290.280    92663196.83648
  24318231.460   127793511.89608  24318229.840    99579497.82546
  23470851.240   123340113.12309  23470851.540    96109160.23946
 15 03 02 00 07 30.0000000  0  7G16G18G21G22G27G29G31
  21376493.440   112334239.08209  21376489.820    87533162.87348
  22130402.640   116296120.86409  22130399.620    90620396.57247
  21555698.260   113276113.86409  21555694.620    88267094.21548
  23250180.740   122180611.74708  23250179.860    95205724.28346
  22617498.960   118855785.29708  22617498.320    92614910.87947
  24332096.260   127866371.79608  24332094.420    99636271.72445
  23488641.460   123433599.66009  23488641.760    96182006.57846
 15 03 02 00 08  0.0000000  0  7G16G18G21G22G27G29G31
  21364511.580   112271273.86209  21364507.940    87484099.06548
  22121145.320   116247473.13809  22121142.140    90582489.28847
  21564879.920   113324363.99209  21564876.240    88304691.72548
  23232622.400   122088343.23208  23232621.420    95133827.11647
  22605723.520   118793905.25509  22605722.880    92566692.69147
  24345966.020   127939257.45108  24345964.060    99693065.71446
  23506448.200   123527172.72109  23506448.480    96254920.32847
 15 03 02 00 08 30.0000000  0  7G16G18G21G22G27G29G31
  21352593.580   112208644.18109  21352589.900    87435296.71548
  22111959.740   116199202.79709  22111956.540    90544876.07447
  21574111.260   113372875.28908  21574107.640    88342492.73848
  23215083.820   121996179.03808  23215082.820    95062011.20546
  22593965.340   118732115.67809  22593964.760    92518544.96048
  24359841.620   128012172.38008  24359839.560    99749882.52146
  23524271.520   123620832.94009  23524271.800    96327901.99347
 15 03 02 00 09  0.0000000  0  7G16G18G21G22G27G29G31
  21340740.400   112146355.14809  21340736.660    87386759.81348
  22102846.820   116151314.41009  22102843.700    90507560.49147
  21583392.240   113421647.40208  21583388.620    88380496.98848
  23197566.100   121904124.62209  23197565.020    94990280.77046
  22582224.960   118670419.38609  22582224.300    92470469.95448
  24373723.100   128085119.06908  24373720.840    99806724.06545
  23542111.300   123714579.96608  23542111.640    96400951.30147
 15 03 02 00 09 30.0000000  0  7G16G18G21G22G27G29G31
  21328952.060   112084407.15309  21328948.360    87338488.65248
  22093806.700   116103808.21709  22093803.620    90470542.72547
  21592722.440   113470677.71609  21592718.740    88418702.43148
  23180069.500   121812181.03608  23180068.340    94918636.66946
  22570502.020   118608814.73109  22570501.340    92422466.33348
  24387610.340   128158096.07308  24387607.860    99863589.23745
  23559966.640   123808408.99009  23559967.060    96474064.49847
 15 03 02 00 10  0.0000000  0  7G16G18G21G22G27G29G31
  21317228.840   112022801.49909  21317225.180    87290484.25848
  22084839.480   116056685.46809  22084836.500    90433823.72447
  21602101.200   113519963.31408  21602097.440    88457106.79248
  23162594.360   121720349.99308  23162593.140    94847080.26846
  22558796.340   118547300.99409  22558795.660    92374533.58048
  24401503.000   128231102.89308  24401500.960    99920477.61246
  23577836.820   123902316.31609  23577837.500    96547238.71247
 15 03 02 00 10 30.0000000  0  7G16G18G21G22G27G29G31
  21305571.400   111961541.74109  21305567.760    87242749.38748
  22075945.760   116009949.07709  22075942.800    90397405.78447
  21611528.340   113569503.34308  21611524.540    88495709.41748
  23145141.520   121628635.80308  23145140.240    94775614.93447
  22547108.180   118485879.53509  22547107.640    92326672.71948
  24415401.480   128304140.65208  24415399.780    99977390.14946
  23595721.560   123996300.42408  23595722.520    96620472.75047
 15 03 02 00 11  0.0000000  0  7G16G18G21G22G27G29G31
  21293980.380   111900630.96609  21293976.760    87195286.45448
  22067126.120   115963601.86309  22067123.180    90361291.11147
  21621003.860   113619296.94509  21620999.960    88534509.62548
  23127711.600   121537041.75708  23127710.100    94704243.18347
  22535437.740   118424551.10609  22535437.240    92278884.38048
  24429305.800   128377210.01307  24429304.400   100034327.26646
  23613620.380   124090358.88708  23613621.660    96693764.72847
 15 03 02 00 11 30.0000000  0  7G16G18G21G22G27G29G31
  21282455.920   111840069.83009  21282452.280    87148095.96448
  22058380.640   115917643.94009  22058377.620    90325479.78747
  21630527.180   113669341.34409  21630523.040    88573505.26948
  23110304.680   121445568.84408  23110303.180    94632965.86347
  22523784.700   118363314.22509  22523784.140    92231167.33648
  24443215.900   128450309.22208  24443214.900   100091287.63646
  23631532.420   124184486.93508  23631534.040    96767110.93946
 15 03 02 00 12  0.0000000  0  7G16G18G21G22G27G29G31
  21270997.720   111779856.73509  21270994.060    87101176.67248
  22049708.880   115872073.64709  22049705.840    90289970.49447
  21640097.040   113719630.27109  21640092.720    88612691.44348
  23092920.660   121354216.29808  23092919.280    94561782.29147
  22512148.480   118302165.45009  22512147.860    92183518.94448
  24457131.600   128523435.21608  24457130.660   100148268.91246
  23649456.500   124278678.26508  23649458.360    96840506.47347
 15 03 02 00 12 30.0000000  0  7G16G18G21G22G27G29G31
  21259606.500   111719995.53309  21259602.840    87054531.57548
  22041111.620   115826894.74309  22041108.580    90254766.17847
  21649713.380   113770163.84009  21649708.980    88652068.24948
  23075560.320   121262988.26308  23075559.040    94490695.74947
  22500529.360   118241106.58108  22500528.680    92135940.61648
  24471052.740   128596589.90308  24471051.540   100205272.57246
  23667392.460   124372931.64808  23667394.520    96913950.31846
 15 03 02 00 13  0.0000000  0  7G16G18G21G22G27G29G31
  21248283.340   111660491.87609  21248279.660    87008165.08748
  22032589.780   115782112.33709  22032586.780    90219870.85047
  21659376.520   113820943.49709  21659372.040    88691636.81148
  23058224.860   121171890.73808  23058223.580    94419710.90147
  22488927.980   118180140.94908  22488927.280    92088434.97248
  24484979.960   128669776.29108  24484978.380   100262300.85446
  23685340.400   124467247.33008  23685342.480    96987442.71546
 15 03 02 00 13 30.0000000  0  7G16G18G21G22G27G29G31
  21237028.400   111601346.68509  21237024.720    86962077.93848
  22024143.500   115737727.11709  22024140.520    90185285.00047
  21669085.880   113871966.58609  21669081.420    88731395.06248
  23040914.480   121080925.10709  23040913.160    94348828.83047
  22477344.140   118119267.47509  22477343.340    92041001.13748
  24498913.000   128742993.38908  24498910.860   100319353.15345
  23703299.500   124561621.18208  23703301.480    97060980.45046
 15 03 02 00 14  0.0000000  0  7G16G18G21G22G27G29G31
  21225842.260   111542563.22309  21225838.660    86916272.64848
  22015773.380   115693741.94809  22015770.360    90151010.88247
  21678841.280   113923231.85609  21678836.900    88771342.02148
  23023630.060   120990095.43509  23023628.540    94278052.69747
  22465778.080   118058487.46109  22465777.180    91993640.06947
  24512851.800   128816242.44508  24512848.940   100376430.29945
  23721269.360   124656051.34209  23721271.180    97134562.05246
 15 03 02 00 14 30.0000000  0  7G16G18G21G22G27G29G31
  21214725.520   111484144.41209  21214721.940    86870751.50548
  22007479.860   115650159.16109  22007476.740    90117050.30847
  21688642.680   113974738.83709  21688638.340    88811477.33348
  23006372.180   120899404.92609  23006370.380    94207384.99047
  22454229.880   117997801.47909  22454229.040    91946352.29748
  24526796.600   128889523.70207  24526793.600   100433532.56046
  23739249.420   124750535.36708  23739251.180    97208185.66446
 15 03 02 00 15  0.0000000  0  7G16G18G21G22G27G29G31
  21203678.500   111426091.85209  21203674.880    86825515.74648
  21999263.180   115606980.17709  21999260.040    90083404.36347
  21698489.460   114026484.37009  21698485.160    88851798.52748
  22989141.260   120808855.58309  22989139.100    94136827.26547
  22442699.500   117937209.14109  22442698.700    91899137.54548
  24540747.240   128962836.88807  24540744.760   100490659.68646
  23757239.140   124845069.98709  23757240.840    97281848.76447
 15 03 02 00 15 30.0000000  0  7G16G18G21G22G27G29G31
  21192701.620   111368407.88709  21192698.020    86780567.20648
  21991123.600   115564206.60009  21991120.560    90050074.34047
  21708381.420   114078467.19609  21708377.180    88892304.62448
  22971937.760   120718450.50409  22971935.260    94066381.95847
  22431187.020   117876710.78409  22431186.260    91851995.97947
  24554704.040   129036182.31407  24554702.300   100547811.87645
  23775237.780   124939651.90708  23775239.540    97355548.72047
 15 03 02 00 16  0.0000000  0  6G16G18G21G22G27G31
  21181802.280   111311131.24009  21181798.680    86735936.05748
  21983068.500   115521877.00309  21983065.500    90017090.27547
  21718325.200   114130722.20809  21718320.960    88933022.81948
  22954769.080   120628228.89709  22954766.440    93996079.62247
  22419699.460   117816343.38009  22419698.680    91804956.42147
  23793251.840   125034315.48808  23793253.720    97429312.33246
 15 03 02 00 16 30.0000000  0  6G16G18G21G22G27G31
  21170965.540   111254183.68409  21170961.960    86691561.33648
  21975083.000   115479913.10409  21975079.980    89984391.15847
  21728305.140   114183167.36409  21728300.960    88973889.16848
  22937620.440   120538113.10009  22937617.700    93925859.74147
  22408221.500   117756026.43308  22408220.700    91757956.24348
  23811265.500   125128977.20808  23811267.520    97503074.47946
 15 03 02 00 17  0.0000000  0  6G16G18G21G22G27G31
  21160200.100   111197610.83909  21160196.560    86647478.60448
  21967175.500   115438359.40209  21967172.580    89952011.67747
  21738329.120   114235843.65309  21738325.000    89014935.62948
  22920500.580   120448148.95309  22920497.820    93855758.01347
  22396761.420   117695803.45009  22396760.660    91711029.28947
  23829286.460   125223677.36208  23829288.540    97576866.57746
 15 03 02 00 17 30.0000000  0  6G16G18G21G22G27G31
  21149506.900   111141417.56009  21149503.380    86603691.63748
  21959347.000   115397220.83509  21959344.120    89919955.69347
  21748397.320   114288752.24109  21748393.220    89056163.10248
  22903410.680   120358342.15209  22903407.840    93785778.90347
  22385319.800   117635677.36809  22385319.060    91664177.79048
  23847314.580   125318415.54308  23847316.780    97650688.29346
 15 03 02 00 18  0.0000000  0  6G16G18G21G22G27G31
  21138885.840   111085603.35509  21138882.340    86560200.05548
  21951597.360   115356496.51209  21951594.500    89888222.49447
  21758508.980   114341889.18609  21758504.860    89097568.51448
  22886350.740   120268692.75809  22886347.860    93715922.41847
  22373896.120   117575645.79309  22373895.480    91617399.99048
  23865348.920   125413186.54808  23865351.300    97724535.66746
 15 03 02 00 18 30.0000000  0  6G16G18G21G22G27G31
  21128336.440   111030165.71609  21128332.880    86517001.90948
  21943926.000   115316183.58509  21943923.180    89856809.84147
  21768662.760   114395247.51109  21768658.600    89139146.43148
  22869320.340   120179198.58109  22869317.480    93646186.89547
  22362489.580   117515704.18609  22362488.980    91570692.24548
  23883388.100   125507982.63208  23883390.560    97798402.54346
 15 03 02 00 19  0.0000000  0  7G16G18G19G21G22G27G31
  21117860.320   110975113.20209  21117856.680    86474103.84448
  21936334.320   115276289.56309  21936331.560    89825723.63347
  24534320.480   128928738.06906  24534320.340   100463928.54346
  21778859.520   114448831.92009  21778855.360    89180900.51448
  22852321.160   120089868.38809  22852318.340    93576579.14347
  22351101.340   117455858.83309  22351100.800    91524059.51647
  23901432.720   125602807.21108  23901435.180    97872291.63746
 15 03 02 00 19 30.0000000  0  7G16G18G19G21G22G27G31
  21107460.420   110920461.16709  21107456.700    86431517.84948
  21928825.180   115236828.94509  21928822.320    89794975.11847
  24519504.840   128850882.69108  24519505.040   100403262.18046
  21789101.380   114502653.42809  21789097.280    89222839.36048
  22835356.280   120000718.46409  22835353.580    93507111.86647
  22339734.040   117396123.27309  22339733.500    91477512.34048
  23919484.820   125697670.56008  23919487.240    97946210.90046
 15 03 02 00 20  0.0000000  0  7G16G18G19G21G22G27G31
  21097127.360   110866160.46309  21097123.620    86389205.61048
  21921389.340   115197752.99509  21921386.360    89764526.35547
  24504693.700   128773045.41507  24504691.600   100342609.68044
  21799378.260   114556659.39609  21799374.320    89264921.93148
  22818416.540   119911700.37609  22818413.920    93437747.30647
  22328377.900   117336446.54909  22328377.360    91431011.01548
  23937534.080   125792518.87908  23937536.460    98020118.41746
 15 03 02 00 20 30.0000000  0  7G16G18G19G21G22G27G31
  21086871.880   110812267.39409  21086868.140    86347211.02148
  21914037.260   115159117.07009  21914034.200    89734420.47447
  24489895.540   128695280.03107  24489893.020   100282013.35945
  21809700.280   114610902.39209  21809696.480    89307189.19248
  22801512.720   119822870.68309  22801510.120    93368529.55247
  22317043.300   117276882.96609  22317042.700    91384597.87048
  23955590.120   125887402.87208  23955592.460    98094053.73046
 15 03 02 00 21  0.0000000  0  7G16G18G19G21G22G27G31
  21076690.360   110758762.82709  21076686.560    86305519.15548
  21906765.240   115120901.89809  21906762.160    89704642.44647
  24475107.440   128617565.85808  24475104.880   100221456.94446
  21820063.020   114665359.31609  21820059.300    89349623.15948
  22784641.400   119734211.45809  22784638.680    93299444.61447
  22305726.280   117217411.79009  22305725.620    91338256.70448
  23973648.480   125982299.23808  23973650.880    98167998.75746
 15 03 02 00 21 30.0000000  0  7G16G18G19G21G22G27G31
  21066585.380   110705660.68609  21066581.540    86264140.86148
  21899575.820   115083120.86209  21899572.660    89675202.69747
  24460330.720   128539913.87307  24460327.200   100160948.93644
  21830468.400   114720039.73109  21830464.660    89392231.27648
  22767805.140   119645736.43009  22767802.240    93230503.19347
  22294429.020   117158044.43509  22294428.380    91291996.46448
  23991710.720   126077216.03208  23991713.100    98241959.69846
 15 03 02 00 22  0.0000000  0  7G16G18G19G21G22G27G31
  21056554.460   110652947.60609  21056550.540    86223065.74048
  21892466.240   115045759.65709  21892463.000    89646090.10847
  24445563.200   128462308.92808  24445559.380   100100477.51046
  21840912.980   114774926.36909  21840909.260    89435000.07948
  22751001.500   119557432.93009  22750998.320    93161695.44747
  22283148.640   117098765.84109  22283148.100    91245805.35648
  24009773.440   126172135.25008  24009775.780    98315922.51546
 15 03 02 00 22 30.0000000  0  7G16G18G19G21G22G27G31
  21046600.680   110600639.91109  21046596.700    86182306.49548
  21885439.560   115008834.60409  21885436.340    89617317.36047
  24430807.200   128384765.13007  24430803.900   100040053.92146
  21851399.240   114830032.21908  21851395.540    89477939.69648
  22734233.660   119469317.82409  22734230.300    93093034.49647
  22271887.920   117039590.42909  22271887.440    91199694.66348
  24027838.760   126267068.07308  24027841.160    98389895.92046
 15 03 02 00 23  0.0000000  0  7G16G18G19G21G22G27G31
  21036722.480   110548729.44609  21036718.420    86141856.78648
  21878494.120   114972336.33809  21878490.880    89588877.16747
  24416060.980   128307272.15708  24416056.820    99979669.77145
  21861924.860   114885345.20408  21861921.280    89521040.72348
  22717500.260   119381383.60509  22717496.700    93024514.47247
  22260644.920   116980508.21509  22260644.480    91153656.56848
  24045904.260   126362001.31608  24045906.580    98463869.66746
 15 03 02 00 23 30.0000000  0  7G16G18G19G21G22G27G31
  21026920.500   110497219.64909  21026916.420    86101719.28248
  21871630.600   114936268.45709  21871627.340    89560772.35247
  24401324.980   128229831.83907  24401320.600    99919326.67946
  21872489.780   114940864.50609  21872486.200    89564302.51748
  22700802.120   119293634.58209  22700798.420    92956138.76747
  22249419.980   116921520.85909  22249419.540    91107692.41848
  24063969.640   126456933.71008  24063971.960    98537842.76146
 15 03 02 00 24  0.0000000  0  7G16G18G19G21G22G27G31
  21017196.920   110446122.14909  21017192.860    86061903.04848
  21864850.960   114900641.50309  21864847.680    89533011.11547
  24386600.240   128152453.14708  24386596.460    99859031.76045
  21883095.460   114996597.74709  21883091.880    89607731.01848
  22684141.420   119206082.48309  22684137.740    92887916.50047
  22238214.920   116862637.81609  22238214.400    91061809.55848
  24082036.020   126551871.83508  24082038.440    98611820.29146
 15 03 02 00 24 30.0000000  0  7G16G18G19G21G22G27G31
  21007549.560   110395425.27909  21007545.620    86022398.99848
  21858152.860   114865443.24409  21858149.620    89505583.92747
  24371884.980   128075122.51008  24371880.540    99798774.05745
  21893738.960   115052529.38009  21893735.260    89651314.11448
  22667516.100   119118716.56109  22667512.500    92819839.32147
  22227027.200   116803845.83509  22227026.640    91015997.63748
  24100100.180   126646798.94008  24100102.720    98685789.19046
 15 03 02 00 25  0.0000000  0  7G16G18G19G21G22G27G31
  20997981.680   110345146.26109  20997977.860    85983220.54648
  21851539.560   114830690.59609  21851536.440    89478503.97447
  24357181.140   127997854.83608  24357177.000    99738565.60346
  21904422.840   115108673.14909  21904418.960    89695062.51348
  22650929.580   119031554.64609  22650925.980    92751921.10147
  22215859.720   116745160.25309  22215859.100    90970268.64148
  24118164.500   126741727.35908  24118167.340    98759759.00347
 15 03 02 00 25 30.0000000  0  7G16G18G19G21G22G27G31
  20988490.860   110295272.01509  20988487.120    85944357.48948
  21845008.480   114796369.94409  21845005.400    89451760.63347
  24342486.760   127920635.29208  24342482.900    99678394.59645
  21915143.940   115165012.40509  21915139.980    89738963.23948
  22634379.480   118944584.36609  22634375.900    92684152.20347
  22204709.700   116686566.21409  22204709.020    90924610.94948
  24136225.720   126836639.19608  24136228.820    98833715.91246
 15 03 02 00 26  0.0000000  0  7G16G18G19G21G22G27G31
  20979079.480   110245815.41809  20979075.840    85905819.87948
  21838561.880   114762492.97709  21838558.680    89425363.02947
  24327803.200   127843474.43707  24327798.880    99618269.29546
  21925903.960   115221556.05109  21925899.900    89783023.21048
  22617868.420   118857818.94609  22617864.820    92616542.93247
  22193579.200   116628074.70209  22193578.440    90879033.15748
  24154285.380   126931542.25208  24154288.640    98907665.90946
 15 03 02 00 26 30.0000000  0  7G16G18G19G21G22G27G31
  20969746.720   110196771.90609  20969743.200    85867604.16148
  21832198.920   114729055.29409  21832195.600    89399307.72747
  24313129.920   127766366.05908  24313125.720    99558184.90446
  21936701.180   115278295.49909  21936697.020    89827235.77147
  22601395.600   118771254.40209  22601392.080    92549090.19447
  22182466.940   116569679.27409  22182466.120    90833530.24448
  24172341.620   127026427.05408  24172344.960    98981601.68346
 15 03 02 00 27  0.0000000  0  7G16G18G19G21G22G27G31
  20960493.640   110148147.04409  20960490.260    85829714.66148
  21825920.480   114696061.37509  21825917.080    89373598.20247
  24298467.020   127689313.21908  24298462.720    99498143.83045
  21947535.860   115335232.46309  21947531.740    89871602.23048
  22584962.220   118684897.03509  22584958.660    92481798.88347
  22171373.620   116511383.78109  22171372.800    90788105.20348
  24190394.640   127121294.34908  24190397.920    99055523.79646
 15 03 02 00 27 30.0000000  0  7G16G18G19G21G22G27G31
  20951319.560   110099937.12009  20951316.240    85792148.49248
  21819725.680   114663506.87709  21819722.260    89348231.08647
  24283814.100   127612310.51708  24283809.720    99438141.69346
  21958406.660   115392359.43609  21958402.700    89916116.75548
  22568567.640   118598743.77409  22568564.120    92414666.61747
  22160298.260   116453182.81009  22160297.540    90742753.80348
  24208442.760   127216135.53908  24208446.040    99129425.45345
 15 03 02 00 28  0.0000000  0  7G16G18G19G21G22G27G31
  20942227.340   110052157.28209  20942224.040    85754917.44348
  21813617.240   114631406.76109  21813613.860    89323218.01847
  24269172.780   127535370.80108  24269168.840    99378188.77146
  21969315.720   115449687.55608  21969311.840    89960788.02148
  22552214.920   118512810.24109  22552211.400    92347705.54747
  22149243.440   116395089.65209  22149242.760    90697486.43648
  24226487.860   127310960.99908  24226490.960    99203314.79345
 15 03 02 00 28 30.0000000  0  7G16G18G19G21G22G27G31
  20933215.480   110004799.57709  20933212.180    85718015.33848
  21807593.440   114599751.72509  21807590.080    89298551.78347
  24254541.740   127458484.10708  24254538.020    99318277.09845
  21980260.820   115507205.29108  21980257.100    90005607.02948
  22535902.620   118427089.16709  22535899.040    92280910.04047
  22138207.320   116337094.63409  22138206.680    90652295.50848
  24244527.600   127405757.69508  24244530.600    99277181.69746
 15 03 02 00 29  0.0000000  0  7G16G18G19G21G22G27G31
  20924284.360   109957866.27709  20924281.100    85681443.94848
  21801654.620   114568543.64309  21801651.400    89274233.83047
  24239920.800   127381651.07908  24239917.020    99258407.28446
  21991241.860   115564911.49509  21991238.300    90050572.89447
  22519631.340   118341583.76509  22519627.820    92214282.57947
  22127190.000   116279198.36509  22127189.440    90607181.54948
  24262561.580   127500523.62308  24262564.640    99351024.75145
 15 03 02 00 29 30.0000000  0  7G16G18G19G21G22G27G31
  20915434.840   109911361.62809  20915431.560    85645206.55348
  21795801.540   114537786.16509  21795798.520    89250266.98047
  24225310.540   127304873.48708  24225307.060    99198580.64446
  22002258.860   115622806.72008  22002255.480    90095686.05048
  22503401.860   118256298.63309  22503398.480    92147826.77247
  22116191.960   116221403.28609  22116191.420    90562146.43148
  24280589.480   127595258.16608  24280592.440    99424843.34346
 15 03 02 00 30  0.0000000  0  7G16G18G19G21G22G27G31
  20906667.740   109865289.75209  20906664.380    85609306.40048
  21790034.880   114507483.04509  21790032.040    89226654.19748
  24210711.180   127228153.62708  24210707.440    99138798.99045
  22013311.840   115680890.96608  22013308.580    90140946.50248
  22487215.200   118171238.70909  22487212.000    92081546.44847
  22105213.640   116163711.98209  22105213.140    90517192.18948
  24298611.180   127689960.50808  24298614.160    99498636.82145
 15 03 02 00 30 30.0000000  0  7G16G18G19G21G22G27G31
  20897982.840   109819649.70909  20897979.380    85573742.72548
  21784354.380   114477632.29109  21784351.580    89203393.88247
  24196122.300   127151488.83408  24196118.520    99079060.23146
  22024400.000   115739159.88708  22024396.780    90186350.85648
  22471071.400   118086403.61509  22471068.200    92015441.30347
  22094254.580   116106121.83009  22094254.040    90472316.75848
  24316625.640   127784625.00008  24316629.000    99572400.81446
 15 03 02 00 31  0.0000000  0  7G16G18G19G21G22G27G31
  20889379.860   109774440.31009  20889376.280    85538514.62548
  21778759.700   114448232.01809  21778756.860    89180484.60247
  24181543.380   127074875.77708  24181539.420    99019361.79746
  22035522.360   115797608.17609  22035518.980    90231894.98347
  22454970.380   118001792.71209  22454967.080    91949510.85247
  22083314.240   116048629.82409  22083313.640    90427517.79848
  24334631.720   127879245.47708  24334635.080    99646130.52945
 15 03 02 00 31 30.0000000  0  7G16G18G19G21G22G27G31
  20880860.060   109729668.44609  20880856.420    85503627.46448
  21773251.880   114419287.94209  21773248.920    89157930.79347
  24166975.140   126998319.14308  24166970.940    98959707.30846
  22046679.500   115856239.09208  22046675.980    90277581.41047
  22438913.620   117917413.87409  22438910.220    91883761.22147
  22072393.620   115991241.24309  22072392.980    90382799.41948
  24352629.740   127973823.84808  24352633.300    99719827.45146
 15 03 02 00 32  0.0000000  0  7G16G18G19G21G22G27G31
  20872423.560   109685334.17409  20872419.860    85469081.27648
  21767830.880   114390799.89609  21767827.800    89135732.33847
  24152417.440   126921817.11208  24152413.320    98900095.38646
  22057870.760   115915048.89308  22057867.160    90323407.22848
  22422901.080   117833267.28009  22422897.540    91818192.57347
  22061492.340   115933954.38009  22061491.640    90338160.33048
  24370618.980   128068355.81408  24370622.800    99793488.18746
 15 03 02 00 32 30.0000000  0  7G16G18G19G21G22G27G31
  20864071.680   109641444.54609  20864067.920    85434881.57248
  21762497.900   114362774.50509  21762494.740    89113894.38847
  24137870.880   126845375.00708  24137866.380    98840530.12046
  22069096.820   115974041.41209  22069093.120    90369375.42147
  22406934.320   117749361.07709  22406930.560    91752811.22948
  22050611.480   115876774.82209  22050610.780    90293604.84348
  24388599.800   128162843.70308  24388603.920    99867114.49146
 15 03 02 00 33  0.0000000  0  7G16G18G19G21G22G27G31
  20855803.260   109597993.51909  20855799.460    85401023.62948
  21757251.580   114335204.80009  21757248.380    89092411.52347
  24123334.380   126768985.07808  24123330.100    98781005.56646
  22080355.780   116033207.12608  22080351.980    90415478.56848
  22391012.280   117665689.97409  22391008.280    91687613.07748
  22039749.600   115819695.10309  22039748.880    90249127.14548
  24406570.180   128257276.75108  24406574.640    99940698.06046
 15 03 02 00 33 30.0000000  0  7G16G18G19G21G22G27G31
  20847620.600   109554992.70909  20847616.660    85367516.49648
  21752093.900   114308101.33209  21752090.700    89071291.97847
  24108809.480   126692657.12808  24108805.460    98721529.27246
  22091649.060   116092553.56308  22091645.280    90461722.54547
  22375137.340   117582266.34609  22375133.140    91622607.76847
  22028908.540   115762724.98509  22028907.820    90204734.84748
  24424531.480   128351661.78808  24424536.080   100014244.22046
 15 03 02 00 34  0.0000000  0  7G16G18G19G21G22G27G31
  20839521.940   109512433.68009  20839517.960    85334353.61448
  21747023.220   114281455.41409  21747020.140    89050528.94447
  24094294.440   126616380.55108  24094290.540    98662093.01046
  22102974.340   116152068.42908  22102970.540    90508097.76647
  22359308.020   117499082.51409  22359303.720    91557789.29148
  22018086.460   115705854.68909  22018085.760    90160420.34348
  24442481.120   128445985.73608  24442485.980   100087742.73146
 15 03 02 00 34 30.0000000  0  7G16G18G19G21G22G27G31
  20831509.100   109470325.92409  20831505.120    85301542.36948
  21742041.240   114255275.48709  21742038.320    89030129.02347
  24079790.540   126540162.82008  24079786.620    98602702.60346
  22114332.840   116211758.02508  22114329.200    90554609.12948
  22343526.100   117416148.13509  22343521.820    91493165.21747
  22007284.860   115649091.90309  22007284.160    90116189.60348
  24460420.100   128540253.36108  24460425.140   100161197.36346
 15 03 02 00 35  0.0000000  0  7G16G18G19G21G22G27G31
  20823581.700   109428667.37409  20823577.780    85269081.15548
  21737147.360   114229558.38609  21737144.560    89010089.74147
  24065297.080   126463999.93008  24065293.180    98543354.95446
  22125723.460   116271616.54208  22125719.980    90601252.12547
  22327791.360   117333461.98409  22327787.100    91428734.55448
  21996503.060   115592433.08009  21996502.380    90072039.88548
  24478347.160   128634458.05408  24478352.500   100234602.92446
 15 03 02 00 35 30.0000000  0  7G16G18G19G21G22G27G31
  20815740.080   109387459.77409  20815736.280    85236971.33348
  21732341.820   114204305.24809  21732339.080    88990411.98747
  24050814.380   126387892.20508  24050810.160    98484050.24446
  22137145.780   116331641.92508  22137142.400    90648025.14447
  22312104.360   117251026.84109  22312100.080    91364499.47447
  21985741.100   115535878.59309  21985740.380    90027971.46848
  24496261.740   128728596.75408  24496267.260   100307957.04446
 15 03 02 00 36  0.0000000  0  7G16G18G19G21G22G27G31
  20807984.780   109346705.76509  20807981.120    85205214.96548
  21727625.100   114179518.81909  21727622.340    88971097.91147
  24036342.120   126311840.21808  24036337.860    98424789.01746
  22148599.880   116391833.94408  22148596.500    90694928.02547
  22296465.780   117168846.27109  22296461.500    91300462.76048
  21974999.120   115479429.61209  21974998.440    89983985.26648
  24514163.480   128822668.11908  24514169.020   100381258.60246
 15 03 02 00 36 30.0000000  0  7G16G18G19G21G22G27G31
  20800315.760   109306405.24009  20800312.220    85173811.95448
  21722996.860   114155197.47009  21722994.120    88952146.22847
  24021880.320   126235842.28108  24021875.880    98365569.86846
  22160084.900   116452188.34708  22160081.500    90741957.43247
  22280875.720   117086920.31609  22280871.380    91236624.45047
  21964276.820   115423084.28109  21964276.220    89940079.81548
  24532051.400   128916666.98808  24532057.200   100454503.65746
 15 03 02 00 37  0.0000000  0  7G16G18G19G21G22G27G31
  20792734.760   109266567.14209  20792731.280    85142769.28448
  21718458.660   114131349.33309  21718455.980    88933563.28548
  24007430.060   126159905.10608  24007425.260    98306398.04546
  22171601.900   116512710.63809  22171598.480    90789117.65247
  22265335.980   117005258.86709  22265331.620    91172992.24448
  21953575.760   115366850.33509  21953575.160    89896261.17048
  24549926.400   129010597.63808  24549932.480   100527695.62645
 15 03 02 00 37 30.0000000  0  7G16G18G19G21G22G27G31
  20785240.860   109227186.65809  20785237.380    85112083.17848
  21714009.440   114107968.76609  21714006.720    88915344.67848
  23992990.060   126084022.31808  23992985.540    98247268.67746
  22183149.260   116573392.43008  22183145.880    90836402.16548
  22249845.720   116923857.83909  22249841.400    91109562.96848
  21942894.720   115310721.29109  21942894.120    89852524.27748
  24567786.700   129104451.02408  24567792.780   100600827.49845
 15 03 02 00 38  0.0000000  0  7G16G18G19G21G22G27G31
  20777835.000   109188269.11809  20777831.600    85081757.82348
  21709650.120   114085060.43709  21709647.320    88897494.05947
  23978561.260   126008197.70208  23978556.560    98188184.55346
  22194727.300   116634235.71908  22194724.020    90883812.51047
  22234406.280   116842723.80709  22234402.060    91046341.74947
  21932234.480   115254701.28309  21932233.840    89808872.32748
  24585632.400   129198228.25408  24585638.580   100673900.01545
 15 03 02 00 38 30.0000000  0  7G16G18G19G21G22G27G31
  20770517.700   109149816.67309  20770514.320    85051794.87748
  21705380.840   114062625.43509  21705378.060    88880012.25347
  23964143.420   125932431.69908  23964138.820    98129146.14846
  22206335.780   116695239.01608  22206332.520    90931347.53947
  22219018.140   116761859.15309  22219013.980    90983330.41847
  21921595.060   115198790.68809  21921594.320    89765305.63848
  24603463.160   129291926.60108  24603469.380   100746911.23746
 15 03 02 00 39  0.0000000  0  7G16G18G19G21G22G27G31
  20763288.700   109111827.99809  20763285.260    85022193.31448
  21701201.380   114040662.11609  21701198.580    88862898.00048
  23949736.160   125856720.93708  23949731.620    98070150.78246
  22217974.000   116756398.01008  22217970.680    90979003.90247
  22203681.260   116681263.48909  22203677.080    90920528.70048
  21910976.060   115142987.32209  21910975.180    89721822.49648
  24621277.720   129385540.24408  24621283.900   100819856.36245
 15 03 02 00 39 30.0000000  0  7G16G18G19G21G22G27G31
  20756149.080   109074308.87609  20756145.600    84992957.63748
  21697112.660   114019175.16509  21697109.780    88846154.93448
  23935340.240   125781069.83308  23935335.760    98011201.90046
  22229642.180   116817714.47008  22229638.900    91026782.95247
  22188396.800   116600943.29609  22188392.560    90857941.61748
  21900378.260   115087295.36809  21900377.280    89678426.18448
  24639076.380   129479070.59508  24639082.500   100892736.75145
 15 03 02 00 40  0.0000000  0  7G16G18G19G21G22G27G31
  20749098.760   109037258.90009  20749095.200    84964087.52948
  21693114.360   113998163.24409  21693111.380    88829782.02848
  23920955.060   125705475.89808  23920950.660    97952297.60546
  22241339.680   116879184.74608  22241336.300    91074681.86647
  22173164.780   116520898.96609  22173160.560    90795569.49848
  21889801.300   115031712.81809  21889800.260    89635115.11348
  24656858.260   129572513.08208  24656864.680   100965548.68545
 15 03 02 00 40 30.0000000  0  7G16G18G19G21G22G27G31
  20742137.840   109000678.43309  20742134.140    84935583.26948
  21689206.300   113977625.93209  21689203.240    88813778.94648
  23906580.620   125629938.00808  23906576.300    97893436.90546
  22253065.860   116940805.85208  22253062.400    91122698.31647
  22157985.420   116441131.56609  22157981.200    90733413.17448
  21879245.000   114976238.93809  21879243.940    89591888.73148
  24674622.600   129665863.09508  24674629.140   101038288.57745
 15 03 02 00 41  0.0000000  0  7G16G18G19G21G22G27G31
  20735267.260   108964572.91309  20735263.440    84907449.10448
  21685389.400   113957568.00609  21685386.300    88798149.40748
  23892217.440   125554459.86008  23892213.160    97834622.80146
  22264821.100   117002579.68208  22264817.600    91170833.75147
  22142860.040   116361647.65409  22142855.800    90671477.74448
  21868710.160   114920877.82209  21868709.120    89548750.21148
  24692369.500   129759121.84308  24692376.020   101110957.37545
 15 03 02 00 41 30.0000000  0  6G16G18G19G21G22G27
  20728486.180   108928937.99209  20728482.300    84879681.62348
  21681662.620   113937984.07309  21681659.600    88782889.21648
  23877864.480   125479035.32908  23877860.400    97775850.49646
  22276604.040   117064498.63508  22276600.440    91219082.27847
  22127787.820   116282443.24209  22127783.700    90609760.10948
  21858195.660   114865623.74909  21858194.640    89505695.09648
 15 03 02 00 42  0.0000000  0  6G16G18G19G21G22G27
  20721796.280   108893782.35409  20721792.480    84852287.61948
  21678027.500   113918881.92209  21678024.540    88768004.44647
  23863523.300   125403671.78008  23863518.940    97717125.62046
  22288415.520   117126567.86109  22288411.720    91267447.89847
  22112770.760   116203528.24009  22112766.620    90548267.97148
  21847702.960   114810484.29109  21847701.980    89462729.29648
 15 03 02 00 42 30.0000000  0  6G16G18G19G21G22G27
  20715197.940   108859107.84009  20715194.220    84825268.51448
  21674484.220   113900262.02009  21674481.220    88753495.46447
  23849193.440   125328368.86408  23849189.280    97658448.11146
  22300255.260   117188785.58908  22300251.440    91315929.24747
  22097809.160   116124904.64609  22097804.980    90487002.89447
  21837232.120   114755459.76109  21837231.220    89419853.04348
 15 03 02 00 43  0.0000000  0  6G16G18G19G21G22G27
  20708690.440   108824910.60209  20708686.760    84798621.30548
  21671032.080   113882120.60209  21671028.980    88739359.29147
  23834874.340   125253121.74608  23834870.180    97599813.98946
  22312122.000   117251145.32909  22312118.200    91364521.24047
  22082902.600   116046569.96909  22082898.280    90425962.96447
  21826782.280   114700545.36209  21826781.420    89377062.62548
 15 03 02 00 43 30.0000000  0  6G16G18G19G21G22G27
  20702274.520   108791194.79909  20702270.880    84772349.24248
  21667671.560   113864460.63009  21667668.380    88725598.30248
  23820566.480   125177932.78808  23820562.420    97541225.22146
  22324015.860   117313647.69108  22324011.980    91413224.38547
  22068051.980   115968529.59209  22068047.540    90365152.34448
  21816354.020   114645744.02609  21816353.100    89334360.28848
 15 03 02 00 44  0.0000000  0  6G16G18G19G21G22G27
  20695951.840   108757968.82909  20695948.200    84746458.87648
  21664403.980   113847289.35809  21664400.700    88712218.08747
  23806270.620   125102808.63008  23806266.640    97482686.95947
  22335937.720   117376297.84808  22335933.760    91462042.68847
  22053258.940   115890792.21709  22053254.500    90304577.84248
  21805948.540   114591062.81309  21805947.600    89291751.55248
 15 03 02 00 44 30.0000000  0  6G16G18G19G21G22G27
  20689720.180   108725221.21609  20689716.500    84720941.24748
  21661227.020   113830594.53309  21661223.740    88699209.15047
  23791985.020   125027736.32508  23791981.020    97424189.05646
  22347884.840   117439080.66109  22347880.920    91510964.34847
  22038521.440   115813346.97009  22038517.080    90244230.97848
  21795563.460   114536488.94109  21795562.520    89249226.46548
 15 03 02 00 45  0.0000000  0  6G16G18G19G21G22G27
  20683582.320   108692966.47009  20683578.620    84695807.67348
  21658143.260   113814389.69009  21658139.940    88686582.00847
  23777711.520   124952728.76008  23777707.300    97365741.62346
  22359859.440   117502007.50609  22359855.460    91559998.26347
  22023842.500   115736209.21409  22023838.220    90184123.69948
  21785201.340   114482035.82209  21785200.420    89206795.46348
 15 03 02 00 45 30.0000000  0  6G16G18G19G21G22G27
  20677537.120   108661198.86709  20677533.480    84671053.69248
  21655151.520   113798668.47409  21655148.220    88674331.72447
  23763448.960   124877779.10308  23763444.620    97307339.33446
  22371859.760   117565069.72608  22371855.780    91609137.65347
  22009221.340   115659374.77809  22009217.040    90124252.77748
  21774861.000   114427696.89509  21774860.040    89164453.44848
 15 03 02 00 46  0.0000000  0  6G16G18G19G21G22G27
  20671584.720   108629919.29009  20671581.200    84646679.99448
  21652251.860   113783430.84509  21652248.540    88662458.26247
  23749197.380   124802886.58708  23749193.140    97248981.56046
  22383885.400   117628265.05108  22383881.580    91658380.75247
  21994658.180   115582845.06809  21994653.840    90064619.30348
  21764542.300   114373471.86009  21764541.300    89122200.18948
 15 03 02 00 46 30.0000000  0  6G16G18G19G21G22G27
  20665726.220   108599133.11409  20665722.820    84622690.76449
  21649445.120   113768681.06909  21649441.780    88650964.95948
  23734957.400   124728055.22908  23734953.000    97190671.44546
  22395936.740   117691595.60709  22395933.000    91707729.22847
  21980154.140   115506626.17609  21980149.840    90005228.02048
  21754246.080   114319365.00409  21754245.080    89080039.00448
 15 03 02 00 47  0.0000000  0  6G16G18G19G21G22G27
  20659961.500   108568839.41609  20659958.140    84599085.27748
  21646730.800   113754417.07909  21646727.460    88639850.17248
  23720728.560   124653281.97808  23720724.240    97132406.58746
  22408013.020   117755056.77608  22408009.240    91757179.49047
  21965709.260   115430717.97109  21965704.960    89946078.82748
  21743971.880   114265373.93409  21743970.920    89037968.05348
 15 03 02 00 47 30.0000000  0  6G16G18G19G21G22G27
  20654291.620   108539044.15409  20654288.280    84575868.19148
  21644109.900   113740644.27209  21644106.580    88629118.14647
  23706511.820   124578571.91708  23706507.420    97074190.98546
  22420114.800   117818651.82009  22420111.120    91806734.06047
  21951324.860   115355127.72009  21951320.580    89887177.40048
  21733720.740   114211503.82109  21733719.820    88995991.34848
 15 03 02 00 48  0.0000000  0  6G16G18G19G21G22G27
  20648716.060   108509744.75309  20648712.760    84553037.48948
  21641581.840   113727359.17509  21641578.520    88618766.12048
  23692306.220   124503921.12408  23692301.780    97016021.57146
  22432240.940   117882374.87208  22432237.360    91856388.38347
  21937000.560   115279853.42609  21936996.300    89828522.16548
  21723491.980   114157751.21409  21723491.100    88954106.21648
 15 03 02 00 48 30.0000000  0  6G16G18G19G21G22G27
  20643234.860   108480941.31509  20643231.620    84530593.25848
  21639146.380   113714560.79909  21639143.080    88608793.38247
  23678111.760   124429328.05008  23678107.200    96957897.10246
  22444390.920   117946223.01409  22444387.300    91906140.17047
  21922736.560   115204896.14909  21922732.320    89770113.95948
  21713285.360   114104115.05109  21713284.500    88912311.80548
 15 03 02 00 49  0.0000000  0  6G16G18G19G21G22G27
  20637849.620   108452641.93509  20637846.400    84508541.78748
  21636804.900   113702256.58509  21636801.720    88599205.68348
  23663929.500   124354799.70308  23663924.920    96899823.08346
  22456565.660   118010201.40508  22456561.980    91955993.46047
  21908534.740   115130265.14109  21908530.420    89711959.97648
  21703102.260   114050602.50209  21703101.420    88870613.72348
 15 03 02 00 49 30.0000000  0  6G16G18G19G21G22G27
  20632559.860   108424844.05309  20632556.620    84486881.09648
  21634556.800   113690442.43209  21634553.580    88589999.86848
  23649758.640   124280331.98208  23649754.260    96841796.33346
  22468764.020   118074304.00109  22468760.240    92005943.52547
  21894394.660   115055958.28809  21894390.240    89654058.58148
  21692941.980   113997210.01509  21692941.160    88829009.19248
 15 03 02 00 50  0.0000000  0  6G16G18G19G21G22G27
  20627364.560   108397542.61509  20627361.340    84465607.24648
  21632401.000   113679112.95909  21632397.660    88581171.70748
  23635598.320   124205918.85908  23635593.800    96783812.05746
  22480984.500   118138522.91809  22480980.700    92055984.22547
  21880315.460   114981971.65909  21880310.980    89596406.71748
  21682803.440   113943931.73509  21682802.620    88787493.66848
 15 03 02 00 50 30.0000000  0  6G16G18G19G21G22G27
  20622267.340   108370756.22209  20622264.040    84444734.73648
  21630340.600   113668285.24509  21630337.220    88572734.54248
  23621451.500   124131576.78108  23621447.000    96725883.18046
  22493230.040   118202873.86209  22493226.240    92106127.81347
  21866300.900   114908324.70609  21866296.380    89539019.54548
  21672689.920   113890785.06809  21672689.140    88746080.69248
 15 03 02 00 51  0.0000000  0  6G16G18G19G21G22G27
  20617266.520   108344476.33409  20617263.080    84424256.89348
  21628373.800   113657950.03609  21628370.460    88564681.14448
  23607316.100   124057296.39508  23607311.800    96668002.42546
  22505498.560   118267345.46209  22505494.680    92156365.41747
  21852349.600   114835009.74909  21852344.940    89481891.04848
  21662599.740   113837760.86409  21662598.980    88704763.14148
 15 03 02 00 51 30.0000000  0  6G16G18G19G21G22G27
  20612361.340   108318699.13209  20612357.780    84404170.75348
  21626499.780   113648102.45109  21626496.460    88557007.71848
  23593191.640   123983072.01708  23593187.280    96610165.25947
  22517788.780   118331930.35709  22517784.740    92206691.31447
  21838461.000   114762024.21209  21838456.140    89425019.24648
  21652531.920   113784854.30009  21652531.200    88663537.25748
 15 03 02 00 52  0.0000000  0  6G16G18G19G21G22G27
  20607553.560   108293433.77509  20607549.940    84384483.45848
  21624720.240   113638751.27809  21624716.940    88549721.10848
  23579079.620   123908912.67808  23579075.240    96552378.77047
  22530101.920   118396635.56709  22530097.820    92257110.96047
  21824637.080   114689378.52209  21824632.000    89368412.25848
  21642488.080   113732073.85609  21642487.400    88622409.64048
 15 03 02 00 52 30.0000000  0  6G16G18G19G21G22G27
  20602842.820   108268678.66709  20602839.260    84365193.75949
  21623034.560   113629893.50909  21623031.300    88542818.96648
  23564979.340   123834814.90508  23564974.940    96494640.28647
  22542436.740   118461455.72508  22542432.720    92307620.17847
  21810877.600   114617071.77309  21810872.380    89312069.39448
  21632467.760   113679416.93709  21632467.160    88581378.28948
 15 03 02 00 53  0.0000000  0  6G16G18G19G21G22G27
  20598230.100   108244438.77809  20598226.600    84346305.52648
  21621443.560   113621533.06309  21621440.420    88536304.35648
  23550891.520   123760782.56908  23550886.940    96436952.76646
  22554793.840   118526393.17309  22554790.020    92358220.76747
  21797183.680   114545109.70809  21797178.380    89255995.10548
  21622471.780   113626887.74409  21622471.180    88540446.47648
 15 03 02 00 53 30.0000000  0  6G16G18G19G21G22G27
  20593715.180   108220712.97309  20593711.760    84327817.88249
  21619946.860   113613667.77209  21619943.780    88530175.56248
  23536815.620   123686813.49908  23536811.260    96379314.56247
  22567172.540   118591443.97808  22567168.700    92408909.69747
  21783555.260   114473492.28809  21783550.000    89200189.36248
  21612499.740   113574484.39409  21612499.120    88499612.69048
 15 03 02 00 54  0.0000000  0  6G16G18G19G21G22G27
  20589298.460   108197502.99009  20589295.100    84309732.17649
  21618544.600   113606298.61209  21618541.420    88524433.36848
  23522751.680   123612907.85208  23522747.300    96321725.75347
  22579572.520   118656607.05108  22579568.640    92459686.09947
  21769992.740   114402221.72609  21769987.640    89144653.90848
  21602551.860   113522207.73209  21602551.140    88458877.63348
 15 03 02 00 54 30.0000000  0  6G16G18G19G21G22G27
  20584980.260   108174810.60309  20584976.940    84292049.78748
  21617236.860   113599426.47109  21617233.700    88519078.46148
  23508699.960   123539066.54808  23508695.920    96264187.14446
  22591993.680   118721881.18608  22591989.840    92510549.05847
  21756496.820   114331301.35409  21756491.940    89089391.33248
  21592628.360   113470059.00109  21592627.520    88418242.25448
 15 03 02 00 55  0.0000000  0  6G16G18G19G21G22G27
  20580760.540   108152635.65709  20580757.220    84274770.60449
  21616023.380   113593049.65409  21616020.280    88514109.51448
  23494660.320   123465288.30708  23494656.180    96206697.58347
  22604435.360   118787263.30308  22604431.620    92561496.13947
  21743067.740   114260731.92709  21743063.000    89034402.20948
  21582728.980   113418037.29309  21582728.080    88377705.86648
 15 03 02 00 55 30.0000000  0  6G16G18G19G21G22G27
  20576639.500   108130979.26709  20576636.160    84257895.49149
  21614904.240   113587168.43909  21614901.080    88509526.76848
  23480632.700   123391572.89508  23480628.240    96149257.01246
  22616897.540   118852752.07509  22616893.720    92612526.35147
  21729705.940   114190515.49609  21729701.240    88979688.14648
  21572853.800   113366143.06909  21572852.880    88337268.80448
 15 03 02 00 56  0.0000000  0  6G16G18G19G21G22G27
  20572617.380   108109842.83109  20572614.060    84241425.53349
  21613879.560   113581783.71409  21613876.440    88505330.88948
  23466617.180   123317920.92408  23466613.160    96091865.92947
  22629379.600   118918345.50108  22629375.660    92663638.10647
  21716411.860   114120654.47709  21716407.120    88925251.02648
  21563003.000   113314376.98309  21563002.080    88296931.60948
 15 03 02 00 56 30.0000000  0  6G16G18G19G21G22G27
  20568694.780   108089229.11609  20568691.440    84225362.88948
  21612949.600   113576896.94909  21612946.580    88501523.03848
  23452614.160   123244334.17608  23452609.880    96034525.61947
  22641881.800   118984044.73709  22641877.800    92714832.31047
  21703186.180   114051152.79409  21703181.340    88871093.90448
  21553177.020   113262741.39409  21553176.120    88256696.08748
 15 03 02 00 57  0.0000000  0  6G16G18G19G21G22G27
  20564871.300   108069136.42509  20564867.940    84209706.24348
  21612113.900   113572505.26109  21612110.940    88498100.94748
  23438623.060   123170809.56709  23438618.600    95977233.74046
