     2.11           OBSERVATION DATA    G                   RINEX VERSION / TYPE
SPIDER V4,0,0,3554                      2015 03 13 04:16    PGM / RUN BY / DATE 
CKHR                                                        MARKER NAME         
CKHR                                                        MARKER NUMBER       
                                                            OBSERVER / AGENCY   
496547              LEICA GRX1200+GNSS  8.10/4.007          REC # / TYPE / VERS 
10301042            LEIAR25         NONE                    ANT # / TYPE        
  5141838.0877   498328.5776  3730203.3049                  APPROX POSITION XYZ 
        0.0720        0.0000        0.0000                  ANTENNA: DELTA H/E/N
     1     1                                                WAVELENGTH FACT L1/2
     4    C1    L1    P2    L2                              # / TYPES OF OBSERV 
    30.000                                                  INTERVAL            
  2015    03    02    06    22    0.0000000     GPS         TIME OF FIRST OBS   
  2015    03    02    23    59   30.0000000     GPS         TIME OF LAST OBS    
    16                                                      LEAP SECONDS        
    30                                                      # OF SATELLITES     
   G 1   313   313   313   313                              PRN / # OF OBS      
   G 2   938   938   938   938                              PRN / # OF OBS      
   G 3   464   464   464   464                              PRN / # OF OBS      
   G 4   180   180   180   180                              PRN / # OF OBS      
   G 5   627   627   627   627                              PRN / # OF OBS      
   G 6   792   792   792   792                              PRN / # OF OBS      
   G 7   666   666   666   666                              PRN / # OF OBS      
   G 9   749   749   749   749                              PRN / # OF OBS      
   G10   754   754   753   753                              PRN / # OF OBS      
   G11   215   215   215   215                              PRN / # OF OBS      
   G12   805   804   804   804                              PRN / # OF OBS      
   G13   794   794   794   794                              PRN / # OF OBS      
   G14   478   478   478   478                              PRN / # OF OBS      
   G15   674   674   674   674                              PRN / # OF OBS      
   G16   202   202   202   202                              PRN / # OF OBS      
   G17   778   778   778   778                              PRN / # OF OBS      
   G18   493   490   488   488                              PRN / # OF OBS      
   G19    18    18    18    18                              PRN / # OF OBS      
   G20   773   773   773   773                              PRN / # OF OBS      
   G21   396   389   388   388                              PRN / # OF OBS      
   G22    59    56    57    56                              PRN / # OF OBS      
   G23   563   563   563   563                              PRN / # OF OBS      
   G24   826   825   825   825                              PRN / # OF OBS      
   G25   839   838   838   838                              PRN / # OF OBS      
   G27   147   147   147   147                              PRN / # OF OBS      
   G28   588   588   588   588                              PRN / # OF OBS      
   G29   708   708   708   708                              PRN / # OF OBS      
   G30   711   711   711   711                              PRN / # OF OBS      
   G31   694   694   694   694                              PRN / # OF OBS      
   G32   201   201   201   201                              PRN / # OF OBS      
BIT 2 OF LLI FLAGS DATA COLLECTED UNDER A/S CONDITION       COMMENT             
SNR is mapped to RINEX snr flag value [2-9]                 COMMENT             
Lx:     = 25dBHz -> 1; 26-27dBHz -> 2; 28-31dBHz -> 3       COMMENT             
       32-35dBHz -> 4; 36-38dBHz -> 5; 39-41dBHz -> 6       COMMENT             
       42-44dBHz -> 7; 45-48dBHz -> 8; >=49dBHz -> 9        COMMENT             
                                                            END OF HEADER       
 15 03 02 06 22  0.0000000  0 10G01G03G04G09G11G17G19G23G31G32
  20399428.620   107199720.50809  20399429.340    83532252.35749
  20545213.800   107965826.85509  20545213.500    84129214.59749
  21362672.380   112261599.51809  21362670.700    87476565.11148
  24429551.080   128378156.29507  24429552.980   100034935.43746
  20691597.200   108735076.78509  20691594.820    84728621.43048
  23017172.600   120956057.96609  23017169.860    94251461.61747
  24550992.380   129016335.71408  24550989.620   100532195.60446
  22098070.460   116126143.03009  22098066.160    90487886.32447
  24091772.760   126603119.93408  24091773.020    98651781.37446
  21629520.960   113663899.57409  21629518.400    88569261.84948
 15 03 02 06 22 30.0000000  0 10G01G03G04G09G11G17G19G23G31G32
  20400050.280   107202987.07809  20400050.960    83534797.71449
  20543334.620   107955951.93709  20543334.360    84121519.85349
  21373802.980   112320091.04009  21373801.300    87522142.86148
  24408234.500   128266136.95108  24408236.280    99947647.66946
  20701802.960   108788708.10309  20701800.500    84770412.02848
  23003417.620   120883774.95009  23003414.880    94195137.17947
  24571973.600   129126593.39208  24571971.000   100618110.51046
  22082168.660   116042578.20209  22082164.300    90422770.87847
  24085851.820   126572005.10008  24085852.040    98627536.05946
  21642430.960   113731741.95809  21642428.340    88622126.01248
 15 03 02 06 23  0.0000000  0 10G01G03G04G09G11G17G19G23G31G32
  20400744.540   107206635.18709  20400745.220    83537640.35749
  20541513.300   107946380.85909  20541513.040    84114061.84249
  21384998.720   112378924.84309  21384997.020    87567987.31848
  24386939.380   128154229.76408  24386940.920    99860447.27246
  20712098.040   108842808.15209  20712095.380    84812567.86148
  22989745.260   120811926.16109  22989742.420    94139151.07748
  24592968.820   129236924.38808  24592966.420   100704082.54746
  22066332.240   115959357.56309  22066327.900    90357923.61948
  24080019.940   126541357.82508  24080019.920    98603655.08646
  21655373.680   113799757.00709  21655371.260    88675124.68848
 15 03 02 06 23 30.0000000  0 10G01G03G04G09G11G17G19G23G31G32
  20401505.200   107210632.58409  20401505.900    83540755.17549
  20539743.360   107937079.70109  20539743.140    84106814.16049
  21396253.200   112438067.64209  21396251.440    87614072.54248
  24365659.860   128042403.90508  24365660.980    99773310.19045
  20722475.940   108897342.89509  20722472.960    84855062.41348
  22976149.700   120740480.91409  22976146.760    94083479.41047
  24613971.200   129347292.82908  24613969.040   100790083.72746
  22050555.360   115876449.74909  22050551.100    90293320.11348
  24074271.180   126511147.31808  24074271.220    98580114.46746
  21668342.600   113867909.96209  21668340.480    88728230.81948
 15 03 02 06 24  0.0000000  0 10G01G03G04G09G11G17G19G23G31G32
  20402334.140   107214988.95609  20402334.900    83544149.71849
  20538026.320   107928056.53209  20538026.080    84099783.09149
  21407568.020   112497527.60709  21407566.260    87660404.91048
  24344397.960   127930670.41108  24344398.680    99686245.09946
  20732938.020   108952320.16209  20732934.780    84897901.78048
  22962633.080   120669450.55109  22962630.060    94028131.06047
  24634982.000   129457705.21508  24634979.960   100876119.16246
  22034840.160   115793865.84709  22034835.940    90228969.00248
  24068607.620   126481384.53908  24068607.500    98556922.69646
  21681339.100   113936208.18109  21681337.340    88781450.13948
 15 03 02 06 24 30.0000000  0 10G01G03G04G09G11G17G19G23G31G32
  20403230.580   107219699.76209  20403231.360    83547820.42449
  20536361.000   107919305.13809  20536360.720    84092963.78349
  21418942.200   112557299.22309  21418940.540    87706980.12048
  24323152.840   127819026.01308  24323153.400    99599249.44346
  20743483.120   109007733.49109  20743479.660    84941080.94348
  22949194.760   120598831.69509  22949191.680    93973103.33547
  24655999.660   129568153.71408  24655997.700   100962182.72946
  22019185.860   115711602.10309  22019181.640    90164867.35848
  24063028.320   126452065.46608  24063028.200    98534076.70647
  21694362.040   114004644.49509  21694360.480    88834777.06748
 15 03 02 06 25  0.0000000  0 10G01G03G04G09G11G17G19G23G31G32
  20404194.040   107224762.42109  20404194.740    83551765.30049
  20534746.580   107910821.31909  20534746.340    84086352.97249
  21430374.980   112617378.46509  21430373.400    87753795.02648
  24301924.300   127707469.54207  24301924.900    99512322.31546
  20754110.320   109063578.41709  20754106.740    84984596.40648
  22935834.560   120528623.15809  22935831.440    93918395.33048
  24677023.200   129678632.65608  24677021.140   101048269.99446
  22003592.140   115629657.07909  22003588.080    90101014.06947
  24057533.340   126423188.91508  24057533.260    98511575.52047
  21707410.460   114073213.98409  21707408.880    88888207.77048
 15 03 02 06 25 30.0000000  0 10G01G03G04G09G11G17G19G23G31G32
  20405225.660   107230183.25009  20405226.300    83555989.27649
  20533184.040   107902609.78209  20533183.800    84079954.33149
  21441867.300   112677770.33609  21441865.740    87800853.55748
  24280713.980   127596008.70008  24280714.700    99425469.69146
  20764820.400   109119859.63909  20764816.780    85028451.83848
  22922554.000   120458833.14709  22922550.900    93864013.45047
  24698053.220   129789144.90908  24698051.120   101134383.25046
  21988060.460   115548038.12509  21988056.560    90037414.85948
  24052123.640   126394762.26607  24052123.780    98489424.88846
  21720485.040   114141920.55409  21720483.300    88941745.29248
 15 03 02 06 26  0.0000000  0 10G01G03G04G09G11G17G19G23G31G32
  20406325.720   107235963.99109  20406326.400    83560493.70549
  20531673.280   107894670.61409  20531673.040    84073767.93449
  21453419.220   112738475.57609  21453417.640    87848156.24948
  24259522.660   127484646.71908  24259523.280    99338694.07646
  20775613.340   109176577.19009  20775609.880    85072647.27248
  22909353.620   120389464.65509  22909350.600    93809960.02748
  24719089.380   129899689.12008  24719087.280   101220521.40846
  21972591.540   115466748.18109  21972587.640    89974072.01348
  24046800.000   126366788.61608  24046800.420    98467627.24547
  21733585.560   114210763.65209  21733583.740    88995389.19548
 15 03 02 06 26 30.0000000  0 10G01G03G04G09G11G17G19G23G31G32
  20407493.440   107242100.47209  20407494.200    83565275.32749
  20530213.280   107886998.05509  20530213.040    84067789.27349
  21465029.700   112799488.51909  21465028.080    87895698.72248
  24238349.600   127373380.70208  24238350.060    99251993.23846
  20786487.940   109233724.81509  20786484.700    85117177.81648
  22896232.820   120320514.55409  22896229.900    93756232.62847
  24740130.160   130010257.84608  24740128.140   101306678.63646
  21957184.620   115385783.75809  21957180.600    89910982.82348
  24041561.920   126339264.48808  24041562.680    98446179.86046
  21746710.700   114279736.65009  21746708.940    89049134.31048
 15 03 02 06 27  0.0000000  0 10G01G03G04G09G11G17G19G23G31G32
  20408730.300   107248599.95009  20408731.100    83570339.80849
  20528805.060   107879597.70609  20528804.840    84062022.73349
  21476699.940   112860815.33409  21476698.280    87943485.76548
  24217196.340   127262219.26008  24217196.720    99165373.90245
  20797445.420   109291307.85409  20797442.380    85162047.63948
  22883193.340   120251991.79509  22883190.400    93702838.22347
  24761176.320   130120854.99708  24761174.340   101392858.02146
  21941841.280   115305153.42609  21941837.140    89848153.97548
  24036411.200   126312198.31408  24036411.980    98425089.34446
  21759861.520   114348844.53609  21759859.840    89102984.53948
 15 03 02 06 27 30.0000000  0 10G01G03G04G09G11G17G19G23G31G32
  20410035.020   107255455.95109  20410035.800    83575682.08349
  20527447.120   107872461.57309  20527446.880    84056462.06949
  21488428.400   112922448.30109  21488426.700    87991511.37748
  24196061.840   127151157.42308  24196062.520    99078832.17446
  20808484.440   109349318.63709  20808481.520    85207250.77148
  22870234.220   120183891.09909  22870231.220    93649772.68948
  24782226.080   130231471.26008  24782224.220   101479052.28246
  21926560.520   115224852.03609  21926556.260    89785581.42248
  24031346.680   126285584.57108  24031347.400    98404351.38046
  21773036.280   114418078.43809  21773034.720    89156932.95848
 15 03 02 06 28  0.0000000  0 10G01G03G04G09G11G17G19G23G31G32
  20411409.240   107262677.30209  20411410.000    83581309.05249
  20526140.820   107865596.80409  20526140.540    84051112.85549
  21500216.480   112984394.99209  21500214.780    88039781.43548
  24174948.260   127040205.38108  24174949.460    98992376.01946
  20819606.140   109407763.61309  20819603.340    85252792.23248
  22857357.460   120116223.02509  22857354.520    93597044.25148
  24803280.420   130342111.88308  24803278.700   101565265.53046
  21911344.180   115144888.80709  21911339.760    89723272.37648
  24026370.200   126259433.14408  24026370.680    98383973.63346
  21786236.280   114487444.82709  21786234.840    89210984.60648
 15 03 02 06 28 30.0000000  0 10G01G03G04G09G11G17G19G23G31G32
  20412851.700   107270257.38909  20412852.480    83587215.55649
  20524884.680   107858995.23709  20524884.300    84045968.72849
  21512062.680   113046647.39109  21512061.080    88088289.71148
  24153854.740   126929357.96708  24153856.200    98906001.38846
  20830808.920   109466634.36909  20830806.180    85298665.48348
  22844562.040   120048982.06609  22844559.080    93544648.63347
  24824337.500   130452767.15708  24824335.840   101651490.18346
  21896191.160   115065258.40309  21896186.580    89661222.67648
  24021480.780   126233738.39108  24021480.780    98363951.79645
  21799459.900   114556934.87009  21799458.380    89265132.62048
 15 03 02 06 29  0.0000000  0 10G01G03G04G09G11G17G19G23G31G32
  20414363.640   107278202.24309  20414364.360    83593406.29849
  20523679.440   107852661.29309  20523679.040    84041033.14449
  21523967.980   113109210.35609  21523966.440    88137039.99848
  24132782.520   126818622.56708  24132784.080    98819714.03346
  20842093.540   109525935.08009  20842090.800    85344873.75348
  22831849.260   119982175.60709  22831846.300    93492591.60548
  24845397.920   130563439.99608  24845396.140   101737728.53645
  21881102.740   114985967.95509  21881098.140    89599437.88548
  24016679.600   126208507.27608  24016679.380    98344291.19246
  21812707.780   114626552.19809  21812706.220    89319379.81948
 15 03 02 06 29 30.0000000  0 10G01G03G04G09G11G17G19G23G31G32
  20415944.760   107286510.40909  20415945.360    83599880.13149
  20522524.480   107846591.95609  20522524.200    84036303.73949
  21535931.860   113172081.18009  21535930.420    88186030.13848
  24111731.520   126707999.14908  24111733.060    98733513.95045
  20853459.420   109585662.46209  20853456.560    85391414.49348
  22819219.180   119915803.94609  22819216.240    93440873.38348
  24866460.820   130674125.67308  24866458.940   101823976.91445
  21866078.960   114907017.05409  21866074.240    89537917.67548
  24011966.720   126183739.46908  24011966.420    98324991.57546
  21825979.160   114696293.18009  21825977.560    89373723.35948
 15 03 02 06 30  0.0000000  0 10G01G03G04G09G11G17G19G23G31G32
  20417595.580   107295184.84609  20417596.100    83606639.37549
  20521420.100   107840788.63609  20521419.940    84031781.62349
  21547954.620   113235261.57609  21547953.380    88235261.53748
  24090702.660   126597492.12208  24090703.900    98647404.56346
  20864906.720   109645817.74909  20864903.780    85438288.66948
  22806672.660   119849871.34209  22806669.780    93389497.27447
  24887526.120   130784824.20408  24887524.280   101910235.28745
  21851120.580   114828409.73209  21851115.740    89476665.17748
  24007342.680   126159438.69008  24007342.180    98306055.89345
  21839274.200   114766158.49009  21839272.580    89428163.79148
 15 03 02 06 30 30.0000000  0 10G01G03G04G09G11G17G19G23G31G32
  20419315.780   107304224.17509  20419316.300    83613682.95449
  20520365.780   107835248.34909  20520365.700    84027464.47549
  21560035.840   113298749.07809  21560034.720    88284732.22448
  24069696.080   126487101.56008  24069697.080    98561385.89646
  20876434.800   109706397.62509  20876431.820    85485493.69348
  22794209.560   119784377.02309  22794206.720    93338462.68347
  24908593.040   130895530.72208  24908591.280   101996499.89146
  21836227.440   114750145.35409  21836222.600    89415679.91748
  24002807.400   126135604.37408  24002806.620    98287483.64546
  21852592.180   114836144.42709  21852590.500    89482698.21748
 15 03 02 06 50  0.0000000  0  9G01G03G04G09G11G17G23G31G32
  20542311.360   107950574.45919  20542312.020    84117332.83259
  20517054.720   107817850.14319  20517055.100    84013910.70359
  22075961.760   116009961.11919  22075960.980    90397368.94357
  23272504.760   122297837.64118  23272506.420    95297023.06957
  21386884.420   112388835.15919  21386882.380    87575708.10458
  22377729.920   117595763.56119  22377727.220    91633051.20558
  21310056.300   111985101.58319  21310052.260    87261101.01158
  23898615.680   125588072.46018  23898615.840    97860835.91256
  22387443.240   117646808.10919  22387442.880    91672835.96857
 15 03 02 06 50 30.0000000  0  9G01G03G04G09G11G17G23G31G32
  20546904.780   107974713.04409  20546905.440    84136142.05749
  20517874.060   107822155.98309  20517874.460    84017265.86849
  22090279.240   116085199.67409  22090278.520    90455996.28847
  23252717.000   122193852.27908  23252718.720    95215995.47847
  21401437.500   112465311.85109  21401435.440    87635300.24848
  22368907.020   117549399.05009  22368904.360    91596922.96048
  21298021.660   111921859.28609  21298017.640    87211821.27648
  23897850.060   125584047.83808  23897850.040    97857699.78846
  22401461.400   117720473.26409  22401460.580    91730237.29447
 15 03 02 06 51  0.0000000  0  9G01G03G04G09G11G17G23G31G32
  20551603.180   107999403.06609  20551603.780    84155380.96449
  20518768.360   107826855.42209  20518768.740    84020927.71349
  22104680.860   116160880.33309  22104680.160    90514968.10747
  23232999.300   122090233.81508  23233000.800    95135253.77147
  21416091.720   112542319.49009  21416089.520    87695306.10648
  22360212.840   117503711.48309  22360210.460    91561322.21148
  21286095.120   111859185.54509  21286091.180    87162984.57648
  23897214.020   125580704.58208  23897213.920    97855094.58446
  22415523.240   117794368.23609  22415522.240    91787817.69547
 15 03 02 06 51 30.0000000  0  9G01G03G04G09G11G17G23G31G32
  20556376.960   108024489.34409  20556377.560    84174928.65249
  20519707.860   107831792.15709  20519708.200    84024774.47749
  22119136.820   116236846.79709  22119136.220    90574162.64847
  23213322.160   121986828.76408  23213323.540    95054678.36747
  21430817.040   112619700.73909  21430814.700    87755603.08748
  22351618.120   117458547.10409  22351616.100    91526129.12748
  21274247.340   111796925.73909  21274243.480    87114470.41348
  23896678.080   125577887.93808  23896677.860    97852899.72746
  22429598.920   117868336.26509  22429597.760    91845455.03047
 15 03 02 06 52  0.0000000  0  9G01G03G04G09G11G17G23G31G32
  20561226.180   108049972.39109  20561226.880    84194785.51849
  20520692.420   107836965.63709  20520692.740    84028805.70549
  22133647.040   116313098.58309  22133646.580    90633579.50447
  23193685.860   121883639.30808  23193687.320    94974270.97447
  21445613.100   112697454.20109  21445610.680    87816190.11748
  22343123.340   117413907.57709  22343121.520    91491345.02948
  21262478.700   111735081.49409  21262474.860    87066280.06648
  23896242.400   125575598.74508  23896242.200    97851115.88546
  22443688.220   117942376.40909  22443687.140    91903148.54347
 15 03 02 06 52 30.0000000  0  9G01G03G04G09G11G17G23G31G32
  20566150.300   108075849.49709  20566151.200    84214949.42049
  20521721.280   107842371.99909  20521721.600    84033018.39749
  22148210.780   116389631.59309  22148210.460    90693215.48247
  23174090.260   121780664.41808  23174091.960    94894030.78447
  21460479.020   112775575.18809  21460476.600    87877063.51248
  22334728.160   117369790.80609  22334726.360    91456968.26248
  21250788.960   111673650.95709  21250785.020    87018412.07648
  23895906.680   125573834.84008  23895906.380    97849741.36246
  22457790.440   118016484.42509  22457789.520    91960894.95247
 15 03 02 06 53  0.0000000  0  9G01G03G04G09G11G17G23G31G32
  20571148.100   108102113.79609  20571149.220    84235415.03949
  20522792.920   107848003.31909  20522793.260    84037406.37749
  22162826.540   116466437.79909  22162826.280    90753064.33447
  23154534.660   121677898.97808  23154536.400    94813953.77547
  21475413.120   112854054.65809  21475410.820    87938216.24848
  22326431.540   117326191.58409  22326429.740    91422994.78448
  21239176.820   111612627.87009  21239172.760    86970861.58148
  23895669.760   125572589.64608  23895669.360    97848771.02846
  22471904.020   118090652.02208  22471903.320    92018687.77347
 15 03 02 06 53 30.0000000  0  9G01G03G04G09G11G17G23G31G32
  20576220.980   108128772.63009  20576222.320    84256188.09349
  20523908.520   107853865.82609  20523908.840    84041974.51149
  22177495.440   116543523.39409  22177495.280    90813130.89747
  23135020.660   121575351.97508  23135022.420    94734046.97647
  21490416.440   112932898.09109  21490414.380    87999652.58348
  22318235.080   117283118.33109  22318233.180    91389431.14048
  21227643.820   111552020.82609  21227639.720    86923635.28348
  23895533.120   125571871.16908  23895532.600    97848211.10246
  22486030.120   118164885.12409  22486029.520    92076531.63547
 15 03 02 06 54  0.0000000  0  9G01G03G04G09G11G17G23G31G32
  20581369.640   108155829.87309  20581371.240    84277271.58949
  20525068.620   107859962.40509  20525069.000    84046725.03149
  22192218.000   116620890.77209  22192217.880    90873417.03647
  23115549.160   121473029.06608  23115551.160    94654314.80547
  21505489.460   113012107.83209  21505487.620    88061374.36048
  22310139.740   117240575.96809  22310137.640    91356281.18148
  21216190.740   111491834.08509  21216186.660    86876736.49748
  23895497.500   125571683.46208  23895496.940    97848064.79646
  22500169.200   118239186.27009  22500168.600    92134428.54847
 15 03 02 06 54 30.0000000  0  9G01G03G04G09G11G17G23G31G32
  20586593.820   108183283.73109  20586595.620    84298664.13449
  20526272.760   107866290.20609  20526273.140    84051655.72049
  22206993.700   116698537.22609  22206993.600    90933920.62647
  23096120.180   121370930.10708  23096122.440    94574757.14147
  21520631.380   113091679.62409  21520629.680    88123378.24748
  22302145.160   117198563.45709  22302142.940    91323544.10148
  21204817.340   111432066.57709  21204813.340    86830164.38448
  23895562.480   125572024.69508  23895561.860    97848330.64546
  22514320.700   118313552.15009  22514320.100    92192375.88547
 15 03 02 06 55  0.0000000  0  9G01G03G04G09G11G17G23G31G32
  20591893.720   108211135.12209  20591895.600    84320366.45349
  20527520.900   107872849.09009  20527521.240    84056766.48149
  22221822.460   116776462.31109  22221822.320    90994641.34247
  23076734.320   121269057.79708  23076736.820    94495376.09847
  21535842.140   113171612.36509  21535840.360    88185663.40748
  22294251.780   117157083.07709  22294249.520    91291221.66948
  21193524.080   111372720.70509  21193520.240    86783920.82748
  23895728.320   125572896.45808  23895727.820    97849009.91046
  22528484.460   118387982.41509  22528483.620    92250373.41647
 15 03 02 06 55 30.0000000  0  9G01G03G04G09G11G17G23G31G32
  20597269.200   108239383.28909  20597271.080    84342377.94449
  20528812.660   107879637.27909  20528813.020    84062055.92249
  22236703.900   116854664.16209  22236703.840    91055577.69747
  23057391.860   121167413.08808  23057394.520    94416172.39647
  21551121.180   113251903.26109  21551119.280    88248227.62948
  22286459.620   117116135.03409  22286457.440    91259314.02348
  21182311.080   111313796.44709  21182307.360    86738005.78848
  23895995.100   125574298.41808  23895994.660    97850102.31946
  22542660.080   118462474.96609  22542659.160    92308419.45347
 15 03 02 06 56  0.0000000  0  9G01G03G04G09G11G17G23G31G32
  20602720.180   108268028.07509  20602722.040    84364698.48949
  20530147.860   107886653.64009  20530148.240    84067523.15449
  22251637.760   116933141.43509  22251637.720    91116728.68247
  23038093.160   121065997.52708  23038095.800    94337147.24747
  21566468.120   113332550.76409  21566466.100    88311069.73448
  22278769.000   117075720.51109  22278766.860    91227822.13248
  21171178.400   111255294.18609  21171174.720    86692419.58048
  23896362.800   125576230.78908  23896362.220    97851608.02046
  22556847.240   118537028.19109  22556846.260    92366512.77147
 15 03 02 06 56 30.0000000  0  9G01G03G04G09G11G17G23G31G32
  20608246.580   108297069.04609  20608248.400    84387327.74149
  20531526.200   107893896.80509  20531526.620    84073167.12349
  22266623.780   117011892.54809  22266623.680    91178093.05047
  23018838.480   120964812.50808  23018841.020    94258301.74447
  21581882.220   113413551.69409  21581880.160    88374187.24448
  22271179.960   117035839.76809  22271177.840    91196746.16348
  21160126.260   111197214.54909  21160122.480    86647162.68148
  23896831.340   125578692.96508  23896830.840    97853526.56846
  22571045.540   118611640.45609  22571044.560    92424652.09047
 15 03 02 06 57  0.0000000  0  9G01G03G04G09G11G17G23G31G32
  20613848.560   108326507.23409  20613850.360    84410266.52049
  20532947.660   107901366.74009  20532948.180    84078987.79349
  22281661.840   117090917.36109  22281661.660    91239670.69647
  22999628.180   120863860.72308  22999630.520    94179637.98747
  21597363.420   113494905.57609  21597361.360    88437579.78348
  22263692.840   116996494.65509  22263690.780    91166087.56648
  21149154.840   111139559.30109  21149150.980    86602236.47548
  23897401.160   125581686.34308  23897400.660    97855859.01746
  22585255.120   118686311.46509  22585253.980    92482837.21147
 15 03 02 06 57 30.0000000  0  9G01G03G04G09G11G17G23G31G32
  20619526.600   108356345.12609  20619528.340    84433516.76349
  20534412.540   107909065.00209  20534413.180    84084986.39049
  22296752.160   117170217.26809  22296752.020    91301462.68847
  22980463.000   120763146.42308  22980465.120    94101159.27547
  21612911.780   113576612.79409  21612909.700    88501247.63048
  22256308.380   116957688.90909  22256306.320    91135849.25448
  21138264.760   111082331.76709  21138260.940    86557643.56548
  23898072.580   125585213.61508  23898071.900    97858607.48846
  22599475.960   118761042.46009  22599475.060    92541069.04747
 15 03 02 06 58  0.0000000  0  9G01G03G04G09G11G17G23G31G32
  20625281.400   108386586.00009  20625283.000    84457081.02649
  20535921.340   107916993.92109  20535922.040    84091164.71849
  22311895.120   117249793.93409  22311895.120    91363470.35347
  22961343.820   120662674.62208  22961345.900    94022869.53547
  21628527.520   113658674.40809  21628525.480    88565191.64048
  22249027.380   116919426.92009  22249025.280    91106034.66248
  21127456.800   111025535.96709  21127453.060    86513387.07248
  23898846.160   125589278.42709  23898845.380    97861774.83346
  22613708.540   118835835.44808  22613707.680    92599349.22647
 15 03 02 06 58 30.0000000  0  9G01G03G04G09G11G17G23G31G32
  20631112.060   108417225.31909  20631113.500    84480955.75249
  20537473.080   107925148.08809  20537473.740    84097518.55649
  22327089.800   117329642.16409  22327089.860    91425689.60747
  22942270.220   120562442.66108  22942272.340    93944766.68847
  21644209.600   113741084.31309  21644207.620    88629407.04848
  22241849.180   116881704.99509  22241847.060    91076640.88948
  21116730.340   110969168.36709  21116726.700    86469464.23748
  23899721.140   125593876.51809  23899720.260    97865357.72546
  22627951.780   118910684.67609  22627951.420    92657673.18147
 15 03 02 06 59  0.0000000  0  9G01G03G04G09G11G17G23G31G32
  20637018.720   108448263.87009  20637019.940    84505141.56949
  20539067.700   107933527.32909  20539068.280    84104047.78349
  22342336.060   117409761.34109  22342336.120    91488120.01047
  22923242.740   120462452.99608  22923244.940    93866852.63747
  21659957.740   113823841.02409  21659955.840    88693892.69948
  22234774.140   116844525.07809  22234772.000    91047669.45348
  21106085.720   110913230.36509  21106082.120    86425876.15648
  23900697.800   125599009.06308  23900696.960    97869357.08946
  22642205.740   118985589.73909  22642205.560    92716040.66447
 15 03 02 06 59 30.0000000  0  9G01G03G04G09G11G17G23G31G32
  20643001.460   108479702.20909  20643002.480    84529638.91449
  20540705.060   107942131.26709  20540705.580    84110752.09349
  22357633.860   117490150.83509  22357633.840    91550761.03547
  22904261.920   120362707.97008  22904264.040    93789129.19947
  21675771.640   113906942.75709  21675769.760    88758647.20048
  22227802.520   116807888.59509  22227800.340    91019121.47048
  21095523.280   110857723.34309  21095519.580    86382623.90148
  23901776.320   125604676.60608  23901775.480    97873773.33246
  22656470.260   119060549.94309  22656470.200    92774451.10847
 15 03 02 07 00  0.0000000  0  9G01G03G04G09G11G17G23G31G32
  20649060.240   108511540.21009  20649061.000    84554447.68849
  20542384.980   107950958.96209  20542385.480    84117630.76549
  22372982.860   117570809.43909  22372982.780    91613611.75047
  22885328.000   120263209.28008  22885329.940    93711597.71847
  21691650.920   113990387.88609  21691649.000    88823669.27648
  22220934.480   116771796.47809  22220932.320    90990997.68148
  21085043.080   110802648.08809  21085039.200    86339708.08948
  23902956.620   125610879.25608  23902955.900    97878606.54146
  22670745.100   119135564.01909  22670744.840    92832903.53347
 15 03 02 07 00 30.0000000  0  9G01G03G04G09G11G17G23G31G32
  20655195.440   108543780.12609  20655196.000    84579569.63349
  20544107.740   107960011.74909  20544108.200    84124684.83249
  22388383.160   117651738.31709  22388383.020    91676673.09747
  22866441.720   120163960.91808  22866443.680    93634261.31547
  21707595.540   114074177.05609  21707593.640    88888959.43248
  22214170.540   116736251.74909  22214168.500    90963300.43348
  21074645.660   110748007.59309  21074641.500    86297131.04948
  23904239.180   125617619.63008  23904238.600    97883858.75545
  22685030.440   119210633.13309  22685029.940    92891398.86947
 15 03 02 07 01  0.0000000  0  9G01G03G04G09G11G17G23G31G32
  20661407.200   108576422.49609  20661407.660    84605005.19149
  20545873.280   107969289.33809  20545873.680    84131914.07949
  22403834.620   117732936.66109  22403834.580    91739944.40647
  22847603.540   120064965.19608  22847605.580    93557121.78147
  21723605.240   114158308.53509  21723603.420    88954516.33848
  22207511.060   116701255.96409  22207509.160    90936030.94748
  21064331.140   110693803.32409  21064326.740    86254893.93248
  23905624.180   125624898.06108  23905623.620    97889530.24846
  22699326.060   119285756.63409  22699325.540    92949936.53147
 15 03 02 07 01 30.0000000  0  9G01G03G04G09G11G17G23G31G32
  20667694.260   108609461.20109  20667694.800    84630749.56549
  20547680.240   107978784.79809  20547680.620    84139313.08849
  22419335.980   117814397.27009  22419336.160    91803420.04247
  22828812.660   119966217.84809  22828814.600    93480175.77947
  21739678.440   114242774.23609  21739676.820    89020333.65948
  22200955.120   116666803.83009  22200953.160    90909185.06748
  21054098.460   110640030.05909  21054093.960    86212992.65048
  23907110.460   125632708.89608  23907110.020    97895616.60546
  22713630.620   119360927.32309  22713630.080    93008511.00247
 15 03 02 07 02  0.0000000  0  9G01G03G04G09G11G17G23G31G32
  20674057.560   108642900.93009  20674058.260    84656806.43249
  20549529.340   107988501.92609  20549529.720    84146884.81049
  22434888.060   117896123.91809  22434888.380    91867102.99747
  22810070.300   119867725.33808  22810072.060    93403428.31747
  21755815.780   114327576.68209  21755814.280    89086413.37348
  22194503.880   116632901.50809  22194501.720    90882767.60548
  21043948.580   110586692.92609  21043944.180    86171431.21048
  23908698.980   125641056.64408  23908698.440    97902121.32146
  22727944.840   119436148.78409  22727944.360    93067125.00247
 15 03 02 07 02 30.0000000  0  9G01G03G04G09G11G17G23G31G32
  20680497.420   108676743.30609  20680498.320    84683177.03649
  20551420.780   107998441.61309  20551421.240    84154629.97449
  22450490.940   117978116.80909  22450491.260    91930993.40847
  22791377.020   119769491.08608  22791378.680    93326882.10947
  21772017.320   114412715.71409  21772015.800    89152755.35948
  22188157.660   116599551.18709  22188155.360    90856780.28948
  21033882.060   110533794.27809  21033877.880    86130211.46048
  23910390.100   125649943.27708  23910389.560    97909045.96446
  22742268.900   119511421.64709  22742268.300    93125779.09247
 15 03 02 07 03  0.0000000  0  9G01G03G04G09G11G17G23G31G32
  20687013.900   108710988.23609  20687014.920    84709861.32849
  20553354.360   108008602.91809  20553354.960    84162547.82249
  22466144.280   118060374.63909  22466144.580    91995090.28947
  22772733.080   119671516.83008  22772734.740    93250538.50247
  21788282.640   114498189.23609  21788280.880    89219358.01348
  22181916.560   116566753.59409  22181914.220    90831223.66848
  21023899.160   110481335.24309  21023895.240    86089334.27848
  23912183.740   125659369.07108  23912183.240    97916390.74046
  22756602.460   119586744.67409  22756601.880    93184472.24847
 15 03 02 07 03 30.0000000  0  9G01G03G04G09G11G17G23G31G32
  20693606.920   108745635.45009  20693608.100    84736859.08549
  20555329.920   108018984.85209  20555330.660    84170637.58649
  22481847.800   118142896.25809  22481848.040    92059392.70847
  22754138.880   119573804.09908  22754140.560    93174398.68147
  21804611.140   114583995.20309  21804609.260    89286219.69748
  22175780.680   116534509.45809  22175778.420    90806098.30248
  21014000.100   110429316.31709  21013996.340    86048800.01348
  23914079.960   125669333.56908  23914079.480    97924155.26846
  22770945.320   119662116.60209  22770944.800    93243203.51047
 15 03 02 07 04  0.0000000  0  9G01G03G04G09G11G17G23G31G32
  20700276.760   108780686.28909  20700278.120    84764171.36249
  20557347.600   108029587.91609  20557348.440    84178899.67349
  22497601.480   118225681.86409  22497601.740    92123900.84447
  22735595.100   119476356.02209  22735596.740    93098465.09647
  21821002.680   114670132.83509  21821000.780    89353339.83248
  22169750.560   116502821.16009  22169748.440    90781406.07548
  21004185.240   110377739.27109  21004181.560    86008610.08048
  23916079.000   125679838.24808  23916078.560    97932340.72546
  22785297.520   119737537.67509  22785296.900    93301973.07347
 15 03 02 07 04 30.0000000  0  9G01G03G04G09G11G17G23G31G32
  20707022.240   108816134.78809  20707023.820    84791793.48749
  20559406.140   108040405.47309  20559407.000    84187328.88249
  22513404.020   118308724.14209  22513404.300    92188608.96847
  22717101.040   119379168.52109  22717102.580    93022734.55147
  21837455.720   114756594.11809  21837453.940    89420712.12948
  22163825.220   116471683.24709  22163823.180    90757142.71048
  20994453.660   110326599.06009  20994449.920    85968760.52848
  23918179.620   125690877.17008  23918179.240    97940942.44746
  22799657.740   119813001.12708  22799657.320    93360775.64447
 15 03 02 07 05  0.0000000  0  9G01G03G04G09G11G17G23G31G32
  20713845.640   108851991.89209  20713847.340    84819734.01749
  20561507.420   108051447.70309  20561508.360    84195933.16849
  22529257.320   118392033.24409  22529257.660    92253525.00947
  22698659.080   119282254.35809  22698660.420    92947216.99747
  21853971.980   114843388.07309  21853970.420    89488343.68048
  22158006.900   116441107.69509  22158004.900    90733317.54348
  20984807.540   110275907.36209  20984803.700    85929260.48148
  23920383.800   125702461.53608  23920383.740    97949969.18546
  22814027.960   119888516.79408  22814027.420    93419618.92647
 15 03 02 07 05 30.0000000  0  9G01G03G04G09G11G17G23G31G32
  20720745.480   108888250.21509  20720747.160    84847987.18549
  20563649.940   108062706.49309  20563650.800    84204706.20049
  22545159.800   118475600.62009  22545160.260    92318642.27347
  22680268.020   119185607.93709  22680269.220    92871908.05447
  21870549.940   114930505.96909  21870548.540    89556227.64047
  22152294.340   116411088.18909  22152292.400    90709925.67248
  20975245.560   110225657.70909  20975241.680    85890104.88348
  23922690.340   125714583.72808  23922690.520    97959415.02046
  22828406.540   119964076.38908  22828406.220    93478496.41947
 15 03 02 07 06  0.0000000  0  9G01G03G04G09G11G17G23G31G32
  20727721.720   108924910.01009  20727723.380    84876553.18749
  20565833.640   108074181.46709  20565834.400    84213647.68349
  22561111.100   118559425.07609  22561111.700    92383959.87347
  22661928.320   119089231.44009  22661929.460    92796809.45047
  21887189.260   115017945.73209  21887187.900    89624362.40547
  22146687.760   116381625.67309  22146685.880    90686967.81148
  20965767.780   110175850.98209  20965763.880    85851294.41848
  23925099.500   125727244.28108  23925099.580    97969280.34346
  22842793.240   120039679.32109  22842793.080    93537407.67747
 15 03 02 07 06 30.0000000  0  9G01G03G04G09G11G17G23G31G32
  20734774.440   108961972.00709  20734776.120    84905432.60149
  20568058.480   108085872.61709  20568059.160    84222757.62449
  22577111.340   118643506.50209  22577111.960    92449477.73047
  22643640.420   118993127.40209  22643641.560    92721923.17047
  21903889.660   115105706.01709  21903888.200    89692746.93748
  22141187.440   116352721.58509  22141185.600    90664445.09048
  20956374.480   110126488.75509  20956370.540    85812830.33048
  23927611.120   125740443.72108  23927611.260    97979565.58046
  22857188.320   120115325.22809  22857188.240    93596352.44247
 15 03 02 07 07  0.0000000  0  9G01G03G04G09G11G17G23G31G32
  20741904.300   108999439.27409  20741905.920    84934627.80749
  20570324.880   108097782.35409  20570325.580    84232037.89749
  22593160.880   118727846.79709  22593161.320    92515197.31047
  22625405.300   118897300.73909  22625406.420    92647253.03147
  21920651.260   115193787.91609  21920649.740    89761382.09448
  22135794.240   116324379.91509  22135792.420    90642360.62148
  20947066.360   110077574.75009  20947062.480    85774715.50748
  23930225.760   125754185.47107  23930226.420    97990273.38346
  22871591.960   120191016.41009  22871591.920    93655332.45647
 15 03 02 07 07 30.0000000  0  9G01G03G04G09G11G17G23G31G32
  20749111.000   109037310.17609  20749112.520    84964137.53849
  20572632.400   108109908.41109  20572633.160    84241486.72249
  22609259.200   118812443.22809  22609259.460    92581116.44247
  22607223.020   118801751.64309  22607224.080    92572799.17448
  21937473.300   115282187.97809  21937471.800    89830265.14147
  22130507.980   116296599.97909  22130506.140    90620713.85648
  20937843.300   110029108.27609  20937839.540    85736949.39948
  23932943.280   125768467.86908  23932944.500    98001402.45946
  22886003.780   120266750.35709  22886003.700    93714345.79747
 15 03 02 07 08  0.0000000  0  9G01G03G04G09G11G17G23G31G32
  20756393.020   109075576.98709  20756394.460    84993955.76449
  20574979.500   108122242.43209  20574980.260    84251097.60148
  22625404.580   118897287.00809  22625404.740    92647228.34447
  22589092.480   118706474.27109  22589093.360    92498557.05147
  21954354.040   115370896.81309  21954352.620    89899388.80847
  22125327.320   116269374.93809  22125325.480    90599499.50248
  20928704.020   109981082.13609  20928700.380    85699526.41048
  23935762.580   125783283.06208  23935763.820    98012946.71046
  22900422.100   120342518.56709  22900421.660    93773385.87546
 15 03 02 07 08 30.0000000  0  9G01G03G04G09G11G17G23G31G32
  20763752.740   109114252.06709  20763754.060    85024092.13149
  20577368.440   108134796.15209  20577369.160    84260879.67449
  22641599.200   118982389.50409  22641599.340    92713541.81547
  22571016.320   118611482.87109  22571017.000    92424537.75647
  21971295.520   115459924.90709  21971294.160    89968761.22847
  22120254.640   116242717.61209  22120252.820    90578727.50448
  20919651.200   109933509.56909  20919647.560    85662456.85748
  23938685.760   125798643.45208  23938686.480    98024915.79446
  22914849.100   120418332.50708  22914848.660    93832461.53547
 15 03 02 07 09  0.0000000  0  9G01G03G04G09G11G17G23G31G32
  20771189.160   109153330.54709  20771190.460    85054542.83749
  20579798.160   108147564.12509  20579798.820    84270828.70149
  22657841.880   119067744.69109  22657842.180    92780052.21547
  22552993.960   118516774.41909  22552994.500    92350738.94248
  21988296.500   115549265.14209  21988295.060    90038376.88547
  22115289.200   116216624.04609  22115287.360    90558394.79648
  20910684.080   109886386.21809  20910680.240    85625737.33648
  23941711.640   125814543.93108  23941712.060    98037305.72446
  22929283.700   120494186.54508  22929283.220    93891568.47946
 15 03 02 07 09 30.0000000  0  9G01G03G04G09G11G17G23G31G32
  20778702.440   109192812.82409  20778703.740    85085308.17449
  20582268.560   108160546.10109  20582269.240    84280944.47649
  22674132.480   119153351.92509  22674133.060    92846758.99347
  22535025.760   118422351.15409  22535026.340    92277162.35547
  22005356.760   115638916.36209  22005355.260    90108234.86647
  22110431.300   116191095.51509  22110429.440    90538502.37648
  20901802.840   109839713.34009  20901798.700    85589368.83348
  23944840.460   125830984.96608  23944840.560    98050116.84546
  22943725.880   120570080.28709  22943725.380    93950706.34547
 15 03 02 07 10  0.0000000  0  9G01G03G04G09G11G17G23G31G32
  20786292.320   109232697.72109  20786293.680    85116387.25349
  20584779.320   108173740.42909  20584780.060    84291225.72249
  22690470.640   119239209.00209  22690471.320    92913660.44847
  22517111.960   118328213.86209  22517112.700    92203808.60948
  22022475.560   115728875.35709  22022474.100    90178332.68848
  22105680.840   116166131.93909  22105679.060    90519050.18448
  20893007.220   109793490.91709  20893002.900    85553351.34048
  23948072.060   125847965.53808  23948072.100    98063348.41346
  22958175.280   120646011.77209  22958174.900    94009873.61547
 15 03 02 07 10 30.0000000  0  9G01G03G04G09G11G17G23G31G32
  20793959.300   109272987.87309  20793960.720    85147782.10749
  20587330.900   108187149.16709  20587331.660    84301674.04149
  22706856.660   119325317.45309  22706857.300    92980757.77547
  22499253.480   118234367.00609  22499254.260    92130681.16848
  22039652.940   115819142.59909  22039651.540    90248670.68647
  22101038.480   116141736.12309  22101036.680    90500040.41248
  20884297.620   109747721.56609  20884293.300    85517686.89848
  23951406.680   125865488.04208  23951406.840    98077002.25246
  22972632.260   120721982.89708  22972632.080    94069071.79647
 15 03 02 07 11  0.0000000  0  9G01G03G04G09G11G17G23G31G32
  20801702.600   109313679.12609  20801704.060    85179489.50749
  20589922.420   108200767.59909  20589923.180    84312285.76749
  22723289.480   119411671.87208  22723290.060    93048046.78347
  22481449.920   118140808.32009  22481450.640    92057778.28348
  22056887.760   115909712.07609  22056886.280    90319244.18447
  22096503.540   116117904.39309  22096501.640    90481470.17748
  20875673.560   109702402.26309  20875669.400    85482373.14648
  23954843.620   125883548.39308  23954843.760    98091075.20446
  22987095.720   120797988.79808  22987095.700    94128297.03247
 15 03 02 07 11 30.0000000  0  9G01G03G04G09G11G17G23G31G32
  20809522.500   109354773.10709  20809524.040    85211510.71948
  20592554.040   108214596.86109  20592554.840    84323061.76849
  22739769.260   119498273.08509  22739769.700    93115528.08047
  22463701.860   118047541.34009  22463702.560    91985102.70147
  22074180.100   116000583.98909  22074178.620    90390053.36247
  22092076.520   116094639.83809  22092074.560    90463341.89048
  20867135.520   109657535.35109  20867131.620    85447411.90548
  23958383.180   125902148.03609  23958383.040    98105568.39546
  23001566.020   120874030.45408  23001565.920    94187550.17847
 15 03 02 07 12  0.0000000  0  9G01G03G04G09G11G17G23G31G32
  20817419.040   109396269.94609  20817420.700    85243845.85549
  20595225.740   108228636.59209  20595226.540    84334001.77949
  22756295.840   119585120.23709  22756296.300    93183201.02747
  22446009.680   117954568.08609  22446010.380    91912656.01048
  22091529.580   116091756.39009  22091528.220    90461096.67747
  22087757.540   116071943.24509  22087755.620    90445656.17448
  20858683.780   109613121.75709  20858680.100    85412803.90048
  23962025.520   125921287.02509  23962024.880    98120481.85746
  23016043.020   120950107.30809  23016043.180    94246830.70747
 15 03 02 07 12 30.0000000  0  9G01G03G04G09G11G17G23G31G32
  20825392.860   109438172.68709  20825394.680    85276497.27049
  20597938.000   108242889.32509  20597938.760    84345107.76948
  22772869.580   119672215.05109  22772869.960    93251066.97747
  22428374.260   117861893.49709  22428374.940    91840442.03348
  22108936.520   116183230.55609  22108935.320    90532375.13947
  22083547.220   116049817.84309  22083545.440    90428415.55248
  20850318.960   109569165.03309  20850315.460    85378551.89848
  23965771.000   125940968.13109  23965770.100    98135817.75946
  23030527.260   121026221.65208  23030527.180    94306140.49547
 15 03 02 07 13  0.0000000  0  9G01G03G04G09G11G17G23G31G32
  20833443.680   109480479.38309  20833445.520    85309463.44949
  20600690.320   108257352.69609  20600691.080    84356377.87748
  22789489.980   119759554.84709  22789490.360    93319123.81146
  22410795.580   117769517.54109  22410796.260    91768460.75448
  22126400.280   116275002.74809  22126399.200    90603885.81547
  22079445.360   116028262.46609  22079443.740    90411619.09448
  20842040.780   109525664.02009  20842037.520    85344654.98748
  23969619.200   125961189.37909  23969618.380    98151574.53247
  23045018.080   121102371.00209  23045017.740    94365477.54446
 15 03 02 07 13 30.0000000  0 10G01G03G04G06G09G11G17G23G31G32
  20841571.400   109523190.08009  20841573.180    85342744.45148
  20603482.660   108272026.25809  20603483.440    84367811.78649
  22806156.800   119847138.47909  22806157.160    93387370.62146
  24665881.700   129620080.70608  24665882.160   101002662.51245
  22393274.140   117677442.16209  22393274.820    91696713.69648
  22143920.520   116367071.22909  22143919.480    90675627.38147
  22075452.300   116007278.46009  22075450.740    90395267.87248
  20833849.560   109482619.47809  20833846.420    85311113.76948
  23973570.060   125981950.80809  23973569.520    98167752.22647
  23059515.340   121178554.72808  23059515.240    94424841.38047
 15 03 02 07 14  0.0000000  0 10G01G03G04G06G09G11G17G23G31G32
  20849777.560   109566313.51109  20849779.340    85376347.05249
  20606316.640   108286918.34009  20606317.400    84379415.96349
  22822871.460   119934973.64609  22822871.780    93455813.44647
  24646884.900   129520255.29808  24646886.120   100924876.36745
  22375811.900   117585678.02609  22375812.680    91625209.16848
  22161498.400   116459442.56109  22161497.300    90747604.93347
  22071569.780   115986875.02009  22071568.160    90379369.02448
  20825747.140   109440040.86009  20825743.940    85277935.60948
  23977625.140   126003260.69908  23977624.880    98184357.30747
  23074020.640   121254780.97208  23074020.660    94484238.33546
 15 03 02 07 14 30.0000000  0 10G01G03G04G06G09G11G17G23G31G32
  20858059.200   109609833.40509  20858060.920    85410258.59249
  20609189.020   108302012.27609  20609189.720    84391177.42749
  22839630.520   120023042.97908  22839630.880    93524438.79747
  24627885.580   129420415.59208  24627887.240   100847079.10945
  22358406.180   117494210.76009  22358407.140    91553935.98448
  22179130.400   116552098.65509  22179129.220    90819804.36847
  22067794.720   115967036.34409  22067793.020    90363910.26648
  20817730.580   109397912.85909  20817727.180    85245108.57348
  23981781.460   126025103.00408  23981781.300    98201377.23647
  23088531.040   121331032.85008  23088531.000    94543655.31746
 15 03 02 07 15  0.0000000  0 10G01G03G04G06G09G11G17G23G31G32
  20866417.220   109653754.49809  20866418.920    85444482.75349
  20612100.620   108317312.34109  20612101.260    84403099.52249
  22856434.780   120111350.44309  22856435.440    93593249.61347
  24608885.200   129320567.97107  24608886.700   100769275.69045
  22341058.260   117403047.02209  22341059.420    91482899.31748
  22196817.020   116645042.50009  22196815.860    90892228.01447
  22064128.020   115947767.73209  22064126.260    90348895.71648
  20809800.780   109356240.50209  20809797.100    85212636.58748
  23986039.960   126047482.24808  23986039.780    98218815.56947
  23103047.000   121407314.67208  23103047.420    94603095.55247
 15 03 02 07 15 30.0000000  0 11G01G03G04G06G09G11G17G20G23G31G32
  20874852.040   109698078.96109  20874853.700    85479021.22849
  20615051.800   108332820.42909  20615052.360    84415183.70848
  22873284.580   120199897.21209  22873285.460    93662246.95846
  24589883.940   129220716.28207  24589885.720   100691469.20145
  22323768.900   117312190.93009  22323770.260    91412102.35848
  22214558.360   116738274.38009  22214557.340    90964876.11847
  22060570.200   115929072.01309  22060568.580    90334327.57448
  24517072.340   128838083.36108  24517071.300   100393308.24744
  20801958.220   109315026.71909  20801954.300    85180521.92948
  23990400.980   126070400.38008  23990401.020    98236673.81746
  23117569.100   121483628.00009  23117569.480    94662560.37546
 15 03 02 07 16  0.0000000  0 11G01G03G04G06G09G11G17G20G23G31G32
  20883362.800   109742802.95009  20883364.440    85513871.01449
  20618041.680   108348532.24409  20618042.200    84427426.64149
  22890179.060   120288678.19309  22890179.960    93731426.80446
  24570881.760   129120858.50108  24570883.800   100613657.84846
  22306537.680   117221640.53609  22306539.160    91341543.60448
  22232353.540   116831788.82409  22232352.700    91037744.37947
  22057120.820   115910946.17909  22057119.420    90320203.49948
  24501527.680   128756392.81708  24501527.180   100329653.15445
  20794202.320   109274268.46709  20794198.260    85148762.23248
  23994863.700   126093853.51108  23994864.100    98254948.95646
  23132096.420   121559968.49408  23132096.460    94722046.37847
 15 03 02 07 16 30.0000000  0 11G01G03G04G06G09G11G17G20G23G31G32
  20891950.960   109787934.02709  20891952.580    85549038.02249
  20621071.720   108364455.05709  20621072.260    84439833.99149
  22907119.560   120377700.11309  22907120.460    93800794.35247
  24551880.120   129021003.76707  24551882.060   100535848.88745
  22289366.440   117131405.36509  22289367.960    91271230.48448
  22250203.760   116925591.53109  22250203.020    91110837.26847
  22053781.600   115893398.37309  22053780.180    90306529.83048
  24485994.080   128674762.11308  24485993.360   100266044.69045
  20786534.560   109233973.79609  20786530.460    85117363.76048
  23999429.580   126117848.86508  23999430.240    98273646.60746
  23146630.160   121636343.26408  23146630.280    94781559.05947
 15 03 02 07 17  0.0000000  0 11G01G03G04G06G09G11G17G20G23G31G32
  20900615.540   109833466.43209  20900617.040    85584517.74648
  20624140.700   108380582.76009  20624141.320    84452400.99449
  22924104.640   120466955.89209  22924105.560    93870344.17247
  24532878.340   128921148.13808  24532880.240   100458039.23645
  22272254.420   117041481.59309  22272255.960    91201160.03248
  22268107.520   117019674.76409  22268106.700    91184148.76247
  22050551.340   115876423.06409  22050549.920    90293302.27548
  24470470.820   128593185.73108  24470470.460   100202478.62645
  20778953.960   109194137.80509  20778949.980    85086322.72248
  24004097.540   126142380.36708  24004098.280    98292762.04745
  23161169.240   121712745.92308  23161169.200    94841093.49247
 15 03 02 07 17 30.0000000  0 11G01G03G04G06G09G11G17G20G23G31G32
  20909356.200   109879398.63409  20909357.620    85620309.01149
  20627248.340   108396913.49309  20627248.960    84465126.21149
  22941133.740   120556443.48909  22941134.740    93940074.60947
  24513876.520   128821291.89107  24513878.600   100380229.10645
  22255201.680   116951869.55409  22255203.200    91131332.48448
  22286064.100   117114035.46809  22286063.060    91257676.45647
  22047429.900   115860019.70909  22047428.480    90280520.39248
  24454957.420   128511662.34507  24454956.720   100138953.79545
  20771460.400   109154759.58609  20771456.560    85055638.37948
  24008867.360   126167446.25308  24008867.720    98312293.91245
  23175713.220   121789174.67008  23175713.120    94900648.26946
 15 03 02 07 18  0.0000000  0 11G01G03G04G06G09G11G17G20G23G31G32
  20918174.080   109925736.91209  20918175.560    85656416.69449
  20630395.720   108413453.29409  20630396.340    84478014.32749
  22958207.840   120646168.15609  22958208.880    94009989.76547
  24494875.960   128721442.99807  24494877.960   100302424.73145
  22238209.880   116862577.53609  22238211.360    91061754.31148
  22304074.120   117208677.87709  22304072.920    91331423.65847
  22044418.620   115844194.91609  22044417.160    90268189.34148
  24439455.260   128430198.47508  24439454.840   100075475.45144
  20764055.340   109115846.22409  20764051.640    85025316.26548
  24013740.180   126193052.70308  24013740.020    98332247.00945
  23190263.200   121865635.31509  23190263.300    94960227.85247
 15 03 02 07 18 30.0000000  0 11G01G03G04G06G09G11G17G20G23G31G32
  20927068.020   109972475.03709  20927069.620    85692835.93248
  20633581.660   108430195.67609  20633582.340    84491060.29949
  22975325.620   120736122.47108  22975326.900    94080083.88146
  24475876.040   128621597.23508  24475877.740   100224622.77645
  22221278.240   116773601.29909  22221279.700    90992422.18848
  22322136.100   117303594.24909  22322134.860    91405384.33547
  22041516.500   115828943.42909  22041514.960    90256304.99648
  24423963.600   128348788.44007  24423963.400   100012038.93244
  20756737.720   109077391.93209  20756734.040    84995351.86948
  24018714.660   126219192.93908  24018714.000    98352616.04644
  23204818.080   121942121.10008  23204818.360    95019827.04246
 15 03 02 07 19  0.0000000  0 11G01G03G04G06G09G11G17G20G23G31G32
  20936038.580   110019615.46409  20936040.240    85729568.65948
  20636806.560   108447142.78709  20636807.320    84504265.80149
  22992487.340   120826308.13409  22992488.760    94150358.24147
  24456877.360   128521758.69708  24456879.220   100146826.49445
  22204407.540   116684945.18709  22204409.080    90923339.52048
  22340250.260   117398785.16409  22340249.120    91479558.93547
  22038724.020   115814268.14909  22038722.460    90244869.64948
  24408482.540   128267434.73907  24408482.480    99948646.44444
  20749508.060   109039399.89609  20749504.420    84965747.67148
  24023791.280   126245869.76408  24023789.980    98373403.23244
  23219377.960   122018634.19608  23219378.080    95079447.54446
 15 03 02 07 19 30.0000000  0 11G01G03G04G06G09G11G17G20G23G31G32
  20945085.720   110067157.98009  20945087.380    85766614.71448
  20640070.340   108464294.18009  20640071.200    84517630.49249
  23009692.940   120916723.80209  23009694.440    94220811.86146
  24437880.500   128421929.21408  24437882.460   100069037.18245
  22187598.120   116596610.93409  22187599.720    90854507.65548
  22358416.300   117494248.51709  22358415.280    91553945.83847
  22036041.160   115800169.07509  22036039.560    90233883.31348
  24393012.460   128186137.69608  24393011.960    99885297.99644
  20742366.420   109001870.64509  20742362.880    84936504.09748
  24028969.880   126273082.33408  24028968.400    98394607.84645
  23233943.000   122095173.98208  23233943.360    95139088.83347
 15 03 02 07 20  0.0000000  0 11G01G03G04G06G09G11G17G20G23G31G32
  20954209.220   110115101.38709  20954210.800    85803973.13949
  20643372.760   108481648.47709  20643373.640    84531153.28449
  23026941.920   121007367.40409  23026943.400    94291443.05146
  24418885.540   128322109.41608  24418887.640    99991255.45645
  22170850.120   116508599.36109  22170851.680    90785927.22148
  22376633.660   117589981.39809  22376632.840    91628542.74347
  22033467.880   115786645.86409  22033466.140    90223345.69748
  24377552.980   128104896.45807  24377552.060    99821993.08244
  20735312.780   108964803.68809  20735309.280    84907620.73548
  24034250.040   126300829.04008  24034248.900    98416228.65245
  23248512.740   122171738.99008  23248513.600    95198749.71646
 15 03 02 07 20 30.0000000  0 11G01G03G04G06G09G11G17G20G23G31G32
  20963408.960   110163445.52709  20963410.460    85841643.83849
  20646713.740   108499205.27209  20646714.600    84544833.88349
  23044234.080   121098237.90309  23044235.580    94362251.08046
  24399892.620   128222300.97408  24399894.640    99913482.62846
  22154163.800   116420912.21809  22154165.320    90717599.60748
  22394902.120   117685982.05709  22394901.360    91703348.33447
  22031004.220   115773698.96009  22031002.420    90213257.15348
  24362104.260   128023711.24508  24362102.720    99758731.79245
  20728347.140   108928199.30209  20728343.740    84879097.83948
  24039631.740   126329109.76508  24039630.940    98438265.57246
  23263087.300   122248328.69909  23263088.020    95258429.92546
 15 03 02 07 21  0.0000000  0 11G01G03G04G06G09G11G17G20G23G31G32
  20972685.420   110212193.43309  20972686.920    85879629.14248
  20650093.820   108516967.44509  20650094.640    84558674.50248
  23061569.780   121189337.12209  23061571.500    94433237.36847
  24380902.900   128122509.00108  24380904.640    99835722.50846
  22137540.060   116333554.47409  22137541.640    90649528.65448
  22413221.800   117782251.60009  22413221.060    91778363.45047
  22028650.860   115761331.42609  22028649.000    90203620.07648
  24346666.680   127942585.29207  24346665.220    99695516.76645
  20721470.380   108892061.26709  20721466.940    84850938.32048
  24045115.440   126357927.11308  24045115.060    98460720.60546
  23277667.260   122324945.79908  23277667.780    95318131.45446
 15 03 02 07 21 30.0000000  0 11G01G03G04G06G09G11G17G20G23G31G32
  20982038.160   110261342.19509  20982039.660    85917926.81148
  20653512.360   108534931.89409  20653513.160    84572672.74148
  23078948.360   121280661.37809  23078950.080    94504398.96046
  24361916.020   128022732.43107  24361917.780    99757974.50845
  22120978.820   116246525.23809  22120980.460    90581713.69648
