     2.11           OBSERVATION DATA    G                   RINEX VERSION / TYPE
SPIDER V4,0,0,3554                      2015 03 21 01:58    PGM / RUN BY / DATE 
CNGR                                                        MARKER NAME         
CNGR                                                        MARKER NUMBER       
                                                            OBSERVER / AGENCY   
496521              LEICA GRX1200+GNSS  8.10/4.007          REC # / TYPE / VERS 
10321004            LEIAR25         NONE                    ANT # / TYPE        
  5218738.7445   688113.1521  3590185.5476                  APPROX POSITION XYZ 
        0.0720        0.0000        0.0000                  ANTENNA: DELTA H/E/N
     1     1                                                WAVELENGTH FACT L1/2
     4    C1    L1    P2    L2                              # / TYPES OF OBSERV 
    30.000                                                  INTERVAL            
  2015    03    02    00    00    0.0000000     GPS         TIME OF FIRST OBS   
  2015    03    02    23    59   30.0000000     GPS         TIME OF LAST OBS    
    16                                                      LEAP SECONDS        
    30                                                      # OF SATELLITES     
   G 1   812   811   812   811                              PRN / # OF OBS      
   G 2   916   916   916   916                              PRN / # OF OBS      
   G 3   861   860   860   860                              PRN / # OF OBS      
   G 4   843   843   843   843                              PRN / # OF OBS      
   G 5   582   582   582   582                              PRN / # OF OBS      
   G 6   809   809   808   808                              PRN / # OF OBS      
   G 7   659   659   658   658                              PRN / # OF OBS      
   G 9   817   817   817   817                              PRN / # OF OBS      
   G10   728   728   728   728                              PRN / # OF OBS      
   G11   777   777   777   777                              PRN / # OF OBS      
   G12   793   793   793   793                              PRN / # OF OBS      
   G13   786   786   786   786                              PRN / # OF OBS      
   G14   891   891   889   889                              PRN / # OF OBS      
   G15   671   671   671   671                              PRN / # OF OBS      
   G16   666   666   666   666                              PRN / # OF OBS      
   G17   943   943   943   943                              PRN / # OF OBS      
   G18   899   895   886   886                              PRN / # OF OBS      
   G19   754   754   754   754                              PRN / # OF OBS      
   G20   748   747   747   747                              PRN / # OF OBS      
   G21   682   681   682   681                              PRN / # OF OBS      
   G22   667   659   652   649                              PRN / # OF OBS      
   G23   761   761   761   761                              PRN / # OF OBS      
   G24   810   810   810   810                              PRN / # OF OBS      
   G25   831   831   830   830                              PRN / # OF OBS      
   G27   810   810   810   810                              PRN / # OF OBS      
   G28   868   868   867   867                              PRN / # OF OBS      
   G29   747   747   747   747                              PRN / # OF OBS      
   G30   713   713   713   713                              PRN / # OF OBS      
   G31   865   864   863   863                              PRN / # OF OBS      
   G32   777   777   777   777                              PRN / # OF OBS      
BIT 2 OF LLI FLAGS DATA COLLECTED UNDER A/S CONDITION       COMMENT             
SNR is mapped to RINEX snr flag value [2-9]                 COMMENT             
Lx:     = 25dBHz -> 1; 26-27dBHz -> 2; 28-31dBHz -> 3       COMMENT             
       32-35dBHz -> 4; 36-38dBHz -> 5; 39-41dBHz -> 6       COMMENT             
       42-44dBHz -> 7; 45-48dBHz -> 8; >=49dBHz -> 9        COMMENT             
                                                            END OF HEADER       
 15 03 02 00 00  0.0000000  0  7G16G18G21G22G27G29G31
  21650335.920   113773291.59809  21650332.580    88654503.08548
  22168314.640   116495362.80409  22168311.680    90775639.88547
  21392807.040   112420049.32409  21392803.320    87600045.46948
  23449410.460   123227484.18109  23449410.580    96021422.94047
  22928975.380   120492599.88208  22928975.180    93890339.34547
  23995801.960   126099148.94508  23995801.120    98259235.82846
  23248461.860   122171455.13609  23248462.480    95198523.08647
 15 03 02 00 00 30.0000000  0  7G16G18G21G22G27G29G31
  21637098.540   113703728.57809  21637095.180    88600298.14348
  22158088.400   116441623.98709  22158085.580    90733765.54947
  21401053.320   112463383.62909  21401049.600    87633812.47648
  23431499.900   123133364.04408  23431500.020    95948082.55346
  22916720.560   120428200.54408  22916720.280    93840158.06647
  24009295.500   126170058.01008  24009294.780    98314489.59246
  23265709.400   122262091.26908  23265710.120    95269148.33647
 15 03 02 00 01  0.0000000  0  7G16G18G21G22G27G29G31
  21623918.260   113634465.63909  21623914.940    88546327.02848
  22147929.300   116388237.94509  22147926.500    90692166.08147
  21409352.540   112506996.45309  21409348.840    87667796.50148
  23413602.920   123039315.45708  23413602.940    95874798.19646
  22904480.180   120363877.31808  22904479.920    93790036.10047
  24022796.160   126241003.72708  24022795.200    98369771.94446
  23282981.400   122352855.43708  23282982.140    95339873.27647
 15 03 02 00 01 30.0000000  0  7G16G18G21G22G27G29G31
  21610795.760   113565506.27109  21610792.440    88492592.45348
  22137838.040   116335208.47809  22137835.280    90650844.46147
  21417704.580   112550887.07609  21417700.920    87701996.98148
  23395720.140   122945341.75508  23395720.120    95801571.89545
  22892254.500   120299631.60808  22892254.380    93739974.51647
  24036304.040   126311987.42208  24036302.940    98425083.88546
  23300277.540   122443745.86809  23300278.300    95410696.56747
 15 03 02 00 02  0.0000000  0  7G16G18G21G22G27G29G31
  21597731.460   113496852.97709  21597728.180    88439096.40048
  22127815.100   116282538.01709  22127812.460    90609802.61547
  21426109.320   112595054.43308  21426105.660    87736413.11948
  23377852.420   122851447.05409  23377852.540    95728407.53747
  22880043.720   120235463.76308  22880043.740    93689973.63647
  24049819.240   126383009.69908  24049818.140    98480425.88146
  23317597.320   122534760.34508  23317598.140    95481616.59047
 15 03 02 00 02 30.0000000  0  7G16G18G21G22G27G29G31
  21584725.460   113428506.05609  21584722.220    88385839.05248
  22117860.500   116230226.47409  22117857.920    90569040.41947
  21434565.920   112639494.39509  21434562.240    87771041.66148
  23359999.800   122757631.41208  23359999.780    95655305.03646
  22867847.440   120171371.56608  22867847.440    93640031.67548
  24063341.200   126454068.30508  24063340.060    98535796.19846
  23334939.680   122625893.34908  23334940.540    95552629.00347
 15 03 02 00 03  0.0000000  0  7G16G18G21G22G27G29G31
  21571778.480   113360469.42009  21571775.240    88332823.49948
  22107974.960   116178277.75309  22107972.360    90528560.93947
  21443074.280   112684206.55408  21443070.640    87805882.30648
  23342162.800   122663898.21209  23342162.600    95582266.50846
  22855665.880   120107356.83608  22855665.780    93590150.09647
  24076870.380   126525165.04308  24076869.260    98591196.24246
  23352304.340   122717143.47108  23352305.200    95623732.65446
 15 03 02 00 03 30.0000000  0  7G16G18G21G22G27G29G31
  21558890.880   113292744.59809  21558887.660    88280050.91548
  22098158.640   116126692.85309  22098156.180    90488364.97947
  21451634.060   112729189.04508  21451630.500    87840933.61148
  23324341.880   122570249.94108  23324341.600    95509294.14247
  22843498.900   120043418.80708  22843498.660    93540328.27648
  24090406.780   126596299.34208  24090405.840    98646625.53146
  23369690.540   122808506.98708  23369691.380    95694924.68147
 15 03 02 00 04  0.0000000  0  7G16G18G21G22G27G29G31
  21546062.940   113225333.28209  21546059.720    88227522.62448
  22088411.780   116075473.05509  22088409.420    90448453.49147
  21460244.820   112774439.40709  21460241.360    87876193.63548
  23306537.520   122476688.61109  23306537.120    95436389.52147
  22831346.380   119979556.77808  22831346.120    93490565.68747
  24103950.240   126667470.37908  24103949.420    98702083.43546
  23387097.600   122899980.21508  23387098.460    95766202.16346
 15 03 02 00 04 30.0000000  0  7G16G18G21G22G27G29G31
  21533295.400   113158239.19609  21533292.100    88175241.52348
  22078735.040   116024621.88009  22078732.780    90408829.26847
  21468906.440   112819956.71409  21468903.020    87911661.67448
  23288750.520   122383218.75108  23288750.040    95363556.44146
  22819208.600   119915772.31409  22819208.340    93440863.53747
  24117501.040   126738679.90608  24117500.180    98757571.39646
  23404525.140   122991561.15308  23404526.040    95837563.56047
 15 03 02 00 05  0.0000000  0  7G16G18G21G22G27G29G31
  21520588.060   113091461.61609  21520584.760    88123207.05548
  22069128.380   115974138.90009  22069126.020    90369491.91947
  21477618.020   112865736.41808  21477614.600    87947334.17348
  23270980.840   122289840.95909  23270980.360    95290795.80747
  22807085.120   119852062.65209  22807084.760    93391219.65947
  24131058.840   126809924.97408  24131057.780    98813086.99846
  23421972.200   123083244.58008  23421973.140    95909004.75947
 15 03 02 00 05 30.0000000  0  7G16G18G21G22G27G29G31
  21507942.380   113025007.86909  21507939.040    88071424.91348
  22059593.100   115924030.97909  22059590.640    90330446.84047
  21486380.280   112911782.22109  21486376.760    87983214.00548
  23253229.580   122196561.04508  23253228.860    95218110.94446
  22794976.820   119788432.85608  22794976.320    93341638.02947
  24144624.400   126881210.79908  24144622.980    98868634.34546
  23439439.200   123175032.40308  23439440.180    95980527.29047
 15 03 02 00 06  0.0000000  0  7G16G18G21G22G27G29G31
  21495358.720   112958879.81709  21495355.320    88019896.56248
  22050129.460   115874299.41209  22050126.940    90291695.00647
  21495192.740   112958091.50609  21495189.100    88019299.16948
  23235497.460   122103382.03209  23235496.720    95145504.95547
  22782883.540   119724882.59608  22782883.020    93292118.36248
  24158197.380   126952536.75908  24158196.000    98924213.01646
  23456925.420   123266921.03909  23456926.480    96052128.36546
 15 03 02 00 06 30.0000000  0  7G16G18G21G22G27G29G31
  21482837.420   112893079.73909  21482833.960    87968623.78448
  22040737.920   115824946.76209  22040735.420    90253238.45447
  21504055.080   113004662.79709  21504051.300    88055588.48648
  23217784.900   122010306.01609  23217784.040    95072978.94546
  22770805.400   119661411.90708  22770804.880    93242660.72347
  24171777.940   127023903.22608  24171776.820    98979823.19446
  23474430.260   123358907.55008  23474431.340    96123805.70347
 15 03 02 00 07  0.0000000  0  7G16G18G21G22G27G29G31
  21470378.200   112827606.03309  21470374.720    87917605.31648
  22031417.960   115775970.32509  22031415.560    90215075.03747
  21512966.140   113051489.99509  21512962.220    88092077.21048
  23200091.840   121917331.78408  23200090.840    95000531.88146
  22758741.660   119598016.86208  22758741.160    93193262.00347
  24185365.480   127095306.35608  24185364.540    99035461.93246
  23491952.440   123450984.63108  23491953.400    96195553.39346
 15 03 02 00 07 30.0000000  0  7G16G18G21G22G27G29G31
  21457981.880   112762463.44909  21457978.520    87866844.87648
  22022170.580   115727375.10709  22022168.200    90177208.68547
  21521925.900   113098573.50208  21521921.920    88128765.66148
  23182419.220   121824464.55308  23182418.260    94928168.18747
  22746692.820   119534700.07208  22746692.360    93143924.26347
  24198960.500   127166748.42408  24198959.300    99091131.05746
  23509491.800   123543152.09908  23509492.800    96267371.62447
 15 03 02 00 08  0.0000000  0  7G16G18G21G22G27G29G31
  21445648.760   112697653.01509  21445645.500    87816343.25148
  22012995.860   115679161.72309  22012993.480    90139639.85147
  21530933.900   113145910.84309  21530930.000    88165651.90748
  23164767.380   121731705.85908  23164766.420    94855889.03047
  22734658.600   119471460.38408  22734658.160    93094646.61747
  24212562.880   127238228.62808  24212561.420    99146829.91146
  23527047.560   123635405.77608  23527048.600    96339257.04247
 15 03 02 00 08 30.0000000  0  7G16G18G21G22G27G29G31
  21433379.340   112633177.40809  21433376.120    87766102.52548
  22003894.320   115631332.77309  22003891.920    90102370.59347
  21539990.000   113193501.32008  21539986.240    88202735.39348
  23147136.980   121639058.98008  23147135.920    94783696.98847
  22722639.180   119408298.39408  22722638.660    93045429.49447
  24226172.600   127309747.46208  24226171.280    99202558.81346
  23544619.240   123727743.43908  23544620.400    96411207.93046
 15 03 02 00 09  0.0000000  0  7G16G18G21G22G27G29G31
  21421174.620   112569041.29509  21421171.360    87716126.34348
  21994866.700   115583892.25009  21994864.140    90065403.99447
  21549094.060   113241344.05308  21549090.460    88240015.44548
  23129528.880   121546528.89308  23129527.820    94711595.93147
  22710635.040   119345216.41008  22710634.480    92996274.71447
  24239789.960   127381306.97208  24239788.520    99258319.47246
  23562206.680   123820163.97608  23562208.060    96483223.39447
 15 03 02 00 09 30.0000000  0  7G16G18G21G22G27G29G31
  21409034.480   112505244.09509  21409031.080    87666414.23948
  21985912.840   115536839.35609  21985910.260    90028739.44647
  21558245.440   113289435.44209  21558241.980    88277489.25948
  23111943.000   121454115.47709  23111941.940    94639585.76747
  22698645.700   119282211.80309  22698645.120    92947180.23947
  24253414.600   127452904.68908  24253413.160    99314109.86646
  23579808.840   123912661.87308  23579810.300    96555299.24547
 15 03 02 00 10  0.0000000  0  7G16G18G21G22G27G29G31
  21396959.560   112441789.64509  21396956.120    87616969.21748
  21977033.440   115490177.74109  21977030.840    89992379.78347
  21567444.040   113337775.04209  21567440.760    88315156.48248
  23094380.180   121361822.94909  23094379.020    94567669.78447
  22686671.480   119219286.36309  22686670.860    92898147.45247
  24267046.800   127524542.66208  24267045.620    99369931.60246
  23597425.400   124005235.66808  23597426.960    96627434.26946
 15 03 02 00 10 30.0000000  0  7G16G18G21G22G27G29G31
  21384950.600   112378681.74809  21384947.060    87567794.24248
  21968229.020   115443910.54109  21968226.420    89956327.46047
  21576689.840   113386362.30108  21576686.560    88353016.68648
  23076841.240   121269655.87809  23076839.980    94495851.56147
  22674712.600   119156441.74408  22674711.980    92849177.64347
  24280686.880   127596222.28608  24280685.540    99425785.84946
  23615056.140   124097884.09509  23615057.760    96699627.39646
 15 03 02 00 11  0.0000000  0  7G16G18G21G22G27G29G31
  21373007.240   112315919.05409  21373003.680    87518888.26148
  21959499.360   115398036.02509  21959496.760    89920581.12847
  21585981.800   113435191.84109  21585978.460    88391065.68648
  23059325.880   121177612.99108  23059324.520    94424130.08547
  22662768.300   119093674.09708  22662767.700    92800267.81547
  24294334.180   127667939.64408  24294332.840    99481669.47845
  23632699.780   124190600.22108  23632701.400    96771873.37346
 15 03 02 00 11 30.0000000  0  7G16G18G21G22G27G29G31
  21361131.300   112253510.61809  21361127.780    87470258.31148
  21950846.080   115352562.69009  21950843.420    89885147.38547
  21595320.980   113484269.34209  21595317.580    88429307.88748
  23041835.900   121085703.72709  23041834.400    94352512.73447
  22650839.940   119030990.46008  22650839.480    92751423.43947
  24307989.880   127739701.49708  24307988.740    99537587.76146
  23650356.920   124283387.65708  23650358.640    96844174.89347
 15 03 02 00 12  0.0000000  0  7G16G18G21G22G27G29G31
  21349321.540   112191449.97909  21349318.020    87421899.38648
  21942267.860   115307483.82709  21942265.160    89850021.04947
  21604705.200   113533583.56209  21604701.720    88467734.55848
  23024370.180   120993922.34309  23024368.680    94280995.03147
  22638926.020   118968382.42708  22638925.600    92702637.98447
  24321652.560   127811499.88508  24321651.600    99593534.51546
  23668025.460   124376235.12408  23668027.280    96916523.17947
 15 03 02 00 12 30.0000000  0  7G16G18G21G22G27G29G31
  21337579.540   112129745.23109  21337576.000    87373817.76048
  21933766.260   115262807.39609  21933763.420    89815208.27547
  21614135.300   113583138.87509  21614131.740    88506349.09548
  23006930.340   120902277.20709  23006928.820    94209583.49747
  22627027.620   118905856.03408  22627027.160    92653916.13747
  24335323.380   127883340.92608  24335322.440    99649514.50146
  23685706.000   124469145.70408  23685707.960    96988920.67146
 15 03 02 00 13  0.0000000  0  7G16G18G21G22G27G29G31
  21325904.960   112068394.86809  21325901.340    87326012.28948
  21925340.820   115218531.26809  21925337.760    89780707.42448
  21623610.200   113632929.52709  21623606.520    88545147.01048
  22989516.300   120810767.07109  22989514.720    94138277.14347
  22615144.040   118843407.43908  22615143.500    92605254.92747
  24349001.520   127955220.40708  24349000.340    99705524.49945
  23703397.180   124562112.37008  23703399.380    97061361.91946
 15 03 02 00 13 30.0000000  0  7G16G18G21G22G27G29G31
  21314298.540   112007402.77709  21314294.920    87278485.99448
  21916992.240   115174658.96109  21916989.080    89746521.26647
  21633129.980   113682955.83809  21633126.220    88584128.55948
  22972128.820   120719396.25609  22972127.140    94067079.34147
  22603275.660   118781038.56808  22603275.060    92556655.83248
  24362687.500   128027140.37308  24362686.220    99761566.04946
  23721098.780   124655133.85308  23721101.200    97133845.84546
 15 03 02 00 14  0.0000000  0  7G16G18G21G22G27G29G31
  21302760.920   111946772.47709  21302757.380    87231241.60648
  21908721.100   115131193.56209  21908717.800    89712652.15047
  21642694.420   113733216.76809  21642690.600    88623292.91448
  22954768.680   120628169.00309  22954766.860    93995993.39547
  22591422.700   118718750.80608  22591422.060    92508119.93048
  24376381.420   128099102.20608  24376380.180    99817640.12946
  23738810.540   124748208.58208  23738813.020    97206371.29646
 15 03 02 00 14 30.0000000  0  7G16G18G21G22G27G29G31
  21291292.320   111886504.81109  21291288.800    87184279.80748
  21900527.460   115088135.23809  21900524.000    89679100.24747
  21652303.000   113783709.76909  21652299.140    88662638.11848
  22937436.120   120537086.40509  22937434.060    93925020.16347
  22579584.880   118656542.80008  22579584.220    92459646.18547
  24390083.080   128171104.15908  24390081.600    99873745.53746
  23756531.600   124841332.09008  23756534.180    97278934.85446
 15 03 02 00 15  0.0000000  0  7G16G18G21G22G27G29G31
  21279893.360   111826603.33709  21279889.940    87137603.33448
  21892411.840   115045487.25409  21892408.280    89645868.07847
  21661955.500   113834433.62309  21661951.560    88702163.19148
  22920131.860   120446152.37809  22920129.620    93854162.71147
  22567762.480   118594416.07308  22567761.860    92411235.75948
  24403792.680   128243147.86308  24403790.920    99929883.45745
  23774261.580   124934502.83108  23774264.220    97351535.22946
 15 03 02 00 15 30.0000000  0  7G16G18G21G22G27G29G31
  21268564.520   111767070.03609  21268561.140    87091213.76348
  21884374.420   115003250.75309  21884370.880    89612956.56247
  21671651.540   113885386.64409  21671647.640    88741866.84748
  22902856.400   120355369.60209  22902853.980    93783423.11047
  22555955.520   118532370.47408  22555955.060    92362888.56948
  24417510.180   128315233.21808  24417508.220    99986053.85145
  23791999.820   125027716.97408  23792002.500    97424169.43946
 15 03 02 00 16  0.0000000  0  7G16G18G21G22G27G29G31
  21257306.000   111707906.10109  21257302.600    87045112.00048
  21876415.380   114961426.70109  21876412.000    89580366.43447
  21681390.720   113936566.23809  21681386.820    88781747.04948
  22885609.960   120264739.73309  22885607.440    93712802.65347
  22544163.900   118470405.47409  22544163.580    92314604.17848
  24431235.360   128387359.59408  24431233.380   100042256.17346
  23809745.700   125120971.33808  23809748.420    97496834.92646
 15 03 02 00 16 30.0000000  0  7G16G18G21G22G27G29G31
  21246118.840   111649117.03109  21246115.400    86999302.33548
  21868535.820   114920020.42109  21868532.540    89548101.84247
  21691173.260   113987974.03809  21691169.400    88821805.07748
  22868393.720   120174268.72509  22868391.240    93642305.97847
  22532388.240   118408524.36508  22532388.020    92266385.15548
  24444968.880   128459530.20908  24444966.940   100098493.01245
  23827499.320   125214266.35308  23827502.140    97569532.13546
 15 03 02 00 17  0.0000000  0  7G16G18G21G22G27G29G31
  21235002.580   111590700.68009  21234999.180    86953783.10248
  21860735.200   114879028.59309  21860731.920    89516160.19047
  21700997.940   114039603.23709  21700994.080    88862035.62248
  22851207.360   120083954.59509  22851204.740    93571931.52847
  22520627.780   118346722.78009  22520627.620    92218228.09448
  24458709.920   128531740.65308  24458708.200   100154760.83146
  23845259.180   125307594.28008  23845261.980    97642255.01145
 15 03 02 00 17 30.0000000  0  7G16G18G21G22G27G29G31
  21223957.800   111532660.02209  21223954.380    86908556.62448
  21853014.100   114838454.19409  21853010.860    89484543.81647
  21710864.600   114091453.13509  21710860.780    88902438.14448
  22834051.580   119993801.16608  22834048.860    93501682.29847
  22508882.740   118285001.78209  22508882.520    92170133.82848
  24472458.780   128603991.96208  24472457.120   100211060.56145
  23863024.880   125400952.88808  23863027.780    97715001.76246
 15 03 02 00 18  0.0000000  0  7G16G18G21G22G27G29G31
  21212985.740   111475001.54709  21212982.320    86863627.93848
  21845373.600   114798303.16609  21845370.400    89453257.33448
  21720773.800   114143526.72209  21720770.040    88943014.96848
  22816927.660   119903815.35009  22816924.900    93431563.70347
  22497153.900   118223365.95708  22497153.580    92122105.93948
  24486216.280   128676288.67508  24486214.720   100267395.62746
  23880796.680   125494343.87308  23880799.740    97787773.81246
 15 03 02 00 18 30.0000000  0  7G16G18G21G22G27G29G31
  21202085.920   111417722.65609  21202082.520    86818995.03248
  21837813.080   114758572.53109  21837809.960    89422298.42048
  21730724.200   114195816.93609  21730720.540    88983760.58648
  22799835.180   119813994.88909  22799832.400    93361573.90747
  22485440.380   118161810.66308  22485439.960    92074140.77748
  24499981.580   128748625.98008  24499980.000   100323762.31145
  23898573.140   125587759.11008  23898576.380    97860564.65046
 15 03 02 00 19  0.0000000  0  7G16G18G21G22G27G29G31
  21191259.300   111360828.29209  21191255.880    86774661.77548
  21830333.300   114719266.07909  21830330.160    89391670.05548
  21740716.060   114248324.84909  21740712.460    89024675.85748
  22782775.160   119724344.80109  22782772.340    93291716.89247
  22473742.580   118100338.55308  22473742.080    92026240.46748
  24513755.260   128821006.37408  24513753.500   100380162.58146
  23916354.220   125681198.52008  23916357.600    97933374.28746
 15 03 02 00 19 30.0000000  0  7G16G18G21G22G27G29G31
  21180506.160   111304319.90209  21180502.700    86730629.25848
  21822934.340   114680384.26109  21822931.180    89361372.56148
  21750748.800   114301047.52909  21750745.260    89065758.46548
  22765748.040   119634867.45909  22765745.260    93221994.45647
  22462060.420   118038949.18108  22462060.000    91978404.60548
  24527537.080   128893429.25208  24527535.180   100436595.95245
  23934139.260   125774658.76608  23934142.640    98006200.24446
 15 03 02 00 20  0.0000000  0  7G16G18G21G22G27G29G31
  21169826.580   111248197.94209  21169823.020    86686897.86848
  21815616.320   114641927.90909  21815613.160    89331406.59947
  21760821.860   114353981.93009  21760818.360    89107006.05448
  22748754.000   119545564.00609  22748751.160    93152407.53447
  22450393.820   117977641.30509  22450393.420    91930632.25048
  24541326.680   128965893.18308  24541324.720   100493061.31346
  23951927.420   125868135.27908  23951930.820    98079038.85445
 15 03 02 00 20 30.0000000  0  7G16G18G21G22G27G29G31
  21159221.580   111192468.00409  21159217.920    86643471.93948
  21808380.100   114603901.56909  21808376.960    89301775.70947
  21770935.580   114407129.92409  21770932.120    89148420.06748
  22731794.120   119456440.14409  22731791.260    93082960.53547
  22438743.560   117916418.40209  22438743.140    91882926.09648
  24555124.780   129038401.90008  24555122.800   100549561.56745
  23969718.700   125961628.08808  23969722.260    98151890.12146
 15 03 02 00 21  0.0000000  0  6G16G18G21G22G27G31
  21148697.720   111137164.54709  21148693.940    86600378.34448
  21801232.240   114566339.44509  21801229.020    89272506.55847
  21781095.780   114460521.95609  21781092.360    89190024.26148
  22714875.180   119367531.53409  22714872.420    93013681.30347
  22427115.800   117855313.34109  22427115.300    91835311.77748
  23987518.820   126055167.23608  23987522.520    98224777.56646
 15 03 02 00 21 30.0000000  0  6G16G18G21G22G27G31
  21138242.160   111082220.31609  21138238.340    86557564.66848
  21794159.800   114529173.66109  21794156.480    89243546.23447
  21791288.820   114514086.42309  21791285.400    89231762.79748
  22697984.380   119278770.70309  22697981.700    92944517.19247
  22415497.200   117794256.41109  22415496.640    91787734.95948
  24005313.880   126148679.78308  24005317.560    98297644.26346
 15 03 02 00 22  0.0000000  0  6G16G18G21G22G27G31
  21127862.440   111027674.48209  21127858.580    86515061.42748
  21787170.060   114492442.38209  21787166.660    89214924.49347
  21801521.400   114567858.56509  21801517.920    89273663.18548
  22681129.320   119190197.41209  22681126.620    92875499.21447
  22403894.720   117733284.98509  22403894.120    91740224.78648
  24023110.400   126242199.92608  24023114.120    98370516.74946
 15 03 02 00 22 30.0000000  0  6G16G18G21G22G27G31
  21117558.760   110973528.28609  21117554.900    86472869.58848
  21780263.240   114456146.69809  21780259.760    89186642.17247
  21811793.100   114621836.28209  21811789.580    89315723.75348
  22664310.300   119101813.41709  22664307.580    92806628.72447
  22392308.280   117672398.48409  22392307.760    91692780.77948
  24040907.740   126335724.50108  24040911.440    98443392.99745
 15 03 02 00 23  0.0000000  0  6G16G18G21G22G27G31
  21107332.180   110919787.08009  21107328.340    86430993.31748
  21773440.060   114420290.67709  21773436.540    89158702.44847
  21822104.140   114676020.97609  21822100.540    89357945.59748
  22647528.460   119013624.62009  22647525.700    92737910.34747
  22380738.620   117611600.30108  22380738.200    91645405.59048
  24058705.820   126429253.19408  24058709.560    98516272.41446
 15 03 02 00 23 30.0000000  0  6G16G18G21G22G27G31
  21097181.920   110866446.96509  21097178.140    86389429.59148
  21766699.820   114384870.50509  21766696.280    89131102.33548
  21832453.040   114730404.48509  21832449.240    89400322.34548
  22630783.180   118925627.98709  22630780.420    92669341.69647
  22369184.760   117550884.83508  22369184.340    91598094.85048
  24076503.000   126522777.49108  24076506.880    98589148.41646
 15 03 02 00 24  0.0000000  0  6G16G18G21G22G27G31
  21087108.660   110813511.48709  21087104.960    86348181.16948
  21760042.940   114349888.51409  21760039.420    89103843.66547
  21842839.640   114784986.36809  21842835.760    89442853.66648
  22614075.140   118837827.07509  22614072.360    92600925.55947
  22357646.900   117490253.45809  22357646.520    91550849.62948
  24094298.980   126616295.76608  24094303.040    98662019.77846
 15 03 02 00 24 30.0000000  0  7G16G18G19G21G22G27G31
  21077102.720   110760929.76509  21077099.060    86307208.40248
  21753459.620   114315293.17909  21753456.160    89076886.29847
  24520721.840   128857259.99904  24520713.860   100408237.44544
  21853253.520   114839711.79509  21853249.660    89485496.85448
  22597394.760   118750171.86709  22597392.080    92532622.96747
  22346115.100   117429653.60308  22346114.820    91503628.99148
  24112083.080   126709751.87208  24112087.200    98734842.55846
 15 03 02 00 25  0.0000000  0  7G16G18G19G21G22G27G31
  21067189.760   110708836.73209  21067186.100    86266616.43148
  21746975.480   114281219.02209  21746972.060    89050335.04847
  24505972.560   128779751.88604  24505970.680   100347846.61344
  21863719.720   114894712.25709  21863715.960    89528354.36148
  22580767.900   118662797.83709  22580765.220    92464539.46747
  22334614.720   117369218.41709  22334614.380    91456536.66148
  24129880.180   126803276.16308  24129884.240    98807718.55246
 15 03 02 00 25 30.0000000  0  7G16G18G19G21G22G27G31
  21057350.860   110657133.01909  21057347.200    86226327.82348
  21740571.560   114247566.08509  21740568.140    89024111.99447
  24491226.900   128702262.95904  24491223.380   100287465.71144
  21874218.660   114949884.79309  21874214.960    89571345.95148
  22564175.780   118575606.30509  22564173.100    92396598.14847
  22323126.440   117308846.72009  22323126.000    91409493.78448
  24147670.420   126896764.06208  24147674.460    98880566.08046
 15 03 02 00 26  0.0000000  0  7G16G18G19G21G22G27G31
  21047589.880   110605838.98309  21047586.240    86186358.44448
  21734251.420   114214353.39309  21734248.100    88998232.00448
  24476488.320   128624811.35905  24476482.780   100227102.86943
  21884753.520   115005245.78509  21884749.800    89614484.37648
  22547622.220   118488617.86309  22547619.660    92328815.09747
  22311653.720   117248556.92709  22311653.240    91362514.74848
  24165456.720   126990231.08108  24165460.760    98953397.35046
 15 03 02 00 26 30.0000000  0  7G16G18G19G21G22G27G31
  21037906.140   110554951.02209  21037902.520    86146705.50048
  21728014.340   114181577.45909  21728011.100    88972692.34948
  24461756.000   128547391.72005  24461751.220   100166775.92444
  21895322.880   115060787.58709  21895319.000    89657763.71148
  22531106.740   118401829.49909  22531104.140    92261187.93747
  22300195.540   117188343.59309  22300195.000    91315595.28548
  24183237.360   127083668.36008  24183241.320    99026205.37646
 15 03 02 00 27  0.0000000  0  7G16G18G19G21G22G27G31
  21028305.580   110504500.09109  21028301.960    86107393.07248
  21721866.060   114149268.00009  21721862.860    88947516.16248
  24447035.160   128470032.49506  24447030.320   100106496.10144
  21905931.840   115116537.29109  21905927.740    89701205.03148
  22514635.300   118315272.78809  22514632.820    92193741.28947
  22288757.440   117128235.94609  22288756.900    91268758.16748
  24201017.360   127177102.09008  24201021.500    99099010.53346
 15 03 02 00 27 30.0000000  0  7G16G18G19G21G22G27G31
  21018785.140   110454469.92009  21018781.480    86068408.52548
  21715803.340   114117408.06809  21715800.140    88922690.27448
  24432322.220   128392715.52605  24432317.760   100046249.11644
  21916576.500   115172474.83709  21916572.260    89744792.72748
  22498205.080   118228932.11409  22498202.500    92126462.97647
  22277336.040   117068215.97609  22277335.480    91221989.37848
  24218792.660   127270511.18908  24218796.960    99171796.47846
 15 03 02 00 28  0.0000000  0  7G16G18G19G21G22G27G31
  21009345.480   110404863.94809  21009341.820    86029754.52348
  21709826.760   114086000.73109  21709823.540    88898217.05748
  24417617.620   128315442.19005  24417612.820    99986036.17845
  21927256.720   115228599.61909  21927252.440    89788526.32748
  22481816.760   118142811.24009  22481814.000    92059355.94547
  22265931.640   117008285.27609  22265931.040    91175290.15248
  24236563.100   127363894.29108  24236567.540    99244562.17345
 15 03 02 00 28 30.0000000  0  7G16G18G19G21G22G27G31
  20999986.480   110355681.70609  20999982.820    85991430.69648
  21703935.940   114055044.19709  21703932.740    88874095.10748
  24402920.780   128238209.74505  24402916.400    99925855.13245
  21937971.740   115284907.61109  21937967.500    89832402.68048
  22465470.380   118056910.37009  22465467.440    91992420.32547
  22254543.760   116948441.65209  22254543.120    91128658.76748
  24254327.560   127457245.51608  24254331.920    99317302.88046
 15 03 02 00 29  0.0000000  0  7G16G18G19G21G22G27G31
  20990709.280   110306929.38409  20990705.660    85953441.87348
  21698131.940   114024544.06609  21698128.660    88850328.79348
  24388232.480   128161022.74405  24388228.460    99865709.41144
  21948722.140   115341401.56209  21948717.980    89876423.93148
  22449167.240   117971236.53609  22449164.000    91925661.62947
  22243173.220   116888689.58909  22243172.680    91082098.73848
  24272086.300   127550566.61908  24272090.840    99390020.04346
 15 03 02 00 29 30.0000000  0  7G16G18G19G21G22G27G31
  20981513.840   110258607.11009  20981510.340    85915788.15848
  21692414.640   113994499.83809  21692411.340    88826917.73348
  24373552.300   128083878.83405  24373548.100    99805597.36744
  21959507.260   115398077.92409  21959503.140    89920587.34448
  22432907.360   117885790.22909  22432903.880    91859080.21247
  22231819.820   116829027.49509  22231819.340    91035608.80948
  24289838.520   127643852.98208  24289843.180    99462710.08046
 15 03 02 00 30  0.0000000  0  7G16G18G19G21G22G27G31
  20972399.580   110210711.78609  20972396.140    85878467.13048
  21686783.360   113964907.91909  21686780.120    88803859.11748
  24358879.540   128006772.92506  24358875.000    99745514.91944
  21970325.740   115454929.44109  21970321.580    89964887.22148
  22416690.280   117800569.07209  22416686.760    91792674.24647
  22220482.660   116769450.65309  22220482.200    90989185.30448
  24307582.720   127737097.06408  24307587.400    99535367.36145
 15 03 02 00 30 30.0000000  0  7G16G18G19G21G22G27G31
  20963367.680   110163249.58809  20963364.380    85841483.61048
  21681239.100   113935773.31109  21681235.820    88781156.84048
  24344214.880   127929709.62206  24344210.800    99685465.65345
  21981178.040   115511958.89409  21981173.920    90009325.75448
  22400517.260   117715579.70909  22400513.640    91726448.88547
  22209162.680   116709963.62809  22209162.140    90942831.78648
  24325319.060   127830300.08208  24325324.020    99607992.67346
 15 03 02 00 31  0.0000000  0  7G16G18G19G21G22G27G31
  20954419.540   110116227.47809  20954416.360    85804843.00248
  21675783.080   113907102.22409  21675779.780    88758815.75448
  24329559.140   127852693.53506  24329555.320    99625453.13744
  21992064.700   115569169.09109  21992060.600    90053905.13447
  22384389.760   117630829.61609  22384386.120    91660409.95847
  22197860.740   116650571.51209  22197860.120    90896552.21548
  24343047.940   127923463.98908  24343052.780    99680587.66345
 15 03 02 00 31 30.0000000  0  7G16G18G19G21G22G27G31
  20945554.960   110069644.16909  20945551.840    85768544.32248
  21670414.800   113878892.06609  21670411.500    88736833.84348
  24314911.780   127775721.28106  24314907.920    99565474.79544
  22002984.760   115626555.13409  22002980.800    90098621.53048
  22368307.700   117546318.40409  22368304.080    91594557.20147
  22186576.220   116591271.37409  22186575.620    90850344.33448
  24360768.200   128016582.62108  24360772.780    99753147.49746
 15 03 02 00 32  0.0000000  0  7G16G18G19G21G22G27G31
  20936773.600   110023498.11809  20936770.480    85732586.36248
  21665133.880   113851140.98909  21665130.600    88715209.64948
  24300272.260   127698789.21206  24300268.160    99505527.75745
  22013937.280   115684111.67209  22013933.480    90143470.77048
  22352270.780   117462044.68009  22352267.120    91528889.48047
  22175308.540   116532059.99109  22175308.100    90804205.60648
  24378478.540   128109649.94308  24378483.280    99825667.41245
 15 03 02 00 32 30.0000000  0  7G16G18G19G21G22G27G31
  20928076.320   109977793.51109  20928073.120    85696972.37748
  21659941.080   113823852.63309  21659937.780    88693946.01247
  24285640.820   127621899.88707  24285636.500    99445614.04144
  22024922.500   115741839.62709  22024918.720    90188453.58348
  22336280.000   117378013.57809  22336276.480    91463410.82547
  22164058.320   116472939.98609  22164057.960    90758138.09048
  24396178.940   128202665.14208  24396183.560    99898146.68646
 15 03 02 00 33  0.0000000  0  7G16G18G19G21G22G27G31
  20919464.460   109932537.80309  20919461.200    85661708.19248
  21654837.580   113797033.47209  21654834.300    88673047.99648
  24271018.420   127545058.96406  24271013.940    99385738.00944
  22035941.100   115799743.05709  22035937.400    90233573.13848
  22320336.940   117294233.27509  22320333.480    91398127.59148
  22152826.760   116413917.43509  22152826.340    90712146.51048
  24413869.860   128295630.94008  24413874.640    99970587.46344
 15 03 02 00 33 30.0000000  0  7G16G18G19G21G22G27G31
  20910936.780   109887724.49409  20910933.520    85626788.73048
  21649821.940   113770675.81709  21649818.580    88652509.58648
  24256403.540   127468258.16506  24256399.140    99325893.24944
  22046991.060   115857811.31009  22046987.460    90278821.12448
  22304440.440   117210697.94109  22304437.100    91333035.23747
  22141612.200   116354984.00109  22141611.740    90666224.36548
  24431549.100   128388536.05208  24431554.080   100042980.97144
 15 03 02 00 34  0.0000000  0  7G16G18G19G21G22G27G31
  20902494.840   109843361.91909  20902491.660    85592220.49348
  21644895.660   113744787.64409  21644892.240    88632337.00848
  24241797.440   127391503.43007  24241793.280    99266084.42444
  22058073.280   115916048.90009  22058069.800    90324201.06548
  22288592.300   117127416.63609  22288589.060    91268140.83048
  22130415.920   116296146.69309  22130415.380    90620377.13048
  24449217.480   128481384.03608  24449222.680   100115329.90646
 15 03 02 00 34 30.0000000  0  7G16G18G19G21G22G27G31
  20894138.540   109799449.39409  20894135.440    85558002.94348
  21640058.300   113719367.12009  21640054.920    88612528.83148
  24227199.640   127314792.15607  24227195.760    99206309.43845
  22069186.940   115974451.88008  22069183.540    90369709.88248
  22272792.440   117044388.74909  22272789.300    91203443.88048
  22119237.400   116237402.95309  22119236.740    90574602.79948
  24466874.020   128574169.45208  24466879.360   100187630.02946
 15 03 02 00 35  0.0000000  0  7G16G18G19G21G22G27G31
  20885868.280   109755988.85309  20885865.200    85524137.58948
  21635309.980   113694415.02909  21635306.700    88593085.66248
  24212610.180   127238124.31807  24212606.380    99146568.30345
  22080331.800   116033018.51209  22080328.440    90415346.21948
  22257041.460   116961617.05909  22257038.240    91138946.57348
  22108076.780   116178753.30509  22108075.940    90528901.77948
  24484518.200   128666889.78408  24484523.640   100259879.44646
 15 03 02 00 35 30.0000000  0  7G16G18G19G21G22G27G31
  20877684.520   109712982.72609  20877681.440    85490626.31648
  21630651.040   113669933.00609  21630647.920    88574008.78248
  24198029.140   127161500.75607  24198025.340    99086861.67445
  22091507.580   116091747.38308  22091504.240    90461108.96948
  22241339.940   116879104.92209  22241336.500    91074651.49048
  22096934.200   116120198.75909  22096933.160    90483274.86648
  24502149.520   128759541.81908  24502154.620   100332075.29044
 15 03 02 00 36  0.0000000  0  7G16G18G19G21G22G27G31
  20869587.080   109670430.26209  20869583.940    85457468.55348
  21626081.420   113645920.38709  21626078.500    88555297.67748
  24183456.040   127084918.83007  24183452.020    99027187.46844
  22102713.600   116150634.89009  22102710.220    90506995.34248
  22225687.840   116796852.45809  22225684.180    91010558.76148
  22085809.300   116061737.13609  22085808.200    90437720.35948
  24519767.160   128852121.47608  24519772.480   100404214.64045
 15 03 02 00 36 30.0000000  0  7G16G18G19G21G22G27G31
  20861577.460   109628339.22809  20861574.220    85424670.33448
  21621602.320   113622383.24909  21621599.560    88536957.07048
  24168891.960   127008384.42307  24168887.900    98967550.30946
  22113950.500   116209684.67009  22113947.040    90553008.15448
  22210086.640   116714867.49309  22210082.740    90946674.47448
  22074703.160   116003374.42309  22074702.140    90392242.93948
  24537371.640   128944631.41708  24537377.060   100476299.65845
 15 03 02 00 37  0.0000000  0  7G16G18G19G21G22G27G31
  20853655.340   109586708.09909  20853652.040    85392230.49348
  21617213.280   113599319.21609  21617210.540    88518985.11548
  24154336.220   126931893.91807  24154332.200    98907947.35345
  22125217.260   116268891.72008  22125213.780    90599143.51348
  22194536.220   116633149.43509  22194532.120    90882998.14648
  22063615.280   115945107.89108  22063614.460    90346840.46048
  24554961.800   129037065.88608  24554967.320   100548326.06846
 15 03 02 00 37 30.0000000  0  7G16G18G19G21G22G27G31
  20845820.920   109545537.56809  20845817.520    85360149.55848
  21612914.220   113576728.03709  21612911.560    88501381.61148
  24139788.620   126855446.36607  24139784.600    98848377.85045
  22136513.320   116328253.18308  22136509.900    90645399.18948
  22179036.840   116551699.59109  22179032.600    90819530.82548
  22052545.520   115886936.61909  22052544.960    90301512.21748
  24572536.660   129129420.31207  24572542.600   100620290.01144
 15 03 02 00 38  0.0000000  0  7G16G18G19G21G22G27G31
  20838075.100   109504832.57609  20838071.680    85328431.37248
  21608705.960   113554613.84109  21608703.340    88484149.78648
  24125249.860   126779045.10007  24125245.940    98788844.41545
  22147839.080   116387770.65909  22147835.640    90691776.43747
  22163589.620   116470524.09609  22163585.300    90756277.27948
  22041494.660   115828864.29409  22041494.200    90256261.06348
  24590096.560   129221696.33908  24590102.360   100692193.09345
 15 03 02 00 38 30.0000000  0  7G16G18G19G21G22G27G31
  20830417.900   109464593.18509  20830414.440    85297076.00048
  21604588.280   113532975.55509  21604585.720    88467288.80447
  24110719.600   126702688.53407  24110715.680    98729345.82045
  22159193.900   116447440.56209  22159190.480    90738272.46547
  22148194.640   116389623.16109  22148190.380    90693237.68848
  22030462.360   115770889.21309  22030461.960    90211085.68748
  24607640.320   129313887.48608  24607646.200   100764029.38746
 15 03 02 00 39  0.0000000  0  7G16G18G19G21G22G27G31
  20822849.520   109424820.57509  20822846.020    85266084.36448
  21600561.340   113511813.99409  21600558.780    88450799.28348
  24096197.660   126626375.66007  24096193.920    98669881.28045
  22170577.460   116507261.10309  22170573.920    90784885.87648
  22132852.280   116308998.92309  22132848.060    90630413.69647
  22019448.660   115713011.75009  22019448.260    90165986.38048
  24625167.540   129405991.10807  24625173.660   100835797.28445
 15 03 02 00 39 30.0000000  0  7G16G18G19G21G22G27G31
  20815370.660   109385518.49309  20815367.100    85235459.36348
  21596625.680   113491131.67009  21596623.040    88434683.20248
  24081684.380   126550108.83607  24081680.760    98610452.62345
  22181989.620   116567232.00709  22181985.980    90831616.44848
  22117563.380   116228655.67309  22117559.280    90567808.66348
  22008454.020   115655234.02009  22008453.580    90120964.78048
  24642678.400   129498008.29707  24642684.760   100907498.54445
 15 03 02 00 40  0.0000000  0  7G16G18G19G21G22G27G31
  20807979.660   109346678.46309  20807976.060    85205194.41148
  21592779.500   113470919.06409  21592776.720    88418933.13848
  24067178.020   126473877.51007  24067174.600    98551051.62145
  22193428.180   116627341.56709  22193424.400    90878455.05848
  22102326.500   116148585.72309  22102322.360    90505416.59248
  21997476.440   115597545.99309  21997475.980    90076013.07948
  24660170.480   129589926.93205  24660176.560   100979298.92744
 15 03 02 00 40 30.0000000  0  7G16G18G19G21G22G27G31
  20800680.100   109308318.98209  20800676.420    85175303.90648
  21589026.120   113451193.81509  21589023.100    88403562.83148
  24052681.740   126397698.61907  24052678.380    98491691.49145
  22204896.020   116687604.91609  22204892.100    90925413.50648
  22087145.260   116068808.19109  22087141.160    90443252.37848
  21986519.220   115539965.07709  21986518.760    90031144.84548
  24677644.700   129681892.65607                                
 15 03 02 00 41  0.0000000  0  7G16G18G19G21G22G27G31
  20793471.080   109270435.53409  20793467.300    85145784.33648
  21585364.420   113431950.63509  21585361.240    88388568.17048
  24038194.300   126321565.93308  24038190.820    98432367.36346
  22216391.580   116748014.05009  22216387.640    90972485.56147
  22072019.040   115989319.61009  22072014.840    90381313.30647
  21975581.140   115482485.33909  21975580.700    89986355.45148
  24695101.320   129773627.52208  24695108.080   101122319.83345
 15 03 02 00 41 30.0000000  0  6G16G18G19G21G22G27
  20786352.880   109233029.41909  20786349.040    85116636.71248
  21581794.420   113413189.65609  21581791.140    88373949.24248
  24023715.520   126245478.93908  24023711.900    98373078.82346
  22227914.440   116808566.94909  22227910.500    91019669.62348
  22056948.160   115910121.55709  22056943.860    90319600.60648
  21964662.240   115425106.76509  21964661.900    89941644.87648
 15 03 02 00 42  0.0000000  0  6G16G18G19G21G22G27
  20779325.680   109196101.62009  20779321.820    85087861.79448
  21578316.100   113394910.90409  21578312.820    88359706.07648
  24009245.340   126169437.13608  24009241.640    98313825.49645
  22239464.160   116869261.10609  22239460.240    91066963.76348
  22041933.020   115831216.22409  22041928.580    90258115.99748
  21953762.600   115367829.24909  21953762.360    89897013.05748
 15 03 02 00 42 30.0000000  0  6G16G18G19G21G22G27
  20772390.420   109159657.03209  20772386.600    85059463.41848
  21574930.180   113377117.72909  21574926.880    88345841.29648
  23994784.180   126093443.41407  23994780.340    98254609.62346
  22251040.980   116930097.77409  22251037.100    91114368.96348
  22026974.540   115752608.57109  22026969.960    90196863.36148
  21942882.840   115310656.15209  21942882.720    89852462.61948
 15 03 02 00 43  0.0000000  0  6G16G18G19G21G22G27
  20765547.000   109123694.93809  20765543.280    85031441.00248
  21571636.560   113359809.47609  21571633.220    88332354.36448
  23980331.780   126017495.85408  23980327.900    98195429.74845
  22262644.260   116991073.68209  22262640.380    91161882.65648
  22012072.780   115674299.21509  22012068.140    90135843.15948
  21932022.720   115253585.83909  21932022.660    89807992.25848
 15 03 02 00 43 30.0000000  0  6G16G18G19G21G22G27
  20758795.580   109088216.33009  20758792.020    85003795.33248
  21568435.120   113342985.81409  21568431.740    88319245.03348
  23965888.000   125941593.63808  23965884.200    98136285.19046
  22274273.500   117052186.17909  22274269.640    91209502.78547
  21997228.100   115596290.26609  21997223.440    90075057.05248
  21921182.160   115196618.04909  21921182.060    89763601.78248
 15 03 02 00 44  0.0000000  0  6G16G18G19G21G22G27
  20752136.720   109053224.01309  20752133.300    84976528.58848
  21565326.180   113326648.27109  21565322.800    88306514.49748
  23951453.160   125865737.96808  23951449.300    98077176.89946
  22285928.700   117113434.90209  22285924.840    91257229.05347
  21982441.120   115518584.72609  21982436.540    90014507.35148
  21910361.420   115139754.31909  21910361.240    89719292.39748
 15 03 02 00 44 30.0000000  0  6G16G18G19G21G22G27
  20745570.480   109018718.48909  20745567.220    84949641.16448
  21562309.680   113310796.52809  21562306.280    88294162.50748
  23937027.000   125789927.56608  23937023.040    98018103.89646
  22297609.220   117174816.72508  22297605.340    91305059.04047
  21967712.080   115441183.69009  21967707.600    89954194.92548
  21899560.340   115082993.81709  21899559.940    89675063.44248
 15 03 02 00 45  0.0000000  0  6G16G18G19G21G22G27
  20739097.600   108984703.58709  20739094.500    84923136.04448
  21559386.140   113295433.30609  21559382.660    88282191.17348
  23922609.960   125714164.84708  23922605.840    97959068.01046
  22309315.220   117236332.28009  22309311.240    91352993.22547
  21953041.880   115364091.75409  21953037.440    89894123.35248
  21888779.400   115026339.25009  21888778.840    89630917.03148
 15 03 02 00 45 30.0000000  0  6G16G18G19G21G22G27
  20732718.420   108951180.90409  20732715.380    84897014.46948
  21556555.680   113280559.49509  21556552.200    88270601.20548
  23908201.960   125638450.24108  23908197.760    97900069.68146
  22321046.460   117297980.27009  22321042.340    91401030.61647
  21938431.100   115287312.03709  21938426.720    89834295.07248
  21878018.780   114969791.46909  21878018.040    89586853.82948
 15 03 02 00 46  0.0000000  0  6G16G18G19G21G22G27
  20726433.380   108918152.64109  20726430.340    84871278.15448
  21553818.540   113266176.22709  21553815.140    88259393.48048
  23893803.100   125562784.12008  23893799.100    97841109.08446
  22332802.680   117359759.76008  22332798.540    91449170.47247
  21923880.240   115210847.16609  21923875.900    89774712.11648
  21867278.600   114913351.46309  21867277.880    89542874.60948
 15 03 02 00 46 30.0000000  0  6G16G18G19G21G22G27
  20720242.740   108885620.23309  20720239.600    84845928.22548
  21551174.800   113252283.77309  21551171.560    88248568.21248
  23879413.420   125487166.67708  23879409.600    97782186.44646
  22344583.560   117421668.92809  22344579.440    91497411.38247
  21909389.740   115134699.21909  21909385.380    89715376.11748
  21856559.000   114857019.58009  21856558.320    89498979.65248
 15 03 02 00 47  0.0000000  0  6G16G18G19G21G22G27
  20714146.480   108853583.75509  20714143.280    84820964.73248
  21548624.280   113238880.95809  21548621.080    88238124.47448
  23865032.640   125411595.81708  23865028.960    97723300.09246
  22356388.460   117483704.19908  22356384.360    91545750.55447
  21894959.780   115058869.03909  21894955.280    89656287.72048
  21845859.720   114800794.46309  21845859.100    89455167.87648
 15 03 02 00 47 30.0000000  0  6G16G18G19G21G22G27
  20708144.680   108822043.69409  20708141.440    84796388.05749
  21546166.920   113225967.58609  21546163.760    88228062.11948
  23850660.740   125336071.01208  23850656.980    97664449.60546
  22368216.940   117545863.30509  22368212.940    91594186.21347
  21880590.580   114983358.31009  21880585.980    89597448.25848
  21835180.680   114744675.81309  21835180.080    89411439.07048
 15 03 02 00 48  0.0000000  0  6G16G18G19G21G22G27
  20702238.180   108791004.36509  20702234.880    84772201.55849
  21543803.360   113213546.95709  21543800.220    88218383.72548
  23836298.200   125260595.39408  23836294.320    97605637.47246
  22380069.180   117608147.35408  22380065.280    91642719.23448
  21866283.040   114908171.84509  21866278.380    89538861.46448
  21824522.540   114688667.10109  21824521.940    89367795.92248
 15 03 02 00 48 30.0000000  0  6G16G18G19G21G22G27
  20696427.820   108760470.18909  20696424.480    84748408.69449
  21541534.160   113201622.34109  21541531.000    88209091.83148
  23821945.500   125185171.51808  23821941.500    97546865.63046
  22391945.420   117670557.69209  22391941.620    91691350.65947
  21852038.160   114833314.99509  21852033.480    89480531.51248
  21813885.940   114632771.57709  21813885.320    89324240.98748
 15 03 02 00 49  0.0000000  0  6G16G18G19G21G22G27
  20690712.480   108730435.43809  20690709.120    84725004.99249
  21539358.080   113190187.24709  21539354.960    88200181.38248
  23807601.300   125109792.67408  23807597.340    97488128.89846
  22403844.160   117733085.71209  22403840.440    91740073.78947
  21837855.080   114758783.10309  21837850.440    89422454.76048
  21803269.560   114576982.61309  21803268.980    89280769.07548
 15 03 02 00 49 30.0000000  0  6G16G18G19G21G22G27
  20685093.180   108700905.35009  20685089.740    84701994.51749
  21537275.880   113179245.29409  21537272.780    88191655.18748
  23793266.440   125034462.57608  23793262.480    97429430.12646
  22415765.660   117795733.15209  22415761.940    91788889.97447
  21823734.900   114684581.80209  21823730.360    89364635.61648
  21792674.280   114521304.50809  21792673.740    89237383.54148
 15 03 02 00 50  0.0000000  0  6G16G18G19G21G22G27
  20679570.060   108671880.81109  20679566.540    84679378.00049
  21535287.600   113168796.90409  21535284.520    88183513.60348
  23778940.900   124959180.96408  23778936.800    97370769.16047
  22427709.540   117858498.11109  22427705.840    91837797.72647
  21809678.040   114610713.05909  21809673.560    89307075.62048
  21782100.140   114465737.30809  21782099.640    89194084.44548
 15 03 02 00 50 30.0000000  0  6G16G18G19G21G22G27
  20674143.700   108643364.98109  20674140.140    84657157.85449
  21533393.620   113158843.63009  21533390.540    88175757.80948
  23764624.780   124883948.86508  23764620.540    97312146.77446
  22439675.800   117921380.82709  22439672.100    91886797.23448
  21795685.240   114537180.74309  21795680.860    89249777.76948
  21771547.560   114410283.01609  21771547.040    89150873.30848
 15 03 02 00 51  0.0000000  0  6G16G18G19G21G22G27
  20668814.160   108615358.37509  20668810.640    84635334.52949
  21531593.860   113149385.20209  21531590.680    88168387.63248
  23750318.000   124808766.10208  23750313.900    97253562.82646
  22451664.060   117984379.02209  22451660.340    91935886.73547
  21781756.780   114463986.23309  21781752.400    89192743.13748
  21761016.480   114354941.59609  21761015.940    89107750.13048
 15 03 02 00 51 30.0000000  0  6G16G18G19G21G22G27
  20663582.120   108587864.26909  20663578.640    84613910.55249
  21529888.640   113140423.69309  21529885.340    88161404.64448
  23736020.820   124733633.90908  23736016.820    97195018.29947
  22463674.220   118047492.45609  22463670.500    91985066.03247
  21767893.520   114391133.95809  21767889.080    89135975.18248
  21750507.380   114299715.32809  21750506.700    89064716.68448
 15 03 02 00 52  0.0000000  0  6G16G18G19G21G22G27
  20658447.360   108560881.48009  20658443.980    84592884.99848
  21528277.620   113131957.44709  21528274.220    88154807.57848
  23721733.020   124658550.95308  23721729.040    97136512.10546
  22475705.600   118110717.79208  22475701.880    92034332.51347
  21754095.420   114318623.88909  21754090.860    89079473.87848
  21740019.800   114244602.32109  21740019.040    89021771.48248
 15 03 02 00 52 30.0000000  0  6G16G18G19G21G22G27
  20653410.420   108534412.59909  20653407.100    84572259.89849
  21526760.960   113123987.57609  21526757.500    88148597.31648
  23707454.740   124583518.01408  23707450.680    97078044.91746
  22487758.000   118174053.88608  22487754.360    92083685.29847
  21740363.060   114246459.30009  21740358.340    89023241.78748
  21729554.020   114189604.24909  21729553.220    88978915.85048
 15 03 02 00 53  0.0000000  0  6G16G18G19G21G22G27
  20648472.120   108508461.80709  20648468.820    84552038.49249
  21525339.300   113116517.09909  21525335.820    88142776.17348
  23693186.500   124508538.11408  23693182.340    97019619.03146
  22499831.740   118237502.24108  22499828.080    92133125.58147
  21726697.340   114174645.05309  21726692.560    88967282.66548
  21719110.700   114134724.50309  21719109.880    88936152.41948
 15 03 02 00 53 30.0000000  0  6G16G18G19G21G22G27
  20643632.640   108483029.91309  20643629.260    84532221.43149
  21524012.620   113109545.65909  21524009.160    88137343.90248
  23678928.220   124433611.02008  23678923.980    96961234.31347
  22511926.420   118301060.94908  22511922.860    92182651.83447
  21713098.560   114103182.97309  21713093.740    88911597.97548
  21708689.900   114079963.14209  21708689.020    88893481.24348
 15 03 02 00 54  0.0000000  0  6G16G18G19G21G22G27
  20638891.820   108458116.19509  20638888.360    84512808.14449
  21522780.580   113103071.74709  21522777.260    88132299.31248
  23664679.560   124358734.41308  23664675.300    96902888.92846
  22524041.360   118364726.43708  22524038.000    92232261.31147
  21699566.620   114032072.78709  21699561.880    88856187.49648
  21698291.300   114025318.65309  21698290.480    88850901.12648
 15 03 02 00 54 30.0000000  0  6G16G18G19G21G22G27
  20634249.860   108433722.04209  20634246.300    84493799.70949
  21521643.320   113097095.68909  21521640.080    88127642.65348
  23650440.740   124283908.85908  23650436.360    96844583.32646
  22536176.320   118428497.17808  22536173.180    92281952.78847
  21686102.160   113961317.32709  21686097.520    88801053.41648
  21687915.120   113970791.86609  21687914.360    88808412.72548
 15 03 02 00 55  0.0000000  0  6G16G18G19G21G22G27
  20629706.340   108409845.52509  20629702.740    84475194.62749
  21520600.140   113091613.97209  21520596.900    88123371.19048
  23636211.000   124209131.13408  23636206.600    96786315.00147
  22548330.440   118492368.28508  22548327.420    92331722.47147
  21672704.960   113890915.51109  21672700.420    88746194.92048
  21677560.920   113916380.12309  21677560.220    88766013.98048
 15 03 02 00 55 30.0000000  0  6G16G18G19G21G22G27
  20625262.720   108386494.45509  20625259.140    84456998.98649
  21519652.380   113086633.48409  21519649.040    88119490.30648
  23621991.620   124134407.83708  23621987.300    96728089.09147
  22560504.820   118556345.19908  22560501.740    92381574.60847
  21659376.800   113820876.04609  21659372.260    88691618.74848
  21667230.020   113862090.65109  21667229.320    88723710.49048
 15 03 02 00 56  0.0000000  0  6G16G18G19G21G22G27
  20620918.500   108363665.99509  20620915.020    84439210.57149
  21518799.360   113082150.72809  21518795.920    88115997.26848
  23607781.900   124059735.28108  23607777.600    96669902.72047
  22572698.180   118620421.66008  22572695.080    92431504.30547
  21646117.280   113751197.00309  21646112.640    88637323.43948
  21656921.660   113807919.82709  21656920.940    88681499.47048
 15 03 02 00 56 30.0000000  0  6G16G18G19G21G22G27
  20616674.540   108341364.11309  20616671.120    84421832.47549
  21518041.520   113078168.33409  21518038.000    88112894.11048
  23593582.420   123985116.44408  23593578.160    96611758.19946
  22584910.980   118684600.07008  22584907.840    92481513.45447
  21632927.320   113681883.49609  21632922.640    88583312.94248
  21646636.520   113753871.30709  21646635.840    88639383.75048
 15 03 02 00 57  0.0000000  0  6G16G18G19G21G22G27
  20612530.780   108319588.68609  20612527.460    84404864.60649
  21517378.580   113074684.83909  21517375.040    88110179.71748
  23579392.880   123910549.76608  23579388.560    96553654.31046
  22597142.540   118748876.90809  22597139.360    92531599.29847
