     2.11           OBSERVATION DATA    G                   RINEX VERSION / TYPE
SPIDER V4,0,0,3554                      2015 03 31 07:27    PGM / RUN BY / DATE 
EADB                                                        MARKER NAME         
EADB                                                        MARKER NUMBER       
                                                            OBSERVER / AGENCY   
462408              LEICA GRX1200PRO    3.00/2.127          REC # / TYPE / VERS 
103310              LEIAT504                                ANT # / TYPE        
  5238464.6656   142765.3090  3625629.6523                  APPROX POSITION XYZ 
        0.0770        0.0000        0.0000                  ANTENNA: DELTA H/E/N
     1     1                                                WAVELENGTH FACT L1/2
     4    C1    L1    P2    L2                              # / TYPES OF OBSERV 
    30.000                                                  INTERVAL            
  2015    03    02    00    00    0.0000000     GPS         TIME OF FIRST OBS   
  2015    03    02    23    59   30.0000000     GPS         TIME OF LAST OBS    
    16                                                      LEAP SECONDS        
    30                                                      # OF SATELLITES     
   G 1   836   836   836   836                              PRN / # OF OBS      
   G 2   926   926   926   926                              PRN / # OF OBS      
   G 3   846   846   846   846                              PRN / # OF OBS      
   G 4   848   848   848   848                              PRN / # OF OBS      
   G 5   672   672   672   672                              PRN / # OF OBS      
   G 6   726   726   726   726                              PRN / # OF OBS      
   G 7   648   648   648   648                              PRN / # OF OBS      
   G 9   789   789   789   789                              PRN / # OF OBS      
   G10   784   784   784   784                              PRN / # OF OBS      
   G11   799   799   799   799                              PRN / # OF OBS      
   G12   818   818   818   818                              PRN / # OF OBS      
   G13   821   821   821   821                              PRN / # OF OBS      
   G14   929   929   929   929                              PRN / # OF OBS      
   G15   732   732   732   732                              PRN / # OF OBS      
   G16   691   691   691   691                              PRN / # OF OBS      
   G17   929   929   929   929                              PRN / # OF OBS      
   G18   898   898   894   894                              PRN / # OF OBS      
   G19   783   783   783   783                              PRN / # OF OBS      
   G20   797   797   797   797                              PRN / # OF OBS      
   G21   650   650   642   642                              PRN / # OF OBS      
   G22   785   785   785   785                              PRN / # OF OBS      
   G23   732   732   732   732                              PRN / # OF OBS      
   G24   841   841   841   841                              PRN / # OF OBS      
   G25   851   851   851   851                              PRN / # OF OBS      
   G27   832   832   832   832                              PRN / # OF OBS      
   G28   906   906   906   906                              PRN / # OF OBS      
   G29   743   743   743   743                              PRN / # OF OBS      
   G30   696   696   696   696                              PRN / # OF OBS      
   G31   785   785   785   785                              PRN / # OF OBS      
   G32   743   743   743   743                              PRN / # OF OBS      
BIT 2 OF LLI FLAGS DATA COLLECTED UNDER A/S CONDITION       COMMENT             
SNR is mapped to RINEX snr flag value [2-9]                 COMMENT             
Lx:     = 25dBHz -> 1; 26-27dBHz -> 2; 28-31dBHz -> 3       COMMENT             
       32-35dBHz -> 4; 36-38dBHz -> 5; 39-41dBHz -> 6       COMMENT             
       42-44dBHz -> 7; 45-48dBHz -> 8; >=49dBHz -> 9        COMMENT             
                                                            END OF HEADER       
 15 03 02 00 00  0.0000000  0  7G16G18G21G22G27G29G31
  21395576.640   112434519.76709  21395574.800    87611304.69748
  22537164.424   118433699.56708  22537163.929    92286033.43846
  21559903.488   113298072.18209  21559901.466    88284211.36248
  23613526.061   124089936.05307  23613528.929    96693468.89745
  22475590.507   118110045.69608  22475591.948    92033830.30947
  24501796.881   128757800.71406  24501796.777   100330747.71645
  23086100.647   121318232.16607  23086101.231    94533669.73847
 15 03 02 00 00 30.0000000  0  7G16G18G21G22G27G29G31
  21383468.985   112370893.17809  21383467.079    87561725.54148
  22527094.098   118380779.64408  22527093.548    92244797.19246
  21568969.621   113345715.97409  21568967.735    88321336.40548
  23596254.207   123999173.41007  23596257.466    96622744.45746
  22464454.925   118051527.63408  22464456.090    91988231.83547
  24516063.750   128832773.12106  24516065.007   100389167.60546
  23103981.958   121412200.21708  23103983.331    94606891.38547
 15 03 02 00 01  0.0000000  0  7G16G18G21G22G27G29G31
  21371415.955   112307554.92109  21371414.311    87512371.06148
  22517085.570   118328184.16308  22517084.816    92203813.76546
  21578092.125   113393654.68009  21578090.214    88358691.24248
  23578991.897   123908457.32807  23578995.397    96552056.32546
  22453340.943   117993123.51308  22453342.252    91942722.15047
  24530330.207   128907741.48205  24530330.203   100447584.66646
  23121891.115   121506311.22108  23121892.092    94680224.48546
 15 03 02 00 01 30.0000000  0  7G16G18G21G22G27G29G31
  21359420.379   112244517.77409  21359418.727    87463251.21448
  22507141.121   118275926.45008  22507140.450    92163093.52946
  21587272.307   113441896.95509  21587270.307    88396282.62848
  23561741.279   123817801.34207  23561744.685    96481415.13646
  22442250.776   117934844.10308  22442251.934    91897309.65047
  24544597.838   128982716.57506  24544597.347   100506006.83244
  23139828.599   121600572.80608  23139829.185    94753674.94446
 15 03 02 00 02  0.0000000  0  7G16G18G21G22G27G29G31
  21347481.180   112181776.10709  21347479.293    87414361.60548
  22497260.035   118224001.02608  22497259.385    92122632.21946
  21596508.605   113490433.65309  21596506.565    88434103.43348
  23544500.939   123727200.90107  23544503.682    96410817.51945
  22431182.759   117876681.65708  22431184.106    91851988.27647
  24558865.383   129057690.99906  24558866.158   100564428.32146
  23157792.795   121694974.66708  23157793.707    94827234.65947
 15 03 02 00 02 30.0000000  0  6G16G18G21G22G27G31
  21335593.362   112119305.57909  21335591.655    87365683.27648
  22487437.394   118172383.44808  22487436.757    92082410.79346
  21605795.455   113539236.12909  21605793.392    88472131.34448
  23527265.845   123636631.49607  23527268.644    96340244.19846
  22420132.041   117818609.36508  22420133.336    91806737.16047
  23175777.887   121789486.93208  23175779.183    94900880.39847
 15 03 02 00 03  0.0000000  0  6G16G18G21G22G27G31
  21323767.399   112057159.25409  21323765.565    87317257.57248
  22477683.525   118121126.98708  22477682.852    92042470.74646
  21615142.068   113588353.16009  21615140.084    88510404.35948
  23510047.278   123546147.56607  23510049.990    96269737.97346
  22409108.110   117760678.25108  22409109.434    91761596.06147
  23193793.261   121884157.54807  23193794.569    94974649.54746
 15 03 02 00 03 30.0000000  0  6G16G18G21G22G27G31
  21311998.517   111995313.23909  21311996.608    87269065.87648
  22467993.875   118070207.53508  22467993.246    92002793.30246
  21624543.336   113637757.56409  21624541.507    88548901.30548
  23492840.337   123455725.19907  23492842.764    96199279.85046
  22398106.108   117702862.15108  22398107.240    91716544.57447
  23211833.098   121978957.49907  23211834.442    95048519.46546
 15 03 02 00 04  0.0000000  0  6G16G18G21G22G27G31
  21300289.012   111933779.90309  21300287.227    87221117.82648
  22458370.655   118019637.20308  22458369.908    91963387.90446
  21634000.948   113687457.62109  21633999.068    88587628.62348
  23475646.887   123365376.88007  23475649.428    96128879.45446
  22387127.980   117645171.07308  22387128.998    91671590.50647
  23229899.318   122073894.13008  23229900.184    95122495.90946
 15 03 02 00 04 30.0000000  0  6G16G18G21G22G27G31
  21288639.056   111872558.65909  21288637.181    87173412.96148
  22448813.566   117969415.51908  22448813.130    91924254.18647
  21643513.907   113737448.18509  21643512.047    88626582.30748
  23458467.270   123275102.07507  23458469.775    96058536.17546
  22376172.951   117587602.32008  22376173.928    91626731.76447
  23247990.049   122168961.21907  23247991.202    95196573.98146
 15 03 02 00 05  0.0000000  0  6G16G18G21G22G27G31
  21277046.778   111811640.88909  21277045.015    87125944.57048
  22439321.417   117919534.37408  22439320.842    91885385.81946
  21653079.530   113787716.87109  21653077.754    88665752.71448
  23441300.556   123184893.28708  23441302.577    95988244.24446
  22365239.244   117530145.27108  22365240.373    91581960.05748
  23266102.959   122264145.89007  23266104.525    95270743.66746
 15 03 02 00 05 30.0000000  0  7G16G18G19G21G22G27G31
  21265513.960   111751035.33609  21265512.162    87078719.46548
  22429895.739   117870002.32108  22429895.142    91846789.46646
  24545142.313   128985599.43916  24545139.405   100508254.59153
  21662699.240   113838268.85209  21662697.332    88705143.87148
  23424148.215   123094759.88007  23424149.689    95918010.91346
  22354327.979   117472806.43508  22354329.046    91537280.46947
  23284239.269   122359451.62208  23284240.753    95345007.67546
 15 03 02 00 06  0.0000000  0  7G16G18G19G21G22G27G31
  21254040.349   111690741.91709  21254038.660    87031737.58148
  22420536.250   117820818.96908  22420535.713    91808464.82547
  24530282.011   128907502.17806  24530279.645   100447399.64044
  21672372.099   113889099.69509  21672370.174    88744752.32448
  23407009.861   123004701.94007  23407012.056    95847836.45046
  22343438.813   117415583.61008  22343439.895    91492691.27847
  23302397.767   122454873.04708  23302398.922    95419361.87546
 15 03 02 00 06 30.0000000  0  7G16G18G19G21G22G27G31
  21242627.029   111630764.54809  21242625.248    86985001.97148
  22411244.237   117771988.76608  22411243.738    91770415.36746
  24515436.837   128829490.07405  24515434.273   100386611.01144
  21682098.091   113940209.56209  21682096.029    88784578.20148
  23389887.291   122914724.38507  23389889.234    95777724.51346
  22332572.061   117358478.44008  22332572.987    91448193.76047
  23320577.918   122550409.04607  23320579.310    95493805.33346
 15 03 02 00 07  0.0000000  0  7G16G18G19G21G22G27G31
  21231274.434   111571106.66309  21231272.876    86938515.31448
  22402019.915   117723514.25408  22402019.281    91732643.06846
  24500607.539   128751563.93005  24500605.265   100325889.42244
  21691876.984   113991597.46009  21691874.707    88824620.72048
  23372780.954   122824831.31707  23372782.247    95707678.38645
  22321727.971   117301492.05308  22321728.752    91403788.80647
  23338778.994   122646057.94007  23338780.651    95568336.72146
 15 03 02 00 07 30.0000000  0  7G16G18G19G21G22G27G31
  21219983.159   111511770.64509  21219981.546    86892279.45548
  22392863.744   117675398.37408  22392863.145    91695150.22447
  24485795.168   128673724.17506  24485793.012   100265235.12745
  21701708.316   114043261.49209  21701706.207    88864878.41548
  23355691.173   122735025.09807  23355691.948    95637699.84146
  22310906.262   117244624.74308  22310907.314    91359476.63948
  23357001.540   122741816.71908  23357003.095    95642953.77046
 15 03 02 00 08  0.0000000  0  7G16G18G19G21G22G27G31
  21208753.956   111452760.78509  21208752.290    86846297.74948
  22383776.615   117627645.21908  22383776.102    91657940.01947
  24470999.511   128595973.00906  24470997.515   100204649.88544
  21711592.320   114095202.53509  21711590.145    88905351.95748
  23338618.078   122645310.66207  23338619.870    95567792.85246
  22300107.747   117187878.66608  22300108.800    91315258.93648
  23375245.088   122837684.80508  23375246.411    95717656.00746
 15 03 02 00 08 30.0000000  0  7G16G18G19G21G22G27G31
  21197585.437   111394069.35309  21197583.836    86800564.17048
  22374757.134   117580247.24508  22374756.363    91621006.57147
  24456218.668   128518300.71306  24456217.364   100144126.04245
  21721526.839   114147409.50309  21721524.946    88946032.71148
  23321562.296   122555681.17108  23321564.270    95497952.01846
  22289330.449   117131243.95708  22289331.844    91271128.01048
  23393506.875   122933649.61007  23393507.962    95792433.60046
 15 03 02 00 09  0.0000000  0  7G16G18G19G21G22G27G31
  21186478.941   111335704.56809  21186477.365    86755085.12448
  22365806.710   117533212.29308  22365806.057    91584356.00347
  24441453.992   128440713.07105  24441452.600   100083668.21045
  21731512.597   114199885.16909  21731510.727    88986922.84648
  23304524.139   122466145.52207  23304525.822    95428184.39246
  22278575.580   117074726.57908  22278576.813    91227088.51548
  23411787.301   123029714.02507  23411788.710    95867288.76946
 15 03 02 00 09 30.0000000  0  7G16G18G19G21G22G27G31
  21175436.012   111277673.64909  21175434.388    86709866.22748
  22356926.639   117486547.58208  22356925.810    91547993.93747
  24426706.446   128363215.22506  24426704.820   100023280.29545
  21741550.178   114252633.76609  21741548.474    89028025.65148
  23287504.900   122376711.38307  23287505.893    95358495.84846
  22267843.977   117018331.68708  22267845.319    91183144.46848
  23430087.086   123125880.17007  23430089.056    95942223.18746
 15 03 02 00 10  0.0000000  0  7G16G18G19G21G22G27G31
  21164456.054   111219973.20609  21164454.214    86664904.84448
  22348116.437   117440249.81508  22348115.548    91511917.79447
  24411975.069   128285801.59606  24411973.543    99962958.05644
  21751638.482   114305647.69009  21751636.849    89069335.20248
  23270504.425   122287375.81308  23270505.825    95288884.06846
  22257134.631   116962053.88108  22257135.998    91139291.65148
  23448405.058   123222139.69608  23448406.700    96017230.43946
 15 03 02 00 10 30.0000000  0  7G16G18G19G21G22G27G31
  21153538.918   111162603.08209  21153537.057    86620200.84948
  22339376.034   117394318.40408  22339375.239    91476127.12747
  24397259.137   128208469.97306  24397257.845    99902699.73145
  21761776.521   114358922.41609  21761774.493    89110847.97348
  23253523.569   122198139.62308  23253524.820    95219349.68846
  22246447.231   116905890.78208  22246448.612    91095528.21748
  23466739.526   123318487.60407  23466741.060    96092306.51946
 15 03 02 00 11  0.0000000  0  7G16G18G19G21G22G27G31
  21142685.932   111105570.34609  21142684.095    86575759.75248
  22330706.515   117348760.33608  22330705.668    91440627.37247
  24382559.911   128131224.93006  24382558.647    99842508.84945
  21771964.757   114412461.11409  21771962.700    89152566.44448
  23236562.327   122109009.91307  23236564.142    95149898.23446
  22235782.633   116849847.12808  22235783.689    91051857.86148
  23485091.182   123414925.45807  23485092.896    96167452.68646
 15 03 02 00 11 30.0000000  0  7G16G18G19G21G22G27G31
  21131896.898   111048873.68709  21131895.117    86531580.53648
  22322107.704   117303573.90508  22322106.979    91405417.20747
  24367876.809   128054063.36206  24367875.213    99782382.98645
  21782202.186   114466259.10509  21782199.950    89194486.96148
  23219621.837   122019986.07008  23219623.068    95080529.12046
  22225139.917   116793919.43108  22225140.963    91008277.86248
  23503458.454   123511446.74807  23503460.629    96242663.82746
 15 03 02 00 12  0.0000000  0  7G16G18G19G21G22G27G31
  21121172.966   110992518.29509  21121171.081    86487667.24548
  22313580.827   117258764.36508  22313579.864    91370500.72147
  24353209.890   127976988.24306  24353208.138    99722324.48345
  21792488.829   114520316.83809  21792486.765    89236609.87448
  23202702.268   121931074.38707  23202703.167    95011247.48546
  22214520.014   116738111.02708  22214520.967    90964790.81848
  23521842.037   123608051.90907  23521844.186    96317940.35946
 15 03 02 00 12 30.0000000  0  7G16G18G19G21G22G27G31
  21110514.252   110936506.40209  21110512.274    86444021.61648
  22305126.078   117214334.07708  22305124.993    91335879.75347
  24338559.375   127899999.80206  24338557.534    99662333.52245
  21802824.682   114574632.89409  21802823.004    89278934.07348
  23185804.798   121842277.70808  23185805.753    94942055.61946
  22203922.767   116682422.05808  22203923.650    90921396.82448
  23540241.125   123704738.36207  23540243.271    96393280.22446
 15 03 02 00 13  0.0000000  0  7G16G18G19G21G22G27G31
  21099920.623   110880836.63409  21099918.708    86400642.57948
  22296743.003   117170281.28208  22296741.988    91301552.93547
  24323924.862   127823094.13306  24323923.180    99602407.07045
  21813208.772   114629201.68509  21813207.099    89321455.21048
  23168928.936   121753594.51508  23168929.644    94872951.99046
  22193347.252   116626848.85308  22193348.534    90878093.05648
  23558654.079   123801499.43107  23558656.550    96468678.17946
 15 03 02 00 13 30.0000000  0  7G16G18G19G21G22G27G31
  21089392.800   110825512.58309  21089390.839    86357532.93548
  22288432.496   117126609.46108  22288431.472    91267522.98247
  24309306.083   127746272.77606  24309304.446    99542546.29645
  21823641.036   114684023.25809  21823639.312    89364173.31548
  23152075.174   121665029.05408  23152076.213    94803940.04046
  22182794.207   116571392.97708  22182795.414    90834880.69948
  23577081.390   123898333.66907  23577083.477    96544133.20746
 15 03 02 00 14  0.0000000  0  7G16G18G19G21G22G27G31
  21078931.581   110770538.25409  21078929.663    86314695.79448
  22280195.280   117083322.47408  22280194.165    91233792.89847
  24294703.830   127669537.95006  24294701.863    99482752.94445
  21834121.361   114739097.14509  21834119.632    89407088.03448
  23135245.061   121576586.46508  23135245.768    94735023.77447
  22172264.055   116516056.43308  22172265.263    90791761.33648
  23595522.411   123995240.10507  23595524.475    96619644.48046
 15 03 02 00 14 30.0000000  0  7G16G18G19G21G22G27G31
  21068536.559   110715912.35809  21068534.854    86272130.16148
  22272030.931   117040418.59308  22272029.881    91200361.33247
  24280117.368   127592885.63806  24280115.522    99423023.94045
  21844648.721   114794418.67009  21844646.786    89450195.72248
  23118438.001   121488265.39407  23118438.554    94666201.91746
  22161755.828   116460835.61208  22161757.048    90748732.13948
  23613975.569   124092212.14007  23613978.107    96695206.79846
 15 03 02 00 15  0.0000000  0  7G16G18G19G21G22G27G31
  21058209.659   110661644.32109  21058207.922    86229843.38248
  22263941.308   116997907.21308  22263940.045    91167235.61847
  24265547.998   127516323.14506  24265546.158    99363364.92346
  21855224.129   114849992.50409  21855222.297    89493500.01448
  23101656.288   121400076.36108  23101657.025    94597483.01747
  22151271.027   116405737.92208  22151272.043    90705798.89248
  23632442.190   124189254.41607  23632445.126    96770823.84346
 15 03 02 00 15 30.0000000  0  7G16G18G19G21G22G27G31
  21047950.140   110607730.02809  21047948.404    86187832.24948
  22255925.342   116955783.65008  22255924.344    91134412.09847
  24250994.607   127439844.40006  24250993.066    99303771.13245
  21865845.850   114905810.93109  21865843.901    89536994.89448
  23084899.088   121312015.80907  23084899.761    94528864.07345
  22140808.713   116350757.12208  22140809.503    90662956.72748
  23650920.654   124286357.27807  23650923.381    96846488.14745
 15 03 02 00 16  0.0000000  0  7G16G18G19G21G22G27G31
  21037758.158   110554171.95709  21037756.521    86146098.69248
  22247983.834   116914050.40308  22247982.603    91101892.71647
  24236457.261   127363450.03906  24236455.772    99244243.09345
  21876513.978   114961872.66309  21876512.156    89580679.36448
  23068167.144   121224087.63008  23068167.963    94460348.59746
  22130368.383   116295893.94308  22130369.507    90620206.21948
  23669410.213   124383519.03507  23669412.583    96922198.33945
 15 03 02 00 16 30.0000000  0  7G16G18G19G21G22G27G31
  21027634.500   110500971.95909  21027633.036    86104644.15049
  22240116.884   116872709.42408  22240115.914    91069679.00247
  24221935.758   127287139.43006  24221934.040    99184780.30745
  21887227.923   115018175.69909  21887226.099    89624551.85948
  23051461.162   121136294.00908  23051461.359    94391938.00046
  22119950.745   116241148.04308  22119951.737    90577547.09748
  23687910.188   124480736.27807  23687912.586    96997951.72746
 15 03 02 00 17  0.0000000  0  7G16G18G19G21G22G27G31
  21017580.705   110448138.22209  21017579.135    86063475.01049
  22232325.810   116831767.96008  22232324.976    91037776.60147
  24207431.289   127210918.62206  24207429.636    99125387.50946
  21897988.626   115074723.60509  21897986.922    89668615.15948
  23034781.812   121048643.62208  23034781.894    94323639.22646
  22109556.363   116186525.35108  22109557.199    90534983.98348
  23706421.278   124578012.08707  23706423.893    97073750.71346
 15 03 02 00 17 30.0000000  0  7G16G18G19G21G22G27G31
  21007595.626   110395666.09109  21007593.838    86022587.63749
  22224610.096   116791221.64208  22224609.322    91006182.10047
  24192942.498   127134780.97706  24192940.810    99066059.56645
  21908794.624   115131508.07409  21908792.525    89712862.79748
  23018128.554   120961132.53308  23018129.140    94255449.10646
  22099184.214   116132019.27608  22099185.139    90492511.72748
  23724941.672   124675336.50907  23724944.544    97149587.59045
 15 03 02 00 18  0.0000000  0  7G16G18G19G21G22G27G31
  20997680.023   110343559.55809  20997678.348    85981985.14549
  22216970.323   116751074.17908  22216969.422    90974898.39247
  24178470.327   127058728.36106  24178468.363    99006797.81545
  21919645.530   115188529.65709  21919643.592    89757295.20048
  23001503.004   120873764.86708  23001503.369    94187370.44647
  22088834.537   116077631.91908  22088835.545    90450131.99248
  23743471.529   124772708.87307  23743474.125    97225461.84645
 15 03 02 00 18 30.0000000  0  7G16G18G19G21G22G27G31
  20987834.257   110291819.67909  20987832.531    85941668.35849
  22209406.451   116711326.48209  22209405.641    90943926.19547
  24164013.991   126982759.89606  24164012.061    98947601.64245
  21930540.887   115245784.92209  21930538.847    89801909.69648
  22984904.961   120786542.52908  22984905.805    94119405.10246
  22078507.459   116023362.22608  22078508.355    90407843.93948
  23762009.681   124870125.27007  23762012.142    97301370.36345
 15 03 02 00 19  0.0000000  0  7G16G18G19G21G22G27G31
  20978058.679   110240448.79709  20978057.047    85901639.10549
  22201919.143   116671980.03708  22201917.996    90913266.66447
  24149573.904   126906875.51006  24149571.863    98888470.97645
  21941480.421   115303272.37509  21941478.527    89846705.10848
  22968335.347   120699468.02908  22968335.445    94051554.81046
  22068202.655   115969210.27308  22068203.654    90365647.63048
  23780555.070   124967582.88707  23780558.205    97377310.95446
 15 03 02 00 19 30.0000000  0  7G16G18G19G21G22G27G31
  20968354.468   110189452.29209  20968352.614    85861901.57549
  22194508.881   116633039.47009  22194507.791    90882923.39447
  24135150.293   126831078.36006  24135148.269    98829408.27045
  21952464.151   115360993.07909  21952462.350    89891682.27748
  22951794.561   120612547.89208  22951794.871    93983824.76946
  22057920.948   115915179.50708  22057921.906    90323545.74848
  23799109.120   125065082.26307  23799112.161    97453284.11746
 15 03 02 00 20  0.0000000  0  7G16G18G19G21G22G27G31
  20958721.611   110138831.94109  20958719.958    85822457.14749
  22187176.473   116594507.18608  22187175.417    90852898.26747
  24120742.901   126755368.40906  24120740.978    98770413.57146
  21963491.939   115418945.27909  21963490.105    89936839.83748
  22935284.134   120525784.85408  22935284.757    93916217.17546
  22047662.195   115861269.93008  22047663.357    90281538.30048
  23817670.403   125162620.46807  23817673.340    97529287.54245
 15 03 02 00 20 30.0000000  0  7G16G18G19G21G22G27G31
  20949160.485   110088587.69809  20949158.614    85783305.79249
  22179921.508   116556382.37209  22179920.451    90823190.64447
  24106351.865   126679743.44506  24106350.081    98711485.06845
  21974563.276   115477125.23409  21974561.352    89982174.86948
  22918803.876   120439179.33008  22918804.659    93848732.39647
  22037426.267   115807479.41908  22037427.314    90239623.63148
  23836237.849   125260192.08206  23836240.712    97605316.94846
 15 03 02 00 21  0.0000000  0  7G16G18G19G21G22G27G31
  20939670.932   110038719.60409  20939669.071    85744447.54149
  22172744.205   116518665.07409  22172743.158    90793800.57947
  24091976.745   126604201.74306  24091974.981    98652621.43546
  21985677.352   115535529.00409  21985675.289    90027684.30248
  22902353.286   120352732.74008  22902354.386    93781371.59346
  22027212.682   115753806.35508  22027213.689    90197800.48248
  23854810.807   125357792.79507  23854813.988    97681369.06745
 15 03 02 00 21 30.0000000  0  7G16G18G19G21G22G27G31
  20930253.679   109989231.88709  20930251.787    85705885.68249
  22165645.107   116481359.15909  22165644.223    90764731.06647
  24077617.783   126528744.91606  24077615.722    98593823.92346
  21996833.803   115594156.45409  21996831.784    90073368.03448
  22885934.008   120266449.38108  22885934.826    93714138.08146
  22017021.724   115700252.47708  22017022.713    90156070.20048
  23873389.356   125455421.29107  23873392.518    97757442.82246
 15 03 02 00 22  0.0000000  0  7G16G18G19G21G22G27G31
  20920909.073   109940125.43109  20920907.133    85667620.91949
  22158624.136   116444464.77109  22158623.385    90735982.22047
  24063274.955   126453371.90806  24063272.747    98535091.74446
  22008032.182   115653004.55209  22008030.052    90119223.69748
  22869546.120   120180331.51108  22869546.696    93647033.99247
  22006853.154   115646816.84608  22006854.193    90114432.06048
  23891972.413   125553073.88407  23891975.759    97833535.33946
 15 03 02 00 22 30.0000000  0  7G16G18G19G21G22G27G31
  20911638.758   109891409.91009  20911636.954    85629660.77149
  22151683.544   116407991.68109  22151682.558    90707561.66147
  24048949.419   126378090.36406  24048946.855    98476430.85945
  22019273.688   115712079.65909  22019271.801    90165256.24548
  22853191.333   120094389.68308  22853192.293    93580067.69547
  21996708.758   115593507.28008  21996709.646    90072892.15248
  23910560.978   125650755.07707  23910564.349    97909650.13145
 15 03 02 00 23  0.0000000  0  7G16G18G19G21G22G27G31
  20902441.535   109843077.11609  20902439.546    85591998.85949
  22144821.364   116371930.67909  22144820.408    90679462.21147
  24034639.149   126302889.86107  24034636.821    98417833.10046
  22030556.092   115771369.59409  22030554.361    90211456.19548
  22836868.000   120008614.20808  22836868.794    93513230.44747
  21986586.196   115540313.54508  21986587.189    90031442.50448
  23929151.999   125748451.89406  23929155.811    97985777.09245
 15 03 02 00 23 30.0000000  0  7G16G18G19G21G22G27G31
  20893318.087   109795133.19509  20893316.106    85554639.96049
  22138038.936   116336288.25309  22138037.573    90651688.91547
  24020345.422   126227775.00307  24020343.066    98359302.06545
  22041879.914   115830876.27409  22041878.160    90257825.03848
  22820577.587   119923012.66608  22820578.677    93446528.39147
  21976486.652   115487240.08108  21976487.602    89990086.57348
  23947746.768   125846165.72007  23947750.454    98061917.32945
 15 03 02 00 24  0.0000000  0  7G16G18G19G21G22G27G31
  20884269.261   109747581.32509  20884267.408    85517586.55549
  22131336.425   116301066.63209  22131335.104    90624243.52247
  24006067.690   126152746.54806  24006065.588    98300838.36645
  22053244.705   115890598.87109  22053242.931    90304362.12748
  22804321.665   119837588.99808  22804322.479    93379964.85146
  21966410.052   115434287.81408  21966411.216    89948825.08048
  23966344.557   125943894.66907  23966348.134    98138069.27946
 15 03 02 00 24 30.0000000  0  7G16G18G19G21G22G27G31
  20875295.363   109700423.29909  20875293.679    85480840.04349
  22124714.370   116266267.24609  22124713.085    90597127.14747
  23991806.596   126077804.11506  23991804.472    98242441.72845
  22064650.390   115950535.27809  22064648.260    90351065.82448
  22788100.125   119752346.07308  22788100.769    93313542.12747
  21956356.568   115381456.84008  21956357.827    89907658.10548
  23984944.477   126041635.62607  23984948.101    98214230.53446
 15 03 02 00 25  0.0000000  0  7G16G18G19G21G22G27G31
  20866396.451   109653659.82909  20866394.650    85444400.97449
  22118172.623   116231890.63309  22118171.486    90570340.20547
  23977561.638   126002946.51207  23977559.730    98184111.17445
  22076095.960   116010682.68209  22076093.856    90397933.93748
  22771913.514   119667285.35708  22771913.757    93247261.33247
  21946325.957   115328745.96308  21946327.124    89866584.70848
  24003545.469   126139384.68506  24003549.734    98290398.01845
 15 03 02 00 25 30.0000000  0  7G16G18G19G21G22G27G31
  20857573.469   109607294.80709  20857571.809    85408272.38549
  22111712.067   116197940.33709  22111710.991    90543885.46347
  23963333.099   125928175.59807  23963331.238    98125848.16045
  22087581.800   116071041.43109  22087579.788    90444966.72348
  22755762.322   119582411.58308  22755762.503    93181126.21147
  21936318.822   115276157.23808  21936319.893    89825606.48848
  24022148.177   126237140.79607  24022152.152    98366570.99745
 15 03 02 00 26  0.0000000  0  7G16G18G19G21G22G27G31
  20848826.394   109561328.80409  20848824.647    85372454.72049
  22105332.406   116164415.87009  22105331.465    90517762.52947
  23949120.722   125853489.89806  23949118.711    98067651.54846
  22099107.232   116131608.10708  22099105.403    90492161.53448
  22739646.688   119497725.76508  22739647.055    93115137.55347
  21926334.571   115223689.27308  21926335.590    89784722.37448
  24040751.961   126334899.62107  24040755.707    98442746.16445
 15 03 02 00 26 30.0000000  0  7G16G18G19G21G22G27G31
  20840156.043   109515765.11209  20840154.165    85336950.54549
  22099034.652   116131320.91809  22099033.750    90491974.28147
  23934924.988   125778890.93807  23934923.046    98009522.54745
  22110671.973   116192381.95109  22110670.320    90539517.77848
  22723567.964   119413231.96508  22723568.096    93049298.46647
  21916373.473   115171343.44508  21916374.506    89743933.42948
  24059355.589   126432659.53507  24059359.510    98518922.09644
 15 03 02 00 27  0.0000000  0  7G16G18G19G21G22G27G31
  20831561.258   109470599.93509  20831559.380    85301756.89749
  22092817.791   116098650.71709  22092816.871    90466517.01347
  23920744.677   125704372.61607  23920742.788    97951456.35745
  22122275.045   116253355.25709  22122273.260    90587029.44148
  22707525.245   119328927.15808  22707524.872    92983606.64347
  21906434.635   115119114.15408  21906435.657    89703235.28948
  24077957.685   126530412.14306  24077961.773    98595092.25344
 15 03 02 00 27 30.0000000  0  7G16G18G19G21G22G27G31
  20823044.489   109425843.91609  20823042.776    85266882.08049
  22086683.726   116066415.49009  22086682.420    90441398.68047
  23906581.252   125629943.72406  23906579.296    97893459.87946
  22133917.104   116314534.94209  22133915.282    90634701.91948
  22691520.229   119244822.79408  22691520.335    92918071.02047
  21896519.530   115067010.26708  21896520.453    89662634.87248
  24096559.554   126628163.21907  24096563.859    98671261.25145
 15 03 02 00 28  0.0000000  0  7G16G18G19G21G22G27G31
  20814605.925   109381498.21309  20814603.847    85232326.98249
  22080632.557   116034616.28509  22080631.285    90416620.10647
  23892434.251   125555592.41816  23892432.617    97835513.40856
  22145598.108   116375918.06108  22145596.055    90682532.91848
  22675554.350   119160920.59908  22675553.811    92852692.90147
  21886628.283   115015031.01008  21886629.163    89622131.56748
  24115160.542   126725909.41507  24115164.968    98747426.55545
 15 03 02 00 28 30.0000000  0  7G16G18G19G21G22G27G31
  20806244.775   109337560.82509  20806243.061    85198090.05649
  22074663.666   116003250.02309  22074662.285    90392178.89347
  23878303.815   125481336.50906  23878301.943    97777651.69245
  22157316.489   116437499.03808  22157314.684    90730518.09048
  22659626.501   119077219.34108  22659625.922    92787471.35647
  21876759.872   114963172.62908  21876760.814    89581722.45348
  24133759.166   126823643.62807  24133763.764    98823582.54944
 15 03 02 00 29  0.0000000  0  7G16G18G19G21G22G27G31
  20797961.458   109294031.04309  20797959.504    85164170.74249
  22068776.884   115972315.68209  22068775.727    90368074.23447
  23864188.972   125407162.75606  23864187.439    97719854.03345
  22169071.596   116499273.73108  22169069.971    90778654.21048
  22643736.966   118993719.39608  22643736.133    92722406.67247
  21866914.027   114911432.61308  21866914.965    89541405.56548
  24152354.565   126921360.63706  24152359.120    98899725.20544
 15 03 02 00 29 30.0000000  0  7G16G18G19G21G22G27G31
  20789756.951   109250916.91109  20789755.287    85130575.31449
  22062973.792   115941820.94209  22062972.777    90344312.12747
  23850090.882   125333076.76406  23850089.177    97662124.75346
  22180864.720   116561246.48408  22180862.862    90826944.66148
  22627887.188   118910429.28408  22627886.321    92657505.49747
  21857092.022   114859817.19208  21857092.788    89501185.76748
  24170947.252   127019063.71106  24170951.665    98975857.06744
 15 03 02 00 30  0.0000000  0  7G16G18G19G21G22G27G31
  20781631.418   109208216.72609  20781629.704    85097302.44249
  22057254.128   115911763.84409  22057253.130    90320891.03547
  23836008.926   125259074.99206  23836007.218    97604461.04945
  22192694.400   116623411.40309  22192692.439    90875384.86548
  22612077.429   118827348.22108  22612076.322    92592767.19647
  21847292.817   114808322.98908  21847293.860    89461060.42248
  24189535.576   127116746.73506  24189540.849    99051973.32746
 15 03 02 00 30 30.0000000  0  7G16G18G19G21G22G27G31
  20773585.807   109165936.78509  20773584.244    85064357.03349
  22051618.809   115882149.79409  22051617.731    90297815.17447
  23821943.992   125185162.04806  23821941.944    97546866.60445
  22204561.209   116685771.34309  22204559.439    90923977.02448
  22596308.805   118744483.16808  22596307.617    92528197.20147
  21837517.833   114756954.60308  21837518.837    89421033.11948
  24208120.610   127214410.99506  24208126.136    99128074.96946
 15 03 02 00 31  0.0000000  0  7G16G18G19G21G22G27G31
  20765619.182   109124071.42109  20765617.408    85031734.67049
  22046066.708   115852972.64709  22046065.335    90275079.75947
  23807894.246   125111330.22606  23807892.211    97489335.35946
  22216463.120   116748316.52808  22216461.329    90972713.52748
  22580580.027   118661829.09908  22580579.020    92463791.63247
  21827765.241   114705704.41708  21827766.017    89381097.91948
  24226700.643   127312045.79207  24226706.127    99204153.67846
 15 03 02 00 31 30.0000000  0  7G16G18G19G21G22G27G31
  20757733.437   109082631.02209  20757731.614    84999443.44549
  22040599.398   115824241.70709  22040598.230    90252692.03547
  23793861.426   125037587.69606  23793859.186    97431873.68745
  22228401.541   116811053.66308  22228399.786    91021599.60548
  22564893.548   118579397.50408  22564892.607    92399559.39547
  21818036.900   114654581.14008  21818037.621    89341261.60848
  24245275.938   127409656.78007  24245281.010    99280213.93644
 15 03 02 00 32  0.0000000  0  7G16G18G19G21G22G27G31
  20749928.368   109041615.20209  20749926.624    84967483.06649
  22035216.832   115795956.57409  22035215.648    90230651.69947
  23779845.243   124963932.15706  23779842.974    97374479.82846
  22240375.710   116873978.53408  22240373.812    91070631.96048
  22549249.646   118497188.27608  22549248.283    92335500.40747
  21808332.090   114603582.58108  21808332.907    89301522.48748
  24263845.473   127507239.62906  24263850.429    99356252.41644
 15 03 02 00 32 30.0000000  0  7G16G18G19G21G22G27G31
  20742205.141   109001029.36909  20742203.228    84935857.73649
  22029920.030   115768122.34409  22029918.946    90208962.71447
  23765846.157   124890367.40306  23765844.020    97317156.70145
  22252386.105   116937093.27608  22252384.293    91119812.27548
  22533649.136   118415207.97708  22533647.830    92271619.81847
  21798651.781   114552712.52408  21798652.644    89261883.49348
  24282409.148   127604795.24106  24282414.283    99432269.98344
 15 03 02 00 33  0.0000000  0  7G16G18G19G21G22G27G31
  20734561.224   108960860.84409  20734559.464    84904557.58249
  22024706.448   115740725.66209  22024705.497    90187614.66747
  23751861.758   124816878.91906  23751859.608    97259892.99546
  22264429.517   117000381.73508  22264427.471    91169127.95248
  22518090.036   118333444.82408  22518088.823    92207908.43947
  21788993.217   114501956.77508  21788994.087    89222333.56648
  24300964.930   127702305.34507  24300970.379    99508251.81045
 15 03 02 00 33 30.0000000  0  7G16G18G19G21G22G27G31
  20726999.863   108921125.52909  20726997.962    84873594.99549
  22019579.106   115713781.45609  22019578.184    90166619.20847
  23737894.629   124743480.94406  23737892.396    97202699.81745
  22276508.316   117063855.65908  22276506.302    91218588.15148
  22502575.381   118251915.54408  22502574.304    92144379.29647
  21779359.134   114451329.35908  21779359.974    89182883.64148
  24319514.104   127799781.60008  24319520.107    99584207.53346
 15 03 02 00 34  0.0000000  0  7G16G18G19G21G22G27G31
  20719520.741   108881822.22809  20719519.051    84842969.04549
  22014537.648   115687288.44509  22014536.546    90145975.32647
  23723944.121   124670170.03006  23723941.999    97145574.46046
  22288621.302   117127509.98708  22288619.194    91268188.92148
  22487105.193   118170619.84408  22487103.840    92081032.14847
  21769748.890   114400827.62308  21769749.885    89143531.64848
  24338055.524   127897217.76306  24338061.648    99660131.76245
 15 03 02 00 34 30.0000000  0  7G16G18G19G21G22G27G31
  20712123.838   108842951.93109  20712122.165    84812680.49849
  22009582.045   115661246.73509  22009580.973    90125683.11347
  23710009.750   124596945.22506  23710007.648    97088516.21545
  22300768.210   117191342.42008  22300766.209    91317928.48048
  22471679.703   118089558.94108  22471677.944    92017867.96447
  21760162.514   114350450.62408  21760163.440    89104276.85448
  24356588.358   127994610.52705  24356595.173    99736022.07646
 15 03 02 00 35  0.0000000  0  7G16G18G19G21G22G27G31
  20704810.310   108804518.86409  20704808.526    84782732.65149
  22004713.127   115635659.64709  22004711.793    90105745.13747
  23696092.150   124523808.77506  23696090.122    97031526.80746
  22312948.929   117255353.46608  22312947.120    91367807.20848
  22456300.112   118008738.08108  22456297.966    91954890.80647
  21750600.479   114300201.07508  21750601.379    89065121.37548
  24375113.365   128092079.34716  24375119.398    99812029.02154
 15 03 02 00 35 30.0000000  0  7G16G18G19G21G22G27G31
  20697579.363   108766519.29109  20697577.440    84753122.59449
  21999929.754   115610522.91509  21999928.353    90086158.09447
  23682190.647   124450755.51106  23682188.646    96974602.20846
  22325162.357   117319535.49908  22325160.630    91417819.18147
  22440965.183   117928154.61108  22440963.487    91892098.64447
  21741061.465   114250073.71808  21741062.532    89026061.10948
  24393628.735   128189375.77407  24393632.566    99887844.38144
 15 03 02 00 36  0.0000000  0  7G16G18G19G21G22G27G31
  20690431.893   108728959.24109  20690430.136    84723855.01749
  21995233.409   115585842.92209  21995231.760    90066926.95247
  23668305.725   124377789.53207  23668303.346    96917745.63345
  22337408.984   117383891.67308  22337407.057    91467966.84648
  22425677.040   117847815.59608  22425675.377    91829496.95447
  21731546.778   114200073.01008  21731547.648    88987099.53148
  24412134.499   128286621.68607  24412139.346    99963620.05345
 15 03 02 00 36 30.0000000  0  7G16G18G19G21G22G27G31
  20683367.636   108691836.34809  20683365.907    84694928.08649
  21990623.209   115561615.87609  21990621.595    90048048.75647
  23654436.533   124304906.68607  23654434.075    96860953.85146
  22349687.624   117448415.39608  22349685.688    91518245.06748
  22410434.956   117767718.93608  22410433.582    91767084.10247
  21722055.117   114150194.77609  21722056.201    88948233.39248
  24430628.980   128383809.62307  24430634.685   100039350.28045
 15 03 02 00 37  0.0000000  0  7G16G18G19G21G22G27G31
  20676389.153   108655164.01609  20676387.385    84666352.23849
  21986101.546   115537854.56309  21986100.178    90029533.46547
  23640585.410   124232118.29507  23640583.103    96804235.65546
  22361999.842   117513116.60008  22361997.787    91568661.58848
  22395241.978   117687879.10808  22395240.314    91704871.39447
  21712589.357   114100451.05809  21712590.388    88909472.06748
  24449113.982   128480948.05905  24449119.958   100115041.51046
 15 03 02 00 37 30.0000000  0  7G16G18G19G21G22G27G31
  20669494.411   108618932.71809  20669492.867    84638120.05849
  21981666.449   115514548.75209  21981665.334    90011373.11547
  23626750.181   124159413.21007  23626747.823    96747582.37046
  22374343.342   117577982.13208  22374341.400    91619206.14748
  22380095.890   117608287.35108  22380093.923    91642851.95547
  21703146.785   114050830.60609  21703147.718    88870806.78648
  24467587.281   128578023.49205  24467593.828   100190683.57645
 15 03 02 00 38  0.0000000  0  7G16G18G19G21G22G27G31
  20662684.568   108583146.59609  20662682.834    84610234.76549
  21977318.903   115491702.08909  21977317.710    89993570.53747
  23612931.104   124086794.06307  23612928.792    96690996.06246
  22386718.080   117643012.75508  22386716.238    91669879.35348
  22364998.202   117528949.17908  22364996.678    91581030.13747
  21693728.326   114001336.20509  21693729.250    88832239.73348
  24486049.044   128675036.33905  24486055.706   100266277.00445
 15 03 02 00 38 30.0000000  0  7G16G18G19G21G22G27G31
  20655960.343   108547810.23909  20655958.473    84582699.94549
  21973059.288   115469318.25509  21973058.199    89976128.61647
  23599128.839   124014263.73207  23599126.487    96634478.96046
  22399124.594   117708209.36308  22399122.647    91720681.90047
  22349949.574   117449869.51308  22349947.937    91519409.74447
  21684334.278   113951970.58409  21684335.417    88793773.02548
  24504499.030   128771987.44806  24504505.615   100341822.89143
 15 03 02 00 39  0.0000000  0  7G16G18G19G21G22G27G31
  20649321.759   108512924.62009  20649320.089    84555516.34349
  21968888.048   115447398.08509  21968886.734    89959047.97647
  23585343.534   123941821.06207  23585341.384    96578030.17446
  22411562.188   117773569.89308  22411560.487    91771612.18147
  22334950.781   117371050.45008  22334949.295    91457992.43747
  21674964.806   113902733.77009  21674965.766    88755406.68348
  24522935.877   128868899.20314  24522942.162   100417351.03053
 15 03 02 00 39 30.0000000  0  7G16G18G19G21G22G27G31
  20642769.023   108478489.35609  20642767.184    84528683.66749
  21964804.722   115425940.25209  21964803.511    89942327.61147
  23571574.303   123869464.29407  23571572.324    96521648.30046
  22424030.177   117839072.89718  22424028.191    91822645.72257
  22320001.601   117292492.32408  22319999.779    91396778.42147
  21665619.485   113853623.62209  21665620.517    88717139.04348
  24541358.715   128965712.80805  24541366.633   100492789.78543
 15 03 02 00 40  0.0000000  0  7G16G18G19G21G22G27G31
  20636301.572   108444502.63909  20636299.765    84502200.51149
  21960808.978   115404942.12709  21960807.713    89925965.45347
  23557820.886   123797189.60007  23557818.808    96465330.38946
  22436527.833   117904747.24308  22436525.786    91873820.53447
  22305101.850   117214194.19508  22305099.992    91335767.00147
  21656297.546   113804636.65909  21656298.402    88678967.38548
  24559767.635   129062448.95705  24559775.167   100568168.12343
 15 03 02 00 40 30.0000000  0  7G16G18G19G21G22G27G31
  20629921.789   108410976.46309  20629919.992    84476076.21849
  21956902.858   115384415.11109  21956901.439    89909970.38647
  23544085.129   123725007.36607  23544082.782    96409084.53546
  22449056.254   117970584.53808  22449054.273    91925122.31347
  22290253.899   117136168.93508  22290252.204    91274968.19947
  21647001.090   113755783.67209  21647002.027    88640900.13048
  24578163.289   129159115.52307  24578170.807   100643492.25545
 15 03 02 00 41  0.0000000  0  7G16G18G19G21G22G27G31
  20623628.594   108377905.84709  20623626.687    84450306.90749
  21953085.177   115364353.68609  21953083.919    89894338.12347
  23530365.476   123652910.94807  23530363.264    96352905.52746
  22461614.154   118036576.21808  22461612.079    91976544.39647
  22275457.503   117058412.72308  22275455.770    91214379.05547
  21637729.047   113707058.16409  21637729.797    88602932.21048
  24596543.806   129255703.10607  24596551.137   100718755.00944
 15 03 02 00 41 30.0000000  0  7G16G18G19G21G22G27G31
  20617423.108   108345295.01409  20617421.052    84424895.86749
  21949356.927   115344761.19409  21949355.596    89879071.26247
  23516662.799   123580902.73607  23516660.699    96296795.25146
  22474201.557   118102723.15208  22474199.495    92028087.45047
  22260713.085   116980930.28608  22260711.210    91154003.23747
  21628481.551   113658462.89909  21628482.228    88565065.77548
  24614908.735   129352220.86516  24614916.702   100793974.55455
 15 03 02 00 42  0.0000000  0  7G16G18G19G21G22G27G31
  20611303.821   108313138.10309  20611301.864    84399838.53349
  21945716.604   115325631.04509  21945715.161    89864164.66647
  23502975.662   123508975.47107  23502973.479    96240748.06246
  22486816.511   118169015.90108  22486814.676    92079744.13247
  22246019.768   116903717.07408  22246017.959    91093837.20347
  21619257.566   113609990.78409  21619258.431    88527295.30248
  24633257.014   129448642.31216  24633263.372   100869098.57054
 15 03 02 00 42 30.0000000  0  7G16G18G19G21G22G27G31
  20605275.260   108281458.11009  20605273.277    84375152.82249
  21942168.205   115306984.98809  21942167.007    89849635.28647
  23489307.772   123437150.12907  23489305.366    96184780.29946
  22499463.017   118235473.80208  22499461.056    92131529.50447
  22231382.096   116826796.36508  22231380.323    91033899.09347
  21610061.250   113561663.15809  21610062.045    88489637.42148
  24651590.892   129544986.24714  24651599.987   100944177.06856
 15 03 02 00 43  0.0000000  0  6G16G18G19G21G22G27
  20599330.658   108250219.67409  20599328.945    84350811.18349
  21938705.464   115288787.91109  21938704.154    89835455.76247
  23475652.355   123365390.11507  23475649.736    96128863.43346
  22512133.676   118302058.81508  22512131.655    92183413.92947
  22216793.787   116750134.22408  22216791.629    90974162.45647
  21600885.263   113513443.58309  21600886.106    88452063.73448
 15 03 02 00 43 30.0000000  0  7G16G18G19G21G22G27G31
  20593480.100   108219474.09909  20593478.164    84326853.58849
  21935337.804   115271090.05009  21935336.451    89821665.23948
  23462018.431   123293744.92407  23462016.245    96073036.06346
  22524837.712   118368818.50908  22524835.676    92235434.45947
  22202264.647   116673783.26308  22202262.441    90914668.29547
  21591739.336   113465381.97909  21591740.441    88414613.14048
  24688205.142   129737403.05116  24688212.896   101094108.74851
 15 03 02 00 44  0.0000000  0  6G16G18G19G21G22G27
  20587713.800   108189172.89109  20587712.144    84303242.26149
  21932055.373   115253841.91709  21932054.276    89808225.15447
  23448397.174   123222164.48707  23448394.818    96017259.13046
  22537565.104   118435701.18308  22537562.919    92287550.82847
  22187785.423   116597695.40008  22187783.525    90855379.14947
  21582614.187   113417428.46309  21582615.040    88377246.77548
 15 03 02 00 44 30.0000000  0  6G16G18G19G21G22G27
  20582039.209   108159352.90209  20582037.457    84280005.89749
  21928865.638   115237079.77509  21928864.391    89795163.76747
  23434794.659   123150683.85207  23434792.353    95961559.96646
  22550322.019   118502739.97408  22550320.058    92339788.83547
  22173363.583   116521908.18008  22173361.674    90796324.26947
  21573516.239   113369618.39509  21573517.211    88339992.18648
 15 03 02 00 45  0.0000000  0  6G16G18G19G21G22G27
  20576454.288   108130003.91409  20576452.620    84257136.54749
  21925766.351   115220792.53909  21925765.144    89782472.43047
  23421209.225   123079291.35207  23421206.806    95905929.48546
  22563106.322   118569921.43908  22563104.516    92392138.02247
  22158997.227   116446412.34708  22158994.964    90737496.42847
  21564443.480   113321940.31709  21564444.346    88302840.44748
 15 03 02 00 45 30.0000000  0  6G16G18G19G21G22G27
  20570958.975   108101125.66409  20570957.438    84234634.00849
  21922757.192   115204979.48609  21922755.987    89770150.59147
  23407640.220   123007985.53007  23407637.634    95850366.52546
  22575917.028   118637242.28208  22575915.124    92444595.81947
  22144686.524   116371209.28308  22144684.105    90678896.73047
  21555395.643   113274393.02009  21555396.398    88265790.61148
 15 03 02 00 46  0.0000000  0  6G16G18G19G21G22G27
  20565554.289   108072723.50009  20565552.615    84212502.44649
  21919839.231   115189645.15309  21919837.826    89758201.77247
  23394088.188   122936769.96607  23394085.617    95794873.90746
  22588754.578   118704704.65408  22588752.776    92497163.89047
  22130432.499   116296304.93408  22130430.135    90620529.79347
  21546373.269   113226980.53109  21546374.088    88228845.82348
 15 03 02 00 46 30.0000000  0  6G16G18G19G21G22G27
  20560239.575   108044794.77009  20560237.892    84190739.79349
  21917011.531   115174785.93009  21917010.344    89746623.17448
  23380552.775   122865640.70107  23380550.369    95739448.54546
  22601618.043   118772302.55508  22601616.266    92549837.57447
  22116235.198   116221697.46108  22116232.954    90562394.18047
  21537375.827   113179698.93309  21537376.847    88192003.03048
 15 03 02 00 47  0.0000000  0  6G16G18G19G21G22G27
  20555015.874   108017343.91309  20555014.266    84169349.51049
  21914275.139   115160405.27709  21914273.709    89735417.48847
  23367034.318   122794599.95107  23367031.945    95684092.14046
  22614507.405   118840036.67108  22614505.569    92602617.40047
  22102095.468   116147392.20808  22102093.240    90504494.07147
  21528404.053   113132551.09809  21528404.793    88155264.46748
 15 03 02 00 47 30.0000000  0  6G16G18G19G21G22G27
  20549883.659   107990373.25309  20549881.957    84148333.40749
  21911630.093   115146505.06209  21911628.689    89724586.16548
  23353533.008   122723649.08407  23353530.303    95628805.76946
  22627422.670   118907906.53708  22627420.881    92655503.00347
  22088013.692   116073392.88108  22088011.483    90446832.34947
  21519457.749   113085538.38909  21519458.605    88118631.19848
 15 03 02 00 48  0.0000000  0  6G16G18G19G21G22G27
  20544842.823   107963883.88809  20544841.242    84127692.33549
  21909076.376   115133085.62909  21909075.020    89714129.47548
  23340048.255   122652787.92007  23340046.018    95573589.31146
  22640363.247   118975909.88508  22640361.350    92708492.62247
  22073990.725   115999701.22508  22073988.224    90389410.35247
  21510537.063   113038660.90209  21510538.019    88082103.29748
 15 03 02 00 48 30.0000000  0  6G16G18G19G21G22G27
  20539893.468   107937874.63309  20539891.845    84107425.38149
  21906613.736   115120144.86609  21906612.372    89704045.78048
  23326580.364   122582013.42107  23326577.994    95518440.37946
  22653328.606   119044042.40108  22653326.565    92761582.88647
  22060026.079   115926317.13708  22060023.661    90332228.02148
  21501641.906   112991916.13009  21501642.626    88045678.80648
 15 03 02 00 49  0.0000000  0  6G16G18G19G21G22G27
  20535037.201   107912354.05909  20535035.501    84087539.21449
  21904243.667   115107690.82009  21904242.511    89694341.34548
  23313130.380   122511333.12307  23313127.814    95463364.83146
  22666319.439   119112309.69008  22666317.625    92814778.16747
  22046121.866   115853250.41509  22046119.169    90275292.98047
  21492773.264   112945311.56909  21492774.113    88009363.57048
 15 03 02 00 49 30.0000000  0  6G16G18G19G21G22G27
  20530272.455   107887315.08909  20530270.726    84068028.32049
  21901964.839   115095715.03009  21901963.476    89685009.57747
  23299696.636   122440738.38507  23299694.104    95408355.97246
  22679334.002   119180701.05108  22679332.082    92868070.13347
  22032276.778   115780494.51809  22032274.406    90218600.14948
  21483929.922   112898839.02809  21483930.729    87973151.20448
 15 03 02 00 50  0.0000000  0  6G16G18G19G21G22G27
  20525600.321   107862763.73409  20525598.750    84048897.38849
  21899777.930   115084223.27509  21899776.548    89676054.97447
  23286280.116   122370234.06307  23286277.548    95353417.57146
  22692372.546   119249219.62908  22692370.688    92921461.23047
  22018492.262   115708056.70809  22018489.890    90162155.16947
  21475112.488   112852503.53609  21475113.250    87937045.63648
 15 03 02 00 50 30.0000000  0  6G16G18G19G21G22G27
  20521021.041   107838699.36009  20521019.305    84030145.92349
  21897682.729   115073213.57409  21897681.696    89667476.00048
  23272880.270   122299817.39907  23272877.659    95298547.45546
  22705434.636   119317861.77908  22705432.813    92974948.60647
  22004768.405   115635937.22609  22004765.848    90105958.23247
  21466320.977   112806303.11209  21466321.694    87901045.30848
 15 03 02 00 51  0.0000000  0  6G16G18G19G21G22G27
  20516535.823   107815129.03409  20516534.134    84011779.42749
  21895680.643   115062692.41709  21895679.323    89659277.70847
  23259498.234   122229494.57407  23259495.657    95243750.48746
  22718521.152   119386631.63508  22718519.289    93028535.50547
  21991106.511   115564144.14709  21991103.954    90050015.65448
  21457556.265   112760244.08609  21457557.001    87865155.16648
 15 03 02 00 51 30.0000000  0  6G16G18G19G21G22G27
  20512143.859   107792049.20209  20512142.263    83993795.13749
  21893770.678   115052655.29909  21893769.264    89651456.58848
  23246133.088   122159260.07107  23246130.418    95189022.32046
  22731630.665   119455522.05808  22731628.759    93082216.34547
  21977506.294   115492675.21209  21977503.747    89994325.64048
  21448817.363   112714321.71809  21448818.214    87829371.51348
 15 03 02 00 52  0.0000000  0  6G16G18G19G21G22G27
  20507845.929   107769463.17909  20507844.176    83976195.62949
  21891953.423   115043105.27709  21891952.087    89644015.02048
  23232785.174   122089116.96907  23232782.551    95134365.37546
  22744763.285   119524534.06808  22744761.199    93135991.93047
  21963968.693   115421535.04409  21963966.087    89938891.81348
  21440105.111   112668538.46609  21440106.005    87793696.25348
 15 03 02 00 52 30.0000000  0  6G16G18G19G21G22G27
  20503640.990   107747366.66709  20503639.373    83958977.56649
  21890227.590   115034036.80809  21890226.235    89636948.69448
  23219453.856   122019059.10407  23219450.834    95079774.85046
  22757917.338   119593659.55008  22757915.354    93189855.93247
  21950493.041   115350720.20009  21950490.477    89883711.47148
  21431418.202   112622888.91609  21431419.209    87758125.18548
 15 03 02 00 53  0.0000000  0  6G16G18G19G21G22G27
  20499531.394   107725770.38009  20499529.802    83942149.28249
  21888595.406   115025459.68209  21888594.171    89630265.23047
  23206140.151   121949095.99007  23206137.387    95025258.16446
  22771094.537   119662906.44908  22771092.683    93243814.54847
  21937081.527   115280242.19109  21937078.965    89828793.60348
  21422758.757   112577382.82009  21422759.545    87722665.90048
 15 03 02 00 53 30.0000000  0  6G16G18G19G21G22G27
  20495516.220   107704670.43509  20495514.501    83925707.76349
  21887055.904   115017369.07809  21887054.453    89623960.87348
  23192843.682   121879222.60107  23192840.981    94970811.38746
  22784293.614   119732268.00408  22784291.700    93297862.50247
  21923733.542   115210098.33709  21923730.987    89774136.11548
  21414125.739   112532015.38109  21414126.494    87687314.65748
 15 03 02 00 54  0.0000000  0  6G16G18G19G21G22G27
  20491596.389   107684071.89709  20491594.660    83909656.94949
  21885609.627   115009769.50009  21885608.495    89618039.13548
  23179564.896   121809442.39407  23179562.308    94916437.22447
  22797514.861   119801746.37708  22797512.930    93352001.47947
  21910450.175   115140294.30309  21910447.646    89719743.43048
  21405519.664   112486790.62309  21405520.503    87652074.59349
 15 03 02 00 54 30.0000000  0  6G16G18G19G21G22G27
  20487771.703   107663972.44109  20487770.065    83893995.02849
  21884256.270   115002657.80809  21884255.066    89612497.57048
  23166303.339   121739752.12607  23166300.688    94862133.13746
  22810757.489   119871336.17108  22810755.473    93406227.29247
  21897231.285   115070829.34709  21897228.621    89665614.95348
  21396940.224   112441705.51609  21396941.095    87616943.35249
 15 03 02 00 55  0.0000000  0  6G16G18G19G21G22G27
  20484041.966   107644372.69809  20484040.219    83878722.49649
  21882995.766   114996033.21909  21882994.445    89607335.56647
  23153058.779   121670151.09107  23153055.871    94807898.57746
  22824020.580   119941034.90408  22824018.570    93460537.98947
  21884077.360   115001705.06909  21884074.754    89611751.93948
  21388387.284   112396759.70009  21388388.092    87581920.64049
 15 03 02 00 55 30.0000000  0  6G16G18G19G21G22G27
  20480408.495   107625278.46109  20480406.629    83863843.86649
  21881828.704   114989900.86509  21881827.592    89602557.12348
  23139831.706   121600643.78907  23139829.296    94753737.05646
  22837305.097   120010845.95008  22837303.412    93514936.19547
  21870989.458   114932928.30309  21870986.986    89558159.71748
  21379861.955   112351958.22809  21379862.717    87547010.40349
 15 03 02 00 56  0.0000000  0  6G16G18G19G21G22G27
  20476870.556   107606686.83609  20476868.760    83849356.88249
  21880754.937   114984257.42909  21880753.525    89598159.65648
  23126622.079   121531226.41707  23126619.388    94699645.62946
  22850609.782   120080762.82308  22850607.943    93569416.86947
  21857967.635   114864497.28609  21857964.840    89504836.89648
  21371363.254   112307297.25409  21371363.949    87512209.65349
 15 03 02 00 56 30.0000000  0  6G16G18G19G21G22G27
  20473429.090   107588601.93809  20473427.324    83835264.74649
  21879774.602   114979105.85709  21879773.262    89594145.45448
  23113430.036   121461902.01707  23113427.399    94645626.63747
  22863935.053   120150787.96708  22863933.261    93623981.91347
  21845012.384   114796417.32809  21845009.663    89451787.64148
  21362891.911   112262780.32809  21362892.768    87477521.14349
