     2.11           OBSERVATION DATA    G                   RINEX VERSION / TYPE
SPIDER V4,0,0,3554                      2015 03 16 00:30    PGM / RUN BY / DATE 
EBGR                                                        MARKER NAME         
EBGR                                                        MARKER NUMBER       
                                                            OBSERVER / AGENCY   
496564              LEICA GRX1200+GNSS  8.20/4.007          REC # / TYPE / VERS 
10301050            LEIAR25         NONE                    ANT # / TYPE        
  5192132.1029   175475.0084  3689306.2490                  APPROX POSITION XYZ 
        0.0780        0.0000        0.0000                  ANTENNA: DELTA H/E/N
     1     1                                                WAVELENGTH FACT L1/2
     4    C1    L1    P2    L2                              # / TYPES OF OBSERV 
    30.000                                                  INTERVAL            
  2015    03    02    00    00    0.0000000     GPS         TIME OF FIRST OBS   
  2015    03    02    23    59   30.0000000     GPS         TIME OF LAST OBS    
    16                                                      LEAP SECONDS        
    30                                                      # OF SATELLITES     
   G 1   830   830   830   830                              PRN / # OF OBS      
   G 2   929   929   928   928                              PRN / # OF OBS      
   G 3   842   842   842   842                              PRN / # OF OBS      
   G 4   843   843   843   843                              PRN / # OF OBS      
   G 5   669   669   669   669                              PRN / # OF OBS      
   G 6   758   757   757   757                              PRN / # OF OBS      
   G 7   661   661   661   661                              PRN / # OF OBS      
   G 9   786   786   786   786                              PRN / # OF OBS      
   G10   780   780   780   780                              PRN / # OF OBS      
   G11   794   794   794   794                              PRN / # OF OBS      
   G12   815   815   815   815                              PRN / # OF OBS      
   G13   818   818   817   817                              PRN / # OF OBS      
   G14   935   935   935   935                              PRN / # OF OBS      
   G15   729   729   729   729                              PRN / # OF OBS      
   G16   690   690   690   690                              PRN / # OF OBS      
   G17   933   933   933   933                              PRN / # OF OBS      
   G18   933   925   923   921                              PRN / # OF OBS      
   G19   778   778   778   778                              PRN / # OF OBS      
   G20   794   793   793   793                              PRN / # OF OBS      
   G21   695   679   666   665                              PRN / # OF OBS      
   G22   787   787   786   786                              PRN / # OF OBS      
   G23   731   731   730   730                              PRN / # OF OBS      
   G24   839   838   838   838                              PRN / # OF OBS      
   G25   855   855   854   854                              PRN / # OF OBS      
   G27   828   828   828   828                              PRN / # OF OBS      
   G28   909   909   909   909                              PRN / # OF OBS      
   G29   755   755   755   755                              PRN / # OF OBS      
   G30   696   696   696   696                              PRN / # OF OBS      
   G31   811   811   811   811                              PRN / # OF OBS      
   G32   744   744   744   744                              PRN / # OF OBS      
BIT 2 OF LLI FLAGS DATA COLLECTED UNDER A/S CONDITION       COMMENT             
SNR is mapped to RINEX snr flag value [2-9]                 COMMENT             
Lx:     = 25dBHz -> 1; 26-27dBHz -> 2; 28-31dBHz -> 3       COMMENT             
       32-35dBHz -> 4; 36-38dBHz -> 5; 39-41dBHz -> 6       COMMENT             
       42-44dBHz -> 7; 45-48dBHz -> 8; >=49dBHz -> 9        COMMENT             
                                                            END OF HEADER       
 15 03 02 00 00  0.0000000  0  7G16G18G21G22G27G29G31
  21370631.580   112303435.94109  21370627.840    87509170.95948
  22550772.280   118505224.68409  22550769.560    92341771.69047
  21522740.940   113103078.78109  21522736.860    88132392.91748
  23674469.900   124410192.13008  23674470.740    96943022.82246
  22481286.100   118139984.41409  22481285.440    92057143.79748
  24449880.280   128485289.11908  24449878.420   100118477.17245
  23162293.600   121718682.12409  23162292.180    94845714.24447
 15 03 02 00 00 30.0000000  0  7G16G18G21G22G27G29G31
  21358625.240   112240342.27409  21358621.540    87460007.07748
  22540418.580   118450815.76609  22540415.860    92299375.19447
  21531525.200   113149240.17409  21531521.060    88168362.84248
  23657027.700   124318534.71108  23657028.340    96871601.80946
  22469880.880   118080049.50809  22469880.180    92010441.29548
  24464311.980   128561127.97007  24464310.120   100177572.36546
  23180306.820   121813341.32509  23180305.380    94919474.51747
 15 03 02 00 01  0.0000000  0  7G16G18G21G22G27G29G31
  21346676.760   112177552.57509  21346673.060    87411080.03948
  22530127.300   118396735.06609  22530124.560    92257234.44247
  21540367.780   113195708.16609  21540363.640    88204571.66248
  23639594.780   124226925.27209  23639595.220    96800218.08346
  22458498.960   118020237.08009  22458498.220    91963834.22948
  24478745.080   128636974.19908  24478743.140   100236673.27545
  23198346.940   121908142.31209  23198345.580    94993345.25047
 15 03 02 00 01 30.0000000  0  7G16G18G21G22G27G29G31
  21334785.540   112115063.75309  21334781.840    87362387.45648
  22519898.000   118342980.08909  22519895.260    92215347.49647
  21549267.340   113242475.57509  21549263.180    88241013.80248
  23622170.640   124135361.86508  23622170.960    96728870.34446
  22447139.360   117960542.04709  22447138.620    91917318.63048
  24493178.640   128712822.56708  24493176.620   100295775.88945
  23216412.400   122003076.74808  23216411.240    95067319.94947
 15 03 02 00 02  0.0000000  0  7G16G18G21G22G27G29G31
  21322953.000   112052883.19109  21322949.280    87313935.07548
  22509732.100   118289558.40509  22509729.400    92173720.25547
  21558224.600   113289546.32109  21558220.460    88277692.31148
  23604756.660   124043851.89408  23604756.920    96657564.13346
  22435803.100   117900969.73309  22435802.380    91870898.66948
  24507613.660   128788678.67808  24507611.600   100354884.52345
  23234503.780   122098147.37308  23234502.780    95141400.79047
 15 03 02 00 02 30.0000000  0  7G16G18G21G22G27G29G31
  21311178.900   111991009.59109  21311175.100    87265721.88248
  22499629.400   118236468.62009  22499626.680    92132351.64147
  21567238.480   113336914.81909  21567234.400    88314602.83648
  23587352.800   123952394.90708  23587353.040    96586299.30046
  22424489.500   117841516.39309  22424488.800    91824571.40948
  24522049.420   128864538.85908  24522047.320   100413996.35644
  23252619.820   122193347.34608  23252618.960    95215582.41947
 15 03 02 00 03  0.0000000  0  7G16G18G21G22G27G29G31
  21299463.560   111929444.84609  21299459.700    87217749.36248
  22489590.300   118183712.87309  22489587.520    92091243.30747
  21576308.580   113384578.71309  21576304.540    88351743.53048
  23569959.320   123860993.04008  23569959.540    96515077.36346
  22413198.480   117782181.95009  22413197.800    91778336.81048
  24536485.880   128940402.60608  24536483.720   100473110.92945
  23270759.840   122288673.51108  23270759.100    95289862.37447
 15 03 02 00 03 30.0000000  0  7G16G18G21G22G27G29G31
  21287807.980   111868194.26009  21287804.060    87170021.63048
  22479615.740   118131296.24309  22479612.980    92050399.22747
  21585435.300   113432540.06109  21585431.280    88389116.00948
  23552577.460   123769652.54408  23552577.640    96443903.36846
  22401930.700   117722969.50109  22401930.020    91732197.25748
  24550923.660   129016273.51008  24550921.520   100532231.08244
  23288923.960   122384125.99909  23288923.300    95364240.75847
 15 03 02 00 04  0.0000000  0  6G16G18G21G22G27G31
  21276217.460   111807285.64209  21276213.500    87122560.38048
  22469710.960   118079246.35409  22469708.220    92009840.92347
  21594623.140   113480822.62209  21594619.120    88426738.78448
  23535212.460   123678400.54208  23535212.580    96372797.92746
  22390691.040   117663904.54209  22390690.300    91686172.64648
  23307116.440   122479727.67708  23307115.800    95438735.38047
 15 03 02 00 04 30.0000000  0  6G16G18G21G22G27G31
  21264681.000   111746661.32809  21264677.060    87075320.66548
  22459865.040   118027505.66609  22459862.300    91969523.54747
  21603860.300   113529364.17109  21603856.260    88464563.37648
  23517853.760   123587181.08008  23517853.740    96301717.99446
  22379468.060   117604927.34909  22379467.260    91640216.41748
  23325325.380   122575415.17008  23325324.660    95513296.90547
 15 03 02 00 05  0.0000000  0  6G16G18G21G22G27G31
  21253206.140   111686360.79909  21253202.260    87028333.24848
  22450085.520   117976114.17309  22450082.800    91929478.27347
  21613153.520   113578200.49509  21613149.480    88502617.65648
  23500509.000   123496034.44508  23500508.880    96230695.00246
  22368268.860   117546075.44509  22368268.060    91594357.81348
  23343557.360   122671223.75208  23343556.600    95587952.76347
 15 03 02 00 05 30.0000000  0  6G16G18G21G22G27G31
  21241791.940   111626378.93909  21241788.080    86981594.13648
  22440371.460   117925066.60609  22440368.700    91889700.98547
  21622501.160   113627322.93509  21622497.200    88540894.88448
  23483177.380   123404957.09408  23483177.160    96159726.60346
  22357092.120   117487341.54509  22357091.360    91548591.15648
  23361810.380   122767143.06108  23361809.580    95662694.90947
 15 03 02 00 06  0.0000000  0  6G16G18G21G22G27G31
  21230439.660   111566722.52009  21230435.840    86935108.61748
  22430724.120   117874369.48709  22430721.260    91850196.77547
  21631903.680   113676733.95809  21631899.820    88579396.98248
  23465859.740   123313953.47008  23465859.180    96088814.97046
  22345938.760   117428730.34609  22345938.060    91502920.11048
  23380084.740   122863174.60908  23380083.960    95737524.50547
 15 03 02 00 06 30.0000000  0  7G16G18G19G21G22G27G31
  21219148.660   111507387.92309  21219144.840    86888873.86448
  22421142.860   117824019.70209  22421139.940    91810963.21747
  24543962.340   128979403.18507  24543959.660   100503415.97245
  21641359.740   113726426.22209  21641355.920    88618118.22748
  23448555.840   123223022.31208  23448555.120    96017959.99146
  22334807.640   117370236.04909  22334806.960    91457340.16348
  23398378.800   122959309.75709  23398378.100    95812434.81747
 15 03 02 00 07  0.0000000  0  7G16G18G19G21G22G27G31
  21207909.860   111448327.47809  21207906.020    86842852.74448
  22411618.460   117773968.78209  22411615.520    91771962.53947
  24528871.680   128900094.37108  24528866.700   100441616.86644
  21650859.420   113776347.68208  21650855.640    88657018.06648
  23431256.760   123132116.63009  23431255.920    95947124.91748
  22323689.260   117311808.69909  22323688.640    91411812.38348
  23416682.480   123055495.71208  23416681.840    95887384.71947
 15 03 02 00 07 30.0000000  0  7G16G18G19G21G22G27G31
  21196744.920   111389655.11709  21196741.040    86797134.02348
  22402172.720   117724331.20409  22402169.720    91733283.95247
  24513806.940   128820926.68907  24513802.520   100379927.90646
  21660423.600   113826607.98908  21660419.860    88696181.94648
  23413983.860   123041349.06708  23413982.960    95876396.97646
  22312604.920   117253560.18309  22312604.320    91366423.95348
  23435016.560   123151840.98308  23435015.940    95962458.79147
 15 03 02 00 08  0.0000000  0  7G16G18G19G21G22G27G31
  21185643.000   111331313.83209  21185639.060    86751673.27548
  22392794.760   117675049.81509  22392791.720    91694882.89847
  24498757.840   128741841.44308  24498753.560   100318303.06745
  21670040.820   113877146.79809  21670037.100    88735562.82848
  23396726.760   122950664.22308  23396725.980    95805733.37647
  22301543.320   117195431.46709  22301542.800    91321128.86448
  23453369.140   123248283.82908  23453368.620    96037608.85047
 15 03 02 00 08 30.0000000  0  7G16G18G19G21G22G27G31
  21174604.800   111273307.68909  21174600.860    86706473.68748
  22383485.420   117626128.90009  22383482.380    91656762.73447
  24483724.400   128662840.53507  24483719.900   100256743.93246
  21679711.240   113927964.82509  21679707.500    88775161.29248
  23379486.460   122860067.29309  23379485.900    95735138.41547
  22290504.920   117137424.50409  22290504.440    91275928.65848
  23471740.160   123344823.38208  23471739.620    96112834.29947
 15 03 02 00 09  0.0000000  0  7G16G18G19G21G22G27G31
  21163629.700   111215633.22009  21163625.800    86661532.55548
  22374243.940   117577564.61409  22374240.900    91618920.47747
  24468706.020   128583918.42008  24468701.540   100195246.24046
  21689433.140   113979053.19209  21689429.300    88814970.42648
  23362262.340   122769554.40709  23362261.820    95664608.64646
  22279488.640   117079533.61409  22279488.140    91230818.89248
  23490127.860   123441450.85608  23490127.460    96188128.23047
 15 03 02 00 09 30.0000000  0  7G16G18G19G21G22G27G31
  21152719.820   111158301.60509  21152715.980    86616858.56848
  22365072.460   117529368.18209  22365069.460    91581364.85147
  24453704.060   128505083.85208  24453699.600   100133816.82245
  21699208.040   114030420.13909  21699204.100    88854996.61448
  23345056.920   122679138.74008  23345056.340    95594154.93246
  22268496.240   117021768.00209  22268495.660    91185806.74748
  23508533.400   123538172.39108  23508533.120    96263495.43847
 15 03 02 00 10  0.0000000  0  7G16G18G19G21G22G27G31
  21141873.900   111101306.22409  21141870.160    86572446.59048
  22355969.720   117481533.13109  22355966.720    91544090.81647
  24438717.160   128426328.39307  24438713.380   100072449.02446
  21709033.900   114082054.87209  21709029.840    88895231.47148
  23327868.800   122588813.64809  23327868.080    95523771.80947
  22257526.080   116964119.06809  22257525.380    91140885.52448
  23526954.680   123634976.45308  23526954.500    96338926.98047
 15 03 02 00 10 30.0000000  0  7G16G18G19G21G22G27G31
  21131094.120   111044658.31609  21131090.460    86528305.35948
  22346937.780   117434070.29209  22346934.780    91507106.81447
  24423747.040   128347661.11908  24423743.560   100011149.93146
  21718911.960   114133964.32309  21718907.880    88935680.38848
  23310700.280   122498591.73308  23310699.320    95453469.38246
  22246579.840   116906595.92009  22246579.060    91096062.31148
  23545392.940   123731869.38808  23545392.820    96414427.76046
 15 03 02 00 11  0.0000000  0  7G16G18G19G21G22G27G31
  21120378.880   110988349.59409  21120375.300    86484428.43948
  22337975.100   117386971.33809  22337972.120    91470406.36547
  24408791.800   128269071.38607  24408788.160    99949911.15547
  21728839.980   114186136.34609  21728835.900    88976333.92348
  23293549.600   122408464.09908  23293548.300    95383240.20146
  22235655.420   116849187.95309  22235654.660    91051328.84648
  23563845.520   123828837.51208  23563845.300    96489987.13546
 15 03 02 00 11 30.0000000  0  7G16G18G19G21G22G27G31
  21109730.280   110932391.21709  21109726.800    86440824.50748
  22329083.720   117340247.06509  22329080.740    91433997.88047
  24393853.120   128190568.53208  24393849.360    99888740.14146
  21738819.380   114238578.72609  21738815.360    89017198.11548
  23276418.920   122318442.02808  23276417.540    95313092.95445
  22224754.580   116791904.24309  22224753.900    91006692.20748
  23582313.640   123925886.66408  23582313.300    96565609.65847
 15 03 02 00 12  0.0000000  0  7G16G18G19G21G22G27G31
  21099148.060   110876781.84609  21099144.700    86397492.53248
  22320263.420   117293896.23809  22320260.380    91397880.37947
  24378930.380   128112149.17408  24378926.280    99827634.15046
  21748849.120   114291285.45209  21748845.100    89058268.29148
  23259308.360   122228526.08808  23259307.100    95243028.51447
  22213876.820   116734741.65109  22213876.220    90962149.94048
  23600796.020   124023010.94108  23600795.580    96641290.69446
 15 03 02 00 12 30.0000000  0  7G16G18G19G21G22G27G31
  21088631.980   110821519.93509  21088628.700    86354431.30848
  22311513.900   117247917.46309  22311510.880    91362052.79747
  24364022.900   128033809.72308  24364018.940    99766590.47946
  21758928.200   114344251.35909  21758924.180    89099540.43048
  23242217.660   122138714.99108  23242216.660    95173045.85347
  22203021.460   116677696.63609  22203020.940    90917699.30448
  23619291.400   124120203.90708  23619291.100    96717025.25247
 15 03 02 00 13  0.0000000  0  7G16G18G19G21G22G27G31
  21078183.720   110766614.18909  21078180.460    86311647.61548
  22302836.740   117202319.13909  22302833.780    91326521.66447
  24349131.860   127955556.47508  24349128.100    99705613.98945
  21769057.480   114397481.00109  21769053.400    89141018.07748
  23225148.780   122049018.45408  23225148.000    95103152.75446
  22192189.740   116620775.61809  22192189.220    90873345.29148
  23637800.460   124217469.01508  23637800.300    96792816.00747
 15 03 02 00 13 30.0000000  0  7G16G18G19G21G22G27G31
  21067802.640   110712061.07209  21067799.320    86269138.69248
  22294231.300   117157097.59909  22294228.400    91291284.13547
  24334256.220   127877383.82308  24334252.620    99644700.25746
  21779235.580   114450967.30909  21779231.500    89182695.71848
  23208101.040   121959432.71409  23208100.280    95033345.88347
  22181380.580   116563973.12809  22181380.020    90829083.63048
  23656321.660   124314797.71808  23656321.620    96868656.31847
 15 03 02 00 14  0.0000000  0  7G16G18G19G21G22G27G31
  21057490.520   110657869.98809  21057487.080    86226911.87348
  22285699.400   117112262.17509  22285696.480    91256347.47447
  24319397.240   127799299.46907  24319393.680    99583855.38046
  21789463.480   114504715.24709  21789459.420    89224577.23648
  23191076.460   121869968.47308  23191075.680    94963633.79446
  22170595.360   116507296.56709  22170594.780    90784920.09948
  23674855.780   124412194.48008  23674855.880    96944549.63647
 15 03 02 00 14 30.0000000  0  7G16G18G19G21G22G27G31
  21047246.480   110604036.73709  21047242.920    86184963.88448
  22277240.100   117067808.25309  22277237.180    91221708.08547
  24304553.680   127721296.51507  24304550.200    99523073.90747
  21799739.720   114558717.30009  21799735.680    89266656.75448
  23174074.340   121780622.15709  23174073.440    94894013.71147
  22159832.920   116450739.55009  22159832.300    90740849.70448
  23693401.140   124509649.77008  23693401.160    97020488.57546
 15 03 02 00 15  0.0000000  0  7G16G18G19G21G22G27G31
  21037071.840   110550568.26709  21037068.160    86143300.14548
  22268854.700   117023742.82909  22268851.760    91187371.42247
  24289726.620   127643379.94408  24289723.020    99462359.74946
  21810064.700   114612975.70609  21810060.720    89308936.03048
  23157096.020   121691401.25309  23157094.900    94824491.61447
  22149094.160   116394307.05909  22149093.520    90696876.35748
  23711958.060   124607165.81808  23711957.940    97096474.86346
 15 03 02 00 15 30.0000000  0  7G16G18G19G21G22G27G31
  21026965.860   110497460.99209  21026962.140    86101917.86148
  22260542.460   116980061.74709  22260539.500    91153334.24847
  24274915.000   127565544.27208  24274911.160    99401708.59246
  21820437.060   114667483.27509  21820433.180    89351409.46448
  23140140.940   121602303.11809  23140139.540    94755065.38646
  22138378.040   116337993.41509  22138377.380    90652995.62048
  23730524.820   124704733.51308  23730524.580    97172501.39646
 15 03 02 00 16  0.0000000  0  7G16G18G19G21G22G27G31
  21016929.580   110444720.32609  21016925.940    86060821.23648
  22252304.380   116936770.50209  22252301.400    91119600.83547
  24260119.520   127487793.04008  24260115.520    99341123.24545
  21830857.160   114722241.71409  21830853.340    89394078.36948
  23123209.960   121513332.46908  23123208.300    94685738.07547
  22127685.280   116281802.36209  22127684.520    90609210.39648
  23749101.660   124802354.10008  23749101.440    97248569.13846
 15 03 02 00 16 30.0000000  0  7G16G18G19G21G22G27G31
  21006963.240   110392347.08409  21006959.660    86020010.92648
  22244140.660   116893870.05609  22244137.660    91086171.95447
  24245339.820   127410124.69508  24245335.620    99280602.44746
  21841324.500   114777248.04109  21841320.680    89436940.44548
  23106303.620   121424491.55408  23106301.820    94616511.78147
  22117015.640   116225732.59409  22117014.740    90565519.69048
  23767687.700   124900023.18808  23767687.680    97324674.63346
 15 03 02 00 17  0.0000000  0  7G16G18G19G21G22G27G31
  20997068.340   110340349.22809  20997064.800    85979493.11448
  22236052.660   116851367.47909  22236049.680    91053053.08647
  24230576.740   127332545.05908  24230572.820    99220150.87646
  21851839.660   114832505.60909  21851835.840    89479998.28348
  23089423.560   121335788.79908  23089421.840    94547393.15247
  22106370.160   116169789.87209  22106369.160    90521927.97148
  23786283.460   124997743.64608  23786283.540    97400820.17046
 15 03 02 00 17 30.0000000  0  7G16G18G19G21G22G27G31
  20987243.320   110288718.54409  20987239.820    85939261.41448
  22228038.880   116809254.87809  22228035.860    91020238.10547
  24215828.740   127255044.13208  24215824.480    99159760.53546
  21862400.400   114888002.64609  21862396.560    89523242.73248
  23072568.460   121247216.96309  23072566.720    94478376.50247
  22095746.860   116113964.12509  22095745.860    90478427.41048
  23804886.340   125095502.06508  23804886.680    97476995.25646
 15 03 02 00 18  0.0000000  0  7G16G18G19G21G22G27G31
  20977490.400   110237466.50109  20977486.860    85899324.75748
  22220101.460   116767543.48309  22220098.420    90987735.74847
  24201097.380   127177631.14308  24201093.360    99099438.77746
  21873008.240   114943747.17209  21873004.380    89566680.02448
  23055740.680   121158788.13809  23055738.940    94409471.28447
  22085147.600   116058264.95309  22085146.660    90435025.47048
  23823497.800   125193305.22008  23823498.360    97553205.19946
 15 03 02 00 18 30.0000000  0  7G16G18G19G21G22G27G31
  20967808.960   110186589.83609  20967805.320    85859680.60548
  22212239.740   116726229.93609  22212236.700    90955543.40547
  24186381.840   127100301.02308  24186377.780    99039181.56346
  21883661.700   114999731.49209  21883657.800    89610304.16848
  23038939.640   121070499.59309  23038937.760    94340675.34947
  22074571.440   116002687.09609  22074570.540    90391718.05748
  23842116.220   125291144.90208  23842116.860    97629443.60646
 15 03 02 00 19  0.0000000  0  7G16G18G19G21G22G27G31
  20958199.420   110136090.85009  20958195.660    85820330.74548
  22204453.980   116685315.72809  22204450.960    90923662.23247
  24171682.220   127023053.81208  24171678.200    98978988.95646
  21894360.500   115055954.13409  21894356.640    89654114.02148
  23022165.860   120982353.91109  23022163.820    94271990.71747
  22064018.460   115947230.63909  22064017.520    90348505.23948
  23860741.140   125389018.30808  23860741.880    97705708.27646
 15 03 02 00 19 30.0000000  0  7G16G18G19G21G22G27G31
  20948662.860   110085975.38209  20948658.980    85781279.73548
  22196745.220   116644806.00209  22196742.160    90892096.24147
  24156999.040   126945893.17308  24156994.980    98918863.80346
  21905104.920   115112416.65009  21905101.100    89698110.79148
  23005420.620   120894358.04809  23005418.340    94203422.80947
  22053489.340   115891899.55609  22053488.400    90305390.12848
  23879372.720   125486926.43008  23879373.540    97781999.97946
 15 03 02 00 20  0.0000000  0  7G16G18G19G21G22G27G31
  20939199.260   110036243.46309  20939195.320    85742527.59548
  22189113.580   116604701.45309  22189110.520    90860845.96947
  24142331.880   126868817.31007  24142327.900    98858804.75246
  21915894.380   115169115.56109  21915890.580    89742291.76048
  22988704.020   120806512.87009  22988701.580    94134972.30647
  22042983.780   115836692.18709  22042982.780    90262371.41348
  23898010.060   125584864.64108  23898010.840    97858315.12346
 15 03 02 00 20 30.0000000  0  7G16G18G19G21G22G27G31
  20929808.960   109986896.79609  20929804.980    85704075.65148
  22181559.240   116565003.06209  22181556.160    90829912.18347
  24127680.720   126791825.84308  24127676.800    98798811.44746
  21926728.460   115226048.94909  21926724.700    89786655.44548
  22972016.500   120718820.44609  22972013.920    94066640.83347
  22032501.620   115781608.20109  22032500.680    90219448.84348
  23916652.420   125682829.31708  23916653.320    97934650.88846
 15 03 02 00 21  0.0000000  0  7G16G18G19G21G22G27G31
  20920491.720   109937934.27709  20920487.700    85665923.04148
  22174082.000   116525709.79109  22174078.900    90799294.08047
  24113045.260   126714916.00508  24113041.420    98738881.72646
  21937606.180   115283211.75809  21937602.420    89831197.89748
  22955358.120   120631281.03209  22955355.420    93998428.56747
  22022042.360   115726644.90209  22022041.480    90176620.30948
  23935298.740   125780814.97908  23935299.700    98011002.97146
 15 03 02 00 21 30.0000000  0  7G16G18G19G21G22G27G31
  20911248.780   109889362.25509  20911244.740    85628074.70848
  22166682.940   116486827.67809  22166679.820    90768996.34647
  24098426.040   126638091.56708  24098422.100    98679018.57246
  21948527.980   115340606.01309  21948524.220    89875920.68048
  22938730.000   120543900.94109  22938727.280    93930340.44247
  22011606.840   115671806.23109  22011606.020    90133888.87948
  23953949.180   125878822.52108  23953950.180    98087372.07046
 15 03 02 00 22  0.0000000  0  7G16G18G19G21G22G27G31
  20902080.480   109841182.76609  20902076.500    85590532.25248
  22159362.380   116448358.06009  22159359.260    90739020.05147
  24083823.120   126561352.68108  24083819.240    98619222.09346
  21959493.500   115398229.89209  21959489.720    89920822.41248
  22922132.760   120456683.02009  22922129.980    93862378.67247
  22001195.140   115617092.46809  22001194.320    90091254.80248
  23972603.280   125976849.43708  23972604.340    98163756.28946
 15 03 02 00 22 30.0000000  0  7G16G18G19G21G22G27G31
  20892986.460   109793393.88309  20892982.580    85553294.15848
  22152119.960   116410299.18009  22152116.840    90709363.80947
  24069235.720   126484695.46908  24069231.740    98559489.22446
  21970501.700   115456078.18109  21970497.860    89965899.00348
  22905566.140   120369626.02209  22905563.420    93794542.28347
  21990806.520   115562499.88609  21990805.620    90048715.14048
  23991259.800   126074888.68508  23991260.920    98240150.09746
 15 03 02 00 23  0.0000000  0  7G16G18G19G21G22G27G31
  20883968.260   109746003.46609  20883964.480    85516366.56448
  22144957.020   116372657.92109  22144953.920    90680032.98547
  24054664.920   126408125.65008  24054660.980    98499824.48246
  21981553.380   115514154.82109  21981549.460    90011153.53148
  22889031.780   120282738.56609  22889029.060    93726837.99847
  21980442.060   115508034.40709  21980441.140    90006274.52648
  24009919.320   126172943.27208  24009920.480    98316555.84746
 15 03 02 00 23 30.0000000  0  7G16G18G19G21G22G27G31
  20875025.480   109699009.27609  20875021.800    85479747.71348
  22137873.280   116335432.45009  22137870.100    90651026.14947
  24040110.040   126331639.53408  24040106.000    98440224.95246
  21992647.220   115572453.40909  21992643.340    90056581.00148
  22872529.460   120196019.48709  22872526.780    93659264.90947
  21970100.960   115453692.12409  21970100.140    89963929.89448
  24028580.520   126271006.41708  24028581.660    98392968.25346
 15 03 02 00 24  0.0000000  0  7G16G18G19G21G22G27G31
  20866158.660   109652414.04109  20866155.040    85443439.74448
  22130869.040   116298624.61009  22130865.780    90622344.74447
  24025571.220   126255237.49808  24025567.200    98380690.94946
  22003783.020   115630972.68509  22003779.160    90102180.44148
  22856059.740   120109471.69909  22856057.100    93591825.29147
  21959783.320   115399473.63209  21959782.720    89921681.73548
  24047242.880   126369075.92608  24047244.160    98469385.61646
 15 03 02 00 24 30.0000000  0  7G16G18G19G21G22G27G31
  20857368.800   109606223.09609  20857365.180    85407446.80448
  22123945.180   116262239.41509  22123941.860    90593992.67247
  24011049.080   126178922.76108  24011045.020    98321224.94546
  22014961.100   115689714.13409  22014957.280    90147953.00648
  22839623.880   120023101.61509  22839621.200    93524524.12947
  21949490.040   115345382.61209  21949489.560    89879532.89648
  24065906.580   126467152.11608  24065907.940    98545808.20246
 15 03 02 00 25  0.0000000  0  7G16G18G19G21G22G27G31
  20848655.640   109560435.03409  20848652.000    85371767.79248
  22117101.440   116226275.34509  22117098.100    90565968.74447
  23996542.840   126102692.04508  23996538.840    98261824.46546
  22026180.540   115748672.87009  22026176.740    90193894.87148
  22823221.740   119936908.55209  22823219.000    93457360.89447
  21939220.460   115291415.82509  21939220.060    89837480.86148
  24084570.340   126565228.94808  24084571.700    98622231.24046
 15 03 02 00 25 30.0000000  0  7G16G18G19G21G22G27G31
  20840020.180   109515055.14409  20840016.480    85336406.84948
  22110338.780   116190737.39509  22110335.420    90538276.86047
  23982053.200   126026548.73308  23982049.100    98202492.05346
  22037441.680   115807850.68609  22037437.860    90240007.45148
  22806854.520   119850898.68509  22806851.680    93390340.41747
  21928975.260   115237576.80209  21928974.820    89795528.38948
  24103234.320   126663306.87208  24103235.760    98698655.14446
 15 03 02 00 26  0.0000000  0  7G16G18G19G21G22G27G31
  20831461.800   109470080.24809  20831458.040    85301361.47248
  22103656.360   116155621.40909  22103653.020    90510913.78047
  23967579.260   125950487.65708  23967575.140    98143223.73146
  22048743.140   115867240.46409  22048739.320    90286285.20448
  22790521.700   119765069.27609  22790518.660    93323460.54247
  21918753.420   115183860.46809  21918752.900    89753671.52648
  24121896.980   126761377.86508  24121898.540    98775073.62746
 15 03 02 00 26 30.0000000  0  7G16G18G19G21G22G27G31
  20822981.880   109425517.97109  20822978.140    85266637.61948
  22097055.780   116120935.45009  22097052.460    90483885.78547
  23953122.020   125874514.75508  23953117.860    98084024.12046
  22060085.660   115926845.83809  22060081.800    90332730.94848
  22774224.800   119679428.74109  22774221.600    93256727.83147
  21908556.040   115130272.61109  21908555.460    89711914.76748
  24140558.660   126859444.57608  24140560.460    98851488.68945
 15 03 02 00 27  0.0000000  0  7G16G18G19G21G22G27G31
  20814579.640   109381364.16409  20814575.960    85232232.06048
  22090536.100   116086674.45209  22090532.740    90457188.93047
  23938680.360   125798623.63508  23938676.060    98024888.21946
  22071467.680   115986658.79109  22071463.820    90379338.44048
  22757963.200   119593973.74209  22757959.880    93190139.70147
  21898381.960   115076807.34709  21898381.320    89670253.53248
  24159217.880   126957498.27008  24159219.900    98927893.59745
 15 03 02 00 27 30.0000000  0  7G16G18G19G21G22G27G31
  20806256.580   109337626.72709  20806253.020    85198150.93448
  22084098.720   116052845.93909  22084095.340    90430829.07547
  23924255.460   125722820.42908  23924251.300    97965820.84846
  22082889.980   116046683.51409  22082886.140    90426110.94148
  22741738.540   119508713.02509  22741735.120    93123702.94547
  21888232.400   115023470.85809  21888231.720    89628692.63848
  24177875.340   127055542.02108  24177877.640    99004290.70346
 15 03 02 00 28  0.0000000  0  7G16G18G19G21G22G27G31
  20798012.320   109294303.14609  20798008.840    85164392.30148
  22077743.160   116019447.38509  22077739.800    90404804.24847
  23909846.420   125647100.72508  23909842.240    97906818.51846
  22094351.380   116106913.49909  22094347.560    90473043.39248
  22725550.420   119423644.63509  22725546.920    93057416.05747
  21878106.500   114970258.79909  21878105.780    89587228.71548
  24196529.660   127153568.72408  24196532.220    99080674.49046
 15 03 02 00 28 30.0000000  0  7G16G18G19G21G22G27G31
  20789848.360   109251401.13109  20789844.840    85130962.15548
  22071470.660   115986485.47509  22071467.400    90379119.66547
  23895454.320   125571470.07908  23895450.300    97847885.61846
  22105852.640   116167352.87109  22105848.840    90520139.00248
  22709400.480   119338777.11209  22709397.000    92991285.68647
  21868005.440   114917177.18709  21868004.700    89545866.43148
  24215181.340   127251581.00808  24215183.960    99157047.06846
 15 03 02 00 29  0.0000000  0  7G16G18G19G21G22G27G31
  20781763.900   109208916.72009  20781760.340    85097857.42648
  22065280.480   115953955.97809  22065277.240    90353772.02947
  23881078.140   125495922.98508  23881074.100    97789017.78246
  22117392.340   116227994.30609  22117388.540    90567392.07148
  22693288.220   119254107.57609  22693284.760    92925309.59447
  21857928.100   114864220.34709  21857927.360    89504601.37648
  24233828.680   127349570.64608  24233831.460    99233401.96646
 15 03 02 00 29 30.0000000  0  7G16G18G19G21G22G27G31
  20773759.780   109166854.16009  20773756.120    85065081.41448
  22059173.340   115921862.84309  22059170.140    90328764.42047
  23866718.300   125420461.49808  23866714.160    97730216.64746
  22128970.640   116288838.39209  22128966.780    90614803.04948
  22677214.520   119169640.80309  22677211.060    92859491.48947
  21847874.980   114811390.77209  21847874.200    89463435.48748
  24252471.600   127447537.23708  24252474.660    99309738.84747
 15 03 02 00 30  0.0000000  0  7G16G18G19G21G22G27G31
  20765836.340   109125215.67709  20765832.600    85032635.84248
  22053149.660   115890208.10709  22053146.420    90304098.41147
  23852374.760   125345086.03108  23852370.720    97671482.60146
  22140587.120   116349883.22009  22140583.260    90662370.44748
  22661180.060   119085379.93809  22661176.600    92793833.82847
  21837846.220   114758689.09809  21837845.400    89422369.25648
  24271109.800   127545478.27908  24271112.920    99386055.95246
 15 03 02 00 30 30.0000000  0  7G16G18G19G21G22G27G31
  20757993.840   109084002.64009  20757990.040    85000521.78049
  22047209.480   115858992.32909  22047206.240    90279774.45347
  23838047.540   125269796.35408  23838043.360    97612815.36046
  22152241.420   116411126.78009  22152237.540    90710092.69648
  22645185.160   119001327.08309  22645181.680    92728338.23647
  21827841.720   114706115.09009  21827840.880    89381402.50948
  24289742.520   127643390.63008  24289745.520    99462350.77945
 15 03 02 00 31  0.0000000  0  7G16G18G19G21G22G27G31
  20750232.720   109043217.57209  20750228.900    84968741.21348
  22041353.200   115828217.58309  22041349.980    90255794.15547
  23823736.820   125194592.94808  23823732.540    97554215.36046
  22163933.220   116472567.49309  22163929.320    90757968.57448
  22629230.500   118917485.40209  22629227.020    92663007.19047
  21817861.600   114653669.35309  21817860.720    89340535.71348
  24308369.040   127741271.82508  24308372.140    99538621.29746
 15 03 02 00 31 30.0000000  0  7G16G18G19G21G22G27G31
  20742553.160   109002861.36909  20742549.360    84937294.82148
  22035580.840   115797883.76809  22035577.620    90232157.43947
  23809442.300   125119474.64108  23809437.800    97495681.66346
  22175662.020   116534202.67209  22175658.100    90805995.98648
  22613316.420   118833856.95909  22613312.920    92597842.31147
  21807905.760   114601351.23709  21807904.880    89299768.35448
  24326988.860   127839117.92408  24326992.220    99614864.55046
 15 03 02 00 32  0.0000000  0  7G16G18G19G21G22G27G31
  20734956.100   108962938.92809  20734952.380    84906186.42348
  22029893.340   115767995.85609  22029890.120    90208868.17647
  23795164.520   125044444.44508  23795159.820    97437216.60746
  22187428.020   116596033.41409  22187424.140    90854175.77548
  22597443.960   118750446.95809  22597440.360    92532847.64247
  21797974.800   114549163.85809  21797973.960    89259102.87848
  24345602.060   127936929.52607  24345605.720    99691080.83046
 15 03 02 00 32 30.0000000  0  7G16G18G19G21G22G27G31
  20727440.880   108923446.63009  20727437.220    84875413.20048
  22024289.940   115738549.96409  22024286.720    90185923.34747
  23780902.500   124969497.26108  23780897.780    97378816.26346
  22199229.920   116658052.87509  22199226.020    90902502.62548
  22581612.600   118667252.95409  22581608.960    92468021.27547
  21788067.760   114497102.08009  21788066.960    89218535.26948
  24364207.160   128034698.58008  24364210.740    99767264.16345
 15 03 02 00 33  0.0000000  0  7G16G18G19G21G22G27G31
  20720008.620   108884390.20809  20720005.000    84844979.62449
  22018771.600   115709551.16209  22018768.400    90163326.90747
  23766657.120   124894637.04408  23766652.300    97320483.64947
  22211068.180   116720263.34309  22211064.280    90950978.31148
  22565823.580   118584281.58009  22565819.940    92403368.39347
  21778185.420   114445170.18209  21778184.660    89178068.86848
  24382804.540   128132426.14108  24382808.020    99843415.20645
 15 03 02 00 33 30.0000000  0  7G16G18G19G21G22G27G31
  20712659.800   108845772.17109  20712656.160    84814887.63549
  22013338.700   115681001.13809  22013335.460    90141080.14947
  23752428.440   124819864.74508  23752423.560    97262219.54446
  22222942.520   116782663.25809  22222938.580    90999601.61747
  22550077.540   118501536.28809  22550073.840    92338891.66747
  21768327.980   114393368.92209  21768327.200    89137704.25248
  24401393.600   128230110.08008  24401397.180    99919532.35246
 15 03 02 00 34  0.0000000  0  7G16G18G19G21G22G27G31
  20705394.720   108807593.94909  20705391.080    84785138.37049
  22007991.500   115652901.27509  22007988.220    90119184.17747
  23738216.320   124745179.52708  23738211.580    97204023.30546
  22234852.460   116845250.23409  22234848.480    91048370.68347
  22534374.980   118419019.36409  22534371.280    92274592.89347
  21758495.420   114341698.30809  21758494.600    89097441.45048
  24419973.460   128327747.41007  24419977.260    99995613.22244
 15 03 02 00 34 30.0000000  0  7G16G18G19G21G22G27G31
  20698213.640   108769856.90409  20698209.980    84755732.88048
  22002730.040   115625252.10609  22002726.720    90097639.38647
  23724020.620   124670581.01108  23724016.080    97145894.63947
  22246797.580   116908022.37609  22246793.600    91097284.03948
  22518716.220   118336732.49009  22518712.460    92210473.37547
  21748687.640   114290157.85009  21748686.720    89057280.07248
  24438543.860   128425334.53508  24438547.500   100071655.09344
 15 03 02 00 35  0.0000000  0  7G16G18G19G21G22G27G31
  20691117.000   108732563.39609  20691113.280    84726673.00048
  21997554.660   115598055.16409  21997551.320    90076446.98047
  23709841.520   124596069.64508  23709837.120    97087833.85847
  22258777.680   116970978.40508  22258773.760    91146340.67947
  22503101.920   118254679.07909  22503098.120    92146535.76347
  21738904.780   114238748.46909  21738903.780    89017220.82248
  24457104.340   128522869.43008  24457107.800   100147656.49746
 15 03 02 00 35 30.0000000  0  7G16G18G19G21G22G27G31
  20684105.300   108695716.18309  20684101.540    84697960.88448
  21992465.720   115571312.75909  21992462.380    90055608.76747
  23695679.280   124521646.77908  23695675.100    97029842.06046
  22270792.560   117034117.21509  22270788.680    91195539.74947
  22487532.780   118172862.96409  22487528.920    92082783.06147
  21729147.120   114187471.50409  21729146.100    88977264.75448
  24475654.340   128620350.42508  24475658.240   100223615.61347
 15 03 02 00 36  0.0000000  0  7G16G18G19G21G22G27G31
  20677178.540   108659315.44109  20677174.700    84669596.67748
  21987463.380   115545025.47109  21987460.080    90035125.19347
  23681533.560   124447310.76608  23681529.580    96971917.92647
  22282841.740   117097436.13809  22282837.860    91244879.17048
  22472009.040   118091285.46409  22472005.120    92019216.29347
  21719414.380   114136325.63909  21719413.380    88937410.85848
  24494193.320   128717773.21508  24494197.420   100299529.37946
 15 03 02 00 36 30.0000000  0  7G16G18G19G21G22G27G31
  20670336.280   108623359.09309  20670332.400    84641578.73748
  21982547.000   115519189.89909  21982543.740    90014993.59047
  23667403.660   124373057.85808  23667399.700    96914058.55347
  22294924.080   117160928.98509  22294920.140    91294354.10148
  22456530.340   118009944.77009  22456526.420    91955834.05048
  21709705.840   114085307.06409  21709704.860    88897656.13248
  24512720.000   128815130.74308  24512723.980   100375392.24844
 15 03 02 00 37  0.0000000  0  7G16G18G19G21G22G27G31
  20663580.000   108587854.76709  20663576.140    84613913.02948
  21977717.960   115493813.10909  21977714.700    89995219.48447
  23653290.660   124298893.67408  23653286.680    96856268.31446
  22307040.300   117224599.93309  22307036.320    91343967.82548
  22441098.340   117928849.60609  22441094.420    91892643.11848
  21700022.680   114034422.11109  21700021.760    88858005.52448
  24531234.740   128912426.26307  24531238.660   100451206.80946
 15 03 02 00 37 30.0000000  0  7G16G18G19G21G22G27G31
  20656910.300   108552805.69409  20656906.540    84586602.06248
  21972976.660   115468897.69009  21972973.420    89975804.89347
  23639194.840   124224819.90508  23639190.800    96798548.53147
  22319190.360   117288448.64009  22319186.340    91393720.05648
  22425713.860   117848004.04909  22425709.920    91829646.67648
  21690365.300   113983672.39209  21690364.340    88818460.29848
  24549737.140   129009658.40808  24549741.640   100526971.49247
 15 03 02 00 38  0.0000000  0  7G16G18G19G21G22G27G31
  20650326.600   108518208.88409  20650323.020    84559643.51548
  21968322.540   115444440.24309  21968319.300    89956747.16647
  23625115.320   124150832.12708  23625111.240    96740895.76246
  22331373.020   117352468.79509  22331368.980    91443605.88947
  22410376.540   117767406.55109  22410372.680    91766843.54347
  21680732.880   113933053.64109  21680731.880    88779017.12248
  24568226.560   129106819.62608  24568231.380   100602680.77247
 15 03 02 00 38 30.0000000  0  7G16G18G19G21G22G27G31
  20643829.480   108484066.93709  20643826.060    84533039.40348
  21963755.880   115420442.55609  21963752.680    89938047.68647
  23611052.320   124076931.29908  23611048.200    96683310.73646
  22343588.060   117416659.34509  22343584.020    91493624.49347
  22395086.980   117687060.04609  22395083.180    91704235.99247
  21671125.600   113882566.65809  21671124.500    88739676.62248
  24586702.400   129203908.45107  24586707.140   100678333.62244
 15 03 02 00 39  0.0000000  0  7G16G18G19G21G22G27G31
  20637419.880   108450384.54009  20637416.520    84506793.37149
  21959277.580   115396909.23809  21959274.400    89919710.05347
  23597006.360   124003120.12008  23597002.260    96625795.56046
  22355835.820   117481022.02909  22355831.840    91543777.22847
  22379846.300   117606970.37309  22379842.540    91641828.54948
  21661544.100   113832215.31209  21661542.980    88700441.81748
  24605164.360   129300925.56007  24605169.080   100753930.51545
 15 03 02 00 39 30.0000000  0  7G16G18G19G21G22G27G31
  20631097.540   108417160.35109  20631094.160    84480904.39348
  21954887.240   115373838.06109  21954884.100    89901732.52847
  23582976.980   123929395.91608  23582972.920    96568348.14347
  22368115.300   117545551.46009  22368111.400    91594059.89347
  22364654.380   117527136.94909  22364650.660    91579620.78648
  21651987.780   113781996.56709  21651986.720    88661310.34248
  24623611.760   129397864.56308  24623616.820   100829466.42446
 15 03 02 00 40  0.0000000  0  7G16G18G19G21G22G27G31
  20624862.560   108384394.84209  20624859.040    84455372.81749
  21950584.800   115351228.77009  21950581.680    89884114.91148
  23568963.960   123855757.22708  23568959.880    96510967.37147
  22380425.980   117610244.84409  22380422.140    91644470.31647
  22349511.520   117447561.22109  22349507.760    91517613.81148
  21642456.440   113731909.29709  21642455.420    88622281.30448
  24642044.080   129494722.43408  24642049.420   100904939.18947
 15 03 02 00 40 30.0000000  0  7G16G18G19G21G22G27G31
  20618716.080   108352094.13309  20618712.400    84430203.43448
  21946371.320   115329086.96709  21946368.220    89866861.57947
  23554968.180   123782208.73608  23554963.960    96453656.88946
  22392768.440   117675104.99309  22392764.600    91695010.68447
  22334419.060   117368250.19209  22334415.200    91455813.08547
  21632951.060   113681958.49809  21632950.060    88583358.60848
  24660461.100   129591501.42405  24660466.840   100980350.82844
 15 03 02 00 41  0.0000000  0  7G16G18G19G21G22G27G31
  20612657.840   108320257.44109  20612654.080    84405395.62449
  21942246.560   115307411.41509  21942243.480    89849971.55047
  23540989.180   123708748.00208  23540984.760    96396414.78946
  22405141.800   117740127.57209  22405138.000    91745677.62347
  22319377.080   117289204.30909  22319373.140    91394218.98147
  21623471.260   113632141.94909  21623470.240    88544540.52648
  24678862.000   129688195.74508  24678867.740   101055696.57644
 15 03 02 00 41 30.0000000  0  6G16G18G19G21G22G27
  20606686.060   108288875.41809  20606682.260    84380942.10148
  21938208.560   115286191.97309  21938205.540    89833436.93347
  23527024.800   123635364.00108  23527020.240    96339232.49447
  22417543.720   117805299.95209  22417539.920    91796461.29147
  22304383.900   117210414.76809  22304379.860    91332824.61548
  21614014.980   113582448.96509  21614013.940    88505818.73148
 15 03 02 00 42  0.0000000  0  6G16G18G19G21G22G27
  20600805.840   108257974.66909  20600802.060    84356863.59449
  21934262.320   115265454.57109  21934259.360    89817277.94047
  23513079.800   123562081.94308  23513075.240    96282129.62647
  22429978.500   117870645.19608  22429974.760    91847379.65347
  22289444.800   117131909.52309  22289440.660    91271651.77948
  21604587.060   113532904.96909  21604586.000    88467213.02948
 15 03 02 00 42 30.0000000  0  6G16G18G19G21G22G27
  20595014.420   108227540.68309  20595010.680    84333148.78949
  21930404.880   115245183.53109  21930401.880    89801482.33147
  23499151.060   123488885.43708  23499146.420    96225093.41847
  22442442.780   117936145.21709  22442439.000    91898418.62647
  22274557.120   117053674.39409  22274552.880    91210689.41948
  21595184.400   113483493.88609  21595183.340    88428710.89548
 15 03 02 00 43  0.0000000  0  6G16G18G19G21G22G27
  20589312.660   108197578.05309  20589309.020    84309801.29149
  21926637.160   115225383.81609  21926634.120    89786054.00747
  23485239.260   123415777.97708  23485234.540    96168126.60447
  22454936.880   118001801.96409  22454933.060    91949579.71947
  22259722.040   116975715.46509  22259717.680    91149942.28748
  21585807.700   113434219.35509  21585806.720    88390315.17748
 15 03 02 00 43 30.0000000  0  6G16G18G19G21G22G27
  20583701.380   108168090.77209  20583697.820    84286824.18549
  21922959.740   115206058.39409  21922956.560    89770995.24747
  23471344.720   123342761.76608  23471340.060    96111230.88547
  22467460.880   118067615.75508  22467457.040    92000863.18847
  22244940.540   116898038.07909  22244936.080    91089414.52348
  21576457.460   113385084.00609  21576456.600    88352027.89848
 15 03 02 00 44  0.0000000  0  6G16G18G19G21G22G27
  20578180.240   108139077.07209  20578176.740    84264216.09949
  21919372.080   115187204.60709  21919368.740    89756304.00047
  23457466.880   123269833.57408  23457462.320    96054403.74347
  22480013.800   118133581.68708  22480009.940    92052265.19947
  22230212.320   116820640.93409  22230207.820    91029105.12948
  21567133.180   113336084.81209  21567132.420    88313846.71248
 15 03 02 00 44 30.0000000  0  6G16G18G19G21G22G27
  20572749.960   108110540.59509  20572746.440    84241979.88149
  21915874.760   115168825.57009  21915871.280    89741982.68847
  23443606.160   123196995.31408  23443601.680    95997646.66847
  22492595.640   118199699.71509  22492591.820    92103785.73347
  22215538.240   116743528.44409  22215533.760    90969017.55448
  21557835.300   113287223.99709  21557834.560    88275773.35848
 15 03 02 00 45  0.0000000  0  6G16G18G19G21G22G27
  20567411.000   108082483.94709  20567407.440    84220117.55848
  21912468.080   115150923.11709  21912464.540    89728032.74647
  23429762.760   123124248.32908  23429758.360    95940960.72846
  22505206.300   118265969.28609  22505202.520    92155424.34547
  22200918.980   116666704.17409  22200914.540    90909154.56347
  21548564.080   113238503.01309  21548563.300    88237808.96948
 15 03 02 00 45 30.0000000  0  6G16G18G19G21G22G27
  20562163.240   108054906.39309  20562159.600    84198628.55749
  21909151.820   115133496.13209  21909148.280    89714453.28947
  23415936.400   123051590.69708  23415931.960    95884344.41047
  22517845.120   118332386.73308  22517841.340    92207178.20047
  22186354.740   116590169.13609  22186350.400    90849516.94248
  21539319.200   113189920.28109  21539318.260    88199952.30748
 15 03 02 00 46  0.0000000  0  6G16G18G19G21G22G27
  20557006.620   108027808.03809  20557002.960    84177512.95049
  21905925.860   115116543.98909  21905922.380    89701243.84847
  23402126.840   122979020.87308  23402122.340    95827796.52147
  22530511.500   118398948.95209  22530507.680    92259044.85547
  22171845.680   116513924.08409  22171841.480    90790105.29148
  21530100.380   113141474.65309  21530099.340    88162202.47548
 15 03 02 00 46 30.0000000  0  6G16G18G19G21G22G27
  20551941.900   108001192.55009  20551938.180    84156773.60849
  21902790.820   115100069.52109  21902787.380    89688406.61447
  23388334.460   122906541.30808  23388329.900    95771318.96347
  22543205.560   118465656.38509  22543201.620    92311024.68047
  22157392.700   116437973.56009  22157388.560    90730923.13748
  21520908.100   113093168.63809  21520907.000    88124561.42948
 15 03 02 00 47  0.0000000  0  6G16G18G19G21G22G27
  20546969.500   107975062.38609  20546965.740    84136412.43549
  21899747.000   115084074.24109  21899743.580    89675942.77448
  23374559.360   122834152.38808  23374554.660    95714912.03147
  22555927.000   118532507.75709  22555922.980    92363116.65147
  22142996.400   116362320.98209  22142992.280    90671973.14848
  21511742.560   113045003.18509  21511741.440    88087029.91948
 15 03 02 00 47 30.0000000  0  6G16G18G19G21G22G27
  20542089.420   107949417.37109  20542085.660    84116429.30349
  21896794.260   115068557.65409  21896790.900    89663851.94347
  23360801.260   122761852.99808  23360796.500    95658574.86847
  22568675.300   118599500.18109  22568671.220    92415318.54147
  22128657.020   116286967.56509  22128652.920    90613256.26548
  21502603.520   112996977.29709  21502602.460    88049607.15848
 15 03 02 00 48  0.0000000  0  6G16G18G19G21G22G27
  20537302.380   107924261.49809  20537298.660    84096827.31949
  21893933.240   115053523.03409  21893929.900    89652136.66547
  23347060.680   122689646.02008  23347055.940    95602309.71347
  22581450.540   118666634.33609  22581446.440    92467630.86547
  22114375.500   116211918.07309  22114371.360    90554776.20248
  21493491.660   112949094.02109  21493490.620    88012295.52049
 15 03 02 00 48 30.0000000  0  6G16G18G19G21G22G27
  20532608.420   107899594.74009  20532604.760    84077606.46749
  21891163.760   115038969.56809  21891160.480    89640796.32348
  23333337.260   122617529.64408  23333332.560    95546115.16847
  22594252.140   118733907.15608  22594248.080    92520051.24147
  22100152.100   116137173.63509  22100147.840    90496533.84348
  21484406.680   112901352.13709  21484405.660    87975094.05848
 15 03 02 00 49  0.0000000  0  6G16G18G19G21G22G27
  20528007.580   107875417.27009  20528003.960    84058766.87449
  21888485.820   115024896.94809  21888482.520    89629830.65548
  23319630.880   122545503.10908  23319626.320    95489990.62147
  22607079.560   118801315.84508  22607075.560    92572577.47947
  22085987.000   116062735.63009  22085982.680    90438530.25648
  21475348.460   112853750.77509  21475347.380    87938002.09648
 15 03 02 00 49 30.0000000  0  6G16G18G19G21G22G27
  20523500.700   107851733.47709  20523497.100    84040311.97049
  21885900.000   115011308.29309  21885896.660    89619242.10547
  23305942.200   122473569.34008  23305937.820    95433938.36947
  22619933.000   118868861.29408  22619929.100    92625210.29247
  22071881.240   115988609.11409  22071876.760    90380769.38548
  21466317.620   112806293.33509  21466316.520    87901022.28348
 15 03 02 00 50  0.0000000  0  6G16G18G19G21G22G27
  20519087.560   107828542.18609  20519083.920    84022240.82249
  21883406.060   114998202.28509  21883402.640    89609029.63748
  23292270.820   122401726.07708  23292266.620    95377956.63047
  22632811.700   118936539.48008  22632807.860    92677946.52947
  22057834.760   115914794.20009  22057830.200    90323251.32448
  21457313.720   112758977.73409  21457312.620    87864152.98248
 15 03 02 00 50 30.0000000  0  6G16G18G19G21G22G27
  20514768.240   107805843.95609  20514764.580    84004553.89249
  21881003.800   114985578.21609  21881000.320    89599192.71348
  23278616.500   122329971.88108  23278612.300    95322044.28747
  22645715.260   119004348.01908  22645711.380    92730784.34547
  22043847.860   115841292.40509  22043843.220    90265977.25548
  21448336.640   112711803.31009  21448335.560    87827393.69849
 15 03 02 00 51  0.0000000  0  6G16G18G19G21G22G27
  20510543.780   107783644.22409  20510540.120    83987255.39149
  21878694.180   114973441.04609  21878690.680    89589735.18248
  23264980.040   122258311.43508  23264975.720    95266205.00147
  22658644.120   119072289.49808  22658640.240    92783725.74547
  22029921.720   115768110.20809  22029917.060    90208952.22048
  21439387.300   112664774.81509  21439386.260    87790748.12448
 15 03 02 00 51 30.0000000  0  6G16G18G19G21G22G27
  20506414.380   107761944.01209  20506410.700    83970346.13149
  21876477.200   114961790.92209  21876473.760    89580657.17348
  23251361.240   122186743.80508  23251356.840    95210438.05647
  22671597.780   119140361.37508  22671593.880    92836768.76647
  22016056.820   115695249.98009  22016052.140    90152178.07548
  21430465.760   112617892.17609  21430464.760    87754216.20648
 15 03 02 00 52  0.0000000  0  6G16G18G19G21G22G27
  20502380.000   107740742.81109  20502376.260    83953825.71649
  21874352.800   114950627.20309  21874349.400    89571958.18848
  23237760.000   122115268.43408  23237755.540    95154742.99047
  22684575.720   119208560.96208  22684571.780    92889911.29647
  22002253.340   115622712.63909  22002248.720    90095655.52848
  21421571.780   112571154.16109  21421570.840    87717796.98448
 15 03 02 00 52 30.0000000  0  6G16G18G19G21G22G27
  20498440.720   107720041.34209  20498436.900    83937694.69049
  21872320.860   114939949.42109  21872317.500    89563637.84048
  23224176.060   122043884.25008  23224171.560    95099118.95747
  22697577.400   119276885.17808  22697573.460    92943150.93247
  21988511.620   115550499.77809  21988507.020    90039385.80948
  21412705.300   112524560.43109  21412704.380    87681490.18748
 15 03 02 00 53  0.0000000  0  6G16G18G19G21G22G27
  20494597.580   107699845.22409  20494593.700    83921957.45349
  21870382.320   114929762.37409  21870378.980    89555699.89648
  23210610.240   121972595.77108  23210605.720    95043569.51347
  22710603.320   119345336.97308  22710599.440    92996489.99147
  21974832.860   115478617.93209  21974828.320    89983374.04248
  21403867.180   112478115.72609  21403866.300    87645299.51449
 15 03 02 00 53 30.0000000  0  6G16G18G19G21G22G27
  20490849.620   107680149.59309  20490845.720    83906610.19949
  21868536.100   114920060.37309  21868532.720    89548139.90548
  23197061.400   121901397.12708  23197057.040    94988090.08547
  22723652.060   119413908.65108  22723648.200    93049922.46447
  21961216.460   115407063.46409  21961211.920    89927617.36948
  21395056.360   112431814.39209  21395055.440    87609220.55049
 15 03 02 00 54  0.0000000  0  6G16G18G19G21G22G27
  20487198.100   107660960.72309  20487194.200    83891657.82549
  21866783.280   114910849.20209  21866779.860    89540962.38248
  23183530.640   121830293.09708  23183526.300    94932684.35247
  22736724.320   119482603.62309  22736720.440    93103451.00147
  21947663.700   115335843.30109  21947659.080    89872121.19548
  21386273.860   112385661.74609  21386272.860    87573257.46048
 15 03 02 00 54 30.0000000  0  6G16G18G19G21G22G27
  20483642.660   107642276.88309  20483638.800    83877098.98349
  21865123.400   114902126.42409  21865119.940    89534165.42048
  23170017.460   121759281.08008  23170013.060    94877350.33347
  22749819.140   119551417.17808  22749815.220    93157071.94247
  21934174.580   115264957.41509  21934169.860    89816885.48548
  21377519.180   112339655.43409  21377518.100    87537408.38849
 15 03 02 00 55  0.0000000  0  6G16G18G19G21G22G27
  20480183.400   107624098.71509  20480179.640    83862934.17449
  21863556.300   114893891.37609  21863552.880    89527748.51648
  23156521.820   121688360.50608  23156517.280    94822087.58747
  22762936.040   119620346.92608  22762932.100    93210783.43247
  21920749.320   115194407.48409  21920744.600    89761911.57048
  21368792.280   112293795.24409  21368791.140    87501673.18348
 15 03 02 00 55 30.0000000  0  6G16G18G19G21G22G27
  20476821.060   107606429.99509  20476817.420    83849166.33449
  21862082.580   114886147.21409  21862079.180    89521714.12048
  23143044.120   121617533.95008  23143039.420    94766898.07747
  22776075.320   119689394.24009  22776071.380    93264586.53247
  21907388.900   115124198.36109  21907384.160    89707203.20748
  21360093.740   112248084.24209  21360092.600    87466054.22448
 15 03 02 00 56  0.0000000  0  6G16G18G19G21G22G27
  20473556.120   107589272.82709  20473552.500    83835797.10449
  21860702.640   114878895.74309  21860699.220    89516063.62847
  23129584.540   121546802.71708  23129579.720    94711782.84547
  22789236.700   119758557.70408  22789232.780    93318480.14047
  21894093.960   115054333.34209  21894089.260    89652762.98248
  21351423.880   112202523.71809  21351422.720    87430552.52548
 15 03 02 00 56 30.0000000  0  6G16G18G19G21G22G27
  20470388.420   107572626.44909  20470384.820    83822825.88449
  21859416.140   114872135.14009  21859412.720    89510795.63448
  23116142.740   121476165.10108  23116137.820    94656740.57747
  22802419.740   119827834.97808  22802415.840    93372462.42247
  21880864.600   114984812.96409  21880859.940    89598591.29448
  21342782.420   112157112.42609  21342781.240    87395167.10349
 15 03 02 00 57  0.0000000  0  6G16G18G19G21G22G27
  20467318.740   107556495.21109  20467315.160    83810256.08649
  21858223.700   114865868.75709  21858220.240    89505912.75848
