     2.11           OBSERVATION DATA    G                   RINEX VERSION / TYPE
SPIDER V4,0,0,3554                      2015 03 12 00:05    PGM / RUN BY / DATE 
EECH                                                        MARKER NAME         
EECH                                                        MARKER NUMBER       
                                                            OBSERVER / AGENCY   
462240              LEICA GRX1200PRO    8.20/2.127          REC # / TYPE / VERS 
103299              LEIAT504                                ANT # / TYPE        
  5154282.7593   121017.3605  3742656.9418                  APPROX POSITION XYZ 
        0.0590        0.0000        0.0000                  ANTENNA: DELTA H/E/N
     1     1                                                WAVELENGTH FACT L1/2
     4    C1    L1    P2    L2                              # / TYPES OF OBSERV 
    30.000                                                  INTERVAL            
  2015    03    02    00    00    0.0000000     GPS         TIME OF FIRST OBS   
  2015    03    02    23    59   30.0000000     GPS         TIME OF LAST OBS    
    16                                                      LEAP SECONDS        
    30                                                      # OF SATELLITES     
   G 1   822   822   822   822                              PRN / # OF OBS      
   G 2   856   856   850   850                              PRN / # OF OBS      
   G 3   799   799   798   798                              PRN / # OF OBS      
   G 4   838   838   837   837                              PRN / # OF OBS      
   G 5   602   602   602   602                              PRN / # OF OBS      
   G 6   662   662   662   662                              PRN / # OF OBS      
   G 7   668   668   668   668                              PRN / # OF OBS      
   G 9   777   777   777   777                              PRN / # OF OBS      
   G10   708   708   708   708                              PRN / # OF OBS      
   G11   784   784   784   784                              PRN / # OF OBS      
   G12   807   807   807   807                              PRN / # OF OBS      
   G13   743   743   743   743                              PRN / # OF OBS      
   G14   881   881   879   879                              PRN / # OF OBS      
   G15   661   661   661   661                              PRN / # OF OBS      
   G16   689   689   689   689                              PRN / # OF OBS      
   G17   908   908   908   908                              PRN / # OF OBS      
   G18   879   879   878   878                              PRN / # OF OBS      
   G19   776   776   776   776                              PRN / # OF OBS      
   G20   721   721   721   721                              PRN / # OF OBS      
   G21   618   618   611   611                              PRN / # OF OBS      
   G22   774   774   774   774                              PRN / # OF OBS      
   G23   695   695   691   691                              PRN / # OF OBS      
   G24   826   826   826   826                              PRN / # OF OBS      
   G25   824   824   824   824                              PRN / # OF OBS      
   G27   822   822   822   822                              PRN / # OF OBS      
   G28   812   812   812   812                              PRN / # OF OBS      
   G29   730   730   730   730                              PRN / # OF OBS      
   G30   587   587   586   586                              PRN / # OF OBS      
   G31   692   692   692   692                              PRN / # OF OBS      
   G32   729   729   729   729                              PRN / # OF OBS      
BIT 2 OF LLI FLAGS DATA COLLECTED UNDER A/S CONDITION       COMMENT             
SNR is mapped to RINEX snr flag value [2-9]                 COMMENT             
Lx:     = 25dBHz -> 1; 26-27dBHz -> 2; 28-31dBHz -> 3       COMMENT             
       32-35dBHz -> 4; 36-38dBHz -> 5; 39-41dBHz -> 6       COMMENT             
       42-44dBHz -> 7; 45-48dBHz -> 8; >=49dBHz -> 9        COMMENT             
                                                            END OF HEADER       
 15 03 02 00 00  0.0000000  0  7G16G18G21G22G27G29G31
  21317609.580   112024807.53809  21317608.720    87292045.57048
  22619209.640   118864757.57108  22619209.700    92621906.81146
  21522926.040   113103753.80108  21522924.900    88132795.62248
  23749636.340   124805203.13506  23749641.340    97250840.04545
  22421937.020   117828102.15308  22421939.220    91814128.28847
  24484332.080   128666028.88504  24484331.740   100259248.46145
  23202230.140   121928500.68707  23202231.100    95009209.25346
 15 03 02 00 00 30.0000000  0  7G16G18G21G22G27G29G31
  21305866.420   111963096.75609  21305865.620    87243959.25848
  22608664.280   118809342.49208  22608664.660    92578726.26446
  21531597.100   113149320.84408  21531596.080    88168302.41148
  23732167.420   124713405.48307  23732172.140    97179309.74245
  22410494.400   117767970.56108  22410496.760    91767272.51647
  24498995.460   128743087.51405  24498995.400   100319294.15045
  23220425.760   122024119.75707  23220426.980    95083717.47046
 15 03 02 00 01  0.0000000  0  7G16G18G21G22G27G29G31
  21294181.080   111901690.16309  21294180.360    87196109.96648
  22598179.260   118754244.01208  22598179.880    92535792.42946
  21540326.720   113195195.59608  21540325.860    88204048.97348
  23714705.480   124621643.64807  23714709.680    97107807.45845
  22399075.520   117707963.57308  22399077.800    91720513.83547
  24513659.240   128820146.45305  24513659.280   100379340.03643
  23238646.600   122119871.45307  23238648.080    95158329.02847
 15 03 02 00 01 30.0000000  0  6G16G18G21G22G27G31
  21282555.140   111840596.28209  21282554.620    87148504.34648
  22587756.360   118699471.35608  22587757.060    92493112.46846
  21549115.760   113241382.55708  21549115.020    88240038.81348
  23697252.180   124529926.83907  23697255.960    97036340.19346
  22387681.480   117648087.82008  22387683.580    91673857.43247
  23256893.320   122215759.17407  23256895.040    95233046.56646
 15 03 02 00 02  0.0000000  0  7G16G18G21G22G27G29G31
  21270990.240   111779823.26609  21270989.960    87101148.75948
  22577397.080   118645032.87708  22577397.760    92450692.91146
  21557965.180   113287886.45508  21557964.420    88276275.61248
  23679809.000   124438263.40207  23679812.340    96964914.40545
  22376313.460   117588349.44708  22376315.360    91627308.06147
  24542991.080   128974284.86505  24542991.040   100499448.51144
  23275166.660   122311786.38407  23275168.640    95307872.79447
 15 03 02 00 02 30.0000000  0  7G16G18G21G22G27G29G31
  21259482.140   111719348.05009  21259481.840    87054025.21648
  22567097.060   118590905.44708  22567097.580    92408515.73746
  21566869.680   113334679.96008  21566868.860    88312738.08448
  23662371.780   124346631.27307  23662374.720    96893513.18146
  22364966.760   117528722.97108  22364968.580    91580845.89047
  24557656.460   129051351.04005  24557656.840   100559500.06644
  23293461.200   122407924.60907  23293463.400    95382785.53347
 15 03 02 00 03  0.0000000  0  6G16G18G21G22G27G31
  21248026.020   111659145.94609  21248025.640    87007114.49448
  22556851.640   118537064.71108  22556851.920    92366561.95246
  21575823.760   113381734.20408  21575822.900    88349403.73348
  23644935.880   124255005.89107  23644938.380    96822117.17545
  22353636.540   117469181.77208  22353638.240    91534450.17148
  23311771.360   122504144.06707  23311773.680    95457761.56847
 15 03 02 00 03 30.0000000  0  6G16G18G21G22G27G31
  21236641.080   111599317.88709  21236640.640    86960495.22948
  22546679.880   118483611.44108  22546680.060    92324910.09646
  21584846.020   113429146.92608  21584845.220    88386348.71348
  23627520.540   124163488.96407  23627522.980    96750805.66346
  22342341.460   117409824.65408  22342343.180    91488197.89848
  23330115.420   122600540.61907  23330117.700    95532875.58646
 15 03 02 00 04  0.0000000  0  6G16G18G21G22G27G31
  21225319.160   111539820.86709  21225318.660    86914133.91748
  22536573.620   118430502.48408  22536573.700    92283526.54046
  21593927.580   113476871.09608  21593926.840    88423536.38248
  23610117.260   124072037.27207  23610119.800    96679544.64946
  22331072.700   117350606.35508  22331074.660    91442053.79648
  23348484.120   122697066.33007  23348486.180    95608090.24846
 15 03 02 00 04 30.0000000  0  6G16G18G21G22G27G31
  21214057.140   111480637.93509  21214056.560    86868017.34948
  22526529.680   118377721.08408  22526529.780    92242398.22647
  21603064.380   113524885.27008  21603063.660    88460950.03048
  23592723.580   123980635.05507  23592726.260    96608322.20246
  22319826.580   117291507.89008  22319828.880    91396003.06848
  23366872.980   122793698.56807  23366874.840    95683387.93646
 15 03 02 00 05  0.0000000  0  6G16G18G21G22G27G31
  21202854.180   111421765.39409  21202853.580    86822142.64448
  22516547.460   118325264.13708  22516547.620    92201522.71846
  21612254.980   113573182.10908  21612254.300    88498583.93548
  23575339.040   123889279.47407  23575341.700    96537136.23846
  22308602.140   117232523.68808  22308604.640    91350041.36548
  23385280.440   122890429.52207  23385282.240    95758762.54346
 15 03 02 00 05 30.0000000  0  7G16G18G19G21G22G27G31
  21191715.360   111363230.52309  21191714.780    86776531.06448
  22506632.060   118273158.80508  22506632.320    92160921.19947
  24518390.120   128844999.29506  24518390.140   100398699.29545
  21621503.920   113621785.36008  21621503.240    88536456.59148
  23557968.560   123797997.91307  23557971.300    96466007.53046
  22297404.140   117173678.89408  22297406.700    91304188.29747
  23403710.780   122987281.23907  23403712.700    95834231.23646
 15 03 02 00 06  0.0000000  0  7G16G18G19G21G22G27G31
  21180627.680   111304964.32709  21180627.080    86731128.83648
  22496770.340   118221335.88108  22496770.660    92120539.73746
  24503105.960   128764681.36906  24503105.720   100336113.94445
  21630797.280   113670621.76508  21630796.580    88574510.93348
  23540599.340   123706722.53006  23540602.160    96394883.88146
  22286219.220   117114902.46808  22286221.680    91258388.49848
  23422150.000   123084179.46407  23422152.040    95909736.15146
 15 03 02 00 06 30.0000000  0  7G16G18G19G21G22G27G31
  21169617.440   111247105.05709  21169616.800    86686043.69848
  22486988.740   118169934.20908  22486989.120    92080486.51746
  24487852.140   128684527.35405  24487852.120   100273656.28446
  21640160.580   113719825.91608  21640159.880    88612851.82848
  23523257.940   123615592.31407  23523260.940    96323873.44845
  22275073.320   117056330.53608  22275075.660    91212748.05948
  23440623.440   123181257.48907  23440625.500    95985381.17546
 15 03 02 00 07  0.0000000  0  7G16G18G19G21G22G27G31
  21158669.300   111189572.14609  21158668.640    86641212.86248
  22477271.900   118118872.45608  22477272.280    92040698.17546
  24472613.320   128604454.31305  24472613.840   100211261.76845
  21649577.680   113769312.90308  21649576.980    88651413.11448
  23505929.180   123524527.36507  23505931.860    96252914.13046
  22263950.660   116997880.29308  22263952.940    91167202.43348
  23459114.780   123278429.70007  23459116.780    96061099.58946
 15 03 02 00 07 30.0000000  0  7G16G18G19G21G22G27G31
  21147783.100   111132364.86009  21147782.500    86596635.76948
  22467619.820   118068150.55708  22467620.240    92001174.65047
  24457389.700   128524459.35705  24457390.860   100148928.09245
  21659047.640   113819077.77908  21659046.920    88690190.94648
  23488612.300   123433526.60407  23488614.960    96182004.59646
  22252850.600   116939549.04708  22252852.880    91121749.54548
  23477622.920   123375690.00207  23477624.800    96136886.63946
 15 03 02 00 08  0.0000000  0  7G16G18G19G21G22G27G31
  21136958.840   111075483.13409  21136958.260    86552312.34248
  22458032.440   118017768.30408  22458032.800    91961915.79046
  24442181.540   128444540.67306  24442182.760   100086653.84145
  21668569.800   113869117.16408  21668569.100    88729182.67148
  23471307.460   123342589.85804  23471310.240    96111144.49044
  22241772.800   116881334.74108  22241774.960    91076387.76348
  23496146.880   123473033.57207  23496148.780    96212738.58146
 15 03 02 00 08 30.0000000  0  7G16G18G19G21G22G27G31
  21126198.620   111018938.17509  21126198.080    86508251.33748
  22448511.820   117967737.19708  22448512.200    91922930.54946
  24426990.260   128364707.62206  24426990.980   100024446.34545
  21678145.700   113919438.99208  21678145.020    88768394.48148
  23454017.380   123251730.49406  23454020.400    96040344.76947
  22230719.020   116823246.54908  22230720.940    91031124.24448
  23514687.940   123570466.78507  23514689.940    96288660.36546
 15 03 02 00 09  0.0000000  0  7G16G18G19G21G22G27G31
  21115504.920   110962742.80709  21115504.480    86464462.73648
  22439060.320   117918069.77108  22439060.720    91884228.69146
  24411817.000   128284970.71906  24411817.460    99962313.72845
  21687776.800   113970050.71709  21687776.060    88807832.18648
  23436744.560   123160961.76207  23436747.860    95969615.91646
  22219691.220   116765295.10308  22219693.060    90985967.28248
  23533247.420   123667997.19107  23533249.680    96364657.89046
 15 03 02 00 09 30.0000000  0  7G16G18G19G21G22G27G31
  21104876.820   110906891.90109  21104876.500    86420942.54848
  22429677.100   117868761.01108  22429677.420    91845806.31246
  24396660.500   128205322.75806  24396660.500    99900250.40145
  21697461.560   114020944.28508  21697460.740    88847489.51448
  23419488.320   123070279.15107  23419491.460    95898954.20145
  22208688.060   116707473.33508  22208689.960    90940911.38148
  23551823.480   123765614.63007  23551825.960    96440723.22146
 15 03 02 00 10  0.0000000  0  7G16G18G19G21G22G27G31
  21094313.640   110851381.79009  21094313.360    86377687.91048
  22420361.480   117819807.43108  22420361.720    91807660.69446
  24381519.920   128125758.01906  24381519.020    99838251.97644
  21707198.420   114072111.91908  21707197.600    88887360.40448
  23402247.800   122979679.26307  23402250.740    95828357.00246
  22197708.480   116649775.65808  22197710.600    90895952.17948
  23570414.500   123863310.60807  23570417.080    96516849.76246
 15 03 02 00 10 30.0000000  0  7G16G18G19G21G22G27G31
  21083816.520   110796219.13609  21083816.300    86334704.03648
  22411114.640   117771215.35308  22411114.900    91769796.76746
  24366396.120   128046281.29606  24366394.500    99776322.11345
  21716987.860   114123556.01008  21716987.060    88927446.71148
  23385024.540   122889170.23907  23385027.360    95757830.76846
  22186753.340   116592206.65508  22186755.760    90851093.25248
  23589020.880   123961086.92207  23589023.380    96593038.88346
 15 03 02 00 11  0.0000000  0  7G16G18G19G21G22G27G31
  21073387.560   110741414.37109  21073387.240    86291999.02248
  22401938.640   117722995.21108  22401938.900    91732222.66346
  24351290.240   127966900.64305  24351288.840    99714467.11044
  21726831.220   114175283.14309  21726830.360    88967753.57348
  23367820.520   122798762.29707  23367823.320    95687383.31146
  22175824.280   116534774.47708  22175826.900    90806340.91848
  23607643.480   124058948.62307  23607645.900    96669294.54346
 15 03 02 00 11 30.0000000  0  7G16G18G19G21G22G27G31
  21063025.640   110686962.09309  21063025.260    86249568.68248
  22392832.400   117675141.36308  22392832.600    91694933.99147
  24336201.160   127887608.96805  24336200.340    99652681.39245
  21736726.820   114227284.64008  21736725.860    89008274.21948
  23350634.840   122708450.95407  23350637.460    95617011.22645
  22164920.000   116477471.73108  22164922.640    90761689.44248
  23626280.320   124156885.11107  23626282.660    96745608.46246
 15 03 02 00 12  0.0000000  0  7G16G18G19G21G22G27G31
  21052729.140   110632853.81409  21052728.800    86207406.38748
  22383794.320   117627645.47208  22383794.500    91657924.22946
  24321127.600   127808395.76206  24321126.920    99590956.82145
  21746672.120   114279547.37608  21746671.080    89048998.43348
  23333465.700   122618228.57507  23333468.220    95546708.54444
  22154038.500   116420288.17708  22154040.980    90717130.84548
  23644928.860   124254883.30607  23644931.200    96821970.49646
 15 03 02 00 12 30.0000000  0  7G16G18G19G21G22G27G31
  21042499.480   110579096.74109  21042499.220    86165517.76048
  22374825.760   117580514.98008  22374825.920    91621199.21347
  24306070.400   127729266.23706  24306069.260    99529297.52345
  21756667.800   114332074.98708  21756666.780    89089929.03948
  23316314.940   122528102.52207  23316317.220    95476480.90846
  22143180.660   116363229.07608  22143182.900    90672669.22248
  23663589.600   124352945.62407  23663591.980    96898382.47046
 15 03 02 00 13  0.0000000  0  7G16G18G19G21G22G27G31
  21032339.380   110525705.04709  21032339.140    86123913.83948
  22365929.340   117533763.80108  22365929.440    91584769.74346
  24291031.260   127650232.30006  24291029.500    99467712.70946
  21766715.740   114384877.50808  21766714.800    89131073.86448
  23299185.420   122438088.26307  23299187.600    95406340.69845
  22132348.680   116306306.33708  22132350.780    90628313.86448
  23682264.260   124451080.99107  23682266.740    96974851.37046
 15 03 02 00 13 30.0000000  0  7G16G18G19G21G22G27G31
  21022249.640   110472683.07609  21022249.340    86082598.01848
  22357105.920   117487396.23708  22357105.880    91548639.20546
  24276010.220   127571296.27106  24276008.500    99406204.18046
  21776816.140   114437955.79408  21776815.320    89172433.57148
  23282077.920   122348190.32407  23282080.160    95336291.26145
  22121543.040   116249522.46008  22121545.160    90584066.70748
  23700952.800   124549288.83807  23700955.420    97051376.73746
 15 03 02 00 14  0.0000000  0  7G16G18G19G21G22G27G31
  21012229.160   110420025.10409  21012228.760    86041565.83148
  22348354.460   117441406.54708  22348354.220    91512803.09547
  24261005.980   127492450.85106  24261005.020    99344766.21346
  21786967.100   114491299.74508  21786966.400    89214000.28548
  23264991.460   122258403.81807  23264993.640    95266328.71246
  22110762.240   116192869.73608  22110764.540    90539921.74448
  23719653.020   124647558.46907  23719655.860    97127950.23346
 15 03 02 00 14 30.0000000  0  7G16G18G19G21G22G27G31
  21002278.000   110367731.35809  21002277.560    86000817.46049
  22339674.740   117395794.60508  22339674.460    91477261.35546
  24246018.580   127413693.55806  24246018.320    99283396.92946
  21797168.060   114544906.29608  21797167.420    89255771.61948
  23247926.120   122168728.30907  23247927.980    95196452.15546
  22100006.020   116136346.24608  22100008.540    90495877.48448
  23738364.160   124745884.91507  23738367.080    97204567.99746
 15 03 02 00 15  0.0000000  0  7G16G18G19G21G22G27G31
  20992396.480   110315803.42009  20992396.080    85960354.13649
  22331067.080   117350562.10808  22331067.000    91442015.28647
  24231048.000   127335024.08506  24231048.020    99222096.10245
  21807418.440   114598772.38608  21807417.840    89297745.18948
  23230882.520   122079166.90007  23230884.180    95126664.50446
  22089274.420   116079951.69608  22089276.940    90451933.71248
  23757085.580   124844265.04107  23757088.440    97281227.58246
 15 03 02 00 15 30.0000000  0  7G16G18G19G21G22G27G31
  20982584.040   110264238.31909  20982583.640    85920173.53549
  22322531.060   117305705.61408  22322531.200    91407062.19447
  24216093.620   127256437.63906  24216093.160    99160859.97145
  21817716.920   114652891.47408  21817716.400    89339915.90748
  23213860.160   121989717.45707  23213862.040    95056964.02746
  22078566.460   116023681.07608  22078568.840    90408086.49448
  23775815.620   124942690.38907  23775818.240    97357922.39846
 15 03 02 00 16  0.0000000  0  7G16G18G19G21G22G27G31
  20972842.260   110213044.83309  20972841.840    85880282.50949
  22314068.400   117261234.04308  22314068.640    91372409.04147
  24201156.440   127177941.17206  24201154.760    99099693.93645
  21828064.480   114707268.68608  21828064.040    89382287.76948
  23196861.000   121900389.52907  23196863.140    94987358.19146
  22067883.500   115967541.52908  22067885.660    90364341.40348
  23794555.160   125041165.67107  23794557.500    97434656.11446
 15 03 02 00 16 30.0000000  0  7G16G18G19G21G22G27G31
  20963172.420   110162229.42309  20963171.960    85840686.08449
  22305680.160   117217154.06508  22305680.520    91338061.04547
  24186236.980   127099539.00906  24186235.220    99038601.38345
  21838461.660   114761906.71408  21838461.300    89424862.85848
  23179886.680   121811190.23107  23179888.820    94917852.61146
  22057226.300   115911537.42608  22057228.260    90320701.86748
  23813304.440   125139692.14407  23813306.460    97511429.72546
 15 03 02 00 17  0.0000000  0  7G16G18G19G21G22G27G31
  20953573.460   110111786.67609  20953573.020    85801380.04349
  22297365.240   117173459.47808  22297365.720    91304013.34147
  24171334.040   127021223.51206  24171332.540    98977576.35146
  21848906.620   114816795.61208  21848906.240    89467633.42448
  23162936.000   121722114.58707  23162937.820    94848443.36646
  22046593.380   115855661.24308  22046595.280    90277162.00548
  23832061.520   125238259.37107  23832063.240    97588235.10245
 15 03 02 00 17 30.0000000  0  7G16G18G19G21G22G27G31
  20944046.800   110061724.01609  20944046.480    85762370.18049
  22289125.260   117130158.09608  22289125.700    91270272.03947
  24156448.460   126943000.42506  24156447.700    98916623.31745
  21859400.120   114871939.24308  21859399.660    89510602.48448
  23146010.400   121633171.09907  23146012.040    94779137.06246
  22035985.800   115799918.59708  22035987.780    90233726.18848
  23850826.760   125336869.62807  23850828.240    97665073.97546
 15 03 02 00 18  0.0000000  0  7G16G18G19G21G22G27G31
  20934591.780   110012037.56609  20934591.480    85723653.46649
  22280959.420   117087245.86208  22280959.740    91236833.97247
  24141579.460   126864863.77606  24141578.940    98855737.62945
  21869940.800   114927330.32808  21869940.220    89553764.36748
  23129109.400   121544356.50907  23129110.920    94709931.17246
  22025402.600   115744303.77108  22025404.580    90190389.96848
  23869598.500   125435514.41307  23869599.960    97741939.73645
 15 03 02 00 18 30.0000000  0  7G16G18G19G21G22G27G31
  20925208.840   109962729.63909  20925208.500    85685231.71149
  22272868.080   117044725.08708  22272868.280    91203700.92147
  24126727.300   126786814.02906  24126726.260    98794919.68945
  21880528.220   114982966.82608  21880527.500    89597117.48648
  23112233.540   121455673.70207  23112234.920    94640827.97947
  22014843.900   115688817.13908  22014845.800    90147153.63448
  23888376.300   125534191.06507  23888377.900    97818830.26945
 15 03 02 00 19  0.0000000  0  7G16G18G19G21G22G27G31
  20915899.040   109913805.91309  20915898.580    85647109.32349
  22264852.040   117002600.68608  22264852.180    91170876.74747
  24111892.380   126708854.69806  24111890.740    98734172.20545
  21891162.600   115038850.65208  21891161.860    89640663.32748
  23095383.800   121367128.70107  23095385.140    94571832.12846
  22004310.340   115633462.20808  22004312.180    90104019.93048
  23907160.240   125632900.27406  23907162.020    97895746.18846
 15 03 02 00 19 30.0000000  0  7G16G18G19G21G22G27G31
  20906663.840   109865274.60509  20906663.320    85609292.71549
  22256912.800   116960880.28208  22256912.960    91138367.36847
  24097075.540   126630991.96706  24097073.540    98673499.99045
  21901844.740   115094985.77308  21901844.060    89684404.97648
  23078562.040   121278730.82807  23078563.260    94502950.93746
  21993802.940   115578245.40408  21993804.880    90060993.86148
  23925951.000   125731645.54406  23925953.140    97972690.19445
 15 03 02 00 20  0.0000000  0  7G16G18G19G21G22G27G31
  20897502.560   109817131.57509  20897501.980    85571778.66349
  22249049.880   116919560.46108  22249049.980    91106170.12747
  24082275.780   126553219.95906  24082274.080    98612898.43244
  21912573.280   115151364.61908  21912572.600    89728336.53748
  23061767.760   121190476.85008  23061768.760    94434181.85146
  21983320.620   115523160.92108  21983322.740    90018070.91248
  23944747.020   125830418.07106  23944749.440    98049655.43945
 15 03 02 00 20 30.0000000  0  7G16G18G19G21G22G27G31
  20888414.460   109769373.06909  20888413.780    85534564.24549
  22241262.440   116878636.86108  22241262.460    91074281.62947
  24067492.320   126475532.80506  24067491.220    98552363.01145
  21923346.900   115207979.83208  21923346.100    89772452.29048
  23045000.280   121102363.39507  23045000.940    94365522.28446
  21972862.360   115468203.03008  21972864.700    89975246.60448
  23963546.500   125929208.80406  23963549.040    98126634.88746
 15 03 02 00 21  0.0000000  0  7G16G18G19G21G22G27G31
  20879400.120   109722002.54509  20879399.420    85497652.15549
  22233551.040   116838113.03608  22233551.100    91042704.66147
  24052725.640   126397932.42106  24052724.820    98491895.21145
  21934165.440   115264830.96308  21934164.440    89816751.86948
  23028260.300   121014395.32807  23028260.860    94296975.97246
  21962428.660   115413373.66908  21962431.040    89932522.44348
  23982349.240   126028016.84506  23982351.920    98203627.81446
 15 03 02 00 21 30.0000000  0  7G16G18G19G21G22G27G31
  20870462.060   109675032.66709  20870461.380    85461052.25449
  22225918.060   116798001.45308  22225918.160    91011448.89847
  24037977.280   126320428.94806  24037976.500    98431502.97045
  21945030.400   115321926.39808  21945029.260    89861241.81648
  23011550.440   120926585.33808  23011550.860    94228552.85146
  21952021.460   115358683.13308  21952023.740    89889906.44848
  24001156.560   126126849.47706  24001159.340    98280639.87646
 15 03 02 00 22  0.0000000  0  7G16G18G19G21G22G27G31
  20861600.540   109628465.16009  20861599.940    85424765.88349
  22218363.680   116758303.20508  22218363.760    90980515.21947
  24023246.940   126243022.39406  24023246.380    98371186.20345
  21955941.340   115379264.06408  21955940.200    89905920.51748
  22994871.280   120838936.01808  22994871.260    94160254.90346
  21941640.740   115304131.43708  21941642.760    89847398.64848
  24019968.060   126225703.91506  24019970.880    98357668.91445
 15 03 02 00 22 30.0000000  0  7G16G18G19G21G22G27G31
  20852813.800   109582290.92609  20852813.300    85388785.95649
  22210886.380   116719009.45708  22210886.220    90949896.73547
  24008532.940   126165701.65206  24008532.740    98310936.29145
  21966895.980   115436831.59808  21966894.940    89950778.32948
  22978221.120   120751438.96608  22978220.780    94092075.61146
  21931284.340   115249707.76008  21931286.100    89804990.59848
  24038781.080   126324566.12506  24038783.980    98434703.98146
 15 03 02 00 23  0.0000000  0  7G16G18G19G21G22G27G31
  20844101.960   109536510.19809  20844101.520    85353112.66149
  22203485.900   116680119.52008  22203485.580    90919592.91046
  23993835.360   126088464.97706  23993835.200    98250751.91246
  21977893.660   115494625.36108  21977892.780    89995812.43348
  22961599.840   120664095.20007  22961599.640    94024015.71846
  21920951.900   115195410.41608  21920953.560    89762680.99248
  24057594.740   126423431.42206  24057597.920    98511741.46545
 15 03 02 00 23 30.0000000  0  7G16G18G19G21G22G27G31
  20835466.700   109491131.41609  20835466.220    85317752.57049
  22196163.860   116641642.34708  22196163.460    90889610.72846
  23979155.400   126011319.41406  23979154.820    98190638.53345
  21988935.220   115552649.67608  21988934.500    90041026.18048
  22945009.560   120576914.30108  22945009.580    93956082.72646
  21910644.760   115141246.24508  21910646.460    89720475.15048
  24076409.840   126522303.78206  24076413.400    98588784.46346
 15 03 02 00 24  0.0000000  0  7G16G18G19G21G22G27G31
  20826909.860   109446164.59809  20826909.380    85282713.49349
  22188922.180   116603587.15708  22188921.620    90859957.35346
  23964493.840   125934272.72506  23964492.980    98130602.19146
  22000021.840   115610910.60208  22000021.200    90086424.30248
  22928452.320   120489906.52608  22928452.340    93888284.66946
  21900364.420   115087223.17208  21900366.300    89678379.25148
  24095227.360   126621188.37806  24095231.200    98665836.98846
 15 03 02 00 24 30.0000000  0  7G16G18G19G21G22G27G31
  20818430.600   109401605.78809  20818430.080    85247992.34149
  22181760.040   116565949.71508  22181759.300    90830629.49947
  23949849.520   125857318.85006  23949848.540    98070638.16546
  22011152.040   115669400.38708  22011151.380    90132000.76248
  22911927.540   120403069.02307  22911927.600    93820619.27247
  21890109.800   115033335.63608  21890111.980    89636388.97248
  24114045.660   126720076.32707  24114049.500    98742892.14545
 15 03 02 00 25  0.0000000  0  7G16G18G19G21G22G27G31
  20810027.700   109357448.62909  20810027.120    85213584.15849
  22174676.100   116528723.69008  22174675.360    90801622.23647
  23935221.540   125780449.71506  23935220.640    98010740.21046
  22022323.960   115728109.24608  22022323.260    90177747.92548
  22895434.100   120316396.18808  22895434.300    93753082.17847
  21879879.440   114979575.53808  21879881.920    89594498.00148
  24132862.700   126818956.64507  24132866.300    98819941.37045
 15 03 02 00 25 30.0000000  0  7G16G18G19G21G22G27G31
  20801701.800   109313695.78209  20801701.200    85179491.03349
  22167670.920   116491911.48908  22167670.360    90772937.43847
  23920610.400   125703666.06107  23920609.380    97950908.84446
  22033537.420   115787036.36308  22033536.700    90223665.15548
  22878972.740   120229891.61208  22878973.020    93685676.20247
  21869673.580   114925943.78108  21869676.240    89552707.04448
  24151677.840   126917827.31307  24151681.240    98896983.09445
 15 03 02 00 26  0.0000000  0  7G16G18G19G21G22G27G31
  20793454.780   109270357.41209  20793454.220    85145720.87549
  22160746.260   116455522.42008  22160745.940    90744582.34547
  23906017.220   125626976.22007  23906015.960    97891150.58845
  22044793.680   115846188.03308  22044792.880    90269757.36748
  22862545.460   120143565.99408  22862545.760    93618409.67247
  21859493.840   114872448.73408  21859496.500    89511022.61048
  24170491.920   127016693.53507  24170495.340    98974021.28145
 15 03 02 00 26 30.0000000  0  7G16G18G19G21G22G27G31
  20785287.120   109227436.45309  20785286.660    85112275.96949
  22153902.780   116419559.91108  22153902.580    90716559.62447
  23891441.800   125550381.44606  23891440.500    97831466.39746
  22056092.500   115905563.17908  22056091.640    90316023.71748
  22846152.880   120057423.05108  22846153.220    93551285.46947
  21849340.360   114819091.49508  21849342.900    89469445.55348
  24189304.600   127115553.30407  24189308.280    99051054.41746
 15 03 02 00 27  0.0000000  0  7G16G18G19G21G22G27G31
  20777199.640   109184936.68709  20777199.160    85079159.27349
  22147141.080   116384026.93008  22147140.860    90688871.60147
  23876884.340   125473883.43206  23876883.080    97771857.62145
  22067433.800   115965161.86008  22067432.980    90362464.24848
  22829795.860   119971467.47108  22829796.220    93484307.25347
  21839213.480   114765874.20308  21839215.920    89427977.54348
  24208115.820   127214406.03407  24208119.940    99128082.04146
 15 03 02 00 27 30.0000000  0  7G16G18G19G21G22G27G31
  20769190.880   109142850.33809  20769190.280    85046364.71349
  22140459.580   116348915.42108  22140459.320    90661511.99047
  23862343.680   125397472.69407  23862342.400    97712316.84146
  22078815.440   116024972.55308  22078814.700    90409069.98548
  22813473.360   119885692.33008  22813473.500    93417469.63647
  21829111.320   114712787.38308  21829113.680    89386611.19248
  24226923.260   127313239.10907  24226927.840    99205094.31545
 15 03 02 00 28  0.0000000  0  7G16G18G19G21G22G27G31
  20761261.440   109101180.40009  20761260.740    85013894.63149
  22133858.800   116314228.42708  22133858.600    90634483.19447
  23847820.200   125321150.31407  23847818.740    97652844.89846
  22090237.220   116084994.30208  22090236.480    90455840.17948
  22797185.960   119800101.24008  22797185.800    93350775.43447
  21819034.200   114659832.28008  21819036.520    89345347.48848
  24245726.740   127412051.00807  24245731.560    99282090.06545
 15 03 02 00 28 30.0000000  0  7G16G18G19G21G22G27G31
  20753413.240   109059937.53909  20753412.520    84981757.33349
  22127340.620   116279975.67408  22127340.520    90607792.75947
  23833314.940   125244924.95006  23833313.500    97593448.51446
  22101700.560   116145234.27108  22101699.760    90502780.41448
  22780935.660   119714705.75508  22780935.340    93284233.64147
  21808983.960   114607017.88908  21808986.160    89304193.43748
  24264527.260   127510847.34307  24264532.220    99359073.63145
 15 03 02 00 29  0.0000000  0  7G16G18G19G21G22G27G31
  20745646.180   109019121.19509  20745645.400    84949952.39049
  22120904.980   116246156.44408  22120904.920    90581440.13447
  23818827.460   125168794.63806  23818826.420    97534126.19046
  22113204.680   116205688.54308  22113203.780    90549887.64148
  22764722.520   119629506.45308  22764722.100    93217844.72646
  21798960.180   114554342.02308  21798962.220    89263147.31648
  24283323.860   127609623.16506  24283328.740    99436041.15745
 15 03 02 00 29 30.0000000  0  7G16G18G19G21G22G27G31
  20737959.400   108978726.76809  20737958.520    84918476.21649
  22114550.900   116212765.93108  22114550.840    90555421.56647
  23804356.880   125092752.55906  23804355.920    97474872.66945
  22124748.020   116266348.92908  22124747.020    90597155.46448
  22748545.960   119544499.31508  22748545.480    93151605.54746
  21788961.560   114501798.37308  21788963.520    89222204.21348
  24302114.840   127708369.47806  24302119.640    99512985.72145
 15 03 02 00 30  0.0000000  0  7G16G18G19G21G22G27G31
  20730353.500   108938757.59809  20730352.600    84887331.40149
  22108279.040   116179807.36208  22108279.140    90529739.59247
  23789903.600   125016800.34206  23789902.740    97415689.20645
  22136330.400   116327214.63608  22136329.320    90644583.28448
  22732406.860   119459688.63108  22732406.400    93085519.43947
  21778988.420   114449388.72208  21778990.380    89181365.52848
  24320899.940   127807084.92706  24320904.880    99589906.27245
 15 03 02 00 30 30.0000000  0  7G16G18G19G21G22G27G31
  20722829.260   108899217.50809  20722828.540    84856520.94149
  22102090.020   116147283.84008  22102090.220    90504396.62647
  23775468.000   124940940.28406  23775467.260    97356577.51846
  22147951.900   116388286.19108  22147950.800    90692171.50248
  22716306.020   119375079.02408  22716305.600    93019589.99847
  21769041.100   114397115.32408  21769043.180    89140633.02448
  24339679.040   127905768.74206  24339684.220    99666802.13845
 15 03 02 00 31  0.0000000  0  7G16G18G19G21G22G27G31
  20715387.540   108860110.86909  20715386.900    84826048.23349
  22095984.620   116115199.39708  22095984.780    90479395.78247
  23761050.240   124865174.76706  23761049.600    97297539.51446
  22159612.620   116449563.89608  22159611.520    90739920.35547
  22700244.320   119290675.56608  22700244.020    92953821.19447
  21759120.160   114344980.73708  21759122.400    89100008.68148
  24358452.140   128004420.26706  24358457.660    99743672.75045
 15 03 02 00 31 30.0000000  0  7G16G18G19G21G22G27G31
  20708028.160   108821437.42309  20708027.560    84795913.08749
  22089962.540   116083552.83508  22089962.620    90454736.15247
  23746650.000   124789501.59406  23746649.460    97238573.45146
  22171311.860   116511043.92508  22171310.760    90787826.86948
  22684222.080   119206479.17708  22684221.800    92888213.72947
  21749225.360   114292983.13108  21749227.620    89059491.07548
  24377218.320   128103034.80406  24377224.160    99820514.64045
 15 03 02 00 32  0.0000000  0  7G16G18G19G21G22G27G31
  20700751.320   108783197.87809  20700750.760    84766116.04149
  22084023.940   116052345.06108  22084023.860    90430418.40847
  23732267.280   124713919.69107  23732266.220    97179678.52745
  22183049.000   116572723.25308  22183047.980    90835888.67748
  22668239.520   119122490.94908  22668239.220    92822768.46947
  21739356.500   114241121.56909  21739358.660    89019079.47348
  24395976.900   128201608.69406  24395982.820    99897324.81245
 15 03 02 00 32 30.0000000  0  7G16G18G19G21G22G27G31
  20693557.460   108745393.97309  20693556.900    84736658.45249
  22078169.180   116021577.62708  22078168.980    90406443.80747
  23717902.200   124638429.30907  23717900.660    97120854.89346
  22194823.780   116634600.45808  22194822.920    90884104.67548
  22652297.200   119038713.87508  22652296.820    92757487.74947
  21729513.620   114189396.29208  21729515.580    88978774.07748
  24414727.300   128300139.10306  24414733.160    99974101.12844
 15 03 02 00 33  0.0000000  0  7G16G18G19G21G22G27G31
  20686447.700   108708031.75809  20686447.140    84707545.03449
  22072399.180   115991256.02008  22072398.960    90382816.60347
  23703555.240   124563034.86307  23703553.540    97062106.00346
  22206636.720   116696678.14708  22206636.000    90932476.90248
  22636396.460   118955154.91708  22636395.960    92692376.99447
  21719697.440   114137811.94708  21719699.280    88938578.49148
  24433469.760   128398627.76706  24433475.320   100050844.98345
 15 03 02 00 33 30.0000000  0  7G16G18G19G21G22G27G31
  20679421.720   108671109.94809  20679421.100    84678774.78649
  22066713.560   115961378.21108  22066713.360    90359535.22047
  23689225.780   124487733.53407  23689224.400    97003429.64746
  22218486.780   116758951.01908  22218486.180    90981001.21448
  22620537.180   118871813.79108  22620536.520    92627435.97947
  21709907.460   114086365.53008  21709909.320    88898490.38748
  24452203.120   128497068.61706  24452208.340   100127551.62744
 15 03 02 00 34  0.0000000  0  7G16G18G19G21G22G27G31
  20672480.320   108634632.62109  20672479.660    84650350.89349
  22061113.160   115931948.32008  22061112.900    90336602.85847
  23674914.340   124412527.28407  23674913.460    96944827.40545
  22230374.060   116821419.35708  22230373.540    91029677.83148
  22604720.280   118788695.51208  22604719.560    92562668.60647
  21700144.260   114035059.76309  21700146.220    88858511.88148
  24470927.160   128595461.13506  24470932.260   100204220.54645
 15 03 02 00 34 30.0000000  0  7G16G18G19G21G22G27G31
  20665623.300   108598598.79309  20665622.720    84622272.58949
  22055597.760   115902964.66608  22055597.420    90314018.20347
  23660620.420   124337413.33906  23660619.680    96886297.11346
  22242297.760   116884078.98408  22242297.300    91078503.50848
  22588945.600   118705799.46908  22588944.960    92498074.38547
  21690407.320   113983891.87608  21690409.360    88818640.80148
  24489640.860   128693800.12906  24489646.140   100280847.93344
 15 03 02 00 35  0.0000000  0  7G16G18G19G21G22G27G31
  20658851.380   108563012.20209  20658850.880    84594542.77049
  22050167.880   115874430.24408  22050167.580    90291783.59047
  23646344.400   124262393.76906  23646343.760    96827840.32646
  22254257.920   116946930.02808  22254257.500    91127478.34348
  22573214.180   118623130.51008  22573213.540    92433657.12347
  21680697.060   113932864.20808  21680699.120    88778878.98948
  24508343.940   128792084.80006  24508349.800   100357433.06945
 15 03 02 00 35 30.0000000  0  7G16G18G19G21G22G27G31
  20652164.760   108527873.72709  20652164.300    84567162.14049
  22044823.560   115846345.55808  22044823.380    90269899.43447
  23632086.380   124187468.00407  23632085.600    96769456.64446
  22266254.000   117009969.54908  22266253.500    91176600.04647
  22557526.400   118540690.63808  22557525.680    92369418.35147
  21671013.340   113881976.26208  21671015.400    88739226.05148
  24527035.880   128890311.41606  24527042.420   100433973.02145
 15 03 02 00 36  0.0000000  0  7G16G18G19G21G22G27G31
  20645563.060   108493181.14209  20645562.500    84540128.95349
  22039564.440   115818708.90608  22039564.360    90248364.40547
  23617845.660   124112632.09507  23617844.720    96711142.97146
  22278284.980   117073192.56008  22278284.440    91225864.72248
  22541881.980   118458478.80308  22541881.160    92305357.27647
  21661355.460   113831224.38808  21661357.520    88699679.14448
  24545715.720   128988474.01505  24545722.840   100510463.16545
 15 03 02 00 36 30.0000000  0  7G16G18G19G21G22G27G31
  20639046.860   108458938.32109  20639046.340    84513446.23449
  22034391.040   115791522.88708  22034391.020    90227180.52247
  23603622.780   124037888.33007  23603621.480    96652901.11546
  22290350.880   117136598.80108  22290350.220    91275272.17847
  22526281.780   118376499.21408  22526280.860    92241477.17947
  21651723.880   113780610.73208  21651725.960    88660239.94248
  24564383.040   129086571.10506  24564390.680   100586902.22746
 15 03 02 00 37  0.0000000  0  7G16G18G19G21G22G27G31
  20632617.540   108425152.12709  20632617.100    84487119.32749
  22029304.660   115764793.92608  22029304.560    90206352.77347
  23589418.360   123963241.61807  23589416.540    96594734.88946
  22302452.260   117200191.75908  22302451.540    91324825.12847
  22510727.340   118294759.92508  22510726.400    92177784.32547
  21642119.760   113730140.96408  21642121.820    88620912.86648
  24583038.320   129184604.73706  24583046.220   100663291.61645
 15 03 02 00 37 30.0000000  0  7G16G18G19G21G22G27G31
  20626274.980   108391821.79409  20626274.580    84461147.63549
  22024305.020   115738520.76408  22024304.880    90185880.19647
  23575231.780   123888689.75207  23575229.520    96536642.56146
  22314588.360   117263967.11108  22314587.580    91374520.20247
  22495218.520   118213261.07008  22495217.720    92114278.81147
  21632542.660   113679812.73608  21632544.700    88581696.06548
  24601680.700   129282570.06005  24601688.580   100739627.64945
 15 03 02 00 38  0.0000000  0  7G16G18G19G21G22G27G31
  20620019.520   108358949.40109  20620019.180    84435532.78749
  22019392.440   115712705.11408  22019392.300    90165764.12347
  23561063.140   123814233.43207  23561060.720    96478624.68446
  22326758.940   117327923.67008  22326758.100    91424356.48147
  22479755.980   118132006.15608  22479755.300    92050963.37647
  21622992.700   113629626.90009  21622994.740    88542590.22148
  24620309.960   129380465.44806  24620317.660   100815909.19344
 15 03 02 00 38 30.0000000  0  7G16G18G19G21G22G27G31
  20613851.780   108326537.88409  20613851.420    84410277.05649
  22014567.320   115687349.20008  22014567.260    90146006.28447
  23546912.600   123739874.09706  23546910.680    96420682.37446
  22338963.860   117392060.77608  22338962.960    91474333.44547
  22464340.620   118050998.61308  22464339.940    91987840.70147
  21613470.060   113579584.65009  21613472.120    88503596.26648
  24638925.720   129478288.96906  24638933.320   100892134.66344
 15 03 02 00 39  0.0000000  0  7G16G18G19G21G22G27G31
  20607771.500   108294585.65809  20607771.080    84385379.21549
  22009829.360   115662451.45408  22009829.380    90126605.46847
  23532779.760   123665608.13306  23532778.880    96362812.83446
  22351202.220   117456373.88208  22351201.260    91524447.55147
  22448972.320   117970237.99808  22448971.620    91924910.45447
  21603974.240   113529683.59309  21603976.300    88464712.33348
  24657526.860   129576034.77805  24657534.040   100968299.54344
 15 03 02 00 39 30.0000000  0  7G16G18G19G21G22G27G31
  20601779.420   108263096.87609  20601778.920    84360842.50049
  22005179.260   115638015.24508  22005179.180    90107564.28447
  23518665.460   123591438.56307  23518665.620    96305018.36846
  22363473.780   117520847.17608  22363472.900    91574680.94147
  22433652.000   117889729.32308  22433651.180    91862176.50947
  21594505.700   113479926.26108  21594507.720    88425940.39948
  24676113.180   129673702.84406  24676120.180   101044403.81944
 15 03 02 00 40  0.0000000  0  7G16G18G19G21G22G27G31
  20595874.600   108232066.77409  20595874.020    84336663.19849
  22000616.000   115614035.19908  22000615.780    90088878.54647
  23504568.620   123517358.68807  23504569.140    96247293.81946
  22375777.640   117585504.68008  22375776.820    91625063.41547
  22418378.960   117809468.81408  22418378.000    91799635.92947
  21585063.240   113430306.35508  21585065.260    88387275.55248
  24694682.900   129771283.96804  24694689.780   101120440.21142
 15 03 02 00 40 30.0000000  0  6G16G18G19G21G22G27
  20590056.260   108201491.26209  20590055.660    84312838.12349
  21996138.680   115590506.80708  21996138.360    90070544.74747
  23490488.040   123443363.06607  23490488.120    96189634.93846
  22388112.200   117650323.02608  22388111.420    91675571.20647
  22403152.580   117729453.39508  22403151.440    91737286.31747
  21575645.920   113380818.72208  21575647.980    88348713.76448
 15 03 02 00 41  0.0000000  0  6G16G18G19G21G22G27
  20584329.360   108171396.02909  20584328.740    84289387.29049
  21991752.100   115567455.40508  21991751.780    90052582.63047
  23476428.180   123369475.82507  23476427.180    96132060.48946
  22400481.560   117715324.38608  22400480.900    91726221.60647
  22387977.800   117649709.98708  22387976.600    91675148.67047
  21566258.460   113331487.64709  21566260.600    88310273.96948
 15 03 02 00 41 30.0000000  0  6G16G18G19G21G22G27
  20578691.720   108141769.79709  20578691.060    84266301.90849
  21987454.060   115544868.99508  21987453.760    90034982.83847
  23462386.320   123295684.07107  23462384.240    96074560.45545
  22412883.020   117780494.24008  22412882.400    91777003.30348
  22372852.760   117570227.94808  22372851.540    91613214.68047
  21556898.480   113282300.53808  21556900.700    88271946.35448
 15 03 02 00 42  0.0000000  0  6G16G18G19G21G22G27
  20573143.880   108112615.43809  20573143.200    84243584.22449
  21983244.940   115522749.91508  21983244.680    90017747.21647
  23448362.640   123221989.38507  23448360.040    96017136.07446
  22425316.500   117845831.96208  22425315.920    91827915.80547
  22357778.340   117491011.55408  22357777.060    91551487.67947
  21547566.280   113233259.18409  21547568.500    88233732.31748
 15 03 02 00 42 30.0000000  0  6G16G18G19G21G22G27
  20567686.060   108083933.99309  20567685.320    84221235.04049
  21979124.720   115501098.09908  21979124.520    90000875.68947
  23434357.140   123148390.95507  23434354.680    95959786.67746
  22437781.460   117911335.02308  22437780.880    91878957.13847
  22342754.760   117412062.21108  22342753.420    91489968.77847
  21538261.660   113184363.07809  21538263.940    88195631.46648
 15 03 02 00 43  0.0000000  0  6G16G18G19G21G22G27
  20562318.360   108055726.35009  20562317.580    84199255.05649
  21975093.700   115479914.89608  21975093.500    89984369.31447
  23420369.840   123074888.68406  23420367.960    95902512.19946
  22450277.500   117977001.74908  22450276.920    91930126.00847
  22327782.480   117333382.40908  22327781.080    91428659.90947
  21528984.660   113135612.18508  21528986.960    88157643.76648
 15 03 02 00 43 30.0000000  0  6G16G18G19G21G22G27
  20557041.660   108027997.30109  20557040.920    84177648.00349
  21971152.640   115459204.25708  21971152.400    89968231.17047
  23406401.200   123001485.69706  23406400.320    95845315.07646
  22462804.820   118042833.31208  22462804.300    91981423.31847
  22312862.660   117254978.36308  22312861.260    91367565.91847
  21519735.960   113087010.06708  21519738.260    88119771.99848
 15 03 02 00 44  0.0000000  0  6G16G18G19G21G22G27
  20551854.460   108000738.49909  20551853.720    84156407.36849
  21967299.780   115438956.98908  21967299.420    89952454.09347
  23392450.040   122928172.19607  23392449.460    95788187.67846
  22475361.260   118108818.21808  22475360.740    92032840.12147
  22297993.760   117176842.23608  22297992.380    91306680.69047
  21510513.740   113038547.09009  21510516.060    88082008.64948
 15 03 02 00 44 30.0000000  0  6G16G18G19G21G22G27
  20546758.620   107973959.39809  20546757.840    84135540.53449
  21963536.860   115419182.14908  21963536.300    89937045.12647
  23378517.660   122854956.01507  23378516.920    95731136.13947
  22487948.000   118174962.30608  22487947.440    92084380.96547
  22283177.780   117098984.28208  22283176.440    91246012.22947
  21501319.600   112990231.35809  21501321.900    88044360.02748
 15 03 02 00 45  0.0000000  0  6G16G18G19G21G22G27
  20541754.280   107947661.29609  20541753.520    84115048.50749
  21959863.900   115399880.33008  21959863.180    89922004.75247
  23364603.760   122781837.19907  23364602.680    95674160.47446
  22500564.680   118241263.76408  22500564.020    92136044.42947
  22268415.240   117021406.89708  22268413.880    91185562.38647
  21492153.500   112942063.08009  21492155.820    88006826.30848
 15 03 02 00 45 30.0000000  0  6G16G18G19G21G22G27
  20536841.500   107921844.56009  20536840.780    84094931.56149
  21956280.820   115381051.63008  21956280.200    89907333.05647
  23350708.300   122708815.07807  23350706.560    95617260.15346
  22513210.820   118307720.00708  22513210.060    92187828.50647
  22253706.600   116944112.21708  22253705.240    91125332.82548
  21483015.380   112894041.82009  21483017.700    87969407.15648
 15 03 02 00 46  0.0000000  0  6G16G18G19G21G22G27
  20532020.920   107896512.32309  20532020.220    84075192.15149
  21952788.240   115362698.55308  21952787.840    89893031.97547
  23336831.460   122635891.16907  23336829.040    95560436.34046
  22525886.460   118374331.05508  22525885.600    92239733.21647
  22239052.520   116867104.09008  22239051.180    91065326.55748
  21473905.620   112846169.50109  21473907.880    87932104.06548
 15 03 02 00 46 30.0000000  0  6G16G18G19G21G22G27
  20527292.820   107871666.18109  20527292.140    84055831.51649
  21949386.460   115344822.01009  21949386.140    89879102.22047
  23322973.220   122563065.98407  23322970.700    95503689.47946
  22538591.260   118441095.30308  22538590.380    92291757.30247
  22224453.400   116790385.08308  22224452.140    91005545.56848
  21464824.300   112798446.59809  21464826.440    87894917.39548
 15 03 02 00 47  0.0000000  0  6G16G18G19G21G22G27
  20522657.480   107847307.45709  20522656.840    84036850.69049
  21946075.440   115327422.43508  21946075.080    89865544.11847
  23309133.540   122490338.76307  23309131.340    95447018.93446
  22551324.780   118508010.37608  22551323.920    92343898.90947
  22209909.600   116713957.50308  22209908.500    90945991.67148
  21455771.420   112750873.00309  21455773.420    87857847.06448
 15 03 02 00 47 30.0000000  0  6G16G18G19G21G22G27
  20518114.620   107823434.74609  20518114.040    84018248.57549
  21942854.800   115310498.23608  21942854.440    89852356.43247
  23295312.200   122417707.33907  23295310.440    95390423.01646
  22564086.240   118575072.20908  22564085.420    92396154.87947
  22195421.260   116637821.48508  22195420.300    90886664.96147
  21446746.500   112703446.50309  21446748.380    87820891.35948
 15 03 02 00 48  0.0000000  0  6G16G18G19G21G22G27
  20513665.220   107800053.22209  20513664.720    84000029.20049
  21939725.460   115294053.94208  21939725.220    89839542.71347
  23281509.840   122345175.79707  23281508.540    95333904.96746
  22576876.020   118642282.68308  22576875.220    92448526.66047
  22180989.400   116561982.93308  22180988.580    90827570.04547
  21437750.360   112656171.41309  21437752.160    87784053.63348
 15 03 02 00 48 30.0000000  0  6G16G18G19G21G22G27
  20509309.100   107777162.01709  20509308.720    83982191.89149
  21936687.100   115278088.02308  21936687.100    89827101.76047
  23267725.960   122272741.54607  23267724.940    95277462.72446
  22589693.300   118709637.92608  22589692.580    92501011.25347
  22166614.340   116486442.25008  22166613.520    90768707.23047
  21428782.620   112609045.68909  21428784.320    87747332.29448
 15 03 02 00 49  0.0000000  0  6G16G18G19G21G22G27
  20505047.000   107754764.43809  20505046.640    83964739.23049
  21933740.380   115262603.42508  21933740.520    89815035.86447
  23253961.040   122200407.09707  23253960.200    95221098.24146
  22602538.280   118777138.34708  22602537.580    92553608.98547
  22152296.940   116411204.06808  22152296.040    90710080.12947
  21419843.680   112562071.64409  21419845.400    87710729.14248
 15 03 02 00 49 30.0000000  0  6G16G18G19G21G22G27
  20500878.640   107732858.95709  20500878.220    83947670.02049
  21930884.860   115247597.46108  21930884.980    89803342.91547
  23240214.640   122128169.45907  23240213.760    95164809.19946
  22615409.920   118844778.92708  22615409.220    92606315.92747
  22138037.040   116336267.54608  22138036.020    90651688.08548
  21410933.160   112515246.82709  21410934.940    87674242.28048
 15 03 02 00 50  0.0000000  0  6G16G18G19G21G22G27
  20496804.040   107711446.42209  20496803.500    83930984.92349
  21928120.560   115233070.91408  21928120.620    89792023.53447
  23226486.860   122056028.52407  23226485.760    95108595.50847
  22628307.860   118912557.71008  22628307.140    92659130.56147
  22123835.000   116261634.89408  22123833.880    90593532.81447
  21402051.100   112468571.22609  21402052.920    87637871.69448
 15 03 02 00 50 30.0000000  0  6G16G18G19G21G22G27
  20492824.360   107690532.79409  20492823.760    83914688.58849
  21925448.440   115219028.59708  21925448.360    89781081.47747
  23212778.300   121983988.27307  23212776.880    95052460.27647
  22641232.640   118980477.75308  22641231.980    92712055.26247
  22109692.000   116187313.14008  22109690.940    90535619.80747
  21393198.380   112422049.60109  21393200.200    87601621.08348
 15 03 02 00 51  0.0000000  0  6G16G18G19G21G22G27
  20488939.500   107670117.64309  20488938.920    83898780.67649
  21922868.320   115205469.71008  21922868.120    89770516.11647
  23199088.600   121912047.66207  23199086.940    94996402.67447
  22654183.620   119048535.81808  22654183.020    92765087.51147
  22095608.240   116113302.93608  22095607.180    90477949.56348
  21384374.700   112375680.89609  21384376.520    87565489.63348
 15 03 02 00 51 30.0000000  0  6G16G18G19G21G22G27
  20485150.160   107650204.59609  20485149.640    83883264.00949
  21920380.780   115192397.12008  21920380.460    89760329.69647
  23185418.000   121840208.39207  23185416.340    94940424.06146
  22667160.860   119116732.02908  22667160.320    92818227.42247
  22081584.720   116039609.35608  22081583.660    90420526.03947
  21375580.560   112329467.72309  21375582.380    87529479.37748
 15 03 02 00 52  0.0000000  0  6G16G18G19G21G22G27
  20481456.540   107630794.43909  20481456.040    83868139.20649
  21917985.940   115179811.56308  21917985.580    89750522.78047
  23171766.660   121768471.29107  23171765.160    94884525.04746
  22680164.100   119185064.98408  22680163.600    92871473.86747
  22067621.860   115966234.64408  22067620.740    90363350.98047
  21366816.080   112283410.14909  21366817.840    87493590.36649
 15 03 02 00 52 30.0000000  0  6G16G18G19G21G22G27
  20477858.240   107611885.18209  20477857.720    83853404.72249
  21915683.160   115167710.01208  21915682.800    89741093.01647
  23158134.000   121696832.68707  23158132.840    94828702.77146
  22693192.320   119253528.96008  22693191.780    92924822.42447
  22053719.540   115893177.79008  22053718.380    90306423.60248
  21358080.640   112237505.19109  21358082.380    87457820.27948
 15 03 02 00 53  0.0000000  0  6G16G18G19G21G22G27
  20474355.480   107593478.19309  20474354.960    83839061.60849
  21913472.520   115156093.08408  21913472.200    89732040.87947
  23144520.280   121625292.88407  23144519.400    94772957.48046
  22706245.280   119322122.67308  22706244.660    92978272.06647
  22039878.160   115820441.11308  22039876.980    90249745.72348
  21349374.260   112191753.40209  21349376.120    87422169.54248
 15 03 02 00 53 30.0000000  0  6G16G18G19G21G22G27
  20470948.000   107575572.06209  20470947.540    83825108.77449
  21911353.660   115144958.65908  21911353.360    89723364.71247
  23130925.100   121553849.56807  23130924.320    94717287.37447
  22719322.200   119390841.92808  22719321.380    93031819.53547
  22026097.720   115748024.56408  22026096.500    90193317.29948
  21340696.620   112146152.57409  21340698.560    87386636.42848
 15 03 02 00 54  0.0000000  0  6G16G18G19G21G22G27
  20467637.600   107558175.91309  20467637.160    83811553.32549
  21909328.280   115134315.48908  21909327.960    89715071.33747
  23117349.820   121482510.37007  23117348.880    94661698.41946
  22732424.240   119459693.03208  22732423.200    93085469.74447
  22012380.040   115675937.94808  22012378.760    90137145.95848
  21332049.300   112100710.94709  21332051.300    87351227.37248
 15 03 02 00 54 30.0000000  0  6G16G18G19G21G22G27
  20464423.620   107541286.19809  20464423.160    83798392.50449
  21907395.580   115124159.42608  21907395.200    89707157.52547
  23103793.540   121411271.02307  23103792.160    94606187.26446
  22745550.120   119528669.49808  22745548.920    93139217.63447
  21998724.780   115604179.55308  21998723.480    90081230.37948
  21323431.500   112055424.42109  21323433.580    87315939.17048
 15 03 02 00 55  0.0000000  0  6G16G18G19G21G22G27
  20461306.980   107524908.12509  20461306.520    83785630.36449
  21905556.360   115114494.46509  21905555.840    89699626.40147
  23090256.920   121340135.59407  23090255.220    94550757.08446
  22758700.200   119597773.50108  22758699.000    93193064.89247
  21985133.160   115532755.60708  21985131.820    90025575.38947
  21314844.100   112010297.35009  21314846.280    87280775.22749
 15 03 02 00 55 30.0000000  0  6G16G18G19G21G22G27
  20458287.600   107509041.01609  20458287.060    83773266.38249
  21903810.480   115105319.47209  21903809.800    89692477.06947
  23076739.620   121269102.28907  23076737.740    94495406.49647
  22771873.980   119667002.05908  22771872.800    93247009.21747
  21971605.380   115461666.69608  21971603.960    89970181.47847
  21306286.880   111965328.45609  21306289.120    87245734.53249
 15 03 02 00 56  0.0000000  0  6G16G18G19G21G22G27
  20455365.580   107493685.12509  20455364.900    83761300.74449
  21902157.840   115096634.46209  21902157.100    89685709.53447
  23063241.660   121198170.55307  23063239.640    94440135.03846
  22785070.700   119736351.89508  22785069.700    93301048.04047
  21958141.680   115390914.25908  21958140.200    89915049.75248
  21297759.640   111920517.16609  21297761.900    87210816.64849
 15 03 02 00 56 30.0000000  0  6G16G18G19G21G22G27
  20452540.860   107478840.83709  20452540.140    83749733.76149
  21900598.300   115088438.88709  21900597.540    89679323.38247
  23049762.960   121127339.97707  23049761.000    94384942.41247
  22798290.280   119805821.85808  22798289.400    93355180.47347
  21944742.380   115320500.10008  21944740.820    89860181.62148
  21289262.360   111875863.43709  21289264.620    87176021.54549
 15 03 02 00 57  0.0000000  0  6G16G18G19G21G22G27
  20449813.680   107464509.33909  20449812.980    83738566.34749
  21899131.880   115080733.05808  21899131.200    89673318.84047
  23036303.540   121056610.40507  23036301.820    94329828.45647
  22811532.300   119875409.73708  22811531.580    93409404.78947
  21931407.940   115250426.71708  21931406.280    89805579.01147
