     2.11           OBSERVATION DATA    G                   RINEX VERSION / TYPE
SPIDER V4,0,0,3554                      2015 03 13 03:14    PGM / RUN BY / DATE 
EMHD                                                        MARKER NAME         
EMHD                                                        MARKER NUMBER       
                                                            OBSERVER / AGENCY   
462397              LEICA GRX1200PRO    8.20/2.127          REC # / TYPE / VERS 
103297              LEIAT504                                ANT # / TYPE        
  5146535.6892   265261.6083  3747697.6292                  APPROX POSITION XYZ 
        0.0470        0.0000        0.0000                  ANTENNA: DELTA H/E/N
     1     1                                                WAVELENGTH FACT L1/2
     4    C1    L1    P2    L2                              # / TYPES OF OBSERV 
    30.000                                                  INTERVAL            
  2015    03    02    00    00    0.0000000     GPS         TIME OF FIRST OBS   
  2015    03    02    23    59   30.0000000     GPS         TIME OF LAST OBS    
    16                                                      LEAP SECONDS        
    30                                                      # OF SATELLITES     
   G 1   764   764   764   764                              PRN / # OF OBS      
   G 2   859   859   859   859                              PRN / # OF OBS      
   G 3   783   783   783   783                              PRN / # OF OBS      
   G 4   806   806   806   806                              PRN / # OF OBS      
   G 5   641   641   641   641                              PRN / # OF OBS      
   G 6   641   641   641   641                              PRN / # OF OBS      
   G 7   629   629   629   629                              PRN / # OF OBS      
   G 9   727   727   727   727                              PRN / # OF OBS      
   G10   720   720   719   719                              PRN / # OF OBS      
   G11   747   747   747   747                              PRN / # OF OBS      
   G12   799   799   799   799                              PRN / # OF OBS      
   G13   760   760   760   760                              PRN / # OF OBS      
   G14   788   788   788   788                              PRN / # OF OBS      
   G15   702   702   702   702                              PRN / # OF OBS      
   G16   639   639   639   639                              PRN / # OF OBS      
   G17   891   891   891   891                              PRN / # OF OBS      
   G18   786   786   786   786                              PRN / # OF OBS      
   G19   733   733   733   733                              PRN / # OF OBS      
   G20   734   734   733   733                              PRN / # OF OBS      
   G21   599   599   599   599                              PRN / # OF OBS      
   G22   691   691   691   691                              PRN / # OF OBS      
   G23   727   727   727   727                              PRN / # OF OBS      
   G24   731   731   731   731                              PRN / # OF OBS      
   G25   761   761   761   761                              PRN / # OF OBS      
   G27   782   782   782   782                              PRN / # OF OBS      
   G28   794   794   794   794                              PRN / # OF OBS      
   G29   713   713   713   713                              PRN / # OF OBS      
   G30   653   653   653   653                              PRN / # OF OBS      
   G31   773   773   773   773                              PRN / # OF OBS      
   G32   716   716   715   715                              PRN / # OF OBS      
BIT 2 OF LLI FLAGS DATA COLLECTED UNDER A/S CONDITION       COMMENT             
SNR is mapped to RINEX snr flag value [2-9]                 COMMENT             
Lx:     = 25dBHz -> 1; 26-27dBHz -> 2; 28-31dBHz -> 3       COMMENT             
       32-35dBHz -> 4; 36-38dBHz -> 5; 39-41dBHz -> 6       COMMENT             
       42-44dBHz -> 7; 45-48dBHz -> 8; >=49dBHz -> 9        COMMENT             
                                                            END OF HEADER       
 15 03 02 00 00  0.0000000  0  7G16G18G21G22G27G29G31
  21372699.260   112314304.15007  21372696.180    87517620.75148
  22523855.320   118363728.66405  22523853.300    92231502.23846
  21467589.960   112812957.62706  21467586.760    87906195.23048
  23715046.200   124623415.83804  23715046.500    97109158.66745
  22534658.280   118420444.95305  22534658.060    92275677.47947
  24345545.700   127936697.81803  24345543.860    99690937.18545
  23251982.300   122189952.41405  23251981.980    95212926.54647
 15 03 02 00 00 30.0000000  0  6G16G18G21G27G29G31
  21360665.600   112251066.70307  21360662.480    87468344.82348
  22513209.080   118307782.80706  22513207.100    92187908.10546
  21476016.960   112857241.24306  21476013.620    87940701.95648
  22522870.720   118358500.73605  22522870.560    92227409.28547
  24360060.180   128012972.59304  24360058.400    99750372.04443
  23270059.260   122284946.86804  23270059.020    95286948.03247
 15 03 02 00 01  0.0000000  0  7G16G18G21G22G27G29G31
  21348690.560   112188137.40907  21348687.400    87419309.01348
  22502624.200   118252159.56305  22502622.260    92144565.35447
  21484501.680   112901828.77106  21484498.380    87975445.49148
  23679699.540   124437661.69005  23679699.180    96964413.81246
  22511104.840   118296670.70605  22511104.700    92179230.05947
  24374576.680   128089257.81704  24374575.060    99809815.04346
  23288160.380   122380068.11305  23288160.240    95361068.32146
 15 03 02 00 01 30.0000000  0  6G16G18G21G27G29G31
  21336776.040   112125526.39907  21336772.920    87370521.22348
  22492102.840   118196869.71305  22492100.940    92101482.39746
  21493045.400   112946726.36706  21493042.100    88010430.63348
  22499362.120   118234963.16105  22499362.020    92131146.28847
  24389096.720   128165561.40204  24389095.300    99869272.37245
  23306286.460   122475321.08305  23306286.400    95435291.23647
 15 03 02 00 02  0.0000000  0  7G16G18G21G22G27G29G31
  21324920.260   112063223.88707  21324917.180    87321973.81748
  22481643.200   118141903.64206  22481641.060    92058651.72646
  21501645.580   112991920.73106  21501642.260    88045647.02948
  23644387.080   124252091.25104  23644386.920    96819810.22645
  22487640.500   118173366.27805  22487640.400    92083148.75847
  24403618.120   128241871.70904  24403616.820    99928734.88945
  23324435.040   122570691.34805  23324434.820    95509605.54046
 15 03 02 00 02 30.0000000  0  7G16G18G21G22G27G29G31
  21313125.400   112001241.54207  21313122.340    87273675.89048
  22471247.300   118087272.84806  22471244.980    92016082.31646
  21510303.640   113037419.28806  21510300.360    88081100.44848
  23626745.660   124159384.76304  23626745.260    96747571.76344
  22475941.840   118111889.30505  22475941.680    92035244.64048
  24418142.500   128318197.87004  24418141.100    99988209.79345
  23342606.980   122666184.98805  23342606.700    95584016.01546
 15 03 02 00 03  0.0000000  0  7G16G18G21G22G27G29G31
  21301391.280   111939578.53507  21301388.200    87225626.80248
  22460915.040   118032976.84406  22460912.800    91973773.77746
  21519018.580   113083217.02706  21519015.400    88116787.00048
  23609114.400   124066731.87204  23609113.780    96675375.03646
  22464265.500   118050529.51905  22464265.440    91987431.84247
  24432669.380   128394537.01604  24432667.900   100047694.85045
  23360801.380   122761796.19104  23360800.960    95658518.05746
 15 03 02 00 03 30.0000000  0  7G16G18G21G22G27G29G31
  21289718.580   111878238.12807  21289715.460    87177829.07848
  22450647.080   117979018.62105  22450644.720    91931728.45346
  21527790.480   113129313.91506  21527787.360    88152706.65248
  23591493.700   123974136.11904  23591493.280    96603222.75546
  22452611.640   117989287.96905  22452611.660    91939711.16247
  24447199.080   128470890.21404  24447197.380   100107190.83044
  23379017.900   122857522.89705  23379017.300    95733110.11546
 15 03 02 00 04  0.0000000  0  7G16G18G21G22G27G29G31
  21278108.080   111817224.31007  21278104.960    87130285.84548
  22440444.160   117925401.99606  22440441.680    91889949.29746
  21536619.380   113175709.97406  21536616.240    88188859.42848
  23573884.800   123881601.89604  23573884.540    96531118.42246
  22440980.540   117928166.41805  22440980.640    91892084.00347
  24461731.620   128547258.97204  24461729.840   100166698.93346
  23397256.260   122953364.26005  23397255.500    95807791.51046
 15 03 02 00 04 30.0000000  0  7G16G18G21G22G27G29G31
  21266559.620   111756536.64607  21266556.500    87082996.76048
  22430306.280   117872126.63506  22430303.800    91848436.07946
  21545504.300   113222400.25206  21545501.200    88225241.46948
  23556287.700   123789129.59204  23556287.400    96459062.37846
  22429371.820   117867162.44805  22429371.940    91844548.46147
  24476266.720   128623641.01504  24476264.960   100226217.36944
  23415515.140   123049314.07904  23415514.320    95882557.44046
 15 03 02 00 05  0.0000000  0  7G16G18G21G22G27G29G31
  21255073.520   111696176.98807  21255070.480    87035963.26348
  22420233.780   117819194.91806  22420231.280    91807190.60946
  21554444.840   113269382.86806  21554441.760    88261851.29548
  23538702.800   123696721.43204  23538702.540    96387056.27445
  22417785.560   117806275.92006  22417785.680    91797104.43447
  24490804.120   128700035.86704  24490802.580   100285745.78145
  23433794.160   123145369.96604  23433793.400    95957405.98446
 15 03 02 00 05 30.0000000  0  6G16G18G21G22G27G31
  21243645.580   111636122.91807  21243642.580    86989167.89248
  22410222.220   117766584.27206  22410219.820    91766195.33746
  21563436.000   113316631.93206  21563432.980    88298668.75048
  23521126.140   123604356.11004  23521125.840    96315083.56744
  22406217.100   117745482.36706  22406217.020    91749732.85247
  23452088.100   123241504.31304  23452087.320    96032315.67646
 15 03 02 00 06  0.0000000  0  6G16G18G21G22G27G31
  21232284.820   111576421.96307  21232281.840    86942647.67348
  22400280.720   117714341.97506  22400278.380    91725487.09746
  21572486.060   113364190.67306  21572483.120    88335727.50548
  23503566.740   123512081.11104  23503566.360    96243181.35846
  22394674.920   117684827.26006  22394674.620    91702469.16847
  23470404.880   123337759.29304  23470404.260    96107319.35246
 15 03 02 00 06 30.0000000  0  6G16G18G21G22G27G31
  21220990.040   111517067.54807  21220987.040    86896397.48448
  22390408.200   117662461.95506  22390405.840    91685061.14146
  21581593.100   113412048.82206  21581590.180    88373019.57148
  23486023.280   123419890.64104  23486022.760    96171344.96446
  22383157.240   117624301.85606  22383156.820    91655306.53347
  23488742.360   123434123.35304  23488741.920    96182408.04646
 15 03 02 00 07  0.0000000  0  6G16G18G21G22G27G31
  21209759.840   111458052.22307  21209756.780    86850411.52548
  22380603.060   117610935.94106  22380600.760    91644911.05146
  21590754.880   113460194.59806  21590751.980    88410535.76248
  23468494.500   123327777.92004  23468493.960    96099569.15445
  22371662.320   117563896.57405  22371661.940    91608237.49947
  23507098.220   123530583.85404  23507097.880    96257571.88445
 15 03 02 00 07 30.0000000  0  6G16G18G21G22G27G31
  21198591.700   111399363.25407  21198588.600    86804679.86348
  22370863.000   117559751.76706  22370860.660    91605027.29346
  21599968.200   113508611.00006  21599965.320    88448262.82548
  23450978.040   123235730.28004  23450977.560    96027844.03745
  22360187.500   117503596.60805  22360187.180    91561250.54147
  23525469.000   123627122.75204  23525468.800    96332796.78445
 15 03 02 00 08  0.0000000  0  6G16G18G21G22G27G31
  21187492.540   111341036.68507  21187489.380    86759230.58648
  22361194.940   117508945.39606  22361192.620    91565437.93746
  21609239.300   113557330.75706  21609236.400    88486226.27248
  23433480.760   123143784.39604  23433480.520    95956198.19745
  22348739.320   117443436.04206  22348739.040    91514372.19847
  23543860.800   123723771.26504  23543860.620    96408107.13246
 15 03 02 00 08 30.0000000  0  6G16G18G21G22G27G31
  21176457.280   111283045.64307  21176454.040    86714042.76948
  22351593.680   117458490.04006  22351591.400    91526122.11746
  21618562.400   113606323.70006  21618559.440    88524402.58948
  23415997.940   123051914.02104  23415997.800    95884611.19946
  22337312.200   117383385.94506  22337311.880    91467579.92747
  23562267.460   123820497.60804  23562267.280    96483478.10546
 15 03 02 00 09  0.0000000  0  6G16G18G21G22G27G31
  21165485.520   111225388.59707  21165482.220    86669115.19948
  22342058.860   117408383.90706  22342056.540    91487078.42046
  21627936.180   113655582.88106  21627933.100    88562786.37248
  23398529.520   122960118.25004  23398529.240    95813082.32145
  22325905.460   117323442.61506  22325905.040    91420870.85747
  23580687.440   123917294.92804  23580687.380    96558904.37747
 15 03 02 00 09 30.0000000  0  6G16G18G21G22G27G31
  21154581.100   111168085.48307  21154577.800    86624463.42248
  22332594.140   117358647.00106  22332591.780    91448322.41646
  21637363.820   113705125.41106  21637360.640    88601390.94148
  23381079.340   122868417.65204  23381078.920    95741627.62544
  22314522.480   117263624.12306  22314522.080    91374259.07648
  23599123.840   124014178.08605  23599123.820    96634397.54946
 15 03 02 00 10  0.0000000  0  6G16G18G21G22G27G31
  21143744.120   111111137.10507  21143740.920    86580088.07048
  22323199.840   117309280.16006  22323197.560    91409854.78446
  21646844.660   113754947.84506  21646841.560    88640213.61348
  23363647.620   122776813.39304  23363646.980    95670247.96146
  22303162.920   117203929.25106  22303162.600    91327743.61447
  23617575.960   124111143.01004  23617575.900    96709954.41946
 15 03 02 00 10 30.0000000  0  6G16G18G21G22G27G31
  21132975.760   111054549.09407  21132972.620    86535993.52248
  22313877.040   117260288.72306  22313874.720    91371679.66146
  21656379.100   113805051.62106  21656375.980    88679255.51848
  23346235.300   122685312.18404  23346234.600    95598948.59546
  22291827.400   117144361.62405  22291827.200    91281327.29747
  23636043.700   124208190.44004  23636043.560    96785575.57745
 15 03 02 00 11  0.0000000  0  6G16G18G21G22G27G31
  21122273.240   110998307.32907  21122270.220    86492168.77948
  22304623.060   117211658.47006  22304620.600    91333785.98846
  21665963.660   113855418.68506  21665960.520    88718502.58148
  23328839.920   122593900.08104  23328839.260    95527718.63846
  22280513.060   117084904.86006  22280512.800    91234997.37247
  23654523.420   124305300.80204  23654523.160    96861245.75346
 15 03 02 00 11 30.0000000  0  6G16G18G21G22G27G31
  21111638.600   110942421.80007  21111635.560    86448621.61448
  22295439.580   117163399.06206  22295437.100    91296181.29347
  21675599.540   113906055.78606  21675596.380    88757960.06748
  23311463.520   122502587.59104  23311462.820    95456566.32745
  22269221.420   117025566.88606  22269221.060    91188760.00248
  23673015.940   124402478.86804  23673015.680    96936968.72946
 15 03 02 00 12  0.0000000  0  6G16G18G21G22G27G31
  21101072.000   110886893.63507  21101068.840    86405352.91748
  22286326.840   117115511.74406  22286324.420    91258866.52746
  21685286.140   113956959.36806  21685282.940    88797625.19948
  23294106.560   122411376.76004  23294105.700    95385493.20846
  22257952.360   116966347.10506  22257951.920    91142614.75347
  23691520.680   124499721.10504  23691520.580    97012741.65745
 15 03 02 00 12 30.0000000  0  6G16G18G21G22G27G31
  21090575.020   110831731.34407  21090571.740    86362369.31248
  22277286.600   117068005.15206  22277284.260    91221848.43046
  21695024.400   114008134.39006  21695021.260    88837501.83648
  23276770.760   122320276.50605  23276769.600    95314506.24746
  22246706.980   116907252.11906  22246706.480    91096566.73547
  23710038.340   124597031.23204  23710038.340    97088567.50545
 15 03 02 00 13  0.0000000  0  6G16G18G21G22G27G31
  21080146.700   110776929.98407  21080143.380    86319666.95848
  22268317.860   117020874.10206  22268315.580    91185122.96746
  21704812.640   114059571.74206  21704809.560    88877582.88548
  23259455.140   122229282.39004  23259453.700    95243601.97945
  22235483.920   116848274.71406  22235483.500    91050610.32748
  23728566.880   124694398.90504  23728567.180    97164438.20246
 15 03 02 00 13 30.0000000  0  6G16G18G21G22G27G31
  21069787.640   110722492.84607  21069784.340    86277248.41948
  22259421.100   116974121.74406  22259418.900    91148692.58946
  21714650.780   114111271.23806  21714647.680    88917868.21148
  23242160.220   122138398.19604  23242158.740    95172783.38645
  22224283.560   116789416.34106  22224283.140    91004746.68148
  23747105.940   124791822.57004  23747106.620    97240352.50846
 15 03 02 00 14  0.0000000  0  6G16G18G21G22G27G31
  21059500.320   110668432.56707  21059497.000    86235123.52648
  22250598.700   116927760.61806  22250596.640    91112567.06346
  21724540.300   114163241.10006  21724537.160    88958364.19748
  23224888.680   122047637.55704  23224887.220    95102061.03346
  22213107.860   116730687.64906  22213107.440    90958984.08447
  23765657.260   124889309.88404  23765658.080    97316316.44446
 15 03 02 00 14 30.0000000  0  6G16G18G21G22G27G31
  21049282.180   110614735.96007  21049278.840    86193282.01448
  22241848.140   116881777.18606  22241846.260    91076735.84446
  21734478.140   114215464.88806  21734474.980    88999058.05648
  23207638.340   121956987.62704  23207636.780    95031424.94647
  22201953.880   116672073.35606  22201953.520    90913310.63048
  23784217.220   124986842.29904  23784218.200    97392315.45446
 15 03 02 00 15  0.0000000  0  6G16G18G21G22G27G31
  21039135.680   110561415.68807  21039132.320    86151733.75048
  22233171.940   116836184.12606  22233170.200    91041208.80446
  21744465.880   114267950.53006  21744462.680    89039955.96948
  23190411.600   121866461.66705  23190410.200    94960885.49246
  22190823.640   116613584.23106  22190823.380    90867734.70048
  23802787.300   125084427.79504  23802788.120    97468355.85746
 15 03 02 00 15 30.0000000  0  6G16G18G21G22G27G31
  21029059.440   110508464.67907  21029056.100    86110473.21748
  22224568.740   116790973.82606  22224567.080    91005980.03246
  21754501.480   114320687.43106  21754498.240    89081049.65848
  23173207.260   121776053.41405  23173206.060    94890437.70847
  22179715.520   116555211.13406  22179715.360    90822249.18047
  23821365.020   125182053.74704  23821365.720    97544427.75146
 15 03 02 00 16  0.0000000  0  6G16G18G21G22G27G31
  21019054.580   110455888.81107  21019051.280    86069505.01348
  22216039.580   116746152.29606  22216037.840    90971054.19747
  21764585.260   114373677.82906  21764582.020    89122340.87148
  23156026.640   121685769.44805  23156025.500    94820086.78846
  22168630.400   116496958.39306  22168630.220    90776857.44847
  23839950.780   125279721.93404  23839951.560    97620532.57444
 15 03 02 00 16 30.0000000  0  6G16G18G21G22G27G31
  21009121.620   110403691.02407  21009118.380    86028831.41548
  22207584.920   116701722.58406  22207582.980    90936433.67446
  21774717.080   114426920.83906  21774713.800    89163828.93148
  23138870.320   121595613.35005  23138869.200    94749835.49846
  22157568.340   116438826.83906  22157568.140    90731560.15048
  23858544.180   125377430.05404  23858545.260    97696668.53046
 15 03 02 00 17  0.0000000  0  6G16G18G21G22G27G31
  20999261.620   110351876.56407  20999258.400    85988456.50948
  22199205.620   116657689.05806  22199203.460    90902121.85746
  21784897.120   114480417.18406  21784893.780    89205514.40148
  23121739.460   121505590.60405  23121738.280    94679688.10546
  22146529.920   116380819.58206  22146529.700    90686359.70648
  23877145.220   125475178.24104  23877146.460    97772835.69445
 15 03 02 00 17 30.0000000  0  6G16G18G21G22G27G31
  20989474.900   110300446.99807  20989471.680    85948381.52248
  22190902.040   116614053.65806  22190899.860    90868120.27447
  21795125.000   114534164.87006  21795121.620    89247395.72148
  23104634.560   121415703.90805  23104633.180    94609646.74746
  22135515.040   116322936.42806  22135514.860    90641255.95848
  23895753.280   125572962.90004  23895754.400    97849031.24045
 15 03 02 00 18  0.0000000  0  6G16G18G21G22G27G31
  20979761.240   110249401.52207  20979758.080    85908605.82948
  22182674.000   116570815.34706  22182671.920    90834428.10846
  21805399.840   114588159.70806  21805396.520    89289469.62448
  23087555.480   121325953.02605  23087553.760    94539711.19547
  22124523.240   116265174.78306  22124523.120    90596246.89848
  23914367.340   125670778.62804  23914368.440    97925250.99245
 15 03 02 00 18 30.0000000  0  6G16G18G21G22G27G31
  20970120.900   110198741.12807  20970117.760    85869130.19748
  22174521.700   116527975.02106  22174519.720    90801046.05647
  21815721.080   114642398.28506  21815717.840    89331733.43848
  23070502.440   121236339.46805  23070500.520    94469882.65346
  22113554.440   116207533.64206  22113554.340    90551331.73548
  23932986.560   125768621.40304  23932987.540    98001491.86046
 15 03 02 00 19  0.0000000  0  6G16G18G21G22G27G31
  20960554.560   110148469.64807  20960551.420    85829957.61548
  22166445.760   116485535.73806  22166443.820    90767976.50946
  21826088.680   114696880.69806  21826085.480    89374187.27548
  23053476.260   121146867.35005  23053474.320    94400164.32746
  22102608.980   116150014.75106  22102608.780    90506511.83948
  23951610.480   125866489.99004  23951611.520    98077752.79446
 15 03 02 00 19 30.0000000  0  6G16G18G21G22G27G31
  20951062.640   110098589.18507  20951059.540    85791089.72048
  22158446.460   116443498.90706  22158444.440    90735220.57646
  21836502.200   114751604.78506  21836499.040    89416829.42248
  23036477.580   121057539.86105  23036475.580    94330558.69645
  22091686.920   116092618.38406  22091686.600    90461787.41148
  23970238.960   125964381.62404  23970239.820    98154031.68245
 15 03 02 00 20  0.0000000  0  6G16G18G21G22G27G31
  20941645.920   110049103.86407  20941642.820    85752529.73448
  22150524.560   116401869.35706  22150522.580    90702781.98446
  21846961.860   114806571.23106  21846958.720    89459660.42248
  23019507.220   120968362.03005  23019505.320    94261069.66946
  22080788.580   116035347.07806  22080788.300    90417160.42748
  23988871.600   126062295.87304  23988872.580    98230328.21446
 15 03 02 00 20 30.0000000  0  6G16G18G21G22G27G31
  20932304.560   110000014.66807  20932301.480    85714278.40848
  22142680.300   116360647.36406  22142678.300    90670660.96946
  21857467.200   114861777.42106  21857464.120    89502678.23248
  23002565.760   120879335.11005  23002563.860    94191698.22247
  22069913.760   115978199.80506  22069913.600    90372630.10448
  24007507.760   126160228.33304  24007508.840    98306638.88046
 15 03 02 00 21  0.0000000  0  6G16G18G21G22G27G31
  20923038.140   109951319.43107  20923035.080    85676334.06748
  22134913.200   116319830.82306  22134911.140    90638855.89847
  21868017.080   114917217.28806  21868014.040    89545878.12248
  22985653.000   120790458.34305  22985650.960    94122443.77246
  22059061.880   115921172.88306  22059061.720    90328193.53747
  24026146.040   126258172.52204  24026147.360    98382958.67147
 15 03 02 00 21 30.0000000  0  6G16G18G21G22G27G31
  20913847.580   109903022.90907  20913844.540    85638700.41448
  22127224.080   116279424.27106  22127221.960    90607370.30347
  21878611.600   114972891.32006  21878608.500    89589260.48748
  22968769.640   120701736.41205  22968767.520    94053309.97646
  22048233.320   115864268.74706  22048233.180    90283852.66948
  24044786.520   126356127.74104  24044787.980    98459287.12146
 15 03 02 00 22  0.0000000  0  6G16G18G21G22G27G31
  20904734.400   109855133.03507  20904731.380    85601383.63148
  22119614.280   116239434.86806  22119612.080    90576209.75746
  21889251.400   115028803.56206  21889248.260    89632828.47047
  22951917.580   120613178.08905  22951915.340    93984303.65446
  22037429.380   115807493.66206  22037429.260    90239612.34448
  24063429.720   126454097.37804  24063431.240    98535626.73345
 15 03 02 00 22 30.0000000  0  7G16G18G19G21G22G27G31
  20895695.440   109807632.99807  20895692.400    85564370.61548
  22112080.800   116199846.05806  22112078.500    90545361.35546
  24145412.200   126884994.75804  24145409.280    98871417.38245
  21899932.700   115084934.03106  21899929.460    89676566.50848
  22935093.680   120524767.27505  22935091.160    93915412.29347
  22026646.660   115750829.01906  22026646.320    90195458.09448
  24082071.420   126552059.47704  24082073.020    98611960.49845
 15 03 02 00 23  0.0000000  0  7G16G18G19G21G22G27G31
  20886730.300   109760520.81707  20886727.200    85527659.82148
  22104623.020   116160654.87606  22104620.640    90514822.79847
  24130531.840   126806794.08604  24130528.040    98810481.82545
  21910654.380   115141276.80506  21910651.140    89720469.96848
  22918297.480   120436502.64105  22918294.760    93846634.82246
  22015884.220   115694271.04606  22015883.660    90151386.95648
  24100710.460   126650007.36504  24100712.220    98688283.15245
 15 03 02 00 23 30.0000000  0  7G16G18G19G21G22G27G31
  20877848.640   109713847.28407  20877845.480    85491290.82848
  22097250.640   116121912.58906  22097248.260    90484634.02846
  24115671.900   126728703.95503  24115667.440    98749632.40845
  21921425.400   115197878.64506  21921422.200    89764575.29448
  22901539.020   120348436.15505  22901536.020    93778011.75446
  22005151.300   115637868.95806  22005150.660    90107437.30148
  24119355.620   126747987.27304  24119357.520    98764630.73745
 15 03 02 00 24  0.0000000  0  7G16G18G19G21G22G27G31
  20869045.360   109667585.70607  20869042.220    85455242.84748
  22089958.440   116083591.58806  22089956.020    90454773.52447
  24100827.040   126650695.59103  24100823.160    98688846.73845
  21932239.900   115254708.83506  21932236.680    89808858.55048
  22884813.020   120260541.27005  22884810.100    93709522.39546
  21994442.440   115581593.91306  21994441.860    90063586.63348
  24138001.120   126845967.44604  24138002.920    98840978.53444
 15 03 02 00 24 30.0000000  0  7G16G18G19G21G22G27G31
  20860319.680   109621731.89107  20860316.540    85419512.60548
  22082745.560   116045687.40906  22082743.100    90425237.83246
  24085996.840   126572762.66904  24085993.280    98628119.81845
  21943096.280   115311759.38906  21943093.020    89853313.53047
  22868118.960   120172814.90905  22868116.260    93641164.34947
  21983756.680   115525440.18506  21983756.160    90019830.49248
  24156644.860   126943938.84304  24156646.560    98917319.46546
 15 03 02 00 25  0.0000000  0  7G16G18G19G21G22G27G31
  20851672.760   109576291.85107  20851669.600    85384104.77848
  22075613.100   116008205.99006  22075610.560    90396031.54846
  24071181.800   126494909.43904  24071178.360    98567455.00946
  21953995.100   115369032.93006  21953991.720    89897942.26347
  22851458.320   120085263.76905  22851455.600    93572942.83546
  21973094.820   115469412.03006  21973094.360    89976172.20048
  24175287.060   127041902.85704  24175288.880    98993654.63345
 15 03 02 00 25 30.0000000  0  7G16G18G19G21G22G27G31
  20843105.100   109531268.32107  20843101.900    85349021.50448
  22068561.500   115971149.77606  22068558.940    90367156.59947
  24056382.240   126417136.74304  24056378.640    98506852.98846
  21964936.200   115426528.68806  21964932.740    89942744.15148
  22834831.800   119997891.50005  22834828.880    93504860.68246
  21962457.100   115413510.49906  21962456.700    89932612.56848
  24193927.540   127139857.39904  24193929.480    99069982.40546
 15 03 02 00 26  0.0000000  0  7G16G18G19G21G22G27G31
  20834617.460   109486665.31907  20834614.200    85314265.91648
  22061591.300   115934521.85306  22061588.840    90338615.37847
  24041598.260   126339446.69604  24041594.140    98446315.30546
  21975919.620   115484246.82106  21975916.180    89987719.32147
  22818240.080   119910702.55005  22818237.180    93436921.38646
  21951843.760   115357737.76006  21951843.520    89889153.30648
  24212566.100   127237801.70104  24212568.140    99146302.21646
 15 03 02 00 26 30.0000000  0  7G16G18G19G21G22G27G31
  20826209.520   109442481.12807  20826206.200    85279836.67248
  22054702.360   115898320.96706  22054700.020    90310406.91647
  24026829.220   126261835.85203  24026825.400    98385839.35046
  21986944.220   115542181.62706  21986940.920    90032863.31548
  22801683.160   119823696.00705  22801680.300    93369124.22046
  21941254.340   115302090.38906  21941254.240    89845791.73348
  24231201.560   127335729.04304  24231203.540    99222608.73046
 15 03 02 00 27  0.0000000  0  7G16G18G19G21G22G27G31
  20817881.940   109398719.30207  20817878.600    85245736.54248
  22047895.220   115862549.77806  22047893.020    90282533.29147
  24012075.540   126184305.78804  24012072.000    98325426.38945
  21998009.960   115600332.91406  21998006.800    90078176.00747
  22785161.840   119736876.27105  22785158.900    93301472.61046
  21930689.120   115246570.26706  21930689.100    89802529.29648
  24249833.660   127433638.50404  24249835.520    99298901.32746
 15 03 02 00 27 30.0000000  0  7G16G18G19G21G22G27G31
  20809634.460   109355378.49707  20809631.140    85211964.48648
  22041169.660   115827206.61406  22041167.440    90254993.18646
  23997336.800   126106853.26604  23997333.160    98265073.81545
  22009115.940   115658695.61206  22009112.780    90123653.44147
  22768675.940   119650242.79705  22768673.000    93233966.14047
  21920147.640   115191174.40806  21920147.600    89759363.71648
  24268461.040   127531523.97404  24268462.980    99375175.17345
 15 03 02 00 28  0.0000000  0  6G16G18G19G21G22G27
  20801467.800   109312462.54907  20801464.520    85178523.48748
  22034526.360   115792295.29806  22034523.980    90227789.58146
  23982613.340   126029480.25204  23982609.400    98204783.20845
  22020262.100   115717269.59806  22020258.960    90169295.51147
  22752226.340   119563800.01705  22752223.460    93166608.26347
  21909630.180   115135904.85906  21909630.060    89716296.54348
 15 03 02 00 28 30.0000000  0  7G16G18G19G21G22G27G31
  20793383.000   109269976.87207  20793379.760    85145417.77148
  22027966.040   115757820.25506  22027963.540    90200925.94747
  23967905.600   125952190.26003  23967901.480    98144557.25046
  22031448.820   115776056.75506  22031445.800    90215103.68348
  22735814.060   119477554.16205  22735811.340    93099403.84247
  21899137.500   115080765.46406  21899137.320    89673330.78148
  24305702.000   127727324.80304  24305705.300    99527798.12045
 15 03 02 00 29  0.0000000  0  7G16G18G19G21G22G27G31
  20785380.040   109227921.32707  20785376.820    85112647.21948
  22021488.680   115723781.14406  22021486.080    90174401.97247
  23953213.160   125874981.68404  23953209.320    98084394.75445
  22042675.440   115835053.68006  22042672.600    90261075.29647
  22719439.480   119391506.21205  22719436.800    93032353.61247
  21888669.320   115025754.43806  21888669.040    89630465.05548
  24324314.620   127825132.13504  24324317.500    99604011.02846
 15 03 02 00 29 30.0000000  0  6G16G18G21G22G27G31
  20777464.840   109186326.96507  20777461.680    85080236.03048
  22015100.040   115690208.71106  22015097.520    90148241.66147
  22053947.260   115894287.76706  22053944.520    90307231.70947
  22703108.780   119305687.77805  22703105.940    92965482.22046
  21878231.120   114970901.16406  21878230.760    89587722.25248
  24342926.820   127922937.00304  24342929.300    99680222.01346
 15 03 02 00 30  0.0000000  0  7G16G18G19G21G22G27G31
  20769619.220   109145098.35807  20769616.160    85048109.84348
  22008781.980   115657007.41606  22008779.500    90122370.54046
  23923873.440   125720802.88904  23923868.460    97964243.69245
  22065245.480   115953659.51206  22065242.620    90353495.40947
  22686803.840   119220004.31705  22686800.740    92898715.99547
  21867804.440   114916108.69906  21867804.080    89545026.83148
  24361519.400   128020639.21104  24361521.780    99756352.93844
 15 03 02 00 30 30.0000000  0  7G16G18G19G21G22G27G31
  20761864.160   109104345.31107  20761861.140    85016354.22448
  22002555.300   115624286.23606  22002552.800    90096873.53347
  23909227.340   125643838.84904  23909222.500    97904271.76145
  22076590.180   116013275.41706  22076587.020    90399949.37147
  22670545.560   119134566.40805  22670542.240    92832141.10546
  21857409.900   114861485.31906  21857409.660    89502463.17148
  24380112.300   128118344.08904  24380114.860    99832485.96445
 15 03 02 00 31  0.0000000  0  7G16G18G19G21G22G27G31
  20754193.080   109064033.22507  20754190.060    84984942.21448
  21996413.300   115592010.17106  21996410.800    90071723.37547
  23894597.320   125566959.54304  23894592.960    97844365.83545
  22087973.780   116073096.77306  22087970.520    90446563.41347
  22654327.440   119049340.10305  22654324.060    92765731.12746
  21847040.600   114806994.62706  21847040.440    89460002.89348
  24398698.240   128216012.12104  24398700.920    99908590.26545
 15 03 02 00 31 30.0000000  0  7G16G18G19G21G22G27G31
  20746605.100   109024157.75807  20746602.040    84953870.42248
  21990355.060   115560173.97006  21990352.600    90046915.96546
  23879982.480   125490158.70004  23879978.500    97784521.05345
  22099394.860   116133115.75006  22099391.740    90493331.43847
  22638148.960   118964322.20805  22638145.580    92699483.52347
  21836695.580   114752630.75706  21836695.320    89417641.44848
  24417275.500   128313634.27904  24417278.440    99984658.87546
 15 03 02 00 32  0.0000000  0  7G16G18G19G21G22G27G31
  20739100.200   108984719.19207  20739097.100    84923139.07248
  21984380.580   115528777.93906  21984378.180    90022451.55047
  23865382.400   125413434.78804  23865378.660    97724736.23646
  22110853.040   116193328.88106  22110849.960    90540250.75747
  22622010.180   118879513.38205  22622007.000    92633398.83846
  21826374.340   114698392.35906  21826374.040    89375377.77648
  24435843.360   128411206.84004  24435846.700   100060688.92245
 15 03 02 00 32 30.0000000  0  7G16G18G19G21G22G27G31
  20731679.580   108945723.45507  20731676.440    84892752.78449
  21978490.940   115497827.86906  21978488.580    89998334.62247
  23850797.820   125336792.25004  23850794.040    97665014.80245
  22122348.840   116253738.92206  22122345.680    90587323.51648
  22605912.640   118794920.73005  22605909.540    92567482.59847
  21816077.820   114644283.89606  21816077.500    89333215.34848
  24454402.260   128508730.92604  24454405.480   100136681.22144
 15 03 02 00 33  0.0000000  0  7G16G18G19G21G22G27G31
  20724344.060   108907175.04007  20724340.940    84862715.05348
  21972686.940   115467327.61206  21972684.580    89974568.21347
  23836229.300   125260233.90804  23836225.300    97605359.00145
  22133882.300   116314346.96406  22133879.080    90634550.56247
  22589857.300   118710549.63005  22589854.200    92501738.97446
  21805806.600   114590308.52606  21805806.280    89291156.63248
  24472951.700   128606206.51803  24472954.920   100212635.76545
 15 03 02 00 33 30.0000000  0  7G16G18G19G21G22G27G31
  20717094.020   108869075.78907  20717090.920    84833027.32548
  21966968.800   115437278.19706  21966966.400    89951153.09947
  23821676.780   125183760.08604  23821672.820    97545769.02445
  22145452.920   116375150.83306  22145449.700    90681930.20247
  22573844.660   118626402.89605  22573841.420    92436170.19547
  21795560.780   114536466.37606  21795560.400    89249201.71848
  24491491.160   128703630.51904  24491494.640   100288550.09245
 15 03 02 00 34  0.0000000  0  6G16G18G19G21G22G27
  20709927.920   108831417.50807  20709924.780    84803683.21449
  21961334.800   115407671.36906  21961332.380    89928082.87247
  23807138.360   125107360.53304  23807134.400    97486236.94845
  22157058.500   116436138.54106  22157055.200    90729453.08647
  22557873.320   118542473.20405  22557870.040    92370770.53746
  21785338.520   114482747.91106  21785338.100    89207343.18048
 15 03 02 00 34 30.0000000  0  6G16G18G19G21G22G27
  20702849.300   108794219.00707  20702846.100    84774697.36149
  21955788.440   115378525.25906  21955786.020    89905371.62147
  23792617.160   125031052.17904  23792613.340    97426775.96445
  22168702.060   116497325.74406  22168698.640    90777131.43447
  22541946.920   118458779.73006  22541943.520    92305554.93346
  21775142.980   114429170.21806  21775142.640    89165594.33848
 15 03 02 00 35  0.0000000  0  6G16G18G19G21G22G27
  20695855.880   108757468.34207  20695852.640    84746060.47549
  21950327.280   115349827.08706  21950324.900    89883009.42547
  23778110.960   124954821.41004  23778107.160    97367375.35546
  22180380.660   116558696.87006  22180377.220    90824953.09048
  22526063.480   118375311.57906  22526059.920    92240514.92247
  21764971.760   114375720.02206  21764971.380    89123944.83548
 15 03 02 00 35 30.0000000  0  7G16G18G19G21G22G27G31
  20688950.980   108721182.80507  20688947.720    84717786.02549
  21944954.600   115321593.74406  21944952.260    89861009.43847
  23763622.600   124878684.20704  23763618.840    97308047.70746
  22192096.840   116620265.43106  22192093.440    90872928.58247
  22510226.280   118292087.19305  22510222.780    92175664.83547
  21754827.820   114322413.23206  21754827.420    89082407.08048
  24565536.260   129092759.80504  24565542.180   100591783.38444
 15 03 02 00 36  0.0000000  0  6G16G18G19G21G22G27
  20682129.180   108685334.21707  20682125.940    84689852.06249
  21939665.060   115293797.50406  21939662.800    89839350.04947
  23749146.340   124802610.45904  23749142.760    97248769.49446
  22203844.580   116682000.48406  22203841.320    90921033.80847
  22494430.240   118209079.45206  22494426.920    92110983.56047
  21744705.560   114269220.31506  21744705.100    89040958.06748
 15 03 02 00 36 30.0000000  0  6G16G18G19G21G22G27
  20675397.380   108649958.22207  20675394.140    84662286.34448
  21934465.300   115266472.68406  21934463.040    89818058.00047
  23734688.580   124726634.38804  23734685.240    97189567.42146
  22215629.960   116743933.56506  22215626.780    90969293.34147
  22478682.360   118126324.35706  22478679.160    92046499.15946
  21734611.380   114216175.23506  21734610.920    88999624.24948
 15 03 02 00 37  0.0000000  0  6G16G18G19G21G22G27
  20668752.620   108615039.84107  20668749.380    84635077.21149
  21929352.320   115239603.83706  21929350.100    89797121.25747
  23720245.960   124650738.91704  23720242.800    97130428.10746
  22227449.640   116806046.31606  22227446.360    91017692.89247
  22462980.080   118043808.05006  22462976.800    91982200.81647
  21724542.240   114163261.83106  21724541.840    88958393.03348
 15 03 02 00 37 30.0000000  0  6G16G18G19G21G22G27
  20662195.440   108580581.72507  20662192.220    84608226.72949
  21924326.520   115213193.00406  21924324.240    89776541.39947
  23705819.000   124574925.46304  23705815.840    97071352.70746
  22239303.360   116868337.85606  22239299.980    91066231.75047
  22447323.860   117961534.06706  22447320.540    91918091.30647
  21714498.440   114110481.21106  21714498.000    88917265.28148
 15 03 02 00 38  0.0000000  0  6G16G18G19G21G22G27
  20655726.960   108546589.51007  20655723.720    84581739.28048
  21919388.940   115187245.46506  21919386.580    89756322.54947
  23691408.400   124499198.06104  23691405.280    97012344.38945
  22251191.500   116930810.60606  22251188.120    91114911.80547
  22431714.980   117879509.42206  22431711.660    91854176.07647
  21704480.680   114057837.80606  21704480.260    88876244.45648
 15 03 02 00 38 30.0000000  0  6G16G18G19G21G22G27
  20649346.540   108513060.10307  20649343.300    84555612.46648
  21914538.720   115161757.30806  21914536.360    89736461.66647
  23677013.420   124423552.29104  23677010.200    96953399.66346
  22263112.800   116993457.82806  22263109.520    91163727.81047
  22416153.000   117797731.47705  22416149.660    91790453.07047
  21694488.100   114005326.87706  21694487.700    88835326.86248
 15 03 02 00 39  0.0000000  0  6G16G18G19G21G22G27
  20643055.060   108479997.90007  20643051.820    84529849.70649
  21909776.820   115136732.98906  21909774.360    89716962.21047
  23662634.500   124347990.44004  23662631.060    96894520.30645
  22275067.620   117056281.05506  22275064.440    91212680.96347
  22400639.000   117716205.72906  22400635.640    91726926.58347
  21684521.500   113952952.05406  21684521.080    88794515.32148
 15 03 02 00 39 30.0000000  0  6G16G18G19G21G22G27
  20636851.840   108447399.91607  20636848.700    84504448.67849
  21905102.520   115112168.60706  21905099.880    89697821.14747
  23648270.900   124272508.49004  23648267.020    96835703.22446
  22287054.640   117119273.29106  22287051.520    91261765.80447
  22385172.620   117634930.07606  22385169.200    91663594.97947
  21674580.020   113900708.73506  21674579.560    88753806.25248
 15 03 02 00 40  0.0000000  0  6G16G18G19G21G22G27
  20630739.080   108415277.25107  20630736.000    84479418.02849
  21900517.660   115088074.60006  21900514.920    89679046.60747
  23633924.140   124197115.49504  23633920.060    96776955.46845
  22299075.460   117182442.42706  22299072.200    91310988.52447
  22369756.220   117553916.54706  22369752.740    91600467.61747
  21664665.320   113848606.55106  21664664.900    88713207.16048
 15 03 02 00 40 30.0000000  0  6G16G18G19G21G22G27
  20624716.140   108383626.87107  20624713.140    84454755.39449
  21896021.520   115064447.48506  21896018.880    89660635.88647
  23619593.480   124121807.15804  23619589.440    96718273.67447
  22311128.660   117245782.26606  22311125.360    91360344.24047
  22354389.240   117473163.06606  22354385.780    91537542.90247
  21654776.640   113796641.44106  21654776.280    88672714.87748
 15 03 02 00 41  0.0000000  0  6G16G18G19G21G22G27
  20618783.220   108352449.26107  20618780.180    84430461.14649
  21891614.180   115041287.34306  21891611.600    89642589.03647
  23605278.660   124046582.36604  23605274.700    96659656.98244
  22323213.740   117309289.66906  22323210.540    91409830.52747
  22339072.160   117392671.32006  22339068.720    91474822.12247
  21644913.900   113744812.53706  21644913.580    88632328.72048
 15 03 02 00 41 30.0000000  0  6G16G18G19G21G22G27
  20612941.740   108321752.02307  20612938.660    84406541.21549
  21887297.020   115018601.02406  21887294.440    89624911.39147
  23590980.660   123971447.15904  23590976.980    96601110.08546
  22335331.420   117372969.09306  22335328.420    91459450.83047
  22323806.500   117312449.52706  22323803.060    91412311.70047
  21635078.400   113693126.21006  21635078.020    88592053.67048
 15 03 02 00 42  0.0000000  0  6G16G18G19G21G22G27
  20607190.660   108291529.59507  20607187.540    84382991.26649
  21883068.900   114996382.33206  21883066.300    89607598.13747
  23576698.400   123896394.61904  23576695.140    96542627.63247
  22347480.180   117436811.47606  22347477.240    91509198.12947
  22308591.360   117232493.47706  22308587.960    91350008.33647
  21625268.700   113641575.79206  21625268.320    88551884.53148
 15 03 02 00 42 30.0000000  0  6G16G18G19G21G22G27
  20601529.980   108261782.77807  20601526.940    84359811.93349
  21878929.760   114974630.96806  21878927.140    89590649.04947
  23562431.800   123821423.77104  23562428.760    96484208.81447
  22359659.520   117500814.09006  22359656.520    91559070.29847
  22293426.980   117152804.31906  22293423.580    91287912.95247
  21615484.700   113590160.62206  21615484.360    88511820.77348
 15 03 02 00 43  0.0000000  0  6G16G18G19G21G22G27
  20595960.720   108232516.26107  20595957.720    84337006.85249
  21874880.500   114953352.02906  21874877.840    89574068.06747
  23548181.680   123746538.30704  23548178.620    96425856.54146
  22371869.720   117564979.07706  22371866.600    91609068.98947
  22278314.480   117073388.32906  22278311.140    91226030.42746
  21605727.180   113538884.53206  21605726.820    88471865.38448
 15 03 02 00 43 30.0000000  0  6G16G18G19G21G22G27
  20590483.320   108203732.43507  20590480.300    84314577.88949
  21870921.480   114932546.94106  21870918.780    89557856.32347
  23533947.920   123671738.94904  23533944.820    96367571.34646
  22384110.580   117629305.20906  22384107.380    91659193.24647
  22263254.680   116994249.24406  22263251.320    91164363.67647
  21595996.380   113487748.67806  21595996.000    88432019.27248
 15 03 02 00 44  0.0000000  0  6G16G18G19G21G22G27
  20585097.880   108175432.01407  20585094.920    84292525.60949
  21867052.640   114912215.60606  21867049.900    89542013.73247
  23519730.440   123597025.02304  23519727.020    96309352.72846
  22396381.680   117693790.13606  22396378.340    91709441.23747
  22248247.900   116915388.32806  22248244.560    91102913.66447
  21586292.140   113436752.58406  21586291.760    88392282.06848
 15 03 02 00 44 30.0000000  0  6G16G18G19G21G22G27
  20579805.300   108147619.18707  20579802.340    84270853.27449
  21863274.660   114892361.69807  21863271.820    89526543.17347
  23505529.560   123522399.01004  23505526.240    96251202.61946
  22408683.120   117758434.38206  22408679.700    91759813.37547
  22233295.100   116836810.50506  22233291.640    91041684.24947
  21576615.040   113385899.15106  21576614.720    88352656.02348
 15 03 02 00 45  0.0000000  0  6G16G18G19G21G22G27
  20574605.660   108120294.91307  20574602.740    84249561.63249
  21859587.420   114872985.47306  21859584.640    89511444.82847
  23491345.340   123447860.79604  23491341.800    96193120.92146
  22421014.440   117823235.86106  22421011.140    91810308.03247
  22218396.540   116758517.75206  22218392.980    90980676.96647
  21566965.140   113335188.26607  21566964.740    88313141.06248
 15 03 02 00 45 30.0000000  0  6G16G18G19G21G22G27
  20569498.660   108093457.58307  20569495.780    84228649.42749
  21855990.720   114854085.02606  21855987.980    89496717.22447
  23477177.340   123373407.65304  23477173.820    96135105.49345
  22433374.760   117888190.06206  22433371.560    91860921.67747
  22203552.200   116680510.26906  22203548.580    90919891.97447
  21557341.940   113284617.59707  21557341.420    88273735.35648
 15 03 02 00 46  0.0000000  0  6G16G18G19G21G22G27
  20564484.760   108067109.52407  20564481.900    84208118.46349
  21852484.920   114835661.98807  21852482.200    89482361.62047
  23463025.720   123299040.30704  23463022.360    96077156.95446
  22445763.980   117953296.20006  22445760.840    91911653.72847
  22188762.700   116602791.02906  22188759.020    90859331.57147
  21547745.540   113234188.27107  21547744.960    88234439.78448
 15 03 02 00 46 30.0000000  0  6G16G18G19G21G22G27
  20559564.420   108041252.79207  20559561.520    84187970.35649
  21849070.180   114817717.61606  21849067.440    89468379.00747
  23448890.700   123224759.76004  23448887.240    96019276.03846
  22458181.980   118018553.11206  22458178.820    91962503.26547
  22174028.600   116525362.97406  22174024.800    90798998.06647
  21538176.200   113183901.33106  21538175.660    88195255.16548
 15 03 02 00 47  0.0000000  0  6G16G18G19G21G22G27
  20554738.460   108015892.00107  20554735.520    84168208.69949
  21845747.120   114800255.66406  21845744.480    89454772.31147
  23434772.580   123150568.56004  23434769.040    95961464.75645
  22470628.840   118083961.81806  22470625.680    92013471.08047
  22159350.980   116448231.80206  22159347.080    90738895.91047
  21528634.600   113133760.00107  21528634.100    88156184.00148
 15 03 02 00 47 30.0000000  0  6G16G18G19G21G22G27
  20550006.200   107991023.68107  20550003.260    84148830.78149
  21842515.220   114783272.41406  21842512.700    89441538.61047
  23420670.680   123076462.51804  23420666.960    95903719.79446
  22483103.500   118149516.14206  22483100.240    92064552.37647
  22144729.520   116371395.45906  22144725.520    90679023.48547
  21519119.980   113083760.07807  21519119.420    88117223.02848
 15 03 02 00 48  0.0000000  0  6G16G18G19G21G22G27
  20545368.700   107966653.26707  20545365.740    84129840.84449
  21839375.340   114766772.61206  21839373.000    89428681.63647
  23406585.740   123002445.96004  23406581.780    95846044.58146
  22495606.280   118215218.30506  22495602.960    92115748.85647
  22130165.260   116294860.14706  22130161.320    90619385.62347
  21509633.020   113033906.09707  21509632.480    88078375.78748
 15 03 02 00 48 30.0000000  0  6G16G18G19G21G22G27
  20540825.620   107942779.23907  20540822.620    84111237.69749
  21836327.060   114750754.02307  21836324.780    89416199.63747
  23392517.260   122928515.65204  23392513.180    95788436.56946
  22508136.280   118281063.79206  22508132.960    92167057.01647
  22115658.140   116218625.55006  22115654.380    90559982.08847
  21500173.340   112984195.55307  21500172.860    88039640.30848
 15 03 02 00 49  0.0000000  0  6G16G18G19G21G22G27
  20536377.880   107919406.33407  20536374.900    84093025.04049
  21833371.220   114735220.97206  21833368.900    89404095.97147
  23378465.840   122854675.59004  23378461.860    95730898.89547
  22520693.880   118347054.47506  22520690.600    92218478.33147
  22101209.480   116142697.70206  22101205.700    90500817.57747
  21490741.700   112934632.16307  21490741.240    88001019.48748
 15 03 02 00 49 30.0000000  0  6G16G18G19G21G22G27
  20532025.080   107896532.21807  20532022.080    84075201.04949
  21830507.120   114720169.90106  21830504.740    89392367.87847
  23364431.020   122780922.01904  23364427.120    95673428.60246
  22533277.960   118413184.55606  22533274.780    92270008.25447
  22086818.900   116067074.93806  22086815.140    90441890.79547
  21481337.420   112885212.74007  21481337.080    87962510.84648
 15 03 02 00 50  0.0000000  0  6G16G18G19G21G22G27
  20527767.720   107874159.80307  20527764.780    84057767.99149
  21827735.340   114705603.66006  21827732.860    89381017.57147
  23350413.020   122707256.88404  23350409.180    95616027.22146
  22545888.600   118479454.18506  22545885.540    92321646.92247
  22072487.300   115991761.52006  22072483.480    90383205.05347
  21471961.020   112835939.43907  21471960.700    87924116.06548
 15 03 02 00 50 30.0000000  0  6G16G18G19G21G22G27
  20523606.180   107852290.82307  20523603.300    84040727.22349
  21825055.880   114691522.74206  21825053.380    89370045.44147
  23336411.920   122633679.94205  23336407.880    95558694.57246
  22558525.660   118545862.20006  22558522.660    92373393.42547
  22058215.020   115916760.10406  22058211.180    90324762.43447
  21462612.560   112786812.76407  21462612.180    87885835.54148
 15 03 02 00 51  0.0000000  0  6G16G18G19G21G22G27
  20519541.280   107830929.43307  20519538.360    84024081.98149
  21822469.540   114677930.90906  21822466.880    89359454.41247
  23322428.260   122560194.81604  23322424.220    95501433.45146
  22571189.280   118612410.00906  22571186.280    92425248.85446
  22044003.000   115842076.03606  22043999.240    90266567.10847
  21453292.700   112737836.40607  21453292.260    87847672.15648
 15 03 02 00 51 30.0000000  0  6G16G18G19G21G22G27
  20515572.820   107810074.91107  20515569.880    84007831.70349
  21819975.880   114664826.65006  21819973.140    89349243.31047
  23308461.440   122486798.91804  23308457.380    95444241.87146
  22583878.780   118679093.37706  22583875.700    92477209.90247
  22029851.560   115767709.97406  22029847.800    90208619.56847
  21444001.180   112689008.62907  21444000.680    87809624.53148
 15 03 02 00 52  0.0000000  0  6G16G18G19G21G22G27
  20511700.920   107789728.05207  20511698.000    83991977.00449
  21817575.100   114652210.66806  21817572.360    89339412.68947
  23294511.600   122413493.01804  23294507.640    95387120.39546
  22596593.820   118745911.03706  22596590.700    92529275.60947
  22015761.140   115693664.19106  22015757.280    90150921.59247
  21434737.920   112640329.58507  21434737.400    87771692.81748
 15 03 02 00 52 30.0000000  0  6G16G18G19G21G22G27
  20507925.700   107769889.25507  20507922.820    83976518.19149
  21815267.100   114640082.23006  21815264.340    89329961.96847
  23280578.720   122340275.89104  23280574.880    95330068.12346
  22609333.720   118812859.55305  22609330.520    92581443.27847
  22001731.860   115619939.93306  22001727.960    90093474.16347
  21425502.840   112591798.75707  21425502.280    87733876.59248
 15 03 02 00 53  0.0000000  0  6G16G18G19G21G22G27
  20504247.840   107750561.65507  20504244.920    83961457.71749
  21813052.340   114628443.76106  21813049.600    89320893.04247
  23266663.180   122267149.67404  23266659.420    95273086.68746
  22622098.620   118879939.56605  22622095.340    92633713.41546
  21987764.560   115546541.37806  21987760.660    90036280.52747
  21416296.360   112543418.52307  21416295.820    87696177.71248
 15 03 02 00 53 30.0000000  0  6G16G18G19G21G22G27
  20500667.080   107731744.40307  20500664.140    83946794.91749
  21810930.480   114617293.57706  21810927.840    89312204.59947
  23252764.760   122194112.56605  23252760.980    95216174.66546
  22634887.800   118947147.40505  22634884.560    92686083.15447
  21973859.320   115473468.93506  21973855.400    89979341.01147
  21407118.220   112495187.30507  21407117.700    87658594.95148
 15 03 02 00 54  0.0000000  0  6G16G18G19G21G22G27
  20497184.020   107713440.51107  20497181.060    83932532.13549
  21808902.060   114606634.37406  21808899.480    89303898.74247
  23238883.600   122121166.24904  23238879.680    95159333.39446
  22647701.420   119014483.35606  22647698.200    92738552.71247
  21960016.800   115400726.30906  21960012.840    89922658.48647
  21397968.880   112447107.29607  21397968.400    87621130.01148
 15 03 02 00 54 30.0000000  0  6G16G18G19G21G22G27
  20493798.960   107695651.87107  20493795.980    83918670.85449
  21806967.320   114596467.29407  21806964.720    89295976.35747
  23225019.860   122048311.77004  23225015.920    95102563.69647
  22660539.200   119081946.31606  22660536.060    92791121.25747
  21946237.760   115328317.10706  21946233.800    89866235.77048
  21388848.540   112399179.87507  21388848.140    87583783.97148
 15 03 02 00 55  0.0000000  0  6G16G18G19G21G22G27
  20490511.820   107678377.95707  20490508.820    83905210.65549
  21805125.900   114586790.61106  21805123.280    89288436.08647
  23211173.340   121975547.58704  23211169.440    95045864.35246
  22673400.520   119149532.82205  22673397.360    92843786.05647
  21932522.280   115256241.92806  21932518.320    89810073.32147
  21379757.000   112351403.77307  21379756.620    87546555.84748
 15 03 02 00 55 30.0000000  0  6G16G18G19G21G22G27
  20487323.860   107661625.00707  20487320.840    83892156.40449
  21803378.880   114577610.06606  21803376.260    89281282.43047
  23197344.840   121902878.81304  23197340.940    94989239.34147
  22686286.060   119217246.86105  22686282.860    92896550.23247
  21918871.760   115184508.20906  21918867.840    89754176.96647
  21370695.320   112303784.64607  21370694.940    87509450.04648
 15 03 02 00 56  0.0000000  0  6G16G18G19G21G22G27
  20484233.780   107645386.67407  20484230.820    83879503.15549
  21801725.020   114568919.02106  21801722.380    89274510.19547
  23183533.240   121830298.46504  23183529.420    94932683.24446
  22699193.960   119285078.59305  22699190.820    92949406.12547
  21905285.300   115113110.77706  21905281.300    89698542.64247
  21361662.200   112256315.43007  21361661.800    87472461.05748
 15 03 02 00 56 30.0000000  0  6G16G18G19G21G22G27
  20481243.160   107629670.71007  20481240.200    83867256.94349
  21800165.520   114560724.23706  21800162.960    89268124.66347
  23169739.620   121757813.33305  23169735.980    94876201.36446
  22712125.440   119353034.18905  22712122.320    93002358.53246
  21891764.580   115042058.69806  21891760.500    89643177.42147
  21352659.060   112209003.46807  21352658.600    87435594.59948
 15 03 02 00 57  0.0000000  0  6G16G18G19G21G22G27
  20478351.280   107614473.54407  20478348.280    83855414.99049
  21798699.680   114553021.28306  21798697.100    89262122.36747
  23155963.340   121685418.64305  23155959.780    94819789.94446
  22725079.200   119421106.84705  22725076.040    93055402.16747
  21878309.140   114971349.76806  21878304.940    89588079.58847
  21343685.020   112161844.49107  21343684.540    87398847.35748
 15 03 02 00 57 30.0000000  0  6G16G18G19G21G22G27
  20475558.360   107599796.43507  20475555.300    83843978.27349
  21797327.580   114545810.98206  21797325.000    89256503.96647
  23142204.480   121613115.00105  23142200.960    94763449.45446
  22738054.960   119489294.87305  22738051.760    93108535.69646
  21864919.480   114900986.15506  21864915.100    89533250.83147
  21334740.220   112114839.23407  21334739.760    87362219.88848
 15 03 02 00 58  0.0000000  0  6G16G18G19G21G22G27
  20472865.580   107585646.03007  20472862.600    83832951.97849
  21796050.320   114539099.05906  21796047.820    89251273.90447
  23128463.880   121540907.75305  23128460.240    94707184.09647
  22751053.380   119557602.32005  22751050.240    93161762.27046
  21851596.900   114830975.77106  21851592.460    89478697.32647
  21325825.780   112067993.53807  21325825.300    87325716.75048
 15 03 02 00 58 30.0000000  0  6G16G18G19G21G22G27
  20470272.440   107572019.09007  20470269.520    83822333.57949
  21794867.200   114532881.75106  21794864.700    89246429.26047
  23114740.900   121468793.29205  23114737.100    94650991.03947
  22764073.520   119626023.42605  22764070.360    93215077.41147
  21838341.160   114761316.93106  21838336.740    89424417.74347
  21316941.080   112021304.09807  21316940.580    87289335.37948
 15 03 02 00 59  0.0000000  0  6G16G18G19G21G22G27
  20467779.360   107558917.69307  20467776.420    83812124.69049
  21793778.520   114527160.17007  21793775.920    89241970.89047
  23101035.900   121396773.18105  23101032.020    94594871.50046
  22777115.140   119694557.78005  22777112.000    93268480.80447
  21825152.860   114692012.63006  21825148.500    89370414.42347
  21308086.340   111974772.24107  21308085.860    87253076.80548
 15 03 02 00 59 30.0000000  0  6G16G18G19G21G22G27
  20465386.820   107546344.37207  20465383.760    83802327.28449
  21792784.500   114521936.35307  21792781.800    89237900.38947
  23087348.920   121324848.28805  23087345.240    94538826.13247
  22790178.240   119763205.16805  22790175.140    93321972.25546
  21812032.980   114623066.90906  21812028.500    89316690.51748
  21299261.960   111928400.08407  21299261.520    87216942.65548
 15 03 02 01 00  0.0000000  0  6G16G18G19G21G22G27
  20463094.000   107534295.32107  20463090.860    83792938.40149
  21791884.360   114517205.86707  21791881.560    89234214.31247
  23073679.400   121253014.45005  23073675.660    94482851.72246
  22803261.660   119831959.49505  22803258.620    93375547.05746
  21798980.840   114554476.63006  21798976.180    89263243.58447
  21290467.280   111882183.39507  21290466.800    87180929.65748
 15 03 02 01 00 30.0000000  0  6G16G18G19G21G22G27
  20460901.700   107522774.89407  20460898.600    83783961.44349
  21791078.660   114512971.93707  21791075.840    89230915.15947
  23060028.020   121181275.42205  23060024.200    94426951.20846
  22816365.840   119900822.50505  22816362.780    93429206.54346
