     2.11           OBSERVATION DATA    G                   RINEX VERSION / TYPE
SPIDER V4,0,0,3554                      2015 03 19 02:34    PGM / RUN BY / DATE 
OBHM                                                        MARKER NAME         
OBHM                                                        MARKER NUMBER       
                                                            OBSERVER / AGENCY   
496638              LEICA GRX1200+GNSS  8.20/4.007          REC # / TYPE / VERS 
10321015            LEIAR25         NONE                    ANT # / TYPE        
  5268006.0133   -44062.8765  3585543.8986                  APPROX POSITION XYZ 
        0.1200        0.0000        0.0000                  ANTENNA: DELTA H/E/N
     1     1                                                WAVELENGTH FACT L1/2
     4    C1    L1    P2    L2                              # / TYPES OF OBSERV 
    30.000                                                  INTERVAL            
  2015    03    02    00    00    0.0000000     GPS         TIME OF FIRST OBS   
  2015    03    02    23    59   30.0000000     GPS         TIME OF LAST OBS    
    16                                                      LEAP SECONDS        
    30                                                      # OF SATELLITES     
   G 1   845   845   844   844                              PRN / # OF OBS      
   G 2   919   919   918   918                              PRN / # OF OBS      
   G 3   843   843   842   842                              PRN / # OF OBS      
   G 4   853   853   853   853                              PRN / # OF OBS      
   G 5   683   683   683   683                              PRN / # OF OBS      
   G 6   645   645   645   645                              PRN / # OF OBS      
   G 7   742   742   742   742                              PRN / # OF OBS      
   G 9   780   780   779   779                              PRN / # OF OBS      
   G10   796   795   795   795                              PRN / # OF OBS      
   G11   809   809   809   809                              PRN / # OF OBS      
   G12   812   812   811   811                              PRN / # OF OBS      
   G13   834   834   834   834                              PRN / # OF OBS      
   G14   929   929   929   929                              PRN / # OF OBS      
   G15   744   744   743   743                              PRN / # OF OBS      
   G16   702   702   702   702                              PRN / # OF OBS      
   G17   925   925   925   925                              PRN / # OF OBS      
   G18   944   941   936   936                              PRN / # OF OBS      
   G19   803   802   802   802                              PRN / # OF OBS      
   G20   810   810   810   810                              PRN / # OF OBS      
   G21   707   707   706   706                              PRN / # OF OBS      
   G22   802   788   783   779                              PRN / # OF OBS      
   G23   723   723   723   723                              PRN / # OF OBS      
   G24   846   835   829   829                              PRN / # OF OBS      
   G25   861   861   861   861                              PRN / # OF OBS      
   G27   843   843   843   843                              PRN / # OF OBS      
   G28   917   917   916   916                              PRN / # OF OBS      
   G29   738   738   738   738                              PRN / # OF OBS      
   G30   687   687   687   687                              PRN / # OF OBS      
   G31   748   748   748   748                              PRN / # OF OBS      
   G32   735   735   735   735                              PRN / # OF OBS      
BIT 2 OF LLI FLAGS DATA COLLECTED UNDER A/S CONDITION       COMMENT             
SNR is mapped to RINEX snr flag value [2-9]                 COMMENT             
Lx:     = 25dBHz -> 1; 26-27dBHz -> 2; 28-31dBHz -> 3       COMMENT             
       32-35dBHz -> 4; 36-38dBHz -> 5; 39-41dBHz -> 6       COMMENT             
       42-44dBHz -> 7; 45-48dBHz -> 8; >=49dBHz -> 9        COMMENT             
                                                            END OF HEADER       
 15 03 02 00 00  0.0000000  0  7G16G18G19G21G22G27G31
  21347393.380   112181325.93509  21347390.060    87414011.52048
  22646138.900   119006446.29709  22646137.040    92732356.74746
  24525991.340   128884952.38108  24525988.740   100429829.19945
  21648119.880   113761654.08309  21648116.320    88645438.68548
  23626281.480   124157064.40509  23626283.160    96745810.45647
  22342552.260   117410958.92209  22342552.020    91489067.20248
  22991268.660   120819887.70809  22991267.980    94145342.59747
 15 03 02 00 00 30.0000000  0  7G16G18G19G21G22G27G31
  21335587.960   112119288.40209  21335584.660    87365670.60148
  22636336.660   118954935.59609  22636334.780    92692218.62246
  24511186.620   128807152.71608  24511183.900   100369206.20345
  21657606.900   113811509.19509  21657603.440    88684286.82748
  23609356.420   124068124.34308  23609358.040    96676506.96746
  22331975.260   117355376.66909  22331975.060    91445756.37948
  23009213.560   120914188.12409  23009212.920    94218823.26647
 15 03 02 00 01  0.0000000  0  7G16G18G19G21G22G27G31
  21323835.660   112057530.00309  21323832.360    87317547.18048
  22626595.020   118903743.56808  22626593.020    92652328.81046
  24496400.240   128729449.63108  24496397.380   100308658.43645
  21667150.400   113861661.02309  21667146.980    88723366.18248
  23592439.620   123979227.64908  23592441.160    96607237.01846
  22321422.060   117299919.75409  22321421.900    91402543.21548
  23027187.840   121008642.68309  23027187.240    94292424.04447
 15 03 02 00 01 30.0000000  0  7G16G18G19G21G22G27G31
  21312137.820   111996057.56809  21312134.460    87269646.58548
  22616915.420   118852877.69608  22616913.440    92612693.14646
  24481633.080   128651847.90208  24481630.060   100248189.62845
  21676750.940   113912112.32209  21676747.520    88762678.88948
  23575532.680   123890382.31408  23575534.100    96538007.01646
  22310893.620   117244592.99409  22310893.500    91359431.47848
  23045191.780   121103253.12509  23045191.200    94366146.28647
 15 03 02 00 02  0.0000000  0  7G16G18G19G21G22G27G31
  21300494.300   111934870.52309  21300490.880    87221968.37448
  22607297.840   118802337.59009  22607295.960    92573311.32946
  24466884.640   128574344.71808  24466881.440   100187797.61945
  21686407.740   113962858.97809  21686404.280    88802221.74548
  23558635.560   123801588.44808  23558637.000    96468817.22646
  22300389.460   117189393.64909  22300389.360    91316419.02848
  23063224.420   121198014.23709  23063223.840    94439985.93147
 15 03 02 00 02 30.0000000  0  7G16G18G19G21G22G27G31
  21288905.780   111873972.34509  21288902.300    87174515.24648
  22597743.000   118752126.68809  22597741.200    92534186.02247
  24452155.120   128496941.43208  24452151.820   100127483.45445
  21696120.620   114013900.18909  21696117.060    88841994.11548
  23541749.120   123712850.54508  23541750.520    96399671.32646
  22289909.780   117134322.69609  22289909.640    91273506.61148
  23081285.340   121292924.03509  23081284.760    94513941.43347
 15 03 02 00 03  0.0000000  0  7G16G18G19G21G22G27G31
  21277372.760   111813365.59809  21277369.240    87127289.22048
  22588251.440   118702247.80909  22588249.620    92495319.43547
  24437444.740   128419638.59708  24437441.440   100067247.56245
  21705889.200   114065234.20509  21705885.560    88881994.65448
  23524873.760   123624171.33508  23524875.120    96330571.26546
  22279454.680   117079380.65109  22279454.480    91230694.65348
  23099374.080   121387980.04809  23099373.520    94588010.86847
 15 03 02 00 03 30.0000000  0  7G16G18G19G21G22G27G31
  21265895.160   111753049.95109  21265891.540    87080290.02348
  22578822.980   118652700.46009  22578821.140    92456711.18347
  24422753.000   128342433.66808  24422749.700   100007087.94746
  21715712.860   114116857.46909  21715709.120    88922220.57448
  23508009.500   123535550.70908  23508010.760    96261516.68647
  22269023.640   117024564.90309  22269023.360    91187981.10548
  23117489.600   121483176.87409  23117489.040    94662190.01047
 15 03 02 00 04  0.0000000  0  7G16G18G19G21G22G27G31
  21254474.260   111693032.35309  21254470.540    87033523.06848
  22569458.860   118603491.42009  22569456.980    92418366.55847
  24408080.800   128265331.41408  24408077.620    99947008.34946
  21725592.040   114168772.82909  21725588.260    88962674.09948
  23491157.760   123446996.10908  23491158.920    96192513.47346
  22258617.540   116969880.01609  22258617.180    91145369.52448
  23135632.280   121578516.53309  23135631.800    94736480.44947
 15 03 02 00 04 30.0000000  0  7G16G18G19G21G22G27G31
  21243109.600   111633310.45409  21243105.840    86986986.53348
  22560158.680   118554618.51309  22560156.720    92380283.84546
  24393427.320   128188327.29808  24393424.100    99887005.22846
  21735525.500   114220973.38509  21735521.720    89003349.86348
  23474318.320   123358505.95708  23474319.420    96123560.44147
  22248235.460   116915321.49409  22248235.020    91102856.41048
  23153800.620   121673991.04209  23153800.240    94810875.95947
 15 03 02 00 05  0.0000000  0  7G16G18G19G21G22G27G31
  21231801.900   111573888.17909  21231798.120    86940683.46448
  22550923.240   118506086.20309  22550921.220    92342466.52647
  24378792.900   128111423.22508  24378789.740    99827080.04846
  21745513.200   114273459.30809  21745509.480    89044247.98648
  23457492.080   123270084.93509  23457493.060    96054661.22247
  22237877.780   116860891.23409  22237877.300    91060443.22948
  23171994.580   121769600.13809  23171994.280    94885376.33247
 15 03 02 00 05 30.0000000  0  7G16G18G19G21G22G27G31
  21220551.300   111514766.04509  21220547.480    86894614.27348
  22541752.700   118457894.89209  22541750.620    92304914.92947
  24364177.260   128034617.49308  24364174.100    99767231.48846
  21755554.600   114326227.54909  21755551.000    89085366.10348
  23440679.320   123181734.52308  23440680.180    95985817.04246
  22227544.140   116806587.49809  22227543.680    91018128.63948
  23190213.300   121865339.17009  23190213.040    94959977.94447
 15 03 02 00 06  0.0000000  0  7G16G18G19G21G22G27G31
  21209358.940   111455949.98009  21209355.120    86848783.57348
  22532648.100   118410050.24609  22532646.060    92267633.45647
  24349581.080   127957914.14608  24349577.980    99707462.70446
  21765650.020   114379279.68909  21765646.480    89126705.43948
  23423881.080   123093460.69708  23423881.920    95917032.52346
  22217235.300   116752414.06809  22217234.820    90975915.59948
  23208456.840   121961208.80509  23208456.640    95034681.32547
 15 03 02 00 06 30.0000000  0  7G16G18G19G21G22G27G31
  21198224.340   111397437.64109  21198220.600    86803189.54248
  22523609.180   118362550.51109  22523607.140    92230620.74146
  24335003.500   127881308.66408  24335000.420    99647770.20546
  21775798.280   114432609.64909  21775794.860    89168261.25848
  23407097.160   123005262.26508  23407098.040    95848306.82947
  22206950.340   116698366.33009  22206949.860    90933800.49548
  23226723.840   122057201.75009  23226723.700    95109480.77447
 15 03 02 00 07  0.0000000  0  7G16G18G19G21G22G27G31
  21187148.400   111339233.43809  21187144.680    86757835.61048
  22514636.540   118315399.26609  22514634.540    92193879.56547
  24320444.860   127804802.93608  24320441.840    99588155.44047
  21785999.480   114486217.41109  21785996.160    89210033.53848
  23390328.480   122917144.05708  23390329.460    95779643.57047
  22196689.620   116644446.31609  22196689.240    90891784.90848
  23245014.160   122153317.26809  23245014.180    95184375.70547
 15 03 02 00 07 30.0000000  0  7G16G18G19G21G22G27G31
  21176131.920   111281341.72909  21176128.260    86712725.20348
  22505731.140   118268601.44709  22505729.240    92157413.80347
  24305905.600   127728399.10307  24305902.620    99528620.04947
  21796253.580   114540103.02909  21796250.280    89252022.33348
  23373576.060   122829110.56808  23373577.000    95711046.25747
  22186453.620   116590656.26209  22186453.340    90849870.60948
  23263327.600   122249554.26708  23263327.720    95259365.21247
 15 03 02 00 08  0.0000000  0  7G16G18G19G21G22G27G31
  21165174.060   111223757.82309  21165170.420    86667854.63548
  22496892.140   118222152.27009  22496890.280    92121219.70347
  24291384.540   127652090.71708  24291381.500    99469159.05346
  21806559.020   114594258.42109  21806555.740    89294221.34048
  23356839.200   122741158.20608  23356840.040    95642512.25647
  22176241.000   116536989.32509  22176240.820    90808052.23348
  23281662.460   122345903.53509  23281662.680    95334442.24847
 15 03 02 00 08 30.0000000  0  7G16G18G19G21G22G27G31
  21154276.380   111166490.27709  21154272.780    86623230.58248
  22488121.200   118176060.52409  22488119.280    92085304.11647
  24276882.920   127575884.21908  24276879.940    99409777.44446
  21816916.840   114648688.81209  21816913.500    89336634.64048
  23340119.540   122653296.17808  23340120.300    95574048.71947
  22166053.040   116483451.93009  22166052.920    90766334.81148
  23300019.420   122442368.67909  23300019.720    95409609.54247
 15 03 02 00 09  0.0000000  0  7G16G18G19G21G22G27G31
  21143438.900   111109539.28009  21143435.380    86578853.17148
  22479418.260   118130326.05009  22479416.220    92049666.92147
  24262400.240   127499777.47908  24262397.280    99350473.54447
  21827325.940   114703388.93609  21827322.520    89379258.10948
  23323417.160   122565525.17208  23323417.820    95505656.12747
  22155889.340   116430041.95909  22155889.280    90724716.66948
  23318397.500   122538944.74609  23318397.880    95484863.32347
 15 03 02 00 09 30.0000000  0  7G16G18G19G21G22G27G31
  21132661.900   111052906.15709  21132658.500    86534723.46948
  22470783.600   118084950.25409  22470781.420    92014309.21347
  24247936.360   127423769.62108  24247933.360    99291246.69746
  21837786.040   114758357.13209  21837782.580    89422090.47848
  23306732.420   122477847.49108  23306732.940    95437336.40647
  22145749.820   116376758.61409  22145749.760    90683197.20948
  23336795.940   122635627.86009  23336796.380    95560200.49247
 15 03 02 00 10  0.0000000  0  7G16G18G19G21G22G27G31
  21121946.060   110996594.46809  21121942.800    86490844.23748
  22462217.880   118039936.81009  22462215.540    91979233.85847
  24233491.580   127347862.11608  24233488.600    99232098.04646
  21848296.980   114813592.75209  21848293.500    89465131.22148
  23290066.040   122390267.51708  23290066.620    95369093.17347
  22135634.740   116323603.42009  22135634.680    90641777.59848
  23355214.520   122732416.81909  23355215.020    95635620.15947
 15 03 02 00 10 30.0000000  0  7G16G18G19G21G22G27G31
  21111291.640   110940605.33709  21111288.460    86447216.34748
  22453721.220   117995286.49209  22453718.780    91944441.45347
  24219065.780   127272054.06408  24219062.780    99173026.88346
  21858858.180   114869092.55108  21858854.740    89508377.81948
  23273418.220   122302785.92708  23273418.760    95300926.14947
  22125543.960   116270575.24609  22125543.720    90600456.96248
  23373652.560   122829307.81808  23373653.120    95711119.32747
 15 03 02 00 11  0.0000000  0  7G16G18G19G21G22G27G31
  21100699.320   110884942.32509  21100696.200    86403842.57948
  22445294.280   117951002.79709  22445291.800    91909934.73747
  24204659.160   127196346.51808  24204655.960    99114034.03947
  21869469.580   114924856.18608  21869466.180    89551830.01348
  23256790.060   122215407.39608  23256790.560    95232839.41147
  22115477.540   116217675.26409  22115477.140    90559236.21948
  23392109.600   122926299.06508  23392110.240    95786696.61947
 15 03 02 00 11 30.0000000  0  7G16G18G19G21G22G27G31
  21090169.160   110829605.76609  21090166.040    86360723.19148
  22436937.000   117907085.75609  22436934.540    91875713.72447
  24190271.340   127120738.04308  24190268.060    99055118.39346
  21880130.660   114980880.61308  21880127.240    89595485.41348
  23240181.820   122128132.89408  23240182.220    95164833.71547
  22105435.120   116164901.63309  22105434.640    90518113.92348
  23410584.720   123023385.66108  23410585.520    95862348.21147
 15 03 02 00 12  0.0000000  0  7G16G18G19G21G22G27G31
  21079701.680   110774598.39309  21079698.500    86317860.30548
  22428650.040   117863538.22109  22428647.640    91841780.62647
  24175902.440   127045229.18408  24175899.120    98996280.36647
  21890841.040   115037163.83009  21890837.600    89639342.46048
  23223594.120   122040966.00508  23223594.420    95096911.86947
  22095416.880   116112255.17209  22095416.300    90477090.72148
  23429077.620   123120565.73408  23429078.540    95938072.63847
 15 03 02 00 12 30.0000000  0  7G16G18G19G21G22G27G31
  21069297.260   110719922.51109  21069294.020    86275255.72848
  22420433.840   117820362.65509  22420431.500    91808137.37947
  24161552.520   126969820.25008  24161549.280    98937520.20946
  21901600.440   115093704.52509  21901596.960    89683400.14748
  23207027.540   121953909.60108  23207027.660    95029076.09847
  22085422.820   116059736.11609  22085422.200    90436166.80248
  23447587.820   123217836.71108  23447588.860    96013867.87947
 15 03 02 00 13  0.0000000  0  7G16G18G19G21G22G27G31
  21058956.320   110665580.17809  21058952.980    86232911.04948
  22412288.780   117777560.79009  22412286.500    91774785.32247
  24147221.520   126894510.82108  24147218.280    98878837.57146
  21912408.460   115150500.48309  21912404.900    89727656.73448
  23190482.500   121866966.20808  23190482.400    94961328.35247
  22075452.920   116007344.11909  22075452.300    90395341.88048
  23466114.740   123315195.35808  23466115.860    96089731.42047
 15 03 02 00 13 30.0000000  0  7G16G18G19G21G22G27G31
  21048679.100   110611573.12009  21048675.760    86190827.63748
  22404215.160   117735134.30109  22404212.920    91741725.77147
  24132909.400   126819300.46708  24132906.100    98820232.15246
  21923264.720   115207549.92909  21923261.080    89772110.84948
  23173959.380   121780138.15308  23173959.060    94893670.47247
  22065507.140   115955078.88209  22065506.560    90354615.74748
  23484657.780   123412638.49508  23484658.880    96165660.77547
 15 03 02 00 14  0.0000000  0  7G16G18G19G21G22G27G31
  21038465.900   110557902.73109  21038462.620    86149006.55748
  22396213.220   117693084.46909  22396211.040    91708959.71747
  24118616.140   126744188.91008  24118612.720    98761703.70747
  21934168.580   115264849.72609  21934164.900    89816760.03648
  23157458.600   121693427.85508  23157458.140    94826104.33347
  22055585.340   115902939.66509  22055584.760    90313987.80148
  23503216.280   123510162.44708  23503217.320    96241653.04747
 15 03 02 00 14 30.0000000  0  7G16G18G19G21G22G27G31
  21028317.920   110504574.97509  21028314.720    86107452.45748
  22388284.040   117651416.85409  22388281.860    91676491.48747
  24104342.340   126669179.35608  24104338.780    98703254.73546
  21945120.500   115322402.48308  21945116.840    89861606.33248
  23140981.420   121606841.68208  23140980.960    94758634.89947
  22045688.180   115850930.15609  22045687.680    90273460.92548
  23521790.380   123607768.01508  23521791.320    96317708.91047
 15 03 02 00 15  0.0000000  0  7G16G18G19G21G22G27G31
  21018234.840   110451588.14709  21018231.680    86066164.02048
  22380427.220   117610129.79509  22380425.060    91644319.80447
  24090087.160   126594267.94508  24090083.480    98644882.24246
  21956119.260   115380201.74408  21956115.660    89906644.71948
  23124527.660   121520378.50708  23124527.180    94691261.29647
  22035814.960   115799046.56009  22035814.580    90233032.17348
  23540378.820   123705448.92708  23540379.780    96393823.58147
 15 03 02 00 15 30.0000000  0  7G16G18G19G21G22G27G31
  21008217.280   110398945.63309  21008214.220    86025143.88548
  22372643.420   117569226.16009  22372641.240    91612446.88947
  24075850.900   126519456.25108  24075847.300    98586587.46246
  21967164.820   115438247.26008  21967161.300    89951874.99748
  23108098.160   121434042.65708  23108097.660    94623986.90047
  22025965.940   115747290.10509  22025965.660    90192702.48648
  23558981.140   123803202.95008  23558982.080    96469995.21347
 15 03 02 00 16  0.0000000  0  7G16G18G19G21G22G27G31
  20998265.820   110346650.26809  20998262.780    85984394.25248
  22364933.140   117528708.85909  22364931.040    91580875.01347
  24061633.780   126444745.15408  24061630.260    98528371.07046
  21978257.020   115496538.11008  21978253.600    89997296.44548
  23091693.700   121347837.67309  23091693.080    94556814.47247
  22016141.380   115695661.80109  22016141.100    90152472.65448
  23577597.140   123901028.74008  23577598.000    96546222.79046
 15 03 02 00 16 30.0000000  0  7G16G18G19G21G22G27G31
  20988380.380   110294701.83809  20988377.320    85943914.95848
  22357296.360   117488577.81609  22357294.280    91549604.11647
  24047435.380   126370132.03008  24047431.920    98470231.01046
  21989395.140   115555070.21408  21989391.800    90042905.88148
  23075314.320   121261764.02309  23075313.480    94489744.37447
  22006340.780   115644159.24009  22006340.420    90112340.81048
  23596225.700   123998920.83608  23596226.440    96622502.02946
 15 03 02 00 17  0.0000000  0  7G16G18G19G21G22G27G31
  20978561.220   110243101.75409  20978558.100    85903707.10148
  22349733.320   117448833.55209  22349731.100    91518634.59847
  24033255.460   126295616.09208  24033252.080    98412166.69646
  22000578.620   115613840.34708  22000575.300    90088700.79847
  23058960.300   121175823.44109  23058959.160    94422777.93447
  21996563.980   115592781.50509  21996563.560    90072306.23048
  23614866.100   124096875.80408  23614866.880    96698830.34546
 15 03 02 00 17 30.0000000  0  7G16G18G19G21G22G27G31
  20968809.400   110191855.41809  20968806.220    85863774.89148
  22342245.000   117409481.78609  22342242.660    91487970.91747
  24019094.800   126221200.85108  24019091.360    98354180.82946
  22011807.800   115672850.27309  22011804.400    90134682.56447
  23042632.880   121090022.42209  23042631.440    94355920.23547
  21986811.660   115541532.00209  21986811.080    90032371.56548
  23633518.420   124194893.42909  23633519.240    96775207.40946
 15 03 02 00 18  0.0000000  0  7G16G18G19G21G22G27G31
  20959124.860   110140962.91709  20959121.700    85824118.41348
  22334831.320   117370522.39909  22334828.840    91457613.00647
  24004952.860   126146884.14508  24004949.360    98296271.75946
  22023082.060   115732096.57809  22023078.560    90180848.52348
  23026332.120   121004361.68209  23026330.520    94289171.85047
  21977083.380   115490408.88709  21977082.680    89992535.39148
  23652181.860   124292969.33408  23652182.700    96851629.87446
 15 03 02 00 18 30.0000000  0  7G16G18G19G21G22G27G31
  20949508.340   110090428.07109  20949505.220    85784740.60248
  22327493.020   117331959.09609  22327490.420    91427563.71047
  23990829.960   126072667.91508  23990826.340    98238440.95946
  22034401.200   115791578.62708  22034397.600    90227198.16548
  23010058.860   120918845.60709  23010057.180    94222536.16447
  21967379.420   115439413.82509  21967378.620    89952798.98648
  23670856.200   124391102.51508  23670857.120    96928097.01846
 15 03 02 00 19  0.0000000  0  7G16G18G19G21G22G27G31
  20939960.280   110040252.85809  20939957.140    85745643.03848
  22320230.260   117293793.03709  22320227.620    91397823.96547
  23976726.080   125998551.76208  23976722.340    98180688.15745
  22045764.900   115851294.53809  22045761.140    90273730.03747
  22993813.500   120833476.50208  22993811.840    94156015.01347
  21957699.620   115388546.44309  21957698.880    89913162.09148
  23689540.840   124489289.86008  23689541.820    97004606.46546
 15 03 02 00 19 30.0000000  0  7G16G18G19G21G22G27G31
  20930480.840   109990438.23809  20930477.640    85706826.45548
  22313043.080   117256024.49309  22313040.420    91368393.97547
  23962640.960   125924534.38208  23962637.040    98123012.30146
  22057172.440   115911240.92608  22057168.580    90320441.51348
  22977596.420   120748256.47408  22977594.920    94089610.04047
  21948043.860   115337805.75209  21948043.220    89873623.90948
  23708235.000   124587527.53008  23708236.060    97081155.20246
 15 03 02 00 20  0.0000000  0  7G16G18G19G21G22G27G31
  20921070.600   109940987.21909  20921067.380    85668293.19848
  22305932.300   117218657.15209  22305929.540    91339276.60847
  23948574.880   125850616.99508  23948570.840    98065414.37346
  22068623.700   115971417.27808  22068619.780    90367332.17947
  22961408.400   120663189.40308  22961407.080    94023324.26647
  21938412.460   115287192.95009  21938411.920    89834185.38648
  23726938.340   124685813.86908  23726939.600    97157741.94846
 15 03 02 00 20 30.0000000  0  7G16G18G19G21G22G27G31
  20911730.140   109891902.74909  20911726.920    85630045.56148
  22298898.220   117181693.20709  22298895.480    91310473.57047
  23934527.940   125776800.26908  23934523.880    98007894.87046
  22080118.500   116031822.84208  22080114.640    90414401.45347
  22945250.080   120578278.59508  22945248.900    93957160.24847
  21928805.560   115236708.80109  21928805.100    89794847.10748
  23745650.400   124784146.44508  23745651.860    97234364.76546
 15 03 02 00 21  0.0000000  0  7G16G18G19G21G22G27G31
  20902459.300   109843183.96509  20902456.040    85592082.86948
  22291940.700   117145131.84409  22291938.020    91281984.23447
  23920499.680   125703081.67008  23920495.580    97950451.82646
  22091655.940   116092452.71308  22091652.240    90461645.50748
  22929121.660   120493524.57109  22929120.580    93891118.39547
  21919222.700   115186350.75509  21919222.280    89755607.08848
  23764370.240   124882519.80508  23764371.820    97311019.34047
 15 03 02 00 21 30.0000000  0  7G16G18G19G21G22G27G31
  20893258.860   109794835.16809  20893255.560    85554408.47748
  22285060.580   117108977.08409  22285057.940    91253811.73047
  23906490.440   125629462.86408  23906486.360    97893086.56446
  22103236.020   116153306.83608  22103232.560    90509064.29848
  22913023.900   120408931.56109  22913022.860    93825202.00247
  21909664.220   115136120.55409  21909663.780    89716466.68648
  23783097.560   124980932.64608  23783099.280    97387704.54646
 15 03 02 00 22  0.0000000  0  7G16G18G19G21G22G27G31
  20884129.140   109746857.83009  20884125.780    85517023.53348
  22278258.040   117073229.67409  22278255.380    91225956.64247
  23892500.120   125555943.36708  23892496.080    97835798.68146
  22114858.280   116214382.77108  22114855.020    90556655.93747
  22896957.280   120324501.91509  22896956.140    93759412.88647
  21900130.040   115086017.81609  21900129.540    89677425.60148
  23801831.880   125079382.06508  23801833.700    97464418.29947
 15 03 02 00 22 30.0000000  0  7G16G18G19G21G22G27G31
  20875070.500   109699254.14009  20875067.080    85479929.75948
  22271533.440   117037891.95909  22271530.780    91198420.79647
  23878528.700   125482523.28508  23878524.700    97778588.25346
  22126522.600   116275679.36508  22126519.420    90604419.52347
  22880922.380   120240238.51109  22880921.080    93693753.29647
  21890620.180   115036042.77609  21890619.600    89638484.03448
  23820572.660   125177865.06908  23820574.540    97541158.14446
 15 03 02 00 23  0.0000000  0  7G16G18G19G21G22G27G31
  20866083.400   109652026.27409  20866079.920    85443128.82348
  22264887.040   117002965.13309  22264884.400    91171205.12047
  23864576.180   125409202.65808  23864572.320    97721455.33146
  22138228.540   116337194.78408  22138225.400    90652353.61848
  22864919.760   120156144.29909  22864918.320    93628225.54147
  21881134.620   114986195.55609  21881133.940    89599642.05548
  23839319.380   125276379.04108  23839321.280    97617922.08947
 15 03 02 00 23 30.0000000  0  7G16G18G19G21G22G27G31
  20857168.040   109605175.42109  20857164.480    85406621.65848
  22258319.120   116968450.79309  22258316.560    91144310.86847
  23850642.540   125335981.05908  23850638.700    97664399.56846
  22149975.540   116398926.00608  22149972.460    90700455.85748
  22848949.760   120072221.63209  22848948.220    93562831.48547
  21871673.220   114936475.54009  21871672.420    89560899.19348
  23858071.360   125374920.71908  23858073.320    97694707.69846
 15 03 02 00 24  0.0000000  0  7G16G18G19G21G22G27G31
  20848324.460   109558702.14109  20848320.920    85370408.71548
  22251829.660   116934348.56609  22251827.000    91117737.73547
  23836727.440   125262856.65708  23836723.580    97607419.54946
  22161763.000   116460869.51908  22161759.820    90748723.52147
  22833012.540   119988471.21309  22833010.900    93497571.66147
  21862235.680   114886880.99609  21862234.820    89522254.10448
  23876827.660   125473485.28708  23876829.680    97771510.96946
 15 03 02 00 24 30.0000000  0  7G16G18G19G21G22G27G31
  20839553.740   109512611.57809  20839550.180    85334494.00148
  22245419.560   116900663.29009  22245416.840    91091489.51947
  23822831.420   125189832.36908  23822827.520    97550517.53747
  22173591.180   116523026.56408  22173587.840    90797157.59047
  22817109.260   119904899.28309  22817107.540    93432450.92647
  21852822.640   114837415.32009  21852821.740    89483709.44348
  23895588.420   125572072.88908  23895590.500    97848332.04946
 15 03 02 00 25  0.0000000  0  7G16G18G19G21G22G27G31
  20830855.740   109466903.27209  20830852.140    85298877.13548
  22239088.720   116867394.37809  22239085.900    91065565.71347
  23808954.000   125116905.83208  23808950.080    97493691.71446
  22185459.320   116585393.14909  22185455.760    90845754.92747
  22801239.900   119821506.02109  22801238.200    93367469.36947
  21843433.620   114788076.07409  21843432.800    89445263.28848
  23914352.700   125670678.55608  23914354.840    97925167.10446
 15 03 02 00 25 30.0000000  0  7G16G18G19G21G22G27G31
  20822231.300   109421581.54709  20822227.680    85263561.50548
  22232837.880   116834545.83909  22232835.020    91039969.48947
  23795095.560   125044079.31508  23795091.640    97436943.82746
  22197367.440   116647970.03509  22197363.660    90894516.12747
  22785405.460   119738296.67509  22785403.880    93302631.12748
  21834069.080   114738865.67809  21834068.420    89406917.54248
  23933120.400   125769301.70108  23933122.600    98002015.65446
 15 03 02 00 26  0.0000000  0  7G16G18G19G21G22G27G31
  20813680.840   109376648.41109  20813677.220    85228548.68048
  22226667.200   116802118.66609  22226664.320    91014701.60247
  23781256.160   124971352.76108  23781252.120    97380273.82847
  22209315.220   116710755.18909  22209311.200    90943439.63247
  22769606.460   119655273.73609  22769605.000    93237938.12047
  21824729.020   114689784.07709  21824728.580    89368672.16148
  23951891.020   125867939.57308  23951893.280    98078875.65046
 15 03 02 00 26 30.0000000  0  7G16G18G19G21G22G27G31
  20805204.500   109332104.76009  20805200.860    85193839.33748
  22220576.920   116770114.17509  22220574.080    90989763.06547
  23767435.540   124898725.26008  23767431.560    97323681.00146
  22221301.960   116773745.46808  22221297.800    90992522.96247
  22753843.260   119572438.92509  22753841.900    93173391.71048
  21815413.280   114640830.22409  21815412.980    89330526.31848
  23970663.840   125966588.72008  23970666.200    98155744.70646
 15 03 02 00 27  0.0000000  0  7G16G18G19G21G22G27G31
  20796802.800   109287953.50209  20796799.160    85159435.76448
  22214567.480   116738534.34409  22214564.660    90965155.43747
  23753633.900   124826197.43608  23753629.980    97267165.85046
  22233327.460   116836939.86509  22233323.300    91041765.34747
  22738116.580   119489795.96209  22738115.200    93108994.78847
  21806122.140   114592005.16909  21806121.920    89292480.83948
  23989438.460   126065247.63108  23989440.820    98232621.70046
 15 03 02 00 27 30.0000000  0  7G16G18G19G21G22G27G31
  20788476.020   109244196.11709  20788472.440    85125339.09448
  22208639.080   116707380.27709  22208636.280    90940879.57747
  23739851.160   124753768.84008  23739847.320    97210728.02247
  22245391.320   116900336.04809  22245387.220    91091164.96847
  22722426.940   119407347.14109  22722425.440    93044749.12648
  21796855.480   114543308.50609  21796855.280    89254535.40148
  24008214.040   126163912.16808  24008216.340    98309503.03646
 15 03 02 00 28  0.0000000  0  7G16G18G19G21G22G27G31
  20780224.500   109200834.20209  20780220.980    85091550.59348
  22202791.980   116676653.53009  22202789.200    90916936.69047
  23726087.220   124681439.13908  23726083.420    97154367.27147
  22257493.080   116963931.54408  22257489.140    91140719.90047
  22706774.680   119325094.66109  22706773.020    92980656.46648
  21787613.220   114494739.88309  21787612.960    89216689.74048
  24026989.920   126262579.06608  24026992.280    98386386.04547
 15 03 02 00 28 30.0000000  0  7G16G18G19G21G22G27G31
  20772049.020   109157871.92309  20772045.560    85058073.49248
  22197026.840   116646357.17609  22197023.960    90893329.17247
  23712342.500   124609210.21908  23712338.740    97098085.03947
  22269632.820   117027726.86008  22269629.120    91190430.53447
  22691160.760   119243043.47209  22691158.880    92916720.64347
  21778395.780   114446301.58109  21778395.420    89178945.62148
  24045766.060   126361247.56708  24045768.660    98463270.23347
 15 03 02 00 29  0.0000000  0  7G16G18G19G21G22G27G31
  20763949.260   109115307.47809  20763945.840    85024906.39049
  22191343.280   116616489.17009  22191340.240    90870055.42847
  23698616.360   124537078.69808  23698612.460    97041878.70047
  22281809.580   117091716.75708  22281806.120    91240292.78747
  22675585.020   119161192.87409  22675582.920    92852941.11847
  21769202.400   114397989.95309  21769201.940    89141300.20748
  24064541.360   126459911.68608  24064544.160    98540151.06546
 15 03 02 00 29 30.0000000  0  7G16G18G19G21G22G27G31
  20755926.020   109073145.15709  20755922.620    84992052.63348
  22185741.960   116587053.43609  22185738.800    90847118.52547
  23684909.140   124465046.43408  23684905.020    96985749.69447
  22294023.500   117155901.79708  22294020.240    91290307.09647
  22660048.320   119079547.69209  22660046.100    92789321.65347
  21760033.600   114349807.38209  21760033.020    89103755.35448
  24083315.820   126558571.31408  24083318.740    98617028.60347
 15 03 02 00 30  0.0000000  0  7G16G18G19G21G22G27G31
  20747979.480   109031385.76209  20747976.060    84959512.85248
  22180222.960   116558050.60609  22180219.720    90824518.95447
  23671220.660   124393112.41108  23671216.320    96929697.26847
  22306273.920   117220278.57008  22306270.760    91340470.82147
  22644551.060   118998109.68009  22644548.760    92725863.63447
  21750889.180   114301752.96009  21750888.480    89066310.36448
  24102088.480   126657221.88308  24102091.520    98693899.00446
 15 03 02 00 30 30.0000000  0  7G16G18G19G21G22G27G31
  20740110.460   108990033.54109  20740107.000    84927290.33648
  22174786.920   116529484.04409  22174783.680    90802259.32047
  23657551.360   124321279.14508  23657546.840    96873723.34447
  22318561.020   117284847.87608  22318557.860    91390784.56447
  22629094.200   118916883.76009  22629091.820    92662570.86747
  21741769.600   114253829.13609  21741768.800    89028967.12948
  24120859.320   126755863.14708  24120862.500    98770762.08546
 15 03 02 00 31  0.0000000  0  7G16G18G19G21G22G27G31
  20732318.920   108949088.58309  20732315.440    84895385.17648
  22169433.800   116501353.38709  22169430.620    90780339.35947
  23643900.740   124249544.51108  23643896.160    96817826.29247
  22330884.020   117349605.61008  22330880.820    91441245.14047
  22613677.880   118835870.72309  22613675.380    92599443.98347
  21732674.420   114206033.99209  21732673.680    88991724.17448
  24139627.460   126854490.10008  24139630.720    98847613.94147
 15 03 02 00 31 30.0000000  0  7G16G18G19G21G22G27G31
  20724604.620   108908549.78609  20724601.180    84863796.50348
  22164163.220   116473656.51509  22164160.060    90758757.40747
  23630268.160   124177905.28508  23630263.660    96762003.55347
  22343242.020   117414547.00508  22343238.680    91491848.82648
  22598302.060   118755070.56409  22598299.480    92536482.97347
  21723603.160   114158364.64309  21723602.540    88954579.23948
  24158391.880   126953096.95108  24158395.220    98924450.18546
 15 03 02 00 32  0.0000000  0  7G16G18G19G21G22G27G31
  20716969.760   108868428.61309  20716966.360    84832533.24948
  22158977.400   116446404.90509  22158974.220    90737522.41147
  23616655.400   124106370.93808  23616651.120    96706262.54547
  22355636.400   117479679.65108  22355632.980    91542601.53247
  22582968.980   118674495.06809  22582966.340    92473697.03148
  21714557.640   114110830.67609  21714557.220    88917539.80148
  24177153.880   127051690.76308  24177157.200    99001276.19145
 15 03 02 00 32 30.0000000  0  7G16G18G19G21G22G27G31
  20709413.420   108828719.96509  20709410.060    84801591.43748
  22153875.300   116419593.17309  22153872.140    90716630.17647
  23603061.360   124034934.79008  23603057.320    96650598.07347
  22368065.600   117544995.13108  22368062.120    91593496.70447
  22567677.940   118594140.31309  22567675.120    92411083.08148
  21705536.620   114063425.30609  21705536.320    88880600.56848
  24195911.640   127150261.94108  24195914.900    99078084.59445
 15 03 02 00 33  0.0000000  0  7G16G18G19G21G22G27G31
  20701935.520   108789423.78209  20701932.260    84770971.04548
  22148856.740   116393220.55409  22148853.660    90696080.12147
  23589485.700   123963594.85108  23589481.780    96595008.55747
  22380528.900   117610489.85708  22380525.340    91644531.55447
  22552429.040   118514007.09709  22552426.060    92348641.76747
  21696539.820   114016146.85309  21696539.540    88843760.23348
  24214664.120   127248805.56908  24214667.420    99154871.41247
 15 03 02 00 33 30.0000000  0  7G16G18G19G21G22G27G31
  20694537.180   108750545.89109  20694534.060    84740676.59148
  22143922.660   116367291.98809  22143919.640    90675876.07047
  23575929.200   123892355.24908  23575925.320    96539497.22846
  22393026.580   117676165.47208  22393022.900    91695707.35447
  22537223.520   118434102.15209  22537220.460    92286378.32347
  21687568.020   113968999.19809  21687567.600    88807021.81148
  24233411.500   127347322.47908  24233414.860    99231637.23046
 15 03 02 00 34  0.0000000  0  7G16G18G19G21G22G27G31
  20687219.180   108712090.13009  20687216.180    84710711.05949
  22139073.800   116341811.27509  22139070.780    90656020.98947
  23562392.080   123821217.58208  23562388.320    96484065.33747
  22405558.660   117742021.97608  22405554.960    91747024.09847
  22522062.280   118354430.26209  22522059.220    92224296.46848
  21678621.580   113921984.66309  21678621.000    88770387.11248
  24252153.720   127445812.11408  24252157.260    99308381.78346
 15 03 02 00 34 30.0000000  0  7G16G18G19G21G22G27G31
  20679980.860   108674052.69909  20679977.920    84681071.49648
  22134309.200   116316773.73509  22134306.220    90636511.24447
  23548873.280   123750175.97608  23548869.480    96428708.28146
  22418123.780   117808052.16708  22418120.060    91798476.18447
  22506944.680   118274987.83309  22506941.680    92162393.41747
  21669699.340   113875097.38709  21669698.640    88733851.57948
  24270889.180   127544265.91807  24270892.980    99385098.24244
 15 03 02 00 35  0.0000000  0  7G16G18G19G21G22G27G31
  20672823.720   108636441.46709  20672820.760    84651764.04049
  22129630.260   116292186.36209  22129627.340    90617352.27947
  23535373.940   123679236.39508  23535370.080    96373430.73646
  22430722.760   117874260.20108  22430719.060    91850066.85047
  22491872.460   118195783.80709  22491869.540    92100676.13548
  21660802.520   113828343.64409  21660801.700    88697420.10148
  24289618.540   127642687.07608  24289622.620    99461788.98046
 15 03 02 00 35 30.0000000  0  7G16G18G19G21G22G27G31
  20665747.220   108599253.71209  20665744.200    84622786.56049
  22125036.360   116268045.94309  22125033.520    90598541.58547
  23521893.180   123608394.55208  23521889.260    96318229.34146
  22443354.360   117940639.41308  22443350.600    91901790.91147
  22476845.360   118116816.55009  22476842.540    92039143.35448
  21651930.220   113781719.13509  21651929.380    88661089.31748
  24308340.500   127741068.18408  24308344.740    99538448.32346
 15 03 02 00 36  0.0000000  0  7G16G18G19G21G22G27G31
  20658752.180   108562494.06909  20658749.080    84594142.67948
  22120528.500   116244357.48809  22120525.740    90580083.07447
  23508431.480   123537653.11208  23508427.520    96263106.17546
  22456018.840   118007191.53908  22456015.020    91953649.70447
  22461864.460   118038091.78309  22461861.520    91977799.50947
  21643083.040   113735226.83509  21643082.200    88624861.55948
  24327055.240   127839410.15108  24327059.660    99615077.04746
 15 03 02 00 36 30.0000000  0  7G16G18G19G21G22G27G31
  20651838.680   108526162.71609  20651835.440    84565832.52848
  22116106.420   116221119.78409  22116103.700    90561975.79147
  23494988.560   123467010.46908  23494984.640    96208059.98547
  22468715.400   118073912.51408  22468711.580    92005640.06947
  22446929.800   117959609.94309  22446926.700    91916644.95847
  21634260.620   113688865.02309  21634259.820    88588735.48448
  24345761.760   127937708.07208  24345766.300    99691671.41546
 15 03 02 00 37  0.0000000  0  7G16G18G19G21G22G27G31
  20645007.240   108490262.58709  20645003.840    84537858.40148
  22111770.600   116198335.14909  22111767.860    90544221.55247
  23481564.640   123396467.36908  23481560.740    96153091.36846
  22481443.920   118140801.68808  22481440.160    92057761.49947
  22432042.140   117881375.01709  22432038.860    91855682.81547
  21625463.300   113642635.16709  21625462.540    88552712.23248
  24364459.680   128035960.32008  24364464.320    99768230.14446
 15 03 02 00 37 30.0000000  0  7G16G18G19G21G22G27G31
  20638258.200   108454795.38809  20638254.600    84510221.62149
  22107521.180   116176004.64309  22107518.400    90526821.18847
  23468159.700   123326023.91608  23468155.860    96098200.40247
  22494204.040   118207857.15708  22494200.420    92110012.50847
  22417201.960   117803389.58409  22417198.520    91794915.07447
  21616691.080   113596537.15009  21616690.300    88516791.70148
  24383148.480   128134164.11608  24383153.200    99844751.06746
 15 03 02 00 38  0.0000000  0  7G16G18G19G21G22G27G31
  20631591.640   108419761.91109  20631587.940    84482922.80148
  22103358.260   116154128.55509  22103355.380    90509774.90347
  23454773.500   123255679.28008  23454769.740    96043386.43647
  22506995.300   118275076.26808  22506991.800    92162391.02347
  22402409.660   117725655.78809  22402406.120    91734343.41248
  21607943.820   113550570.33809  21607943.060    88480973.40848
  24401827.540   128232316.19908  24401832.280    99921231.63046
 15 03 02 00 38 30.0000000  0  7G16G18G19G21G22G27G31
  20625008.160   108385165.27009  20625004.420    84455964.38148
  22099282.220   116132709.14609  22099279.280    90493084.48347
  23441406.380   123185434.84808  23441402.740    95988650.56047
  22519817.560   118342458.41108  22519814.140    92214896.58147
  22387665.860   117648177.08209  22387662.280    91673970.51948
  21599221.780   113504735.90809  21599221.040    88445258.27848
  24420496.460   128330415.02108  24420501.280    99997670.72845
 15 03 02 00 39  0.0000000  0  7G16G18G19G21G22G27G31
  20618507.420   108351003.59509  20618503.640    84429344.89748
  22095292.660   116111744.43709  22095289.740    90476748.36447
  23428057.560   123115286.54108  23428053.960    95933989.54947
  22532669.940   118409998.63308  22532666.680    92267525.32247
  22372970.400   117570952.71709  22372966.900    91613795.81548
  21590524.400   113459030.94709  21590523.680    88409644.03148
  24439154.080   128428454.40708  24439159.100   100074063.61446
 15 03 02 00 39 30.0000000  0  7G16G18G19G21G22G27G31
  20612090.700   108317283.65609  20612086.940    84403069.62448
  22091390.780   116091240.23709  22091387.880    90460771.09447
  23414728.040   123045239.76108  23414724.440    95879407.68047
  22545552.940   118477699.58908  22545549.780    92320279.31347
  22358324.800   117493990.23209  22358321.360    91553825.18048
  21581852.560   113413460.33809  21581851.880    88374134.48848
  24457800.800   128526437.03708  24457806.000   100150412.55545
 15 03 02 00 40  0.0000000  0  7G16G18G19G21G22G27G31
  20605757.680   108284003.86109  20605753.940    84377137.30749
  22087576.120   116071194.18209  22087573.240    90445150.81247
  23401417.120   122975290.80608  23401413.500    95824902.04047
  22558465.640   118545556.31408  22558462.460    92373154.67847
  22343728.920   117417288.92709  22343725.480    91494058.04048
  21573205.640   113368020.74509  21573205.000    88338727.02348
  24476435.380   128624357.03007  24476440.960   100226712.87945
 15 03 02 00 40 30.0000000  0  7G16G18G19G21G22G27G31
  20599509.300   108251168.85409  20599505.600    84351551.58249
  22083849.440   116051610.35209  22083846.580    90429890.70547
  23388125.340   122905442.66408  23388121.800    95770474.95747
  22571408.280   118613570.03908  22571404.980    92426152.37747
  22329183.800   117340854.30009  22329180.320    91434498.69648
  21564584.320   113322715.51609  21564583.660    88303424.25148
  24495057.860   128722214.29308  24495063.800   100302964.50845
 15 03 02 00 41  0.0000000  0  7G16G18G19G21G22G27G31
  20593345.320   108218777.36009  20593341.720    84326311.45249
  22080210.460   116032486.96009  22080207.520    90414989.38147
  23374852.160   122835692.34508  23374848.720    95716124.09747
  22584379.860   118681735.84708  22584376.480    92479268.59347
  22314689.420   117264686.28609  22314685.880    91375147.10848
  21555987.980   113277541.76009  21555987.360    88268223.93248
  24513667.180   128820003.27208  24513673.340   100379163.18846
 15 03 02 00 41 30.0000000  0  7G16G18G19G21G22G27G31
  20587266.540   108186833.74909  20587263.100    84301420.33149
  22076659.780   116013827.50309  22076656.720    90400449.56547
  23361598.100   122766042.29608  23361594.700    95661851.35747
  22597380.580   118750054.69008  22597377.100    92532504.05347
  22300246.720   117188789.74809  22300243.120    91316007.07148
  21547417.280   113232502.28309  21547416.620    88233128.24448
  24532263.300   128917723.58108  24532269.680   100455308.37745
 15 03 02 00 42  0.0000000  0  7G16G18G19G21G22G27G31
  20581273.300   108155339.37009  20581269.960    84276879.24848
  22073197.440   115995632.59209  22073194.340    90386271.73347
  23348363.240   122696492.44808  23348359.720    95607656.71747
  22610409.980   118818524.29708  22610406.420    92585856.99447
  22285856.220   117113167.36309  22285852.580    91257080.64248
  21538872.180   113187597.08509  21538871.420    88198137.19348
  24550845.620   129015372.06908  24550852.160   100531397.63245
 15 03 02 00 42 30.0000000  0  7G16G18G19G21G22G27G31
  20575365.800   108124295.26109  20575362.540    84252689.02349
  22069823.360   115977902.08409  22069820.280    90372455.77347
  23335147.340   122627041.69508  23335143.560    95553539.25947
  22623467.580   118887142.00408  22623463.980    92639325.32947
  22271518.100   117037820.41209  22271514.420    91198368.83048
  21530352.500   113142825.47309  21530351.620    88163250.22248
  24569413.540   129112945.16908  24569420.240   100607427.98245
 15 03 02 00 43  0.0000000  0  7G16G18G19G21G22G27G31
  20569544.300   108093702.85909  20569541.040    84228850.77649
  22066537.940   115960637.67109  22066534.920    90359002.99847
  23321950.320   122557690.24008  23321946.360    95499499.18147
  22636553.100   118955906.51908  22636549.480    92692908.05747
  22257232.940   116962751.84709  22257229.260    91139873.94148
  21521858.240   113098187.71409  21521857.300    88128467.55348
  24587966.620   129210440.23708  24587973.620   100683397.54845
 15 03 02 00 43 30.0000000  0  7G16G18G19G21G22G27G31
  20563809.500   108063565.98009  20563806.220    84205367.49149
  22063341.760   115943842.11309  22063338.760    90345915.57547
  23308772.600   122488440.03208  23308768.460    95445538.01347
  22649666.540   119024817.88508  22649662.920    92746605.22547
  22243001.620   116887966.78009  22242998.040    91081599.97348
  21513389.800   113053686.11409  21513388.940    88093790.99448
  24606504.820   129307857.06208  24606512.120   100759306.17345
 15 03 02 00 44  0.0000000  0  7G16G18G19G21G22G27G31
  20558161.100   108033882.97509  20558157.760    84182237.87349
  22060234.380   115927512.78409  22060231.380    90333191.43647
  23295613.440   122419287.72708  23295609.140    95391653.12547
  22662807.000   119093871.16408  22662803.400    92800412.96947
  22228823.940   116813463.96909  22228820.500    91023545.94348
  21504946.700   113009317.53709  21504945.880    88059218.07948
  24625027.040   129405190.00108  24625034.520   100835149.69044
 15 03 02 00 44 30.0000000  0  7G16G18G19G21G22G27G31
  20552600.060   108004658.80109  20552596.620    84159465.78349
  22057216.580   115911654.07509  22057213.540    90320834.01147
  23282473.460   122350236.46708  23282469.060    95337846.97047
  22675974.640   119163067.55508  22675971.080    92854332.21247
  22214701.080   116739249.09509  22214697.720    90965716.26348
  21496529.560   112965085.35109  21496528.800    88024751.43948
  24643533.220   129502439.10208  24643540.900   100910927.89345
 15 03 02 00 45  0.0000000  0  7G16G18G19G21G22G27G31
  20547126.940   107975896.94009  20547123.420    84137053.94449
  22054288.820   115896268.61809  22054285.800    90308845.36647
  23269353.000   122281288.21508  23269348.600    95284121.08647
  22689169.500   119232407.26208  22689165.940    92908363.15347
  22200633.880   116665326.56909  22200630.580    90908114.40348
  21488138.800   112920991.68609  21488138.080    87990392.74748
  24662023.160   129599603.24708  24662031.140   100986639.69146
 15 03 02 00 45 30.0000000  0  7G16G18G19G21G22G27G31
  20541740.860   107947592.83109  20541737.340    84114998.79349
  22051450.120   115881351.40709  22051447.200    90297221.58547
  23256250.980   122212437.12708  23256246.620    95230470.91647
  22702390.180   119301882.65408  22702386.660    92962499.81447
  22186621.900   116591693.54809  22186618.480    90850738.12248
  21479773.360   112877030.95209  21479772.640    87956137.63448
  24680495.340   129696673.92007  24680503.540   101062278.55746
 15 03 02 00 46  0.0000000  0  6G16G18G19G21G22G27
  20536442.020   107919747.39109  20536438.540    84093301.04648
  22048700.520   115866902.55309  22048697.720    90285962.75947
  23243167.260   122143682.30008  23243163.040    95176895.77447
  22715636.180   119371491.37708  22715632.740    93016740.37147
  22172665.380   116518351.50909  22172661.760    90793588.57548
  21471433.040   112833202.59609  21471432.340    87921985.67548
 15 03 02 00 46 30.0000000  0  6G16G18G19G21G22G27
  20531232.120   107892369.40509  20531228.680    84071967.55748
  22046041.580   115852929.93109  22046038.860    90275075.03647
  23230103.280   122075031.13908  23230099.160    95123401.40447
  22728908.580   119441238.82408  22728905.200    93071089.02547
  22158766.100   116445310.05809  22158762.260    90736673.25348
  21463119.320   112789514.06209  21463118.660    87887942.67948
 15 03 02 00 47  0.0000000  0  6G16G18G19G21G22G27
  20526110.780   107865456.73409  20526107.360    84050996.63249
  22043472.720   115839430.39409  22043469.960    90264555.92247
  23217058.260   122006479.20708  23217054.060    95069984.33647
  22742206.300   119511119.03008  22742203.020    93125541.11947
  22144923.820   116372567.97809  22144919.780    90679991.19748
  21454831.420   112745961.53409  21454830.840    87854005.64048
 15 03 02 00 47 30.0000000  0  6G16G18G19G21G22G27
  20521078.620   107839012.55209  20521075.240    84030390.77449
  22040994.460   115826406.73709  22040991.720    90254407.64147
  23204032.540   121938028.62608  23204028.240    95016646.25247
  22755529.400   119581132.33808  22755526.140    93180096.93147
  22131139.360   116300129.82109  22131135.160    90623545.97448
  21446569.840   112702547.10809  21446569.360    87820176.23048
 15 03 02 00 48  0.0000000  0  6G16G18G19G21G22G27
  20516135.600   107813036.72509  20516132.240    84010149.85949
  22038606.560   115813857.99109  22038603.840    90244629.40747
  23191025.780   121869677.92708  23191021.360    94963385.97947
  22768877.140   119651275.16908  22768873.900    93234753.66747
  22117412.760   116227996.09309  22117408.480    90567337.95848
  21438334.360   112659269.52109  21438333.900    87786453.44149
 15 03 02 00 48 30.0000000  0  6G16G18G19G21G22G27
  20511282.640   107787534.06409  20511279.260    83990277.65049
  22036309.800   115801788.11009  22036307.040    90235224.32447
  23178038.560   121801429.99308  23178034.100    94910205.80847
  22782249.920   119721549.16108  22782246.640    93289512.60947
  22103745.140   116156172.73809  22103740.900    90511371.79748
  21430125.640   112616132.18309  21430125.140    87752839.93248
 15 03 02 00 49  0.0000000  0  6G16G18G19G21G22G27
  20506518.860   107762500.26309  20506515.440    83970770.78649
  22034103.200   115790192.26409  22034100.420    90226188.61247
  23165069.880   121733279.42508  23165065.360    94857101.50147
  22795646.260   119791946.98808  22795642.920    93344368.05247
  22090135.960   116084656.59809  22090131.840    90455645.03148
  21421942.640   112573129.57909  21421942.040    87719331.41848
 15 03 02 00 49 30.0000000  0  6G16G18G19G21G22G27
  20501845.300   107737940.85009  20501841.900    83951633.58049
  22031987.600   115779074.61109  22031984.780    90217525.53547
  23152120.460   121665230.07308  23152115.920    94804076.05946
  22809066.520   119862470.47308  22809063.180    93399321.41547
  22076586.380   116013453.79409  22076582.400    90400162.41348
  21413786.140   112530266.02309  21413785.440    87685931.25549
 15 03 02 00 50  0.0000000  0  6G16G18G19G21G22G27
  20497262.300   107713857.20609  20497258.900    83932867.09349
  22029963.180   115768436.29909  22029960.320    90209235.95547
  23139190.340   121597282.07308  23139185.820    94751129.58247
  22822510.420   119933118.07908  22822507.040    93454371.48847
  22063096.920   115942566.93109  22063093.080    90344925.98448
  21405656.140   112487541.78109  21405655.300    87652639.63549
 15 03 02 00 50 30.0000000  0  6G16G18G19G21G22G27
  20492770.000   107690250.27009  20492766.640    83914472.07449
  22028029.920   115758276.94109  22028026.960    90201319.59147
  23126279.300   121529434.18708  23126274.780    94698261.12447
  22835977.520   120003887.66108  22835974.080    93509516.60647
  22049667.960   115871997.86409  22049664.220    90289937.19348
  21397552.500   112444956.34509  21397551.560    87619456.18548
 15 03 02 00 51  0.0000000  0  6G16G18G19G21G22G27
  20488368.880   107667122.39109  20488365.540    83896450.34248
  22026188.180   115748598.30609  22026185.060    90193777.80847
  23113387.560   121461687.80408  23113383.100    94645471.75347
  22849467.700   120074778.57808  22849464.200    93564756.26147
  22036300.140   115801749.90009  22036296.420    90235198.59848
  21389475.500   112402511.18209  21389474.520    87586382.02548
 15 03 02 00 51 30.0000000  0  6G16G18G19G21G22G27
  20484059.120   107644474.60709  20484055.780    83878802.72249
  22024437.940   115739400.49109  22024434.760    90186610.70247
  23100514.960   121394041.86908  23100510.580    94592760.65947
  22862980.460   120145788.22708  22862976.900    93620088.45547
  22022993.880   115731825.37109  22022990.160    90180712.03648
  21381425.060   112360206.03909  21381424.140    87553416.99548
 15 03 02 00 52  0.0000000  0  6G16G18G19G21G22G27
  20479840.780   107622307.09209  20479837.400    83861529.32349
  22022779.140   115730683.41809  22022775.960    90179818.18947
  23087661.440   121326496.27308  23087657.140    94540127.75647
  22876515.360   120216914.43608  22876511.760    93675511.46147
  22009749.440   115662225.78909  22009745.700    90126478.67148
  21373401.000   112318040.12609  21373400.240    87520560.44449
 15 03 02 00 52 30.0000000  0  6G16G18G19G21G22G27
  20475714.860   107600624.81509  20475711.360    83844634.03849
  22021212.520   115722450.82909  22021209.380    90173403.20147
  23074827.580   121259054.06208  23074823.360    94487575.41347
  22890072.640   120288158.24508  22890069.040    93731026.11146
  21996567.960   115592956.94709  21996564.260    90072503.03448
  21365404.100   112276017.16509  21365403.560    87487815.29849
 15 03 02 00 53  0.0000000  0  6G16G18G19G21G22G27
  20471681.000   107579426.40909  20471677.460    83828115.79849
  22019737.620   115714700.44509  22019734.580    90167363.95547
  23062012.900   121191712.54008  23062008.680    94435101.52447
  22903651.520   120359515.49608  22903647.920    93786629.15247
  21983449.400   115524018.33009  21983445.640    90018784.70348
  21357434.020   112234134.72109  21357433.600    87455179.63849
 15 03 02 00 53 30.0000000  0  6G16G18G19G21G22G27
  20467739.080   107558711.33009  20467735.560    83811974.17849
  22018354.160   115707430.77409  22018351.200    90161699.29347
  23049217.080   121124469.99208  23049212.760    94382704.77247
  22917251.300   120430982.65708  22917247.720    93842317.83647
  21970393.800   115455410.52109  21970389.980    89965324.14248
  21349490.480   112192391.20309  21349490.040    87422652.22949
 15 03 02 00 54  0.0000000  0  6G16G18G19G21G22G27
  20463890.440   107538486.73209  20463886.980    83796214.74349
  22017063.440   115700648.39609  22017060.540    90156414.34047
  23036441.100   121057331.78508  23036436.760    94330389.30347
  22930872.720   120502563.93308  22930869.240    93898095.44847
  21957402.580   115387141.27509  21957398.720    89912127.40548
  21341574.600   112150792.59709  21341574.040    87390237.73749
 15 03 02 00 54 30.0000000  0  6G16G18G19G21G22G27
  20460134.380   107518748.55609  20460130.960    83780834.33049
  22015864.580   115694348.45809  22015861.700    90151505.30747
  23023684.040   120990292.92708  23023679.620    94278151.25447
  22944514.440   120574252.13108  22944511.020    93953956.37547
  21944475.320   115319208.15509  21944471.440    89859192.56748
  21333685.400   112109334.00909  21333684.680    87357932.34449
 15 03 02 00 55  0.0000000  0  6G16G18G19G21G22G27
  20456472.180   107499503.68409  20456468.800    83765838.32549
  22014758.640   115688536.43809  22014755.760    90146976.47947
  23010946.880   120923358.80208  23010942.480    94225994.81547
  22958177.180   120646050.92708  22958173.860    94009903.48947
  21931613.540   115251618.97109  21931609.580    89806525.74348
  21325823.900   112068021.24309  21325823.060    87325740.58648
 15 03 02 00 55 30.0000000  0  6G16G18G19G21G22G27
  20452903.200   107480748.43909  20452899.780    83751223.84049
  22013744.740   115683207.97209  22013741.760    90142824.44547
  22998228.640   120856524.40708  22998224.360    94173916.08647
  22971859.800   120717954.17408  22971856.540    94065931.98347
  21918816.720   115184371.10009  21918812.660    89754124.86948
  21317989.260   112026849.71309  21317988.300    87293658.88349
 15 03 02 00 56  0.0000000  0  6G16G18G19G21G22G27
  20449428.500   107462488.48809  20449425.000    83736995.30749
