     2.11           OBSERVATION DATA    G                   RINEX VERSION / TYPE
SPIDER V4,0,0,3554                      2015 03 24 05:57    PGM / RUN BY / DATE 
OJGS                                                        MARKER NAME         
OJGS                                                        MARKER NUMBER       
                                                            OBSERVER / AGENCY   
496552              LEICA GRX1200+GNSS  8.20/4.007          REC # / TYPE / VERS 
10401003            LEIAR25         NONE                    ANT # / TYPE        
  5198100.9450    88691.2920  3684205.7148                  APPROX POSITION XYZ 
        0.1200        0.0000        0.0000                  ANTENNA: DELTA H/E/N
     1     1                                                WAVELENGTH FACT L1/2
     4    C1    L1    P2    L2                              # / TYPES OF OBSERV 
    30.000                                                  INTERVAL            
  2015    03    02    00    00    0.0000000     GPS         TIME OF FIRST OBS   
  2015    03    02    23    59   30.0000000     GPS         TIME OF LAST OBS    
    16                                                      LEAP SECONDS        
    30                                                      # OF SATELLITES     
   G 1   833   833   833   833                              PRN / # OF OBS      
   G 2   926   926   924   924                              PRN / # OF OBS      
   G 3   839   839   839   839                              PRN / # OF OBS      
   G 4   845   845   844   844                              PRN / # OF OBS      
   G 5   674   673   673   673                              PRN / # OF OBS      
   G 6   732   732   732   732                              PRN / # OF OBS      
   G 7   723   723   722   722                              PRN / # OF OBS      
   G 9   782   782   782   782                              PRN / # OF OBS      
   G10   784   784   784   784                              PRN / # OF OBS      
   G11   797   797   797   797                              PRN / # OF OBS      
   G12   811   811   811   811                              PRN / # OF OBS      
   G13   822   821   821   821                              PRN / # OF OBS      
   G14   934   934   933   933                              PRN / # OF OBS      
   G15   733   733   732   732                              PRN / # OF OBS      
   G16   693   693   693   693                              PRN / # OF OBS      
   G17   931   929   929   929                              PRN / # OF OBS      
   G18   928   920   913   912                              PRN / # OF OBS      
   G19   784   783   782   782                              PRN / # OF OBS      
   G20   798   798   798   798                              PRN / # OF OBS      
   G21   665   640   623   620                              PRN / # OF OBS      
   G22   804   804   803   803                              PRN / # OF OBS      
   G23   726   726   726   726                              PRN / # OF OBS      
   G24   842   841   841   841                              PRN / # OF OBS      
   G25   821   821   821   821                              PRN / # OF OBS      
   G27   831   831   831   831                              PRN / # OF OBS      
   G28   913   913   913   913                              PRN / # OF OBS      
   G29   712   712   711   711                              PRN / # OF OBS      
   G30   692   692   691   691                              PRN / # OF OBS      
   G31   764   764   763   763                              PRN / # OF OBS      
   G32   739   739   739   739                              PRN / # OF OBS      
BIT 2 OF LLI FLAGS DATA COLLECTED UNDER A/S CONDITION       COMMENT             
SNR is mapped to RINEX snr flag value [2-9]                 COMMENT             
Lx:     = 25dBHz -> 1; 26-27dBHz -> 2; 28-31dBHz -> 3       COMMENT             
       32-35dBHz -> 4; 36-38dBHz -> 5; 39-41dBHz -> 6       COMMENT             
       42-44dBHz -> 7; 45-48dBHz -> 8; >=49dBHz -> 9        COMMENT             
                                                            END OF HEADER       
 15 03 02 00 00  0.0000000  0  7G16G18G21G22G27G29G31
  21339064.280   112137549.88109  21339061.300    87379909.83648
  22607320.160   118802408.34409  22607317.720    92573337.43546
  21557130.820   113283495.25809  21557126.800    88272844.24048
  23693407.360   124509725.24008  23693409.480    97020571.52846
  22414332.740   117788148.21008  22414331.780    91782991.47848
  24534023.780   128927150.42608  24534022.360   100462702.12245
  23130486.040   121551483.25109  23130484.920    94715418.39447
 15 03 02 00 00 30.0000000  0  7G16G18G21G22G27G29G31
  21327228.180   112075350.67709  21327225.200    87331442.92748
  22597035.640   118748362.88109  22597033.140    92531224.14346
  21566068.540   113330463.17809  21566064.560    88309442.62448
  23676095.820   124418753.01108  23676097.840    96949684.17046
  22403143.280   117729346.57309  22403142.140    91737172.04148
  24548538.940   129003428.42208  24548537.520   100522139.48545
  23148565.660   121646491.54409  23148564.520    94789450.67847
 15 03 02 00 01  0.0000000  0  6G16G18G21G22G27G31
  21315443.820   112013423.11409  21315440.760    87283187.68948
  22586807.200   118694612.43209  22586804.740    92489340.72346
  21575059.340   113377710.05609  21575055.440    88346258.37948
  23658787.400   124327797.10508  23658789.400    96878809.76346
  22391972.600   117670643.78609  22391971.360    91691429.62548
  23166667.300   121741615.64009  23166666.240    94863573.19047
 15 03 02 00 01 30.0000000  0  6G16G18G21G22G27G31
  21303722.380   111951826.49109  21303719.280    87235190.33848
  22576646.260   118641216.96709  22576643.840    92447733.92746
  21584113.700   113425291.15709  21584109.900    88383334.57048
  23641493.480   124236917.76208  23641495.420    96807995.23346
  22380831.620   117612097.22509  22380830.260    91645808.94348
  23184801.280   121836909.69109  23184800.280    94937828.13547
 15 03 02 00 02  0.0000000  0  6G16G18G21G22G27G31
  21292057.040   111890524.46109  21292053.880    87187422.53248
  22566546.020   118588140.35809  22566543.580    92406375.57946
  21593224.040   113473166.64809  21593220.340    88420640.14748
  23624207.280   124146079.83308  23624209.060    96737213.62546
  22369713.000   117553668.46709  22369711.600    91600280.05348
  23202959.820   121932332.72209  23202958.900    95012183.59047
 15 03 02 00 02 30.0000000  0  6G16G18G21G22G27G31
  21280451.260   111829535.39909  21280447.980    87139898.60048
  22556509.900   118535400.88009  22556507.520    92365279.92946
  21602393.120   113521350.65409  21602389.520    88458186.12048
  23606931.940   124055300.17808  23606933.540    96666477.06946
  22358619.820   117495373.43909  22358618.400    91554855.38248
  23221145.360   122027897.60709  23221144.520    95086649.56747
 15 03 02 00 03  0.0000000  0  6G16G18G21G22G27G31
  21268903.240   111768850.12909  21268899.900    87092611.38148
  22546536.240   118482989.64709  22546533.940    92324440.06146
  21611618.340   113569829.73308  21611614.860    88495962.03048
  23589666.080   123964570.68808  23589667.520    96595779.47746
  22347549.960   117437200.99809  22347548.520    91509526.21848
  23239355.160   122123590.12409  23239354.400    95161215.01147
 15 03 02 00 03 30.0000000  0  7G16G18G19G21G22G27G31
  21257413.820   111708472.64109  21257410.420    87045563.98948
  22536625.820   118430910.47709  22536623.600    92283858.94046
  24549423.000                                                  
  21620899.800   113618604.66308  21620896.420    88533968.46048
  23572410.700   123873896.15108  23572411.840    96525124.64846
  22336503.760   117379152.93009  22336502.300    91464293.97448
  23257589.040   122219409.13509  23257588.240    95235878.99547
 15 03 02 00 04  0.0000000  0  7G16G18G19G21G22G27G31
  21245987.280   111648425.53709  21245983.840    86998774.04448
  22526782.920   118379185.82509  22526780.660    92243554.05846
  24534316.260   128928699.86508  24534311.900   100463910.73945
  21630241.080   113667694.00108  21630237.760    88572219.89348
  23555170.120   123783299.46308  23555171.120    96454530.40146
  22325485.100   117321249.51809  22325483.740    91419174.45648
  23275850.360   122315372.31809  23275849.540    95310655.34147
 15 03 02 00 04 30.0000000  0  7G16G18G19G21G22G27G31
  21234612.260   111588649.26109  21234608.920    86952195.14148
  22516996.200   118327756.29309  22516993.880    92203479.14946
  24519218.860   128849360.49308  24519214.200   100402087.89345
  21639630.040   113717033.67908  21639626.780    88610666.40148
  23537933.220   123692721.78008  23537934.040    96383950.91646
  22314482.260   117263429.16609  22314480.880    91374119.65748
  23294126.700   122411414.48609  23294125.920    95385493.22347
 15 03 02 00 05  0.0000000  0  7G16G18G19G21G22G27G31
  21223303.800   111529223.01009  21223300.460    86905888.96948
  22507280.760   118276701.61609  22507278.480    92163696.32746
  24504144.560   128770144.96408  24504140.660   100340361.58045
  21649081.020   113766699.15108  21649077.800    88649366.76248
  23520715.200   123602242.95808  23520715.840    96313448.40646
  22303509.860   117205769.10409  22303508.480    91329189.76148
  23312432.340   122507610.62709  23312431.600    95460451.06447
 15 03 02 00 05 30.0000000  0  7G16G18G19G21G22G27G31
  21212054.480   111470107.74009  21212051.260    86859825.13648
  22497629.240   118225982.63609  22497627.000    92124175.08146
  24489086.120   128691012.19408  24489082.460   100278699.72645
  21658585.920   113816647.86608  21658582.780    88688287.84548
  23503508.860   123511824.85708  23503509.320    96242993.15346
  22292560.140   117148228.11909  22292558.680    91284352.65448
  23330758.860   122603916.48809  23330758.180    95535494.41447
 15 03 02 00 06  0.0000000  0  7G16G18G19G21G22G27G31
  21200866.080   111411312.58209  21200862.840    86814010.72748
  22488043.320   118175608.26009  22488040.980    92084922.36547
  24474044.800   128611969.36907  24474041.080   100217107.96546
  21668145.660   113866884.63908  21668142.520    88727433.37748
  23486315.880   123421476.77408  23486316.260    96172592.47746
  22281634.480   117090813.24809  22281632.980    91239613.81748
  23349106.960   122700335.96008  23349106.500    95610626.28447
 15 03 02 00 06 30.0000000  0  7G16G18G19G21G22G27G31
  21189739.100   111352839.88609  21189735.740    86768447.59448
  22478523.520   118125581.38409  22478521.160    92045940.43146
  24459020.400   128533016.63308  24459016.580   100155586.45844
  21677759.960   113917408.11808  21677756.780    88766802.32447
  23469136.900   123331201.99108  23469137.020    96102248.91746
  22270732.880   117033524.66009  22270731.240    91194973.38148
  23367476.200   122796866.41409  23367475.800    95685844.63946
 15 03 02 00 07  0.0000000  0  7G16G18G19G21G22G27G31
  21178674.200   111294693.41309  21178670.760    86723138.65048
  22469070.360   118075905.00609  22469068.000    92007231.60846
  24444013.520   128454155.45608  24444009.780   100094136.22345
  21687428.740   113968217.69808  21687425.380    88806394.20248
  23451972.700   123241004.92708  23451972.660    96031965.91246
  22259855.560   116976363.84409  22259853.800    91150432.50648
  23385866.340   122893506.46109  23385865.920    95761148.38347
 15 03 02 00 07 30.0000000  0  7G16G18G19G21G22G27G31
  21167670.540   111236868.95209  21167667.160    86678080.64348
  22459683.240   118026575.49609  22459680.860    91968793.07646
  24429022.920   128375379.48207  24429019.020   100032752.37945
  21697150.400   114019304.91909  21697146.940    88846202.43547
  23434822.540   123150881.47908  23434822.200    95961740.22746
  22249001.260   116919324.55909  22248999.520    91105986.32648
  23404275.540   122990246.61609  23404275.120    95836530.13946
 15 03 02 00 08  0.0000000  0  7G16G18G19G21G22G27G31
  21156730.300   111179377.67709  21156727.000    86633282.24248
  22450364.280   117977603.90009  22450361.860    91930633.41746
  24414050.160   128296697.90108  24414046.280    99971442.15345
  21706926.360   114070677.58409  21706922.860    88886233.08448
  23417688.660   123060843.44308  23417688.100    95891581.06746
  22238171.780   116862415.88309  22238170.240    91061641.93448
  23422705.040   123087093.22009  23422704.560    95911994.82847
 15 03 02 00 08 30.0000000  0  7G16G18G19G21G22G27G31
  21145852.080   111122212.14209  21145848.800    86588737.67448
  22441112.020   117928983.04509  22441109.640    91892747.07846
  24399093.860   128218101.46508  24399089.940    99910198.18945
  21716754.600   114122324.94209  21716751.000    88926477.77947
  23400569.820   122970884.11508  23400568.980    95821483.15546
  22227365.400   116805628.33809  22227363.880    91017391.90748
  23441152.400   123184034.02908  23441152.000    95987532.92646
 15 03 02 00 09  0.0000000  0  7G16G18G19G21G22G27G31
  21135037.920   111065382.97709  21135034.560    86544455.20848
  22431928.440   117880723.20109  22431926.120    91855142.04746
  24384155.140   128139598.35308  24384151.520    99849027.02545
  21726636.040   114174252.20709  21726632.320    88966940.58547
  23383468.100   122881014.74509  23383467.100    95751455.34346
  22216583.720   116748970.28309  22216582.160    90973242.79548
  23459618.640   123281074.31508  23459618.420    96063148.53747
 15 03 02 00 09 30.0000000  0  7G16G18G19G21G22G27G31
  21124287.880   111008890.84409  21124284.340    86500435.36448
  22422813.760   117832825.14709  22422811.460    91817818.92846
  24369233.900   128061187.20408  24369230.440    99787927.48845
  21736570.300   114226457.13008  21736566.520    89007619.75047
  23366383.740   122791236.65708  23366382.620    95681498.65846
  22205826.380   116692440.42609  22205824.920    90929193.58148
  23478103.000   123378209.73108  23478102.900    96138838.26947
 15 03 02 00 10  0.0000000  0  7G16G18G19G21G22G27G31
  21113601.040   110952730.91909  21113597.420    86456674.38748
  22413767.040   117785284.18409  22413764.640    91780774.06047
  24354328.920   127982861.17908  24354325.540    99726894.26745
  21746555.640   114278930.68508  21746551.820    89048508.23047
  23349316.000   122701545.74808  23349314.680    95611609.95146
  22195092.120   116636031.92709  22195090.800    90885238.92948
  23496603.620   123475430.59908  23496603.640    96214594.57847
 15 03 02 00 10 30.0000000  0  7G16G18G19G21G22G27G31
  21102979.480   110896914.21209  21102975.880    86413180.85448
  22404790.300   117738110.99509  22404787.780    91744015.76346
  24339441.800   127904629.21608  24339438.360    99665934.36744
  21756593.400   114331679.60608  21756589.600    89089611.28848
  23332267.080   122611953.79709  23332265.540    95541798.32947
  22184382.660   116579753.68209  22184381.500    90841385.76548
  23515121.700   123572743.05908  23515121.780    96290422.24847
 15 03 02 00 11  0.0000000  0  7G16G18G19G21G22G27G31
  21092422.480   110841436.66609  21092418.880    86369951.59348
  22395882.740   117691301.47709  22395880.160    91707540.84746
  24324571.500   127826484.91008  24324567.400    99605042.71344
  21766682.060   114384695.94608  21766678.340    89130922.72347
  23315236.260   122522456.90108  23315234.580    95472060.67546
  22173696.780   116523599.32409  22173695.720    90797629.14548
  23533655.440   123670137.61908  23533655.560    96366313.90046
 15 03 02 00 11 30.0000000  0  7G16G18G19G21G22G27G31
  21081931.160   110786304.04009  21081927.540    86326991.10948
  22387045.440   117644861.10809  22387042.800    91671353.59446
  24309718.560   127748432.22308  24309714.320    99544222.44545
  21776822.040   114437982.15808  21776818.400    89172444.44947
  23298224.680   122433061.14409  23298222.900    95402401.59247
  22163035.140   116467572.52909  22163034.180    90753971.93148
  23552204.880   123767614.85408  23552205.060    96442269.97246
 15 03 02 00 12  0.0000000  0  7G16G18G19G21G22G27G31
  21071506.260   110731520.51809  21071502.600    86284302.64448
  22378279.200   117598794.19209  22378276.480    91635457.32946
  24294883.260   127670473.21208  24294879.140    99483475.21945
  21787013.300   114491537.72508  21787009.660    89214176.06447
  23281233.480   122343771.89809  23281231.680    95332825.43646
  22152398.260   116411675.66509  22152397.340    90710415.95248
  23570770.000   123865174.35108  23570770.240    96518290.13046
 15 03 02 00 12 30.0000000  0  7G16G18G19G21G22G27G31
  21061146.840   110677081.14909  21061143.140    86241882.35548
  22369583.080   117553095.96809  22369580.340    91599848.35546
  24280064.600   127592601.05907  24280060.320    99422795.66545
  21797254.220   114545354.09408  21797250.560    89256110.90747
  23264261.800   122254584.93109  23264259.960    95263329.00247
  22141784.820   116355901.76209  22141783.940    90666955.78048
  23589348.900   123962806.30708  23589349.220    96594366.74546
 15 03 02 00 13  0.0000000  0  7G16G18G19G21G22G27G31
  21050855.060   110622997.26009  21050851.360    86199739.05848
  22360959.220   117507777.45909  22360956.480    91564535.26246
  24265263.900   127514824.60607  24265259.940    99362190.70745
  21807546.140   114599438.41708  21807542.520    89298254.53947
  23247311.860   122165512.09109  23247310.060    95193921.53646
  22131196.460   116300259.88309  22131195.760    90623598.48848
  23607942.740   124060516.78408  23607943.160    96670504.52346
 15 03 02 00 13 30.0000000  0  7G16G18G19G21G22G27G31
  21040629.360   110569260.56209  21040625.560    86157866.30548
  22352406.040   117462830.32609  22352403.280    91529511.55346
  24250479.660   127437133.56008  24250475.980    99301652.27745
  21817886.740   114653778.89208  21817883.280    89340597.76647
  23230382.180   122076545.70909  23230380.380    95124597.10547
  22120631.220   116244739.75809  22120630.620    90580336.07948
  23626549.060   124158292.53808  23626549.480    96746693.18446
 15 03 02 00 14  0.0000000  0  7G16G18G19G21G22G27G31
  21030471.340   110515880.05709  21030467.580    86116271.11648
  22343925.240   117418263.48709  22343922.420    91494784.18346
  24235713.040   127359535.28108  24235709.560    99241186.15145
  21828276.920   114708380.09208  21828273.540    89383144.15447
  23213474.680   121987696.02909  23213472.900    95055363.79146
  22110090.440   116189348.42309  22110089.960    90537174.01348
  23645168.520   124256137.66208  23645168.940    96822935.87946
 15 03 02 00 14 30.0000000  0  7G16G18G19G21G22G27G31
  21020380.440   110462852.06609  21020376.660    86074950.60248
  22335516.040   117374072.91609  22335513.120    91460350.00046
  24220963.000   127282023.38208  24220959.560    99180787.29745
  21838715.480   114763235.01608  21838712.180    89425888.24747
  23196588.700   121898959.78109  23196586.860    94986219.07047
  22099573.040   116134079.95409  22099572.740    90494107.69148
  23663799.480   124354043.14808  23663800.000    96899225.60046
 15 03 02 00 15  0.0000000  0  7G16G18G19G21G22G27G31
  21010358.440   110410186.20609  21010354.660    86033912.27548
  22327180.240   117330268.27809  22327177.320    91426216.54746
  24206230.900   127204605.40807  24206227.640    99120461.63445
  21849203.300   114818348.57008  21849199.960    89468833.86747
  23179725.960   121810346.23809  23179724.020    94917169.67546
  22089080.480   116078942.02809  22089080.340    90451143.08848
  23682442.880   124452013.90408  23682443.440    96975566.17746
 15 03 02 00 15 30.0000000  0  7G16G18G19G21G22G27G31
  21000404.900   110357879.90809  21000401.140    85993154.11948
  22318917.300   117286846.50809  22318914.420    91392381.43546
  24191515.780   127127277.00208  24191512.420    99060205.78445
  21859739.140   114873714.61508  21859735.800    89511976.23147
  23162886.320   121721854.23409  23162884.340    94848214.95347
  22078611.900   116023929.99109  22078611.920    90408276.58048
  23701097.200   124550041.88808  23701097.840    97051951.32646
 15 03 02 00 16  0.0000000  0  7G16G18G19G21G22G27G31
  20990520.920   110305939.05109  20990517.200    85952680.72448
  22310728.380   117243813.59009  22310725.560    91358849.32147
  24176818.520   127050042.20808  24176815.100    99000022.83145
  21870323.460   114929335.32108  21870320.160    89555317.05247
  23146071.020   121633490.04809  23146069.020    94779359.67547
  22068168.060   115969048.03009  22068168.280    90365511.43448
  23719762.800   124648128.82208  23719763.520    97128382.38446
 15 03 02 00 16 30.0000000  0  7G16G18G19G21G22G27G31
  20980706.680   110254364.79609  20980702.900    85912492.99248
  22302613.680   117201170.83809  22302610.940    91325621.23546
  24162138.700   126972899.77508  24162135.380    98939911.92545
  21880955.720   114985208.05108  21880952.440    89598854.24247
  23129280.520   121545255.99808  23129278.660    94710605.89246
  22057748.740   115914295.15309  22057749.140    90322846.87348
  23738438.860   124746270.63008  23738439.580    97204856.16746
 15 03 02 00 17  0.0000000  0  7G16G18G19G21G22G27G31
  20970961.640   110203154.03409  20970957.780    85872588.51148
  22294572.480   117158914.31509  22294569.780    91292694.10946
  24147475.500   126895844.54608  24147472.100    98879868.89445
  21891634.540   115041325.10308  21891631.160    89642581.81347
  23112514.280   121457149.25609  23112512.480    94641951.32147
  22047353.000   115859666.06709  22047353.520    90280278.77848
  23757123.820   124844459.32008  23757124.600    97281366.52246
 15 03 02 00 17 30.0000000  0  7G16G18G19G21G22G27G31
  20961286.960   110152313.24409  20961283.000    85832972.29948
  22286606.080   117117050.83109  22286603.440    91260073.24847
  24132829.720   126818881.18008  24132826.280    98819897.48745
  21902360.360   115097689.33708  21902356.800    89686501.99948
  23095773.700   121369177.43709  23095771.920    94573401.98347
  22036981.820   115805165.34809  22036982.400    90237810.68848
  23775817.920   124942696.02308  23775818.660    97357914.27446
 15 03 02 00 18  0.0000000  0  7G16G18G19G21G22G27G31
  20951683.280   110101845.79709  20951679.400    85793647.01548
  22278715.080   117075583.57809  22278712.480    91227761.12946
  24118201.640   126742010.85008  24118198.540    98759998.58045
  21913133.160   115154300.73609  21913129.580    89730614.76747
  23079059.600   121281344.82109  23079057.900    94504961.30947
  22026635.460   115750794.55709  22026636.020    90195443.85048
  23794520.860   125040979.52208  23794521.700    97434498.47746
 15 03 02 00 18 30.0000000  0  7G16G18G19G21G22G27G31
  20942149.820   110051747.32109  20942146.000    85754609.25848
  22270898.640   117034508.10309  22270896.060    91195754.29446
  24103590.220   126665227.36707  24103587.040    98700167.29845
  21923951.280   115211150.49209  21923947.720    89774913.28947
  23062371.220   121193648.04609  23062369.660    94436626.94647
  22016312.620   115696547.24109  22016313.060    90153173.22648
  23813230.980   125139300.48708  23813231.860    97511111.88046
 15 03 02 00 19  0.0000000  0  7G16G18G19G21G22G27G31
  20932688.260   110002026.48709  20932684.440    85715865.74748
  22263158.280   116993832.30709  22263155.680    91164058.90046
  24088996.500   126588537.07908  24088993.420    98640408.68045
  21934815.700   115268243.49108  21934812.140    89819401.33847
  23045710.140   121106095.72609  23045708.580    94368405.42847
  22006014.480   115642429.86609  22006014.820    90111003.86448
  23831948.940   125237662.50108  23831949.800    97587757.24346
 15 03 02 00 19 30.0000000  0  7G16G18G19G21G22G27G31
  20923298.240   109952681.92509  20923294.460    85677415.44148
  22255493.640   116953554.17109  22255490.960    91132673.36746
  24074419.980   126511936.63408  24074417.100    98580720.02845
  21945725.300   115325574.06808  21945721.760    89864074.51147
  23029076.120   121018686.13609  23029074.360    94300294.62847
  21995740.460   115588439.20109  21995740.700    90068933.22848
  23850673.500   125336059.34608  23850674.440    97664429.73146
 15 03 02 00 20  0.0000000  0  7G16G18G19G21G22G27G31
  20913980.460   109903716.89709  20913976.740    85639260.87448
  22247905.380   116913677.64009  22247902.680    91101600.77546
  24059860.900   126435427.37508  24059858.040    98521102.47645
  21956680.120   115383142.00708  21956676.520    89908932.64347
  23012470.100   120931423.99908  23012468.240    94232298.51647
  21985490.860   115534576.79009  21985491.060    90026962.53248
  23869404.480   125434489.78108  23869405.520    97741128.39046
 15 03 02 00 20 30.0000000  0  7G16G18G19G21G22G27G31
  20904735.320   109855133.63209  20904731.660    85601403.78448
  22240393.820   116874204.22809  22240391.080    91070842.29246
  24045319.140   126359009.42908  24045316.000    98461556.03945
  21967679.820   115440945.87009  21967676.140    89953974.61247
  22995892.740   120844312.20109  22995890.820    94164419.52247
  21975265.760   115480842.79609  21975265.760    89985091.90248
  23888141.220   125532950.57408  23888142.400    97817850.70346
 15 03 02 00 21  0.0000000  0  7G16G18G19G21G22G27G31
  20895563.220   109806934.08609  20895559.600    85563845.70748
  22232959.380   116835136.02509  22232956.540    91040399.57346
  24030794.780   126282683.12708  24030791.320    98402081.04145
  21978724.000   115498983.71708  21978720.360    89999198.90947
  22979344.720   120757354.14209  22979342.840    94096660.31547
  21965065.240   115427237.60909  21965064.960    89943321.64748
  23906883.320   125631439.45308  23906884.640    97894594.89946
 15 03 02 00 21 30.0000000  0  7G16G18G19G21G22G27G31
  20886464.640   109759120.90709  20886461.120    85526588.69048
  22225602.520   116796475.40109  22225599.560    91010274.43547
  24016287.960   126206448.57108  24016284.460    98342677.55345
  21989812.380   115557253.83908  21989808.680    90044604.20447
  22962826.520   120670552.44609  22962824.600    94029022.91847
  21954889.280   115373761.43209  21954888.740    89901651.90748
  23925630.220   125729953.54808  23925631.660    97971358.74246
 15 03 02 00 22  0.0000000  0  7G16G18G19G21G22G27G31
  20877439.540   109711693.99409  20877436.080    85489632.65848
  22218323.020   116758221.58109  22218320.060    90980466.29147
  24001798.120   126130303.79308  24001794.420    98283343.99945
  22000944.260   115615752.28208  22000940.440    90090187.40447
  22946338.300   120583907.90708  22946336.320    93961507.97647
  21944737.520   115320412.39609  21944736.680    89860081.24648
  23944381.060   125828488.21208  23944382.600    98048138.62146
 15 03 02 00 22 30.0000000  0  7G16G18G19G21G22G27G31
  20868488.580   109664656.64709  20868485.160    85452980.17648
  22211121.560   116720378.05209  22211118.680    90950977.85047
  23987325.600   126054250.11408  23987321.560    98224081.42045
  22012119.600   115674479.05808  22012115.780    90135948.52947
  22929880.760   120497424.48008  22929878.780    93894118.56347
  21934610.180   115267191.99809  21934609.120    89818610.81748
  23963135.500   125927041.85108  23963137.140    98124933.30846
 15 03 02 00 23  0.0000000  0  7G16G18G19G21G22G27G31
  20859613.280   109618016.74609  20859609.800    85416637.40248
  22203999.500   116682951.78409  22203996.640    90921814.55746
  23972871.380   125978293.31108  23972867.700    98164894.34445
  22023339.060   115733438.14708  22023335.360    90181890.68047
  22913455.540   120411110.84008  22913453.520    93826861.44747
  21924508.420   115214106.16109  21924507.200    89777245.24548
  23981894.080   126025617.38608  23981895.740    98201745.07946
 15 03 02 00 23 30.0000000  0  7G16G18G19G21G22G27G31
  20850812.500   109571768.69009  20850809.120    85380599.95848
  22196955.900   116645937.60609  22196953.040    90892972.35347
  23958434.240   125902426.32208  23958430.620    98105777.24845
  22034600.820   115792619.77508  22034597.260    90228006.22347
  22897061.820   120324962.46109  22897059.760    93759733.07347
  21914430.840   115161147.62109  21914429.520    89735978.86348
  24000654.840   126124204.66008  24000656.560    98278565.98846
 15 03 02 00 24  0.0000000  0  7G16G18G19G21G22G27G31
  20842086.900   109525915.64409  20842083.540    85344870.31248
  22189991.180   116609337.79709  22189988.320    90864453.06447
  23944014.360   125826649.97908  23944010.440    98046730.79745
  22045904.820   115852023.08808  22045901.440    90274294.52247
  22880700.180   120238982.74508  22880698.120    93692736.13847
  21904377.600   115108317.34109  21904376.240    89694812.43048
  24019417.480   126222801.87908  24019419.340    98355394.65446
 15 03 02 00 24 30.0000000  0  7G16G18G19G21G22G27G31
  20833436.660   109480458.45509  20833433.340    85309449.13348
  22183105.420   116573152.96609  22183102.600    90836257.12647
  23929611.580   125750963.03608  23929607.480    97987754.00945
  22057250.580   115911645.10708  22057247.040    90320753.24047
  22864371.020   120153173.66508  22864368.960    93625872.15747
  21894348.540   115055614.53509  21894347.180    89653745.32948
  24038181.220   126321404.87408  24038183.260    98432227.77246
 15 03 02 00 25  0.0000000  0  7G16G18G19G21G22G27G31
  20824862.720   109435402.14109  20824859.420    85274340.31348
  22176299.560   116537388.01409  22176296.700    90808388.34947
  23915226.400   125675368.63608  23915222.340    97928849.29845
  22068638.280   115971487.34608  22068634.700    90367383.56347
  22848075.400   120067540.93608  22848073.400    93559145.57047
  21884344.260   115003042.35909  21884342.980    89612780.01148
  24056946.180   126420013.93508  24056948.280    98509065.50646
 15 03 02 00 25 30.0000000  0  7G16G18G19G21G22G27G31
  20816365.240   109390747.63709  20816362.000    85239544.59848
  22169573.720   116502043.64109  22169570.820    90780847.31047
  23900858.680   125599865.81808  23900854.620    97870015.97945
  22080067.440   116031547.28608  22080063.840    90414183.51447
  22831813.720   119982086.43408  22831811.740    93492557.86847
  21874364.660   114950599.99509  21874363.540    89571915.84848
  24075711.700   126518625.41708  24075713.740    98585905.16746
 15 03 02 00 26  0.0000000  0  7G16G18G19G21G22G27G31
  20807944.640   109346497.22709  20807941.500    85205063.76148
  22162928.140   116467121.16409  22162925.240    90753635.01347
  23886508.500   125524454.88508  23886504.340    97811254.24946
  22091537.600   116091823.23608  22091534.040    90461151.78147
  22815586.440   119896812.90808  22815584.560    93426111.16947
  21864409.820   114898287.78809  21864408.800    89531153.09348
  24094477.180   126617236.72008  24094479.240    98662744.64446
 15 03 02 00 26 30.0000000  0  7G16G18G19G21G22G27G31
  20799601.420   109302653.47809  20799598.320    85170899.80348
  22156363.460   116432623.59509  22156360.580    90726753.81947
  23872175.900   125449136.70008  23872171.940    97752564.82646
  22103048.620   116152313.75508  22103045.160    90508287.24847
  22799394.240   119811723.72808  22799392.480    93359808.12947
  21854479.900   114846106.44009  21854479.000    89490492.32248
  24113242.180   126715845.39008  24113244.340    98739582.05546
 15 03 02 00 27  0.0000000  0  7G16G18G19G21G22G27G31
  20791335.660   109259216.63709  20791332.520    85137052.90848
  22149879.520   116398550.35009  22149876.560    90700203.25947
  23857860.600   125373909.31408  23857856.960    97693946.11146
  22114599.780   116213015.26908  22114596.320    90555587.12747
  22783237.360   119726819.97508  22783235.640    93293649.54747
  21844574.640   114794054.49609  21844573.780    89449932.37048
  24132005.860   126814447.18108  24132008.040    98816414.04046
 15 03 02 00 27 30.0000000  0  7G16G18G19G21G22G27G31
  20783148.340   109216192.27509  20783145.240    85103527.43548
  22143477.300   116364906.63809  22143474.340    90673987.39447
  23843563.300   125298776.49008  23843559.760    97635401.10646
  22126191.460   116273929.59909  22126187.840    90603052.83847
  22767117.020   119642108.05708  22767115.320    93227640.44247
  21834694.720   114742135.76309  21834693.900    89409476.22548
  24150768.360   126913042.84508  24150770.620    98893241.25046
 15 03 02 00 28  0.0000000  0  7G16G18G19G21G22G27G31
  20775039.580   109173580.45109  20775036.440    85070323.41248
  22137156.820   116331692.52809  22137153.880    90648106.30447
  23829283.540   125223736.38608  23829280.180    97576928.38046
  22137822.820   116335052.78908  22137819.140    90650681.29647
  22751033.360   119557588.65708  22751031.620    93161781.36047
  21824839.780   114690348.43909  21824839.040    89369122.48048
  24169528.880   127011627.89108  24169531.320    98970060.17146
 15 03 02 00 28 30.0000000  0  7G16G18G19G21G22G27G31
  20767009.880   109131383.85609  20767006.680    85037442.94248
  22130918.460   116298909.71409  22130915.540    90622561.26747
  23815021.560   125148789.61708  23815018.300    97518528.35146
  22149493.700   116396383.96208  22149490.040    90698471.80847
  22734987.060   119473265.30208  22734985.240    93096075.01747
  21815010.080   114638693.51409  21815009.420    89328871.89348
  24188287.020   127110199.98608  24188289.540    99046869.03545
 15 03 02 00 29  0.0000000  0  7G16G18G19G21G22G27G31
  20759058.620   109089599.58209  20759055.420    85004883.77648
  22124761.560   116266555.06009  22124758.640    90597349.88747
  23800776.560   125073931.76008  23800773.260    97460197.60546
  22161202.980   116457916.85108  22161199.400    90746419.52047
  22718977.700   119389136.18808  22718975.860    93030520.04647
  21805204.700   114587166.33509  21805204.100    89288720.85748
  24207041.280   127208751.83608  24207043.900    99123662.08045
 15 03 02 00 29 30.0000000  0  7G16G18G19G21G22G27G31
  20751187.160   109048234.63309  20751183.980    84972651.34848
  22118687.400   116234635.30709  22118684.520    90572477.36647
  23786549.380   124999167.45408  23786545.800    97401939.74945
  22172951.340   116519654.77308  22172947.780    90794526.98847
  22703006.800   119305208.87608  22703004.860    92965122.31347
  21795424.680   114535772.13009  21795424.120    89248673.42748
  24225792.160   127307285.85608  24225794.940    99200441.26046
 15 03 02 00 30  0.0000000  0  7G16G18G19G21G22G27G31
  20743395.420   109007288.58709  20743392.240    84940745.33048
  22112695.940   116203149.86509  22112693.040    90547943.26747
  23772339.680   124924494.57908  23772335.980    97343753.10445
  22184737.840   116581593.14908  22184734.260    90842790.65147
  22687074.420   119221483.88808  22687072.360    92899882.23247
  21785669.620   114484508.88609  21785669.080    89208728.05248
  24244538.600   127405796.76408  24244541.580    99277202.41546
 15 03 02 00 30 30.0000000  0  7G16G18G19G21G22G27G31
  20735684.180   108966765.32709  20735680.960    84909168.76648
  22106787.720   116172101.82809  22106784.740    90523750.02547
  23758147.840   124849915.47908  23758143.700    97285639.56045
  22196562.580   116643732.53008  22196558.920    90891210.93847
  22671181.420   119137965.85408  22671179.240    92834803.40447
  21775939.920   114433378.81509  21775939.440    89168886.45148
  24263280.620   127504284.05108  24263283.760    99353945.19045
 15 03 02 00 31  0.0000000  0  7G16G18G19G21G22G27G31
  20728053.780   108926666.95209  20728050.520    84877923.28548
  22100963.020   116141492.92009  22100960.020    90499898.95247
  23743973.700   124775430.08008  23743969.440    97227599.03746
  22208425.120   116706070.90608  22208421.460    90939786.29547
  22655328.340   119054657.55008  22655326.000    92769888.00348
  21766235.640   114382382.15409  21766235.160    89129148.80349
  24282017.620   127602744.76008  24282020.660    99430667.27046
 15 03 02 00 31 30.0000000  0  7G16G18G19G21G22G27G31
  20720504.440   108886994.51909  20720501.080    84847009.69348
  22095221.880   116111323.19409  22095218.840    90476390.08947
  23729817.080   124701037.49408  23729812.920    97169630.83946
  22220325.080   116768605.69608  22220321.340    90988514.71447
  22639515.620   118971561.19808  22639513.100    92705137.74647
  21756556.660   114331518.30309  21756556.140    89089514.64848
  24300748.800   127701175.28208  24300751.920    99507365.90345
 15 03 02 00 32  0.0000000  0  7G16G18G19G21G22G27G31
  20713036.700   108847751.22809  20713033.300    84816430.51148
  22089564.920   116081595.96509  22089562.020    90453226.03747
  23715678.220   124626739.01508  23715674.160    97111735.97746
  22232262.360   116831336.32908  22232258.540    91037395.72047
  22623743.880   118888680.32909  22623741.240    92640555.39247
  21746903.280   114280788.75509  21746902.640    89049985.13648
  24319474.000   127799574.68308  24319477.240    99584040.32546
 15 03 02 00 32 30.0000000  0  7G16G18G19G21G22G27G31
  20705650.620   108808937.07909  20705647.200    84786185.71948
  22083992.120   116052310.99209  22083989.280    90430406.60147
  23701557.080   124552533.06408  23701553.640    97053913.22346
  22244236.220   116894259.56108  22244232.540    91086426.80447
  22608013.340   118806016.13809  22608010.660    92576141.88847
  21737275.060   114230191.90209  21737274.340    89010559.03148
  24338192.300   127897938.06108  24338195.760    99660686.71245
 15 03 02 00 33  0.0000000  0  7G16G18G19G21G22G27G31
  20698346.200   108770552.05109  20698342.740    84756275.30248
  22078503.340   116023467.64309  22078500.560    90407931.28547
  23687453.380   124478417.96108  23687450.040    96996161.23546
  22256246.000   116957371.95908  22256242.500    91135605.28447
  22592324.260   118723569.57209  22592321.420    92511897.94747
  21727671.840   114179726.27209  21727671.100    88971235.16848
  24356902.940   127996261.25708  24356906.460    99737301.91746
 15 03 02 00 33 30.0000000  0  7G16G18G19G21G22G27G31
  20691123.960   108732599.03609  20691120.520    84726701.51848
  22073099.020   115995068.01209  22073096.260    90385801.72647
  23673367.300   124404394.94608  23673363.620    96938480.99446
  22268291.580   117020672.28508  22268288.140    91184930.20947
  22576677.280   118641344.40709  22576674.320    92447826.52847
  21718093.780   114129392.94109  21718093.020    88932014.40048
  24375605.400   128094542.05508  24375609.020    99813884.05845
 15 03 02 00 34  0.0000000  0  7G16G18G19G21G22G27G31
  20683984.880   108695082.92809  20683981.420    84697468.19348
  22067780.060   115967116.94909  22067777.280    90364021.69947
  23659299.320   124330466.79408  23659295.640    96880874.68546
  22280373.180   117084161.60908  22280369.760    91234402.40746
  22561073.500   118559346.50209  22561070.480    92383932.19447
  21708541.520   114079195.39209  21708540.780    88892899.43948
  24394299.860   128192781.00408  24394303.620    99890433.68845
 15 03 02 00 34 30.0000000  0  7G16G18G19G21G22G27G31
  20676928.620   108658001.96809  20676925.180    84668573.92748
  22062545.960   115939611.92509  22062543.200    90342589.22747
  23645248.740   124256629.78308  23645244.940    96823339.38046
  22292489.780   117147834.90508  22292486.340    91284017.94946
  22545512.720   118477574.36209  22545509.620    92320213.76747
  21699014.420   114029129.99909  21699013.720    88853887.44948
  24412985.040   128290971.57007  24412988.960    99966945.59845
 15 03 02 00 35  0.0000000  0  7G16G18G19G21G22G27G31
  20669956.420   108621362.69509  20669952.940    84640023.84348
  22057397.860   115912558.68709  22057395.120    90321508.80547
  23631216.360   124182888.70308  23631212.480    96765878.84346
  22304642.000   117211695.07608  22304638.580    91333779.11747
  22529996.360   118396035.63109  22529993.180    92256677.22348
  21689513.460   113979201.83109  21689512.780    88814982.39948
  24431661.420   128389115.91608  24431665.560   100043421.51346
 15 03 02 00 35 30.0000000  0  7G16G18G19G21G22G27G31
  20663068.280   108585165.15609  20663064.780    84611817.96348
  22052335.660   115885956.84609  22052332.920    90300780.11647
  23617201.820   124109242.16108  23617197.940    96708491.94646
  22316829.000   117275738.30708  22316825.600    91383682.92447
  22514524.620   118314731.49109  22514521.380    92193323.47648
  21680038.360   113929409.50009  21680037.580    88776183.18948
  24450328.060   128487209.36108  24450332.400   100119857.73145
 15 03 02 00 36  0.0000000  0  7G16G18G19G21G22G27G31
  20656264.080   108549408.88909  20656260.640    84583955.93448
  22047359.380   115859806.38909  22047356.620    90280403.15347
  23603204.840   124035687.84708  23603201.020    96651176.93746
  22329050.300   117339961.28808  22329046.840    91433726.80447
  22499097.620   118233662.56009  22499094.300    92130153.00048
  21670588.620   113879750.99709  21670587.820    88737488.26148
  24468984.140   128585247.35308  24468988.640   100196250.62145
 15 03 02 00 36 30.0000000  0  7G16G18G19G21G22G27G31
  20649544.540   108514097.74309  20649541.140    84556440.75848
  22042469.500   115834109.84909  22042466.740    90260379.89347
  23589225.780   123962227.91708  23589222.160    96593935.46746
  22341305.740   117404363.72108  22341302.280    91483910.51047
  22483716.200   118152833.02009  22483712.780    92067169.05648
  21661164.640   113830228.40209  21661163.920    88698899.24648
  24487629.440   128683228.42008  24487634.100   100272598.89046
 15 03 02 00 37  0.0000000  0  7G16G18G19G21G22G27G31
  20642909.220   108479229.28809  20642905.860    84529270.53148
  22037665.500   115808864.24109  22037662.700    90240708.01547
  23575263.920   123888857.91308  23575260.340    96536764.06446
  22353594.240   117468939.72508  22353590.640    91534229.46647
  22468380.020   118072241.55009  22468376.620    92004370.62848
  21651765.860   113780838.00209  21651765.140    88660413.23948
  24506262.840   128781146.14408  24506267.600   100348897.85146
 15 03 02 00 37 30.0000000  0  7G16G18G19G21G22G27G31
  20636359.200   108444808.76609  20636355.820    84502449.33948
  22032948.200   115784074.28409  22032945.360    90221391.18248
  23561319.980   123815581.65608  23561316.260    96479665.72446
  22365916.040   117533690.97108  22365912.380    91584684.97247
  22453090.280   117991894.30609  22453086.900    91941762.50748
  21642392.920   113731583.38209  21642392.200    88622033.02448
  24524884.400   128879001.21308  24524889.300   100425147.86446
 15 03 02 00 38  0.0000000  0  7G16G18G19G21G22G27G31
  20629895.200   108410840.33209  20629891.860    84475980.42648
  22028318.300   115759743.68209  22028315.400    90202432.28647
  23547394.360   123742401.70308  23547390.360    96422642.40646
  22378271.400   117598618.25408  22378267.520    91635277.66847
  22437848.120   117911796.82509  22437844.680    91879348.98748
  21633046.340   113682467.39009  21633045.600    88583760.83148
  24543494.080   128976793.83208  24543499.200   100501349.20245
 15 03 02 00 38 30.0000000  0  7G16G18G19G21G22G27G31
  20623517.760   108377326.53809  20623514.440    84449865.78148
  22023776.100   115735874.19409  22023773.160    90183832.70647
  23533487.080   123669319.04508  23533482.880    96365694.94646
  22390660.000   117663720.50008  22390656.060    91686006.68547
  22422654.100   117831952.02309  22422650.580    91817132.35948
  21623726.260   113633490.75909  21623725.500    88545597.22948
  24562091.580   129074521.70008  24562096.820   100577499.99946
 15 03 02 00 39  0.0000000  0  7G16G18G19G21G22G27G31
  20617225.720   108344261.54509  20617222.360    84424100.84748
  22019320.480   115712459.97409  22019317.600    90165587.87747
  23519596.880   123596325.82208  23519592.460    96308817.11446
  22403080.140   117728988.87608  22403076.200    91736865.15146
  22407507.300   117752355.27809  22407503.680    91755109.02648
  21614431.440   113584646.77909  21614430.700    88507536.98648
  24580674.960   129172174.78708  24580680.280   100653592.50744
 15 03 02 00 39 30.0000000  0  7G16G18G19G21G22G27G31
  20611020.580   108311653.28809  20611017.180    84398691.80948
  22014952.840   115689508.07609  22014950.000    90147703.29347
  23505725.020   123523428.69508  23505720.960    96252014.19546
  22415532.640   117794427.23408  22415528.660    91787856.08246
  22392409.340   117673015.31509  22392405.680    91693285.78848
  21605163.040   113535941.64409  21605162.320    88469584.94348
  24599244.820   129269756.91708  24599250.200   100729629.82846
 15 03 02 00 40  0.0000000  0  7G16G18G19G21G22G27G31
  20604902.560   108279502.55009  20604899.060    84373639.28648
  22010673.180   115667018.59509  22010670.400    90130179.04747
  23491871.260   123450626.44808  23491867.260    96195285.20446
  22428017.000   117860033.15908  22428013.080    91838977.57246
  22377360.580   117593933.84409  22377356.920    91631663.96048
  21595920.940   113487374.53009  21595920.260    88431740.44948
  24617800.460   129367264.42908  24617806.020   100805608.99746
 15 03 02 00 40 30.0000000  0  7G16G18G19G21G22G27G31
  20598871.520   108247808.94809  20598867.960    84348942.97148
  22006481.400   115644990.63909  22006478.620    90113014.41947
  23478035.320   123377917.17808  23478031.140    96138628.63646
  22440532.520   117925802.88408  22440528.700    91890226.70046
  22362361.100   117515111.41309  22362357.440    91570243.97348
  21586704.880   113438943.92309  21586704.200    88394002.31648
  24636340.980   129464692.51808  24636346.660   100881526.32944
 15 03 02 00 41  0.0000000  0  7G16G18G19G21G22G27G31
  20592928.140   108216576.08309  20592924.540    84324605.67848
  22002378.080   115623427.39709  22002375.280    90096211.91548
  23464217.460   123305302.96108  23464213.160    96082046.16646
  22453079.260   117991736.46408  22453075.520    91941603.51546
  22347411.860   117436552.85709  22347408.100    91509029.61148
  21577515.240   113390651.96009  21577514.620    88356372.22548
  24654866.220   129562040.63106  24654872.020   100957381.45144
 15 03 02 00 41 30.0000000  0  7G16G18G19G21G22G27G31
  20587073.000   108185806.96709  20587069.340    84300629.73548
  21998363.560   115602331.10809  21998360.740    90079773.26047
  23450417.700   123232784.99608  23450413.600    96025538.70646
  22465657.160   118057833.59508  22465653.380    91993107.77446
  22332513.480   117358261.75509  22332509.700    91448023.64348
  21568352.360   113342500.22809  21568351.740    88318851.40548
  24673375.980   129659307.79308  24673381.980   101033173.77945
 15 03 02 00 42  0.0000000  0  7G16G18G19G21G22G27G31
  20581304.400   108155492.58609  20581300.760    84277008.13548
  21994436.080   115581692.12409  21994433.240    90063690.94148
  23436634.140   123160352.99708  23436630.160    95969098.23046
  22478263.740   118124081.74708  22478259.860    92044729.70146
  22317664.560   117280230.47609  22317660.760    91387220.13148
  21559214.260   113294478.55809  21559213.660    88281431.93248
  24691867.460   129756479.23209                                
 15 03 02 00 42 30.0000000  0  6G16G18G19G21G22G27
  20575626.400   108125654.64209  20575622.900    84253757.79548
  21990599.540   115561531.00709  21990596.680    90047981.00247
  23422870.760   123088026.67508  23422866.660    95912740.07846
  22490902.540   118190498.97608  22490898.620    92096483.37847
  22302869.300   117202481.05709  22302865.460    91326636.25048
  21550104.720   113246607.01309  21550104.140    88244129.44048
 15 03 02 00 43  0.0000000  0  6G16G18G19G21G22G27
  20570036.680   108096280.54909  20570033.280    84230868.89848
  21986851.540   115541835.53109  21986848.760    90032633.88848
  23409124.940   123015792.35008  23409120.860    95856453.62546
  22503570.600   118257070.09408  22503566.720    92148356.97547
  22288125.560   117125002.41509  22288121.720    91266263.36648
  21541021.200   113198872.04509  21541020.560    88206933.37148
 15 03 02 00 43 30.0000000  0  6G16G18G19G21G22G27
  20564536.640   108067377.44709  20564533.240    84208346.99848
  21983193.380   115522611.88809  21983190.580    90017654.44747
  23395397.700   122943655.44608  23395393.440    95800243.06746
  22516268.600   118323798.53708  22516264.820    92200353.15646
  22273435.000   117047803.11909  22273431.140    91206108.14848
  21531964.700   113151279.40909  21531964.020    88169848.20448
 15 03 02 00 44  0.0000000  0  6G16G18G19G21G22G27
  20559125.940   108038943.65809  20559122.420    84186190.79148
  21979624.520   115503857.51809  21979621.700    90003040.66248
  23381688.420   122871612.71108  23381684.000    95744105.89446
  22528995.620   118390679.44908  22528992.040    92252468.13647
  22258797.320   116970881.90409  22258793.460    91146169.61148
  21522934.680   113103826.10709  21522933.980    88132871.61448
 15 03 02 00 44 30.0000000  0  6G16G18G19G21G22G27
  20553805.180   108010982.70809  20553801.580    84164403.03748
  21976145.520   115485575.44409  21976142.720    89988794.90748
  23367997.380   122799666.00008  23367993.080    95688043.56647
  22541751.560   118457712.69208  22541748.140    92304701.82647
  22244213.380   116894243.07909  22244209.480    91086451.12648
  21513931.500   113056514.23709  21513930.820    88096005.24048
 15 03 02 00 45  0.0000000  0  6G16G18G19G21G22G27
  20548574.320   107983494.27909  20548570.680    84142983.48148
  21972756.220   115467764.60509  21972753.360    89974916.35347
  23354324.440   122727813.66108  23354320.060    95632054.75946
  22554535.700   118524894.77908  22554532.400    92357051.48547
  22229683.340   116817887.35309  22229679.380    91026953.23348
  21504955.000   113009342.30909  21504954.300    88059247.89348
 15 03 02 00 45 30.0000000  0  6G16G18G19G21G22G27
  20543434.020   107956481.67609  20543430.320    84121934.69548
  21969457.180   115450427.95109  21969454.260    89961407.28947
  23340669.860   122656057.81208  23340665.160    95576141.14046
  22567348.380   118592225.99308  22567345.180    92409517.36846
  22215208.120   116741819.77209  22215204.120    90967679.86948
  21496005.580   112962312.70309  21496004.860    88022601.45548
 15 03 02 00 46  0.0000000  0  6G16G18G19G21G22G27
  20538384.320   107929945.34709  20538380.600    84101257.04048
  21966248.340   115433565.22309  21966245.340    89948267.51348
  23327033.360   122584397.29508  23327028.620    95520301.77646
  22580188.900   118659703.64908  22580185.680    92462097.34647
  22200787.960   116666041.43809  22200783.900    90908631.89448
  21487083.040   112915424.59109  21487082.240    87986065.27048
 15 03 02 00 46 30.0000000  0  6G16G18G19G21G22G27
  20533425.360   107903886.18309  20533421.680    84080951.19648
  21963129.720   115417176.47509  21963126.600    89935497.07248
  23313414.880   122512831.68908  23313410.120    95464536.39547
  22593056.880   118727325.31408  22593053.700    92514789.54247
  22186423.160   116590554.12209  22186419.020    90849810.67548
  21478187.360   112868677.69809  21478186.500    87949639.12248
 15 03 02 00 47  0.0000000  0  6G16G18G19G21G22G27
  20528558.860   107878312.69809  20528555.260    84061023.79848
  21960102.720   115401269.36509  21960099.540    89923101.94448
  23299815.520   122441367.43908  23299811.020    95408849.99346
  22605953.160   118795095.82308  22605950.100    92567597.72547
  22172115.600   116515367.36109  22172111.340    90791223.65848
  21469319.820   112822079.00409  21469319.040    87913328.46648
 15 03 02 00 47 30.0000000  0  6G16G18G19G21G22G27
  20523783.660   107853218.89409  20523780.160    84041470.17948
  21957166.140   115385837.55609  21957162.980    89911077.16848
  23286234.060   122369997.64908  23286229.860    95353237.20747
  22618876.140   118863006.40208  22618873.080    92620515.04047
  22157864.300   116440476.55509  22157860.040    90732867.25148
  21460479.160   112775621.61409  21460478.500    87877127.90248
 15 03 02 00 48  0.0000000  0  6G16G18G19G21G22G27
  20519100.660   107828609.71809  20519097.240    84022294.19249
  21954320.800   115370885.30409  21954317.680    89899426.07548
  23272671.280   122298726.11508  23272667.400    95297700.95547
  22631826.120   118931058.68008  22631823.040    92673542.77147
  22143670.400   116365887.38809  22143666.100    90674745.89248
  21451666.120   112729309.48809  21451665.520    87841040.55148
 15 03 02 00 48 30.0000000  0  6G16G18G19G21G22G27
  20514509.700   107804484.07109  20514506.260    84003494.98248
  21951566.380   115356410.76109  21951563.280    89888147.22448
  23259126.700   122227549.84408  23259123.140    95242238.96247
  22644802.320   118999248.48008  22644798.940    92726677.68946
  22129533.920   116291599.93409  22129529.580    90616859.62848
  21442880.280   112683140.29909  21442879.800    87805064.57048
 15 03 02 00 49  0.0000000  0  6G16G18G19G21G22G27
  20510010.860   107780842.54109  20510007.380    83985073.00748
  21948902.860   115342414.05309  21948899.780    89877240.71348
  23245600.340   122156468.63208  23245596.780    95186851.01546
  22657804.220   119067573.46108  22657800.800    92779917.92746
  22115455.180   116217616.06809  22115450.820    90559209.92848
  21434121.600   112637113.57709  21434121.240    87769199.60648
 15 03 02 00 49 30.0000000  0  6G16G18G19G21G22G27
  20505604.960   107757689.52009  20505601.500    83967031.68748
  21946330.880   115328898.30109  21946327.740    89866708.97948
  23232092.700   122085485.25508  23232088.900    95131539.32147
  22670832.000   119136034.40508  22670828.400    92833264.11746
  22101435.140   116143940.77809  22101430.840    90501800.66848
  21425390.720   112591232.66909  21425390.500    87733448.25448
 15 03 02 00 50  0.0000000  0  6G16G18G19G21G22G27
  20501292.120   107735025.78909  20501288.740    83949371.63248
  21943850.500   115315864.21009  21943847.440    89856552.55548
  23218603.580   122014599.48208  23218599.760    95076303.67347
  22683885.200   119204629.29708  22683881.600    92886714.67546
  22087474.260   116070576.21409  22087469.980    90444633.53648
  21416687.640   112545497.43309  21416687.420    87697810.41248
 15 03 02 00 50 30.0000000  0  6G16G18G19G21G22G27
  20497072.800   107712853.79109  20497069.560    83932094.75248
  21941462.020   115303312.97909  21941459.020    89846772.37648
  23205133.120   121943811.67908  23205129.500    95021144.37047
  22696963.760   119273357.61708  22696960.080    92940269.20246
  22073573.180   115997525.76109  22073568.860    90387711.15548
  21408012.500   112499909.03909  21408012.220    87662286.99048
 15 03 02 00 51  0.0000000  0  6G16G18G19G21G22G27
  20492946.880   107691172.20609  20492943.680    83915200.00248
  21939165.100   115291242.76109  21939162.080    89837367.03048
  23191681.040   121873119.77808  23191677.220    94966059.81147
  22710066.900   119342215.10108  22710063.300    92993924.38246
  22059731.800   115924789.13809  22059727.480    90331033.33348
  21399364.840   112454465.40509  21399364.520    87626876.37848
 15 03 02 00 51 30.0000000  0  6G16G18G19G21G22G27
  20488915.080   107669985.20609  20488912.020    83898690.64549
  21936960.360   115279656.97909  21936957.320    89828339.15748
  23178247.620   121802526.01208  23178243.660    94911051.70847
  22723194.720   119411202.42908  22723191.140    93047680.73946
  22045951.200   115852371.95909  22045946.900    90274604.41948
  21390745.320   112409169.65009  21390745.000    87591580.98748
 15 03 02 00 52  0.0000000  0  6G16G18G19G21G22G27
  20484977.460   107649293.19409  20484974.540    83882567.00148
  21934847.860   115268555.84809  21934844.780    89819688.94148
  23164832.920   121732030.66008  23164828.800    94856120.28347
  22736346.940   119480317.77508  22736343.360    93101536.83246
  22032231.680   115780275.98609  22032227.460    90218425.80048
  21382153.900   112364021.35209  21382153.560    87556400.50548
 15 03 02 00 52 30.0000000  0  6G16G18G19G21G22G27
  20481134.720   107629099.51909  20481131.860    83866831.66248
  21932828.000   115257941.59609  21932824.960    89811418.10548
  23151437.200   121661635.28008  23151432.820    94801266.76047
  22749523.420   119549560.63908  22749519.700    93155492.32146
  22018574.120   115708505.48409  22018569.940    90162500.78548
  21373590.960   112319022.75409  21373590.560    87521336.66448
 15 03 02 00 53  0.0000000  0  6G16G18G19G21G22G27
  20477386.900   107609404.23009  20477383.960    83851484.67149
  21930900.660   115247813.46909  21930897.620    89803526.06948
  23138060.160   121591338.77308  23138055.740    94746490.26647
  22762723.720   119618928.38708  22762719.980    93209545.09646
  22004978.700   115637061.41409  22004974.520    90106830.13448
  21365056.340   112274173.04409  21365055.920    87486388.84148
 15 03 02 00 53 30.0000000  0  6G16G18G19G21G22G27
  20473734.140   107590208.64109  20473731.160    83836527.05849
  21929065.920   115238171.95009  21929062.880    89796013.20748
  23124702.000   121521141.44408  23124697.740    94691791.07747
  22775947.500   119688419.47908  22775943.760    93263693.99247
  21991445.860   115565946.34009  21991441.760    90051415.83648
  21356550.100   112229472.65609  21356549.760    87451557.37448
 15 03 02 00 54  0.0000000  0  6G16G18G19G21G22G27
  20470176.040   107571510.53709  20470173.040    83821957.10449
  21927323.280   115229014.37809  21927320.220    89788877.44948
  23111362.060   121451039.54708  23111357.920    94637166.23647
  22789193.720   119758028.83408  22789189.980    93317935.04446
  21977975.380   115495158.74209  21977971.280    89996256.71848
  21348071.740   112184918.37909  21348071.360    87416839.76348
 15 03 02 00 54 30.0000000  0  6G16G18G19G21G22G27
  20466714.000   107553317.27509  20466710.980    83807780.53348
  21925673.960   115220347.40609  21925670.940    89782123.97248
  23098041.540   121381039.56008  23098037.540    94582620.82947
  22802463.260   119827760.78008  22802459.540    93372271.62346
  21964568.940   115424707.64009  21964564.840    89941359.81548
  21339622.480   112140516.90309  21339622.100    87382241.22148
 15 03 02 00 55  0.0000000  0  6G16G18G19G21G22G27
  20463348.100   107535629.01009  20463345.040    83793997.45448
  21924117.820   115212169.90609  21924114.860    89775751.90148
  23084740.140   121311140.41308  23084736.180    94528153.96947
  22815755.560   119897612.41108  22815751.940    93426701.44346
  21951226.740   115354594.24709  21951222.680    89886726.05548
  21331202.220   112096267.50009  21331201.700    87347761.17448
 15 03 02 00 55 30.0000000  0  6G16G18G19G21G22G27
  20460078.060   107518444.84709  20460075.000    83780607.19548
  21922654.540   115204480.42009  21922651.580    89769760.10848
  23071457.520   121241340.03408  23071453.540    94473764.07047
  22829070.080   119967580.43708  22829066.420    93481221.98646
  21937948.840   115284818.79809  21937944.800    89832355.62748
  21322810.600   112052168.51409  21322809.880    87313398.33048
 15 03 02 00 56  0.0000000  0  6G16G18G19G21G22G27
  20456903.860   107501764.51009  20456900.820    83767609.52648
  21921284.060   115197278.38409  21921281.100    89764148.14148
  23058193.440   121171637.23808  23058189.400    94419450.22347
  22842405.960   120037661.03008  22842402.400    93535830.23546
  21924735.440   115215382.18609  21924731.400    89778249.22548
  21314447.360   112008218.80809  21314446.400    87279151.80648
 15 03 02 00 56 30.0000000  0  6G16G18G19G21G22G27
  20453826.500   107485592.78509  20453823.440    83755008.17848
  21920007.060   115190567.52209  21920004.100    89758918.90548
  23044948.680   121102035.85408  23044944.560    94365215.39947
  22855763.920   120107857.34208  22855760.400    93590528.65646
  21911587.740   115146290.52709  21911583.640    89724411.62048
  21306113.260   111964422.63309  21306112.180    87245024.92648
 15 03 02 00 57  0.0000000  0  6G16G18G19G21G22G27
