     2.11           OBSERVATION DATA    G                   RINEX VERSION / TYPE
SPIDER V4,0,0,3554                      2015 03 16 00:30    PGM / RUN BY / DATE 
OLHC                                                        MARKER NAME         
OLHC                                                        MARKER NUMBER       
                                                            OBSERVER / AGENCY   
496563              LEICA GRX1200+GNSS  8.20/4.007          REC # / TYPE / VERS 
10401012            LEIAR25         NONE                    ANT # / TYPE        
  5213038.6056  -137570.4416  3660672.8464                  APPROX POSITION XYZ 
        0.0750        0.0000        0.0000                  ANTENNA: DELTA H/E/N
     1     1                                                WAVELENGTH FACT L1/2
     4    C1    L1    P2    L2                              # / TYPES OF OBSERV 
    30.000                                                  INTERVAL            
  2015    03    02    00    00    0.0000000     GPS         TIME OF FIRST OBS   
  2015    03    02    23    59   30.0000000     GPS         TIME OF LAST OBS    
    16                                                      LEAP SECONDS        
    30                                                      # OF SATELLITES     
   G 1   842   842   842   842                              PRN / # OF OBS      
   G 2   916   916   915   915                              PRN / # OF OBS      
   G 3   833   833   833   833                              PRN / # OF OBS      
   G 4   847   847   847   847                              PRN / # OF OBS      
   G 5   685   685   685   685                              PRN / # OF OBS      
   G 6   648   648   648   648                              PRN / # OF OBS      
   G 7   779   779   778   778                              PRN / # OF OBS      
   G 9   772   772   772   772                              PRN / # OF OBS      
   G10   796   796   795   795                              PRN / # OF OBS      
   G11   808   808   807   807                              PRN / # OF OBS      
   G12   802   802   801   801                              PRN / # OF OBS      
   G13   832   832   832   832                              PRN / # OF OBS      
   G14   926   926   926   926                              PRN / # OF OBS      
   G15   746   746   746   746                              PRN / # OF OBS      
   G16   705   705   705   705                              PRN / # OF OBS      
   G17   921   921   921   921                              PRN / # OF OBS      
   G18   947   946   944   944                              PRN / # OF OBS      
   G19   803   803   803   803                              PRN / # OF OBS      
   G20   809   809   809   809                              PRN / # OF OBS      
   G21   687   687   686   686                              PRN / # OF OBS      
   G22   811   805   800   800                              PRN / # OF OBS      
   G23   716   716   716   716                              PRN / # OF OBS      
   G24   844   835   832   832                              PRN / # OF OBS      
   G25   841   840   840   840                              PRN / # OF OBS      
   G27   842   841   841   841                              PRN / # OF OBS      
   G28   924   924   924   924                              PRN / # OF OBS      
   G29   717   717   717   717                              PRN / # OF OBS      
   G30   681   681   680   680                              PRN / # OF OBS      
   G31   720   720   718   718                              PRN / # OF OBS      
   G32   728   728   728   728                              PRN / # OF OBS      
BIT 2 OF LLI FLAGS DATA COLLECTED UNDER A/S CONDITION       COMMENT             
SNR is mapped to RINEX snr flag value [2-9]                 COMMENT             
Lx:     = 25dBHz -> 1; 26-27dBHz -> 2; 28-31dBHz -> 3       COMMENT             
       32-35dBHz -> 4; 36-38dBHz -> 5; 39-41dBHz -> 6       COMMENT             
       42-44dBHz -> 7; 45-48dBHz -> 8; >=49dBHz -> 9        COMMENT             
                                                            END OF HEADER       
 15 03 02 00 00  0.0000000  0  7G16G18G19G21G22G27G31
  21267110.100   111759431.24009  21267106.400    87085263.67248
  22755449.280   119580834.85809  22755447.340    93179933.63546
  24433205.060   128397360.79606  24433201.140   100049884.44543
  21656213.460   113804183.32109  21656209.920    88678574.40947
  23739121.280   124749980.09108  23739121.140    97207804.73845
  22246123.580   116904226.37209  22246122.880    91094220.43847
  23044998.280   121102241.82008  23044997.520    94365360.52446
 15 03 02 00 00 30.0000000  0  7G16G18G19G21G22G27G31
  21255718.800   111699569.31309  21255714.940    87038618.01248
  22745384.320   119527942.70809  22745382.220    93138719.04346
  24418166.620   128318334.13307  24418162.540    99988305.32344
  21665560.380   113853302.25908  21665556.860    88716848.90947
  23722182.180   124660966.51608  23722181.960    97138443.95745
  22235535.500   116848585.91209  22235534.800    91050864.24247
  23063212.840   121197960.21508  23063212.340    94439946.11947
 15 03 02 00 01  0.0000000  0  7G16G18G19G21G22G27G31
  21244381.940   111639993.42509  21244377.960    86992195.24348
  22735378.140   119475359.14709  22735375.840    93097744.90346
  24403148.000   128239410.75707  24403144.020    99926806.69445
  21674965.560   113902726.96808  21674962.040    88755361.68048
  23705249.200   124571985.70208  23705249.040    97069108.80646
  22224973.440   116793082.30609  22224972.760    91007614.69548
  23081455.820   121293827.37509  23081455.400    94514647.62047
 15 03 02 00 01 30.0000000  0  7G16G18G19G21G22G27G31
  21233101.600   111580714.70109  21233097.540    86946004.02848
  22725432.900   119423096.03509  22725430.400    93057020.46146
  24388150.780   128160599.85507  24388146.840    99865395.65944
  21684430.300   113952464.54909  21684426.800    88794118.23747
  23688324.600   124483049.46308  23688324.580    96999808.36345
  22214439.220   116737724.73509  22214438.540    90964478.94247
  23099728.420   121389849.35909  23099727.820    94589469.74246
 15 03 02 00 02  0.0000000  0  7G16G18G19G21G22G27G31
  21221877.260   111521730.44909  21221873.220    86900042.27348
  22715548.180   119371150.97409  22715545.440    93016543.86246
  24373173.960   128081896.60307  24373170.000    99804068.51845
  21693953.440   114002508.90108  21693949.920    88833113.83648
  23671408.020   124394155.47508  23671408.200    96930540.75946
  22203931.960   116682508.47009  22203931.200    90921453.30348
  23118029.180   121486018.93309  23118028.280    94664406.86847
 15 03 02 00 02 30.0000000  0  7G16G18G19G21G22G27G31
  21210709.300   111463042.47609  21210705.360    86854311.39248
  22705724.280   119319525.80009  22705721.300    92976316.52346
  24358217.480   128003300.74707  24358213.740    99742825.05245
  21703534.500   114052857.56708  21703530.900    88872346.56248
  23654500.060   124305306.21008  23654500.400    96861307.97846
  22193451.440   116627432.81509  22193450.620    90878537.22148
  23136357.320   121582332.51109  23136356.160    94739456.20547
 15 03 02 00 03  0.0000000  0  7G16G18G19G21G22G27G31
  21199598.360   111404654.24709  21199594.480    86808814.08048
  22695961.920   119268224.33109  22695958.760    92936341.41146
  24343281.760   127924813.90008  24343278.440    99681666.54745
  21713173.320   114103509.81608  21713169.680    88911815.85548
  23637601.440   124216505.71708  23637602.140    96792113.18646
  22182997.960   116572499.31509  22182997.060    90835731.90948
  23154712.460   121678788.56708  23154711.200    94814616.56947
 15 03 02 00 03 30.0000000  0  7G16G18G19G21G22G27G31
  21188543.860   111346562.57009  21188540.040    86763547.85248
  22686260.440   119217243.31109  22686257.240    92896616.00346
  24328365.900   127846430.74708  24328362.720    99620588.82746
  21722868.720   114154459.26609  21722865.040    88951516.72648
  23620711.700   124127751.62508  23620712.820    96722954.52346
  22172570.500   116517702.54609  22172569.520    90793033.15048
  23173093.000   121775378.90608  23173091.920    94889881.57047
 15 03 02 00 04  0.0000000  0  7G16G18G19G21G22G27G31
  21177546.400   111288770.49409  21177542.620    86718515.07448
  22676620.540   119166585.69409  22676617.400    92857142.58847
  24313470.040   127768152.23508  24313466.900    99559592.68546
  21732620.460   114205704.96109  21732616.800    88991448.43048
  23603831.560   124039047.45208  23603832.920    96653834.79346
  22162169.180   116463043.24009  22162168.280    90750441.50848
  23191498.660   121872101.71008  23191497.960    94965249.77947
 15 03 02 00 04 30.0000000  0  7G16G18G19G21G22G27G31
  21166607.140   111231284.46009  21166603.400    86673720.77248
  22667043.520   119116258.17709  22667040.400    92817926.39746
  24298594.980   127689982.74408  24298591.840    99498681.48145
  21742428.940   114257248.80008  21742425.220    89031612.46748
  23586962.400   123950400.28508  23586963.640    96584759.45346
  22151794.860   116408525.78109  22151794.100    90707960.38748
  23209929.700   121968957.87008  23209929.400    95040721.86646
 15 03 02 00 05  0.0000000  0  7G16G18G19G21G22G27G31
  21155726.420   111174106.18809  21155722.780    86629166.28648
  22657529.800   119066263.12009  22657526.680    92778969.27146
  24283740.660   127611922.10908  24283737.420    99437855.07846
  21752293.760   114309088.88208  21752290.020    89072007.33747
  23570104.560   123861812.62808  23570105.660    96515730.47046
  22141447.440   116354149.94609  22141446.800    90665589.62148
  23228385.860   122065944.97008  23228385.720    95116295.96247
 15 03 02 00 05 30.0000000  0  7G16G18G19G21G22G27G31
  21144904.760   111117238.61109  21144901.180    86584853.89148
  22648079.880   119016603.41609  22648076.760    92740273.45346
  24268907.180   127533971.13608  24268903.800    99377114.11146
  21762214.880   114361224.58809  21762211.140    89112632.55547
  23553258.740   123773288.35008  23553259.800    96446750.86846
  22131127.100   116299916.44509  22131126.460    90623329.75248
  23246866.660   122163060.59308  23246866.440    95191970.07047
 15 03 02 00 06  0.0000000  0  7G16G18G19G21G22G27G31
  21134142.580   111060683.45209  21134139.080    86540784.95248
  22638694.020   118967280.63809  22638690.940    92701840.18346
  24254094.460   127456129.74808  24254090.940    99316458.54246
  21772191.760   114413653.37808  21772188.000    89153486.16348
  23536425.380   123684829.39208  23536426.380    96377822.22146
  22120833.840   116245824.93309  22120833.160    90581180.53048
  23265371.460   122260301.59008  23265370.960    95267741.90346
 15 03 02 00 06 30.0000000  0  7G16G18G19G21G22G27G31
  21123439.940   111004440.94809  21123436.500    86496959.63548
  22629372.400   118918295.68109  22629369.320    92663670.14246
  24239302.280   127378396.13408  24239298.620    99255886.94746
  21782223.760   114466371.80709  21782220.020    89194565.46147
  23519604.660   123596437.10808  23519605.460    96308945.56246
  22110567.180   116191873.48909  22110566.620    90539140.46848
  23283899.240   122357663.45008  23283898.420    95343607.99446
 15 03 02 00 07  0.0000000  0  7G16G18G19G21G22G27G31
  21112797.420   110948514.17809  21112793.980    86453380.34248
  22620115.480   118869650.92609  22620112.440    92625765.17946
  24224530.660   127300770.87807  24224526.880    99195399.79445
  21792310.620   114519378.63209  21792306.900    89235869.48547
  23502797.280   123508115.22508  23502797.760    96240123.82646
  22100327.340   116138062.84509  22100326.800    90497210.10748
  23302449.520   122455143.96708  23302448.560    95419566.50346
 15 03 02 00 07 30.0000000  0  7G16G18G19G21G22G27G31
  21102215.560   110892906.03909  21102212.140    86410049.33448
  22610923.960   118821349.92509  22610921.000    92588128.09446
  24209779.780   127223254.93307  24209776.000    99134997.82445
  21802452.120   114572672.50609  21802448.380    89277397.17947
  23486003.780   123419866.46508  23486004.000    96171358.93246
  22090114.440   116084393.87209  22090113.840    90455390.14648
  23321021.920   122552740.88208  23321020.940    95495615.70746
 15 03 02 00 08  0.0000000  0  7G16G18G19G21G22G27G31
  21091694.420   110837616.97609  21091691.020    86366966.95548
  22601797.940   118773393.11509  22601795.140    92550759.20546
  24195049.360   127145846.91808  24195045.640    99074679.94845
  21812647.680   114626250.54109  21812643.920    89319146.30547
  23469224.480   123331692.35908  23469224.520    96102652.22146
  22079928.200   116030864.97709  22079927.580    90413679.32348
  23339615.640   122650449.89308  23339614.820    95571752.26746
 15 03 02 00 08 30.0000000  0  7G16G18G19G21G22G27G31
  21081234.100   110782647.73909  21081230.660    86324133.79048
  22592737.620   118725781.57609  22592734.980    92513659.35247
  24180339.300   127068545.69008  24180335.620    99014445.28846
  21822896.840   114680110.19009  21822893.080    89361114.86948
  23452459.680   123243594.39308  23452459.460    96034004.82446
  22069768.240   115977474.74208  22069767.760    90372076.56148
  23358229.880   122748266.66908  23358229.220    95647972.61547
 15 03 02 00 09  0.0000000  0  7G16G18G19G21G22G27G31
  21070835.260   110728001.68109  21070831.800    86281552.45248
  22583743.660   118678518.42309  22583741.080    92476830.97447
  24165649.780   126991352.30908  24165646.080    98954294.65146
  21833199.280   114734249.44909  21833195.440    89403301.30548
  23435710.180   123155576.59308  23435709.740    95965419.88547
  22059634.900   115924224.35909  22059634.560    90330582.77448
  23376864.380   122846189.90108  23376863.960    95724276.05047
 15 03 02 00 09 30.0000000  0  7G16G18G19G21G22G27G31
  21060497.680   110673677.52809  21060494.220    86239221.93248
  22574815.860   118631602.54409  22574813.240    92440273.18347
  24150980.180   126914263.47208  24150976.520    98894225.49346
  21843554.160   114788664.12309  21843550.220    89445702.33948
  23418975.860   123067638.37808  23418975.180    95896896.94246
  22049527.640   115871110.50409  22049527.320    90289195.36748
  23395517.780   122944213.24708  23395517.640    95800657.54447
 15 03 02 00 10  0.0000000  0  7G16G18G19G21G22G27G31
  21050222.800   110619682.55409  21050219.300    86197147.92648
  22565955.620   118585041.46109  22565952.860    92403991.87546
  24136331.540   126837284.44908  24136327.900    98834241.90845
  21853962.060   114843357.32809  21853958.020    89488320.43347
  23402258.100   122979787.68008  23402257.420    95828442.20546
  22039447.420   115818138.46109  22039447.000    90247918.47547
  23414190.640   123042339.10508  23414190.800    95877118.92646
 15 03 02 00 10 30.0000000  0  7G16G18G19G21G22G27G31
  21040011.080   110566019.58009  21040007.560    86155332.62148
  22557163.380   118538837.70709  22557160.520    92367988.99746
  24121703.980   126760416.13108  24121700.380    98774344.57346
  21864422.660   114898327.58509  21864418.540    89531154.40347
  23385557.640   122892028.27208  23385557.060    95760058.59346
  22029394.360   115765308.87509  22029393.720    90206752.57248
  23432882.660   123140565.35308  23432883.080    95953658.47747
 15 03 02 00 11  0.0000000  0  7G16G18G19G21G22G27G31
  21029862.460   110512688.32409  21029859.020    86113775.80448
  22548439.100   118492991.05409  22548436.160    92332264.38146
  24107096.920   126683655.83008  24107093.420    98714531.41546
  21874935.180   114953570.77209  21874930.940    89574201.04747
  23368874.640   122804360.31808  23368874.000    95691746.22746
  22019367.940   115712619.14909  22019367.080    90165695.65548
  23451592.880   123238886.53609  23451593.440    96030272.04047
 15 03 02 00 11 30.0000000  0  7G16G18G19G21G22G27G31
  21019777.980   110459693.88709  21019774.520    86072481.44448
  22539783.720   118447506.41809  22539780.700    92296821.85747
  24092511.000   126607006.98107  24092507.560    98654805.09047
  21885499.940   115009088.67409  21885495.640    89617461.75448
  23352210.220   122716789.49008  23352209.460    95623509.52746
  22009368.660   115660072.27609  22009367.740    90124750.05648
  23470321.300   123337302.46209  23470321.760    96106959.36747
 15 03 02 00 12  0.0000000  0  7G16G18G19G21G22G27G31
  21009757.200   110407034.34109  21009753.740    86031448.02548
  22531196.840   118402382.05609  22531193.920    92261660.06346
  24077945.540   126530465.64507  24077942.140    98595162.53445
  21896115.700   115064874.70909  21896111.400    89660931.39447
  23335564.180   122629314.85508  23335563.240    95555347.77546
  21999395.780   115607664.49809  21999394.880    90083912.84148
  23489066.620   123435806.95109  23489066.900    96183715.77846
 15 03 02 00 12 30.0000000  0  7G16G18G19G21G22G27G31
  20999801.120   110354714.68009  20999797.660    85990679.45648
  22522679.480   118357623.26109  22522676.720    92226783.13147
  24063401.120   126454034.85607  24063397.740    98535606.11446
  21906782.720   115120930.30409  21906778.480    89704611.08048
  23318937.440   122541941.98708  23318936.480    95487265.33646
  21989449.960   115555398.78009  21989449.080    90043186.32648
  23507828.760   123534400.11909  23507828.880    96260541.32246
 15 03 02 00 13  0.0000000  0  7G16G18G19G21G22G27G31
  20989908.940   110302731.25909  20989905.520    85950172.88948
  22514230.940   118313226.16509  22514228.300    92192188.02247
  24048876.540   126377708.58007  24048873.280    98476131.12846
  21917499.520   115177247.61809  21917495.360    89748494.69148
  23302329.540   122454667.80008  23302328.460    95419259.77946
  21979530.060   115503269.19309  21979529.260    90002565.88948
  23526605.920   123633073.06308  23526605.940    96337428.98846
 15 03 02 00 13 30.0000000  0  7G16G18G19G21G22G27G31
  20980081.640   110251088.64609  20980078.300    85909931.88948
  22505852.040   118269195.35509  22505849.520    92157878.33547
  24034372.480   126301489.45608  24034369.300    98416739.62146
  21928266.280   115233827.76809  21928262.200    89792583.11948
  23285741.420   122367497.52108  23285740.180    95351335.18447
  21969636.480   115451278.32909  21969635.900    89962053.55048
  23545397.980   123731825.55508  23545398.180    96414378.68446
 15 03 02 00 14  0.0000000  0  7G16G18G19G21G22G27G31
  20970319.840   110199789.99909  20970316.500    85869958.91348
  22497543.460   118225534.02209  22497541.040    92123856.56247
  24019889.220   126225378.99108  24019885.960    98357432.80046
  21939082.760   115290669.45809  21939078.780    89836875.35448
  23269173.920   122280435.37008  23269172.520    95283494.83546
  21959769.460   115399427.27009  21959768.980    89921650.13748
  23564204.620   123830655.85108  23564205.200    96491389.04846
 15 03 02 00 14 30.0000000  0  7G16G18G19G21G22G27G31
  20960623.780   110148836.59409  20960620.380    85830254.96848
  22489305.420   118182243.13109  22489303.000    92090123.44047
  24005426.420   126149375.80708  24005422.980    98298209.56946
  21949948.640   115347770.66509  21949944.760    89881369.80147
  23252627.260   122193483.07008  23252625.860    95215740.08946
  21949928.820   115347715.10409  21949928.380    89881354.95548
  23583025.280   123929560.10408  23583026.260    96568457.11246
 15 03 02 00 15  0.0000000  0  7G16G18G19G21G22G27G31
  20950994.680   110098234.73109  20950991.140    85790824.95248
  22481139.140   118139329.15809  22481136.580    92056684.01747
  23990984.860   126073484.21608  23990981.240    98239073.30746
  21960864.240   115405133.00909  21960860.460    89926067.72347
  23236102.800   122106647.56908  23236101.480    95148076.34846
  21940115.440   115296146.13509  21940115.120    89841171.36148
  23601860.460   124028539.88508  23601861.720    96645584.05046
 15 03 02 00 15 30.0000000  0  7G16G18G19G21G22G27G31
  20941432.500   110047984.72309  20941428.840    85751669.10248
  22473044.500   118096791.96409  22473041.920    92023538.18646
  23976564.260   125997702.75808  23976560.420    98180022.86346
  21971828.880   115462753.21109  21971825.260    89970966.57647
  23219600.860   122019930.13209  23219599.560    95080504.57446
  21930329.000   115244718.54509  21930328.760    89801097.93348
  23620709.260   124127590.11708  23620710.440    96722765.92146
 15 03 02 00 16  0.0000000  0  7G16G18G19G21G22G27G31
  20931936.840   109998084.64009  20931933.180    85712785.93548
  22465021.240   118054629.84509  22465018.720    91990684.62446
  23962163.900   125922027.67808  23962159.780    98121055.31946
  21982841.560   115520625.66909  21982837.980    90016062.01047
  23203121.180   121933329.57008  23203119.820    95013023.87246
  21920568.860   115193428.68709  21920568.500    89761131.83048
  23639570.400   124226704.55008  23639571.460    96799997.72346
 15 03 02 00 16 30.0000000  0  7G16G18G19G21G22G27G31
  20922508.740   109948540.12909  20922505.220    85674179.82548
  22457070.400   118012848.66309  22457068.000    91958127.90046
  23947784.360   125846462.31708  23947780.060    98062173.27845
  21993902.620   115578752.23909  21993899.060    90061355.43947
  23186664.880   121846852.30008  23186663.560    94945639.22346
  21910835.720   115142280.03409  21910835.140    89721275.74348
  23658443.860   124325883.70708  23658444.780    96877279.85346
 15 03 02 00 17  0.0000000  0  7G16G18G19G21G22G27G31
  20913148.740   109899353.58109  20913145.360    85635852.64648
  22449192.360   117971450.05609  22449190.080    91925869.27847
  23933425.660   125771006.99408  23933421.420    98003376.98046
  22005011.680   115637130.72509  22005008.060    90106845.16047
  23170232.580   121760501.13908  23170231.220    94878352.84047
  21901129.460   115091272.76809  21901128.780    89681529.84048
  23677329.000   124425124.73108  23677330.000    96954609.99846
 15 03 02 00 17 30.0000000  0  7G16G18G19G21G22G27G31
  20903857.160   109850526.05109  20903853.780    85597805.22848
  22441387.440   117930435.51009  22441385.280    91893909.93247
  23919087.680   125695660.99708  23919083.620    97944665.86246
  22016168.180   115695758.58309  22016164.540    90152529.21848
  23153824.680   121674278.26708  23153823.220    94811166.43746
  21891449.920   115040406.01309  21891449.220    89641893.43548
  23696225.180   124524424.30208  23696226.460    97031985.98346
 15 03 02 00 18  0.0000000  0  7G16G18G19G21G22G27G31
  20894634.100   109802058.28809  20894630.620    85560038.14548
  22433655.800   117889805.65509  22433653.640    91862250.33547
  23904770.240   125620422.89908  23904766.260    97886038.82446
  22027371.640   115754633.15209  22027367.980    90198405.50348
  23137441.420   121588185.13408  23137439.740    94744081.13847
  21881796.820   114989678.64909  21881796.220    89602365.63148
  23715131.680   124623778.56208  23715133.260    97109404.71947
 15 03 02 00 18 30.0000000  0  7G16G18G19G21G22G27G31
  20885480.320   109753954.65809  20885476.760    85522554.79048
  22425998.240   117849564.86809  22425996.040    91830893.90747
  23890473.800   125545295.30708  23890469.900    97827497.87846
  22038622.040   115813754.39009  22038618.340    90244473.98247
  23121083.780   121502226.66908  23121081.900    94677100.76046
  21872170.580   114939092.92309  21872170.160    89562948.19448
  23734048.500   124723186.64908  23734050.200    97186865.40046
 15 03 02 00 19  0.0000000  0  7G16G18G19G21G22G27G31
  20876395.820   109706215.26209  20876392.240    85485355.26948
  22418414.600   117809712.56609  22418412.320    91799840.20047
  23876197.940   125470276.05707  23876194.160    97769041.35946
  22049918.720   115873118.62409  22049914.920    90290731.82048
  23104751.920   121416403.37908  23104749.900    94610225.70547
  21862570.880   114888646.72209  21862570.540    89523639.48448
  23752974.820   124822643.60208  23752976.340    97264364.16646
 15 03 02 00 19 30.0000000  0  7G16G18G19G21G22G27G31
  20867381.500   109658844.76409  20867377.940    85448443.20348
  22410905.640   117770252.83809  22410903.260    91769092.39347
  23861943.180   125395367.69207  23861939.560    97710671.23646
  22061261.740   115932726.21508  22061257.860    90337179.29847
  23088446.980   121330721.09808  23088444.700    94543460.52046
  21852998.360   114838342.80509  21852997.920    89484441.64448
  23771910.620   124922149.13908  23771911.660    97341900.64045
 15 03 02 00 20  0.0000000  0  7G16G18G19G21G22G27G31
  20858437.320   109611842.85509  20858433.820    85411818.33948
  22403471.440   117731186.13009  22403469.060    91738650.83647
  23847709.120   125320568.12108  23847705.720    97652385.87346
  22072650.300   115992573.37309  22072646.380    90383813.45147
  23072169.000   121245180.43208  23072166.520    94476805.67146
  21843452.600   114788179.08809  21843451.980    89445353.05348
  23790854.900   125021698.87808  23790855.440    97419471.69446
 15 03 02 00 20 30.0000000  0  7G16G18G19G21G22G27G31
  20849563.720   109565211.61909  20849560.260    85375482.31148
  22396112.300   117692513.92709  22396109.980    91708516.68347
  23833495.820   125245877.38508  23833492.560    97594185.31046
  22084084.120   116052658.55809  22084080.220    90430633.06747
  23055918.500   121159783.95909  23055915.940    94410263.17747
  21833933.500   114738155.58009  21833932.640    89406373.71548
  23809806.860   125121289.63308  23809807.020    97497074.82245
 15 03 02 00 21  0.0000000  0  7G16G18G19G21G22G27G31
  20840761.060   109518953.31609  20840757.640    85339436.88048
  22388828.700   117654238.66009  22388826.380    91678691.83947
  23819303.340   125171296.10908  23819300.180    97536070.06846
  22095562.920   116112980.09608  22095559.080    90477636.86547
  23039696.200   121074535.35509  23039693.560    94343835.90246
  21824441.260   114688272.89509  21824440.060    89367504.10648
  23828765.900   125220919.02508  23828766.080    97574708.00246
 15 03 02 00 21 30.0000000  0  7G16G18G19G21G22G27G31
  20832029.340   109473067.88809  20832025.940    85303682.00448
  22381620.540   117616360.10209  22381618.240    91649176.11046
  23805131.200   125096821.70208  23805128.260    97478038.10046
  22107085.880   116173533.59408  22107082.080    90524821.40747
  23023502.060   120989434.62209  23023499.320    94277523.84446
  21814975.160   114638528.51109  21814973.920    89328742.27348
  23847731.000   125320581.66408  23847731.580    97652367.05546
 15 03 02 00 22  0.0000000  0  7G16G18G19G21G22G27G31
  20823369.080   109427558.17509  20823365.720    85268219.87948
  22374488.280   117578880.49509  22374485.980    91619971.25046
  23790979.700   125022455.17008  23790976.700    97420090.18346
  22118652.800   116234318.04508  22118649.020    90572185.90847
  23007336.760   120904485.52109  23007334.020    94211329.93147
  21805535.560   114588923.48009  21805534.400    89290089.01148
  23866701.920   125420275.39308  23866702.980    97730050.08846
 15 03 02 00 22 30.0000000  0  7G16G18G19G21G22G27G31
  20814780.600   109382425.59709  20814777.240    85233051.63548
  22367432.280   117541801.53809  22367429.980    91591078.58947
  23776848.820   124948196.02708  23776845.440    97362225.94346
  22130263.300   116295331.57109  22130259.520    90619728.92047
  22991200.640   120819690.19709  22991198.040    94145255.85047
  21796122.420   114539457.34009  21796121.380    89251543.97348
  23885678.360   125519997.71308  23885679.900    97807755.68546
 15 03 02 00 23  0.0000000  0  7G16G18G19G21G22G27G31
  20806264.940   109337675.49909  20806261.580    85198181.42248
  22360453.460   117505127.69409  22360451.100    91562501.60047
  23762738.980   124874047.48408  23762735.320    97304447.90146
  22141917.600   116356575.59908  22141913.840    90667451.53547
  22975094.900   120735054.83709  22975092.420    94079306.40147
  21786736.360   114490133.42409  21786735.460    89213109.76948
  23904660.320   125619748.57808  23904662.220    97885483.50945
 15 03 02 00 23 30.0000000  0  7G16G18G19G21G22G27G31
  20797822.100   109293307.92609  20797818.700    85163609.28548
  22353552.000   117468859.56209  22353549.460    91534240.75147
  23748649.920   124800008.16508  23748646.000    97246754.97846
  22153614.960   116418046.00308  22153611.220    90715350.55147
  22959019.720   120650580.64109  22959017.360    94013482.52847
  21777377.140   114440950.10009  21777376.300    89174785.11948
  23923646.960   125719523.65108  23923649.080    97963230.23947
 15 03 02 00 24  0.0000000  0  7G16G18G19G21G22G27G31
  20789452.300   109249324.31409  20789448.900    85129336.34748
  22346727.940   117432997.75509  22346725.160    91506296.52146
  23734581.540   124726077.18108  23734577.180    97189146.45445
  22165354.900   116479740.21208  22165351.260    90763423.96247
  22942975.480   120566269.30708  22942973.260    93947785.57546
  21768044.540   114391906.52509  21768043.720    89136569.37348
  23942637.460   125819319.20808  23942639.680    98040992.86546
 15 03 02 00 24 30.0000000  0  7G16G18G19G21G22G27G31
  20781156.480   109205729.37609  20781153.080    85095366.27148
  22339982.020   117397546.81809  22339979.060    91478672.45347
  23720534.160   124652257.16208  23720529.540    97131624.40046
  22177137.580   116541659.14408  22177134.080    90811672.48747
  22926963.400   120482126.75408  22926961.180    93882220.13547
  21758739.060   114343005.75309  21758738.180    89098464.89648
  23961631.760   125919135.36408  23961634.120    98118771.56246
 15 03 02 00 25  0.0000000  0  7G16G18G19G21G22G27G31
  20772935.520   109162527.65509  20772932.020    85061702.58548
  22333315.060   117362511.28109  22333311.980    91451372.06347
  23706508.260   124578550.79108  23706503.660    97074190.89945
  22188963.200   116603803.80608  22188959.860    90860096.89347
  22910984.540   120398158.26008  22910982.180    93816790.31946
  21749461.220   114294250.43509  21749460.260    89060473.74348
  23980629.880   126018972.04607  23980632.340    98196566.25646
 15 03 02 00 25 30.0000000  0  7G16G18G19G21G22G27G31
  20764788.780   109119715.84309  20764785.120    85028342.72948
  22326726.340   117327887.65209  22326723.240    91424392.63547
  23692502.920   124504952.88208  23692498.620    97016841.92446
  22200830.540   116666167.41108  22200827.360    90908691.90647
  22895038.420   120314361.49409  22895035.900    93751494.32147
  21740209.980   114245635.44009  21740209.040    89022591.93948
  23999630.400   126118821.20708  23999632.940    98274370.70946
 15 03 02 00 26  0.0000000  0  7G16G18G19G21G22G27G31
  20756716.280   109077294.30409  20756712.520    84995286.98648
  22320215.860   117293675.42209  22320212.800    91397733.78647
  23678517.920   124431461.81508  23678513.800    96959576.19046
  22212738.900   116728746.33908  22212735.780    90957454.71147
  22879125.180   120230737.37109  22879122.520    93686332.84547
  21730985.080   114197159.10609  21730984.220    88984818.18148
  24018632.660   126218678.33408  24018635.140    98352181.34947
 15 03 02 00 26 30.0000000  0  7G16G18G19G21G22G27G31
  20748719.280   109035269.71409  20748715.520    84962540.55148
  22313785.020   117259881.79909  22313782.060    91371401.11847
  23664554.160   124358082.59208  23664550.080    96902397.59746
  22224688.780   116791543.26908  22224685.600    91006387.38447
  22863246.260   120147293.40309  22863243.540    93621311.72947
  21721787.620   114148826.22209  21721786.860    88947156.20048
  24037636.980   126318545.00708  24037639.140    98429999.36646
 15 03 02 00 27  0.0000000  0  7G16G18G19G21G22G27G31
  20740797.580   108993640.89509  20740793.840    84930102.50948
  22307433.480   117226504.80209  22307430.600    91345393.08947
  23650611.080   124284811.80508  23650606.980    96845303.50746
  22236679.200   116854553.19108  22236675.940    91055486.02447
  22847401.480   120064029.34208  22847398.840    93556430.81147
  21712616.940   114100633.81609  21712616.380    88909603.69248
  24056642.240   126418415.77708  24056644.060    98507820.59345
 15 03 02 00 27 30.0000000  0  7G16G18G19G21G22G27G31
  20732951.100   108952407.56609  20732947.440    84897972.65348
  22301161.180   117193543.92409  22301158.360    91319709.32247
  23636688.340   124211647.44708  23636684.200    96788292.36146
  22248709.440   116917772.07509  22248706.120    91104747.49647
  22831590.980   119980945.81008  22831588.520    93491690.56847
  21703472.700   114052579.83809  21703472.180    88872159.05248
  24075647.280   126518285.29808  24075648.920    98585640.71946
 15 03 02 00 28  0.0000000  0  7G16G18G19G21G22G27G31
  20725180.960   108911575.52509  20725177.400    84866155.48548
  22294969.200   117161005.00409  22294966.380    91294354.34947
  23622786.640   124138593.39708  23622782.560    96731367.16446
  22260779.800   116981201.68209  22260776.380    91154173.16247
  22815816.080   119898049.21509  22815813.720    93427095.96247
  21694355.480   114004668.17109  21694354.900    88834825.29448
  24094652.260   126618154.83808  24094653.880    98663460.74645
 15 03 02 00 28 30.0000000  0  7G16G18G19G21G22G27G31
  20717487.480   108871146.49109  20717484.000    84834652.33948
  22288857.640   117128888.85209  22288854.840    91269328.80747
  23608905.820   124065649.24508  23608901.860    96674527.61746
  22272889.900   117044840.14908  22272886.380    91203761.58047
  22800077.340   119815342.20908  22800074.900    93362649.10047
  21685265.220   113956898.74309  21685264.580    88797602.37148
  24113656.440   126718021.18508  24113658.320    98741278.20645
 15 03 02 00 29  0.0000000  0  7G16G18G19G21G22G27G31
  20709871.200   108831123.03409  20709867.760    84803465.23248
  22282826.980   117097197.90109  22282824.160    91244634.58447
  23595046.200   123992816.08808  23595042.220    96617774.53447
  22285039.580   117108686.68308  22285035.980    91253512.12447
  22784375.480   119732828.50409  22784372.800    93298352.86047
  21676202.160   113909272.34609  21676201.440    88760490.89448
  24132659.520   126817882.72908  24132661.860    98819091.94246
 15 03 02 00 29 30.0000000  0  7G16G18G19G21G22G27G31
  20702332.480   108791506.60709  20702329.040    84772595.29948
  22276877.460   117065933.37809  22276874.620    91220272.65047
  23581207.500   123920093.05308  23581203.440    96561107.27947
  22297228.400   117172739.03108  22297224.740    91303423.03447
  22768710.900   119650510.14709  22768707.860    93234208.83547
  21667166.200   113861788.56809  21667165.420    88723490.56848
  24151661.000   126917736.18308  24151663.780    98896899.28346
 15 03 02 00 30  0.0000000  0  7G16G18G19G21G22G27G31
  20694871.860   108752300.35109  20694868.400    84742044.96548
  22271009.620   117035098.38509  22271006.860    91196245.40347
  23567390.000   123847481.59008  23567385.960    96504526.97146
  22309456.160   117236996.21208  22309452.520    91353493.55247
  22753084.280   119568391.29409  22753080.840    93170220.26447
  21658157.700   113814448.88809  21658156.860    88686602.51348
  24170660.740   127017579.92608  24170664.000    98974698.95145
 15 03 02 00 30 30.0000000  0  7G16G18G19G21G22G27G31
  20687489.180   108713503.51709  20687485.660    84711813.66448
  22265223.180   117004691.43609  22265220.580    91172551.70647
  23553593.260   123774979.32608  23553589.080    96448031.75246
  22321722.120   117301454.07008  22321718.460    91403720.45247
  22737495.480   119486471.99709  22737491.760    93106387.19547
  21649176.220   113767250.87709  21649175.400    88649824.85748
  24189657.900   127117408.60708  24189661.220    99052486.74846
 15 03 02 00 31  0.0000000  0  7G16G18G19G21G22G27G31
  20680184.800   108675118.29909  20680181.180    84681903.10748
  22259518.520   116974714.39409  22259516.000    91149192.99447
  23539817.220   123702586.32308  23539813.000    96391621.66647
  22334025.880   117366110.67508  22334022.180    91454102.22347
  22721945.080   119404755.20209  22721941.300    93042711.91847
  21640221.720   113720194.77709  21640220.980    88613157.77948
  24208651.960   127217219.62208  24208655.140    99130260.73146
 15 03 02 00 31 30.0000000  0  7G16G18G19G21G22G27G31
  20672959.260   108637147.67009  20672955.540    84652315.60448
  22253896.100   116945169.33409  22253893.680    91126170.89047
  23526062.100   123630303.57808  23526058.020    96335297.47846
  22346367.320   117430965.38608  22346363.620    91504638.35547
  22706433.900   119323245.05909  22706430.300    92979197.65847
  21631294.480   113673281.84309  21631293.900    88576602.25548
  24227642.480   127317011.24808  24227645.300    99208019.55745
 15 03 02 00 32  0.0000000  0  7G16G18G19G21G22G27G31
  20665812.240   108599590.01109  20665808.460    84623049.88948
  22248355.700   116916054.78409  22248353.260    91103484.25647
  23512327.340   123558127.60208  23512323.380    96279056.48746
  22358745.400   117496012.76109  22358741.700    91555324.60947
  22690961.680   119241940.34809  22690958.580    92915843.47747
  21622393.840   113626508.64309  21622393.320    88540155.61148
  24246628.280   127416777.70408  24246630.780    99285758.71846
 15 03 02 00 32 30.0000000  0  7G16G18G19G21G22G27G31
  20658744.740   108562450.51509  20658741.000    84594110.02848
  22242898.300   116887375.82509  22242895.760    91081137.05447
  23498613.600   123486062.06908  23498609.660    96222901.59246
  22371160.580   117561254.75409  22371156.860    91606162.52847
  22675529.900   119160847.51309  22675527.160    92852654.39647
  21613520.540   113579878.75109  21613519.880    88503820.64748
  24265609.400   127516519.63108  24265611.700    99363478.80346
 15 03 02 00 33  0.0000000  0  7G16G18G19G21G22G27G31
  20651756.800   108525729.31009  20651753.160    84565496.10248
  22237523.820   116859132.00409  22237521.000    91059128.90647
  23484920.660   123414105.31508  23484916.560    96166831.42846
  22383612.160   117626688.02608  22383608.400    91657149.49747
  22660138.920   119079967.65909  22660136.260    92789631.26847
  21604674.260   113533390.75009  21604673.360    88467596.24848
  24284584.900   127616232.59108  24284587.200    99441176.26646
 15 03 02 00 33 30.0000000  0  7G16G18G19G21G22G27G31
  20644849.340   108489430.77809  20644845.820    84537211.53248
  22232232.860   116831326.97809  22232229.780    91037462.68346
  23471249.000   123342260.15408  23471244.800    96110848.25246
  22396100.160   117692312.83509  22396096.400    91708285.71047
  22644789.620   118999306.14609  22644786.860    92726778.28047
  21595855.420   113487047.13009  21595854.300    88431484.35448
  24303554.740   127715916.26008  24303557.300    99518850.87146
 15 03 02 00 34  0.0000000  0  7G16G18G19G21G22G27G31
  20638023.180   108453559.02309  20638019.680    84509259.50748
  22227026.200   116803964.90409  22227022.900    91016141.60547
  23457598.940   123270528.50008  23457594.640    96054953.50146
  22408624.620   117758129.46408  22408620.880    91759571.38047
  22629482.960   118918868.04309  22629479.920    92664099.35847
  21587064.560   113440850.53909  21587063.340    88395487.02048
  24322518.900   127815570.28108  24322521.880    99596502.38845
 15 03 02 00 34 30.0000000  0  7G16G18G19G21G22G27G31
  20631277.580   108418110.18509  20631274.000    84481637.03648
  22221902.920   116777041.20309  22221899.460    90995162.13147
  23443969.400   123198904.54708  23443964.900    95999142.66646
  22421184.240   117824130.73809  22421180.540    91811000.95147
  22614218.120   118838649.84009  22614214.760    92601591.79647
  21578300.500   113394795.15109  21578299.320    88359599.71948
  24341475.860   127915186.12008  24341479.260    99674124.10345
 15 03 02 00 35  0.0000000  0  7G16G18G19G21G22G27G31
  20624613.160   108383087.93609  20624609.480    84454346.95948
  22216863.560   116750558.81909  22216860.040    90974526.52147
  23430360.780   123127390.19608  23430356.060    95943417.22846
  22433779.000   117890316.67008  22433775.320    91862574.39847
  22598995.900   118758656.36309  22598992.240    92539259.33847
  21569563.700   113348883.11509  21569562.600    88323824.10248
  24360425.480   128014763.06208  24360429.320    99751715.49545
 15 03 02 00 35 30.0000000  0  7G16G18G19G21G22G27G31
  20618030.340   108348494.95909  20618026.640    84427391.40148
  22211908.580   116724520.09209  22211904.980    90954236.63547
  23416773.160   123055986.63408  23416768.420    95887778.14547
  22446408.660   117956686.05208  22446405.040    91914290.80647
  22583817.040   118678891.44709  22583813.120    92477104.98047
  21560854.420   113303115.57409  21560853.380    88288161.09148
  24379367.340   128114299.18608  24379371.540    99829275.06046
 15 03 02 00 36  0.0000000  0  7G16G18G19G21G22G27G31
  20611529.100   108314331.19109  20611525.500    84400770.27948
  22207038.100   116698925.44709  22207034.520    90934292.78247
  23403206.280   122984691.97308  23403201.520    95832223.90646
  22459072.680   118023235.97608  22459069.120    91966147.88447
  22568681.720   118599356.19609  22568677.680    92415129.57247
  21552172.260   113257490.87209  21552171.280    88252609.38648
  24398300.680   128213790.47608  24398305.140    99906799.58445
 15 03 02 00 36 30.0000000  0  7G16G18G19G21G22G27G31
  20605110.160   108280600.04609  20605106.720    84374486.28448
  22202252.500   116673777.05209  22202249.000    90914696.66147
  23389660.400   122913507.92208  23389655.640    95776755.85147
  22471770.920   118089965.65708  22471767.380    92018145.04847
  22553590.780   118520054.37409  22553586.740    92353336.06747
  21543517.520   113212010.56109  21543516.580    88217170.20148
  24417225.180   128313235.20308  24417230.060    99984287.75845
 15 03 02 00 37  0.0000000  0  7G16G18G19G21G22G27G31
  20598774.500   108247306.16409  20598771.180    84348543.00448
  22197552.540   116649079.10809  22197549.220    90895451.53247
  23376136.000   122842437.08508  23376131.400    95721376.02147
  22484503.560   118156876.25308  22484500.060    92070283.17047
  22538545.400   118440991.77909  22538541.560    92291728.97447
  21534890.880   113166677.93709  21534889.960    88181846.08948
  24436141.060   128412633.69008  24436146.240   100061739.88145
 15 03 02 00 37 30.0000000  0  7G16G18G19G21G22G27G31
  20592522.000   108214448.80309  20592518.640    84322939.86548
  22192938.020   116624830.35609  22192934.880    90876556.42847
  23362632.640   122771477.23008  23362628.300    95666082.65647
  22497269.740   118223963.44408  22497266.360    92122558.89747
  22523545.660   118362168.61709  22523542.000    92230308.44747
  21526291.920   113121490.52309  21526291.040    88146635.12348
  24455047.400   128511981.12808  24455052.640   100139152.29045
 15 03 02 00 38  0.0000000  0  7G16G18G19G21G22G27G31
  20586352.700   108182028.36109  20586349.180    84297677.17748
  22188408.900   116601030.83909  22188406.020    90858011.37047
  23349150.200   122700627.22308  23349146.020    95610874.89247
  22510068.940   118291224.23208  22510065.720    92174969.89547
  22508591.920   118283586.71909  22508588.340    92169075.91447
  21517720.460   113076447.31709  21517719.580    88111536.52748
  24473943.480   128611274.15908  24473948.520   100216522.55045
 15 03 02 00 38 30.0000000  0  7G16G18G19G21G22G27G31
  20580266.860   108150046.86609  20580263.260    84272756.52648
  22183965.540   116577681.87309  22183962.900    90839817.38747
  23335688.780   122629887.45708  23335684.660    95555753.01047
  22522900.840   118358656.96108  22522897.760    92227514.85647
  22493684.640   118205248.54409  22493681.080    92108033.29347
  21509176.500   113031548.41809  21509175.640    88076550.37648
  24492828.560   128710510.25908  24492833.560   100293848.80445
 15 03 02 00 39  0.0000000  0  7G16G18G19G21G22G27G31
  20574265.100   108118507.35209  20574261.480    84248180.28549
  22179608.540   116554786.52209  22179606.040    90821976.87047
  23322248.580   122559258.88108  23322244.540    95500717.78147
  22535765.480   118426261.68108  22535762.540    92280193.85247
  22478824.560   118127158.34109  22478821.060    92047183.90147
  21500660.440   112986795.93709  21500659.620    88041678.31948
  24511702.220   128809687.82608  24511707.160   100371129.63245
 15 03 02 00 39 30.0000000  0  7G16G18G19G21G22G27G31
  20568347.400   108087409.41309  20568343.760    84223948.11748
  22175337.700   116532343.56109  22175335.260    90804488.86947
  23308829.300   122488739.83408  23308825.220    95445767.90546
  22548661.980   118494033.88908  22548659.140    92333003.35347
  22464011.700   118049316.54409  22464008.280    91986528.06547
  21492171.800   112942187.66709  21492171.000    88006918.63648
  24530563.500   128908801.34308  24530568.520   100448360.29846
 15 03 02 00 40  0.0000000  0  7G16G18G19G21G22G27G31
  20562514.580   108056757.53809  20562510.900    84200063.52848
  22171153.800   116510356.87909  22171151.320    90787356.41147
  23295431.340   122418332.79008  23295427.040    95390905.30447
  22561590.620   118561974.80308  22561587.820    92385944.32147
  22449247.140   117971728.66709  22449243.700    91926070.08847
  21483711.180   112897726.39309  21483710.300    87972273.49848
  24549412.560   129007851.56708  24549417.900   100525541.73445
 15 03 02 00 40 30.0000000  0  7G16G18G19G21G22G27G31
  20556766.720   108026552.18509  20556762.980    84176526.88548
  22167056.840   116488826.48309  22167054.180    90770579.49447
  23282054.460   122348036.66908  23282050.040    95336129.11846
  22574550.860   118630081.46108  22574548.020    92439014.43347
  22434531.200   117894396.09109  22434527.620    91865811.03247
  21475278.320   112853411.32809  21475277.380    87937742.28948
  24568248.740   129106835.07908  24568254.360   100602671.54746
 15 03 02 00 41  0.0000000  0  6G16G18G19G21G22G27
  20551103.580   107996791.91309  20551099.780    84153337.06548
  22163046.440   116467750.58809  22163043.420    90754156.74147
  23268698.080   122277848.38708  23268693.640    95281436.98547
  22587541.740   118698348.85408  22587538.800    92492209.80147
  22419863.840   117817318.66209  22419860.120    91805750.79847
  21466872.700   112809239.49709  21466871.720    87903322.69348
 15 03 02 00 41 30.0000000  0  7G16G18G19G21G22G27G31
  20545525.340   107967477.81409  20545521.560    84130494.90848
  22159122.640   116447129.56409  22159119.260    90738088.43347
  23255362.080   122207767.30808  23255357.600    95226828.39746
  22600562.820   118766774.74208  22600559.780    92545528.66847
  22405245.380   117740498.08409  22405241.520    91745890.71247
  21458494.320   112765210.50609  21458493.260    87869014.39248
  24605877.500   129304760.53509                                
 15 03 02 00 42  0.0000000  0  7G16G18G19G21G22G27G31
  20540034.340   107938622.39109  20540030.640    84108010.16948
  22155287.620   116426975.33609  22155283.980    90722383.86347
  23242048.600   122137804.51708  23242044.160    95172311.97547
  22613615.780   118835368.05008  22613612.640    92598977.99147
  22390678.460   117663948.25309  22390674.460    91686241.58947
  21450145.220   112721335.55509  21450144.240    87834826.13148
  24624671.960   129403521.01508  24624679.240   100833936.24644
 15 03 02 00 42 30.0000000  0  7G16G18G19G21G22G27G31
  20534629.040   107910217.61309  20534625.420    84085876.56348
  22151539.620   116407278.79609  22151535.800    90707035.91947
  23228755.740   122067949.99508  23228751.400    95117879.90347
  22626698.360   118904117.08308  22626695.200    92652548.65847
  22376161.580   117587661.52009  22376157.440    91626797.47047
  21441823.500   112677604.92909  21441822.600    87800750.32048
  24643450.920   129502208.92308  24643457.760   100910826.29245
 15 03 02 00 43  0.0000000  0  7G16G18G19G21G22G27G31
  20529312.900   107882281.46109  20529309.360    84064108.13348
  22147882.080   116388058.36909  22147878.280    90692058.97646
  23215486.640   121998220.63208  23215482.420    95063545.36747
  22639813.480   118973037.15108  22639810.280    92706252.59746
  22361698.420   117511657.43509  22361694.260    91567573.59747
  21433532.420   112634035.53209  21433531.620    87766800.14748
  24662218.020   129600826.79008                                
 15 03 02 00 43 30.0000000  0  7G16G18G19G21G22G27G31
  20524081.500   107854790.48309  20524078.020    84042686.58648
  22144310.400   116369289.70609  22144306.720    90677434.06447
  23202236.520   121928591.17308  23202232.340    95009288.67247
  22652955.980   119042101.09808  22652952.700    92760068.65347
  22347284.740   117435913.94209  22347280.740    91508552.77147
  21425267.320   112590602.44309  21425266.540    87732956.19248
  24680966.760   129699350.64908  24680973.780   101064439.74844
 15 03 02 00 44  0.0000000  0  6G16G18G19G21G22G27
  20518935.160   107827746.52909  20518931.740    84021613.36448
  22140824.800   116350973.79209  22140821.260    90663161.93147
  23189005.460   121859061.88608  23189001.280    94955110.03546
  22666125.620   119111307.51308  22666122.220    92813995.72246
  22332921.040   117360433.39809  22332917.240    91449736.85147
  21417028.280   112547306.06909  21417027.500    87699218.76848
 15 03 02 00 44 30.0000000  0  6G16G18G19G21G22G27
  20513879.000   107801176.31309  20513875.600    84000909.30048
  22137430.380   116333136.94309  22137427.060    90649263.10447
  23175798.240   121789657.78408  23175794.120    94901028.95446
  22679326.740   119180679.43608  22679323.220    92868051.75947
  22318612.640   117285243.34709  22318608.880    91391147.29747
  21408820.060   112504171.63509  21408819.260    87665607.53748
 15 03 02 00 45  0.0000000  0  6G16G18G19G21G22G27
  20508910.600   107775066.98209  20508907.080    83980564.35648
  22134124.560   116315765.63009  22134121.460    90635727.03347
  23162612.100   121720364.61308  23162608.060    94847034.30047
  22692556.280   119250200.78108  22692552.640    92922224.23447
  22304357.300   117210331.93909  22304353.540    91332774.84947
  21400639.900   112461184.99309  21400639.180    87632111.45448
 15 03 02 00 45 30.0000000  0  6G16G18G19G21G22G27
  20504029.960   107749418.88209  20504026.360    83960578.82349
  22130907.340   116298859.89709  22130904.420    90622553.75747
  23149446.920   121651181.54808  23149442.980    94793125.44547
  22705813.760   119319868.87208  22705809.880    92976511.05047
  22290155.500   117135701.36209  22290151.760    91274621.23948
  21392487.740   112418345.50709  21392487.140    87598730.03748
 15 03 02 00 46  0.0000000  0  6G16G18G19G21G22G27
  20499237.740   107724235.69309  20499234.140    83940955.55848
  22127779.360   116282422.76309  22127776.540    90609745.61947
  23136303.040   121582110.53908  23136299.220    94739303.91247
  22719099.280   119389684.15208  22719095.260    93030912.56747
  22276008.040   117061355.96609  22276004.280    91216689.85647
  21384364.080   112375655.45709  21384363.420    87565465.06948
 15 03 02 00 46 30.0000000  0  6G16G18G19G21G22G27
  20494533.860   107699516.74509  20494530.300    83921694.03648
  22124740.340   116266452.81809  22124737.560    90597301.53147
  23123180.120   121513149.63108  23123176.400    94685568.17247
  22732412.040   119459642.65008  22732407.900    93085425.67846
  22261914.880   116987295.98609  22261911.080    91158980.86747
  21376268.560   112333112.90209  21376267.760    87532315.03848
 15 03 02 00 47  0.0000000  0  6G16G18G19G21G22G27
  20489920.040   107675270.77909  20489916.460    83902801.06748
  22121791.780   116250957.91509  22121788.940    90585227.59547
  23110079.400   121444305.37608  23110075.640    94631923.31147
  22745753.000   119529749.31308  22745748.760    93140054.23347
  22247877.820   116913531.16709  22247874.060    91101501.86047
  21368202.440   112290724.93509  21368201.600    87499285.45548
 15 03 02 00 47 30.0000000  0  6G16G18G19G21G22G27
  20485394.680   107651489.84309  20485391.100    83884270.47248
  22118932.140   116235929.86209  22118929.160    90573517.44447
  23096999.240   121375568.87608  23096995.340    94578362.41647
  22759120.100   119599993.41208  22759115.780    93194789.88647
  22233895.660   116840055.05609  22233892.120    91044247.83447
  21360164.040   112248482.61609  21360163.180    87466369.36348
 15 03 02 00 48  0.0000000  0  6G16G18G19G21G22G27
  20480958.740   107628179.27609  20480955.160    83866106.39848
  22116162.280   116221373.37909  22116159.120    90562174.74647
  23083940.420   121306944.27708  23083936.380    94524888.73147
  22772513.720   119670376.90009  22772509.380    93249634.15247
  22219969.600   116766873.74209  22219966.220    90987223.51148
  21352154.120   112206390.21009  21352153.340    87433570.09648
 15 03 02 00 48 30.0000000  0  6G16G18G19G21G22G27
  20476612.960   107605342.41609  20476609.420    83848311.44049
  22113482.680   116207291.09509  22113479.400    90551201.55747
  23070903.180   121238433.07408  23070899.000    94471503.40747
  22785933.880   119740899.99908  22785929.540    93304587.19547
  22206100.520   116693991.77809  22206097.220    90930432.44048
  21344173.120   112164449.72209  21344172.340    87400889.19848
 15 03 02 00 49  0.0000000  0  6G16G18G19G21G22G27
  20472357.440   107582979.65709  20472353.940    83830885.90348
  22110893.240   116193682.99709  22110889.820    90540597.85647
  23057887.380   121170034.62808  23057883.140    94418205.93547
  22799380.060   119811560.09908  22799375.720    93359647.00447
  22192288.760   116621410.85209  22192285.420    90873875.94847
  21336220.840   112122660.35809  21336220.000    87368326.06148
 15 03 02 00 49 30.0000000  0  6G16G18G19G21G22G27
  20468192.980   107561095.02809  20468189.440    83813832.94348
  22108394.520   116180551.89309  22108391.000    90530365.84547
  23044893.520   121101751.42808  23044889.420    94364998.26747
  22812852.340   119882357.60008  22812848.080    93414813.87747
  22178535.240   116549135.64009  22178531.760    90817557.67748
  21328297.860   112081024.99109  21328296.980    87335882.91848
 15 03 02 00 50  0.0000000  0  6G16G18G19G21G22G27
  20464118.900   107539685.10709  20464115.320    83797149.88448
  22105985.780   116167894.34409  22105982.280    90520502.83047
  23031920.740   121033578.94608  23031916.720    94311876.88347
  22826349.520   119953286.22008  22826345.340    93470082.92146
  22164839.560   116477164.07309  22164835.840    90761476.00147
  21320403.380   112039539.19509  21320402.500    87303556.32848
 15 03 02 00 50 30.0000000  0  6G16G18G19G21G22G27
  20460136.580   107518757.25609  20460132.900    83780842.46649
  22103668.240   116155716.50409  22103664.860    90511013.62947
  23018970.020   120965522.42908  23018965.900    94258845.86448
  22839872.480   120024350.28508  22839868.420    93525457.51147
  22151203.320   116405504.53509  22151199.240    90705637.47548
  21312538.480   111998208.90009  21312537.640    87271350.92049
 15 03 02 00 51  0.0000000  0  6G16G18G19G21G22G27
  20456245.060   107498306.85009  20456241.300    83764907.07448
  22101440.960   116144013.33209  22101437.800    90501894.29347
  23006040.340   120897576.42808  23006036.180    94205900.94747
  22853419.760   120095542.22408  22853415.800    93580931.73746
  22137625.700   116334153.44509  22137621.280    90650039.28647
  21304702.160   111957028.69309  21304701.320    87239262.44648
 15 03 02 00 51 30.0000000  0  6G16G18G19G21G22G27
  20452445.080   107478337.70209  20452441.260    83749346.68748
  22099304.640   116132787.86709  22099301.640    90493147.18747
  22993132.020   120829742.77308  22993127.820    94153043.56547
  22866991.440   120166862.27308  22866987.540    93636505.78347
  22124107.740   116263116.08309  22124103.100    90594685.56747
  21296894.880   111916001.14909  21296894.100    87207292.92748
 15 03 02 00 52  0.0000000  0  6G16G18G19G21G22G27
  20448736.480   107458849.03509  20448732.740    83734160.70848
  22097259.160   116122039.25109  22097256.280    90484771.65947
  22980244.880   120762020.49508  22980240.660    94100272.99147
  22880586.940   120238307.33308  22880583.060    93692177.25847
  22110649.540   116192393.06509  22110644.860    90539576.78547
  21289116.360   111875124.57209  21289115.500    87175441.05948
 15 03 02 00 52 30.0000000  0  6G16G18G19G21G22G27
  20445120.580   107439847.48909  20445116.920    83719354.30548
  22095305.560   116111772.98309  22095302.620    90476771.98947
  22967379.800   120694414.36108  22967375.600    94047592.92447
  22894206.780   120309880.17808  22894202.960    93747948.29846
  22097252.580   116121991.96409  22097247.860    90484718.84847
  21281367.620   111834404.39509  21281366.600    87143711.05848
 15 03 02 00 53  0.0000000  0  6G16G18G19G21G22G27
  20441597.300   107421332.53209  20441593.680    83704927.06048
  22093443.560   116101987.83909  22093440.560    90469147.22047
  22954536.460   120626922.68708  22954532.460    93995002.03847
  22907850.340   120381577.55908  22907846.560    93803816.38146
  22083916.980   116051913.18609  22083912.280    90430112.06747
  21273648.340   111793839.09709  21273647.260    87112101.74548
 15 03 02 00 53 30.0000000  0  6G16G18G19G21G22G27
  20438166.600   107403304.08209  20438162.980    83690878.91149
  22091673.020   116092682.92109  22091669.960    90461896.64947
  22941714.640   120559544.25108  22941710.780    93942499.39147
  22921517.060   120453396.42908  22921513.280    93859779.12347
  22070642.980   115982157.89509  22070638.380    90375757.35748
  21265958.280   111753427.58509  21265957.140    87080612.25948
 15 03 02 00 54  0.0000000  0  6G16G18G19G21G22G27
  20434828.640   107385762.72709  20434825.020    83677210.32648
  22089993.880   116083858.42909  22089990.760    90455020.44447
  22928914.200   120492278.04708  22928910.340    93890084.20247
  22935206.400   120525334.49608  22935202.660    93915834.76146
  22057430.820   115912727.42109  22057426.340    90321655.75847
  21258297.280   111713169.36009  21258296.260    87049242.23648
 15 03 02 00 54 30.0000000  0  6G16G18G19G21G22G27
  20431583.960   107368711.47409  20431580.280    83663923.62348
  22088406.580   116075516.73009  22088403.400    90448520.42947
  22916135.640   120425126.16908  22916131.640    93837758.07447
  22948918.420   120597391.65308  22948914.680    93971983.18546
  22044281.340   115843626.48209  22044276.900    90267810.92148
  21250665.880   111673066.63409  21250664.920    87017993.36348
 15 03 02 00 55  0.0000000  0  6G16G18G19G21G22G27
  20428432.740   107352151.62709  20428429.020    83651019.84148
  22086911.060   116067657.85909  22086907.860    90442396.65046
  22903378.800   120358088.58108  22903374.780    93785521.02446
  22962652.780   120669566.09908  22962648.960    94028223.00146
  22031194.940   115774857.43009  22031190.520    90214224.70047
  21243064.160   111633119.69409  21243063.240    86986865.88948
 15 03 02 00 55 30.0000000  0  6G16G18G19G21G22G27
  20425375.140   107336084.12509  20425371.420    83638499.70548
  22085507.400   116060282.24009  22085504.260    90436649.41747
  22890643.640   120291164.91308  22890639.560    93733372.74147
  22976409.180   120741856.27208  22976405.340    94084552.99646
  22018172.040   115706422.34809  22018167.640    90160898.71447
  21235492.100   111593328.60209  21235491.280    86955859.85048
 15 03 02 00 56  0.0000000  0  6G16G18G19G21G22G27
  20422411.160   107320508.59209  20422407.500    83626362.92448
  22084195.560   116053389.24209  22084192.480    90431278.26647
  22877929.940   120224353.94208  22877925.760    93681312.26747
  22990186.920   120814258.20608  22990182.980    94140970.07746
  22005212.860   115638322.08609  22005208.500    90107833.63448
  21227949.440   111553691.99009  21227948.740    86924974.18048
