     2.11           OBSERVATION DATA    G                   RINEX VERSION / TYPE
SPIDER V4,0,0,3554                      2015 04 15 09:04    PGM / RUN BY / DATE 
CABS                                                        MARKER NAME         
CABS                                                        MARKER NUMBER       
                                                            OBSERVER / AGENCY   
462287              LEICA GRX1200PRO    8.10/2.127          REC # / TYPE / VERS 
103298              LEIAT504                                ANT # / TYPE        
  5116912.3402   671231.6412  3737143.4301                  APPROX POSITION XYZ 
        0.0600        0.0000        0.0000                  ANTENNA: DELTA H/E/N
     1     1                                                WAVELENGTH FACT L1/2
     4    C1    L1    P2    L2                              # / TYPES OF OBSERV 
    30.000                                                  INTERVAL            
  2015    02    02    00    00    0.0000000     GPS         TIME OF FIRST OBS   
  2015    02    02    23    59   30.0000000     GPS         TIME OF LAST OBS    
    16                                                      LEAP SECONDS        
    30                                                      # OF SATELLITES     
   G 1   782   782   782   782                              PRN / # OF OBS      
   G 2   941   941   941   941                              PRN / # OF OBS      
   G 3   846   846   846   846                              PRN / # OF OBS      
   G 4   832   832   831   831                              PRN / # OF OBS      
   G 5   646   646   646   646                              PRN / # OF OBS      
   G 6   825   825   825   825                              PRN / # OF OBS      
   G 7   660   660   659   659                              PRN / # OF OBS      
   G 9   807   807   807   807                              PRN / # OF OBS      
   G10   751   751   751   751                              PRN / # OF OBS      
   G11   770   770   770   770                              PRN / # OF OBS      
   G12   829   829   829   829                              PRN / # OF OBS      
   G13   792   792   792   792                              PRN / # OF OBS      
   G14   941   941   941   941                              PRN / # OF OBS      
   G15   700   700   700   700                              PRN / # OF OBS      
   G16   658   658   658   658                              PRN / # OF OBS      
   G17   938   938   938   938                              PRN / # OF OBS      
   G18   897   897   897   897                              PRN / # OF OBS      
   G19   750   750   750   750                              PRN / # OF OBS      
   G20   814   814   814   814                              PRN / # OF OBS      
   G21   743   743   743   743                              PRN / # OF OBS      
   G22   657   657   657   657                              PRN / # OF OBS      
   G23   756   756   756   756                              PRN / # OF OBS      
   G24   815   815   815   815                              PRN / # OF OBS      
   G25   856   856   856   856                              PRN / # OF OBS      
   G27   793   793   793   793                              PRN / # OF OBS      
   G28   878   878   878   878                              PRN / # OF OBS      
   G29   783   783   783   783                              PRN / # OF OBS      
   G30   680   680   680   680                              PRN / # OF OBS      
   G31   869   869   869   869                              PRN / # OF OBS      
   G32   771   771   771   771                              PRN / # OF OBS      
BIT 2 OF LLI FLAGS DATA COLLECTED UNDER A/S CONDITION       COMMENT             
SNR is mapped to RINEX snr flag value [2-9]                 COMMENT             
Lx:     = 25dBHz -> 1; 26-27dBHz -> 2; 28-31dBHz -> 3       COMMENT             
       32-35dBHz -> 4; 36-38dBHz -> 5; 39-41dBHz -> 6       COMMENT             
       42-44dBHz -> 7; 45-48dBHz -> 8; >=49dBHz -> 9        COMMENT             
                                                            END OF HEADER       
 15 02 02 00 00  0.0000000  0  5G12G21G25G29G31
  24739815.540   130008954.70006  24739816.760   101305841.07945
  21565000.300   113324946.65408  21565001.280    88305206.97848
  21637713.480   113707097.52908  21637717.640    88603006.68548
  20978317.300   110242140.76608  20978318.880    85903129.80748
  20960132.300   110146248.53409  20960133.020    85828250.33049
 15 02 02 00 00 30.0000000  0  4G21G25G29G31
  21554454.480   113269527.77008  21554455.440    88262023.43848
  21648129.580   113761834.48508  21648133.720    88645658.84448
  20988220.840   110294184.07308  20988222.400    85943683.03148
  20960580.260   110148602.43809  20960580.980    85830084.53749
 15 02 02 00 01  0.0000000  0  4G21G25G29G31
  21544004.300   113214611.50408  21544005.200    88219231.54448
  21658620.620   113816965.09708  21658624.680    88688617.74448
  20998180.040   110346519.89808  20998181.560    85984464.18248
  20961155.280   110151623.94709  20961155.960    85832438.95349
 15 02 02 00 01 30.0000000  0  4G21G25G29G31
  21533624.520   113160065.40008  21533625.420    88176728.10048
  21669161.200   113872355.89808  21669165.180    88731779.38048
  21008169.220   110399013.28908  21008170.740    86025368.11848
  20961831.940   110155179.57509  20961832.580    85835209.56649
 15 02 02 00 02  0.0000000  0  4G21G25G29G31
  21523324.620   113105939.16508  21523325.520    88134551.83248
  21679760.320   113928054.48608  21679764.260    88775180.85548
  21018197.200   110451710.34508  21018198.640    86066430.75648
  20962619.280   110159317.02209  20962619.900    85838433.54549
 15 02 02 00 02 30.0000000  0  4G21G25G29G31
  21513103.820   113052228.68808  21513104.760    88092699.53548
  21690416.940   113984055.86008  21690420.960    88818818.27548
  21028262.740   110504604.86008  21028264.160    86107647.25948
  20963516.360   110164031.13309  20963516.960    85842106.87049
 15 02 02 00 03  0.0000000  0  4G21G25G29G31
  21502959.100   112998918.04208  21502960.060    88051158.79348
  21701127.960   114040343.01808  21701132.060    88862678.37748
  21038362.280   110557678.42708  21038363.720    86149003.28348
  20964519.900   110169304.85509  20964520.500    85846216.26049
 15 02 02 00 03 30.0000000  0  4G21G25G29G31
  21492892.940   112946020.14108  21492893.900    88009939.66748
  21711895.520   114096927.37408  21711899.720    88906770.06948
  21048497.800   110610941.08408  21048499.260    86190506.64148
  20965632.140   110175149.86809  20965632.780    85850770.80949
 15 02 02 00 04  0.0000000  0  4G21G25G29G31
  21482901.420   112893514.35408  21482902.340    87969026.08548
  21722715.680   114153787.65408  21722719.860    88951076.76748
  21058664.920   110664369.95208  21058666.440    86232139.51948
  20966848.940   110181544.41109  20966849.620    85855753.56649
 15 02 02 00 04 30.0000000  0  4G21G25G29G31
  21472988.420   112841421.37908  21472989.360    87928434.16948
  21733592.000   114210942.99608  21733596.160    88995613.38048
  21068867.180   110717983.31308  21068868.740    86273916.16248
  20968173.980   110188507.69809  20968174.680    85861179.49449
 15 02 02 00 05  0.0000000  0  4G21G25G29G31
  21463155.420   112789748.83608  21463156.440    87888169.86648
  21744525.600   114268399.25208  21744529.780    89040384.46748
  21079105.360   110771785.41508  21079106.920    86315839.86848
  20969608.400   110196045.74909  20969609.120    85867053.29249
 15 02 02 00 05 30.0000000  0  4G21G25G29G31
  21453399.920   112738483.55808  21453401.000    87848222.90548
  21755513.900   114326142.79908  21755518.100    89085379.41548
  21089376.700   110825761.66308  21089378.240    86357899.28048
  20971149.600   110204144.81509  20971150.340    85873364.25049
 15 02 02 00 06  0.0000000  0  4G21G25G29G31
  21443723.460   112687633.65908  21443724.540    87808599.62548
  21766558.080   114384180.07508  21766562.320    89130603.25148
  21099682.060   110879916.77408  21099683.600    86400098.06448
  20972798.780   110212811.13609  20972799.500    85880117.21949
 15 02 02 00 06 30.0000000  0  4G21G25G29G31
  21434125.700   112637197.14008  21434126.760    87769298.45648
  21777657.680   114442508.44908  21777661.960    89176053.91948
  21110020.720   110934246.92808  21110022.260    86442433.24248
  20974555.360   110222041.87909  20974556.080    85887310.00249
 15 02 02 00 07  0.0000000  0  4G21G25G29G31
  21424607.640   112587179.48908  21424608.660    87730323.68348
  21788813.380   114501131.75608  21788817.720    89221734.40248
  21120393.180   110988754.85108  21120394.760    86484906.94348
  20976420.060   110231840.89109  20976420.780    85894945.59249
 15 02 02 00 07 30.0000000  0  4G21G25G29G31
  21415171.860   112537594.10708  21415172.820    87691685.73548
  21800027.400   114560061.64808  21800031.820    89267653.78848
  21130801.480   111043451.00308  21130803.120    86527527.31048
  20978395.120   110242219.90409  20978395.860    85903033.12449
 15 02 02 00 08  0.0000000  0  4G21G25G29G31
  21405814.740   112488422.06508  21405815.640    87653369.86948
  21811296.080   114619278.60608  21811300.460    89313796.85448
  21141241.620   111098314.34808  21141243.340    86570277.96748
  20980476.780   110253159.03609  20980477.500    85911557.11449
 15 02 02 00 08 30.0000000  0  4G21G25G29G31
  21396537.280   112439668.71208  21396538.180    87615380.25648
  21822620.260   114678787.24008  21822624.580    89360167.20648
  21151714.300   111153348.48508  21151716.040    86613161.70848
  20982665.820   110264662.50309  20982666.540    85920520.84949
 15 02 02 00 09  0.0000000  0  4G21G25G29G31
  21387340.360   112391338.54308  21387341.240    87577720.40048
  21834000.480   114738590.48408  21834004.720    89406767.11648
  21162219.820   111208555.12808  21162221.580    86656179.86348
  20984962.800   110276733.25309  20984963.520    85929926.62049
 15 02 02 00 09 30.0000000  0  4G21G25G29G31
  21378225.020   112343437.08908  21378225.880    87540394.60448
  21845437.520   114798692.67708  21845441.720    89453599.97548
  21172758.780   111263937.39808  21172760.520    86699334.87148
  20987368.500   110289375.21909  20987369.180    85939777.49249
 15 02 02 00 10  0.0000000  0  4G21G25G29G31
  21369189.640   112295955.87808  21369190.480    87503396.26648
  21856929.620   114859084.43808  21856933.820    89500658.46147
  21183329.200   111319484.92308  21183330.880    86742618.65248
  20989881.120   110302578.95009  20989881.740    85950066.10849
 15 02 02 00 10 30.0000000  0  4G21G25G29G31
  21360235.640   112248902.32508  21360236.500    87466731.17648
  21868477.920   114919771.41708  21868482.100    89547947.00448
  21193931.820   111375201.79108  21193933.420    86786034.39348
  20992501.660   110316349.95209  20992502.260    85960796.75449
 15 02 02 00 11  0.0000000  0  4G21G25G29G31
  21351361.360   112202267.61108  21351362.200    87430392.45648
  21880080.640   114980744.20308  21880084.840    89595458.25847
  21204564.640   111431077.65608  21204566.200    86829574.03048
  20995228.260   110330678.42309  20995228.900    85971961.79349
 15 02 02 00 11 30.0000000  0  4G21G25G29G31
  21342568.380   112156060.29208  21342569.200    87394386.77348
  21891739.100   115042009.78208  21891743.300    89643197.65847
  21215228.820   111487118.21308  21215230.380    86873241.98948
  20998062.200   110345570.93609  20998062.860    85983566.34549
 15 02 02 00 12  0.0000000  0  4G21G25G29G31
  21333855.760   112110275.22008  21333856.540    87358710.11048
  21903452.280   115103562.70608  21903456.440    89691160.96547
  21225923.240   111543317.51008  21225924.800    86917033.64848
  21001002.480   110361022.18309  21001003.160    85995606.27349
 15 02 02 00 12 30.0000000  0  4G21G25G29G31
  21325224.780   112064919.41308  21325225.580    87323367.93848
  21915221.120   115165408.06208  21915225.220    89739352.13347
  21236648.520   111599679.14408  21236650.080    86960951.79548
  21004049.960   110377036.68009  21004050.660    86008085.09449
 15 02 02 00 13  0.0000000  0  4G21G25G29G31
  21316677.240   112020002.00508  21316678.040    87288367.37448
  21927047.100   115227554.09908  21927051.260    89787777.60047
  21247406.000   111656209.98908  21247407.540    87005001.80248
  21007206.080   110393622.12109  21007206.780    86021008.81649
 15 02 02 00 13 30.0000000  0  4G21G25G29G31
  21308210.060   111975506.90808  21308210.920    87253695.87648
  21938927.100   115289984.12008  21938931.340    89836424.34747
  21258192.380   111712892.65408  21258193.880    87049170.10448
  21010467.680   110410761.75909  21010468.380    86034364.36949
 15 02 02 00 14  0.0000000  0  4G21G25G29G31
  21299825.240   111931444.53408  21299826.140    87219361.57348
  21950862.880   115352706.89108  21950867.100    89885299.21547
  21269009.040   111769734.60708  21269010.520    87093462.53348
  21013836.280   110428463.80809  21013836.960    86048158.16849
 15 02 02 00 14 30.0000000  0  4G21G25G29G31
  21291522.760   111887814.59408  21291523.640    87185364.23248
  21962854.180   115415721.39308  21962858.300    89934401.41247
  21279855.580   111826733.62508  21279857.060    87137877.34048
  21017311.700   110446727.25509  21017312.360    86062389.41849
 15 02 02 00 15  0.0000000  0  4G21G25G29G31
  21283303.580   111844622.29108  21283304.420    87151707.90448
  21974901.720   115479031.38808  21974905.740    89983733.86347
  21290732.740   111883893.43108  21290734.200    87182417.44748
  21020894.500   110465555.15909  21020895.180    86077060.50349
 15 02 02 00 15 30.0000000  0  4G21G25G29G31
  21275167.120   111801864.58508  21275167.900    87118390.23348
  21987004.780   115542633.05608  21987008.760    90033293.58447
  21301639.400   111941208.35808  21301640.820    87227078.42348
  21024583.880   110484943.25009  21024584.580    86092168.09849
 15 02 02 00 16  0.0000000  0  4G21G25G29G31
  21267112.800   111759538.46408  21267113.480    87085408.85848
  21999162.560   115606522.36908  21999166.560    90083077.43447
  21312574.680   111998673.81108  21312576.080    87271856.68948
  21028379.080   110504887.26309  21028379.800    86107708.88449
 15 02 02 00 16 30.0000000  0  4G21G25G29G31
  21259141.340   111717647.96708  21259141.960    87052766.92348
  22011375.560   115670702.22508  22011379.680    90133087.69247
  21323538.920   112056291.27608  21323540.260    87316753.41548
  21032280.540   110525389.62409  21032281.280    86123684.74149
 15 02 02 00 17  0.0000000  0  4G21G25G29G31
  21251252.620   111676192.61308  21251253.240    87020464.06048
  22023643.520   115735170.99508  22023647.700    90183323.07747
  21334531.580   112114058.19908  21334532.900    87361766.59648
  21036287.840   110546448.14309  21036288.620    86140093.97149
 15 02 02 00 17 30.0000000  0  4G21G25G29G31
  21243446.240   111635170.18308  21243446.900    86988498.54248
  22035965.820   115799925.39408  22035970.040    90233781.03447
  21345551.860   112171970.50508  21345553.220    87406893.06848
  21040400.320   110568059.27709  21040401.120    86156933.81149
 15 02 02 00 18  0.0000000  0  5G16G21G25G29G31
  24571442.640   129123800.25406  24571445.560   100615955.18644
  21235723.220   111594585.94608  21235723.940    86956874.47648
  22048343.460   115864970.14508  22048347.660    90284465.24347
  21356600.440   112230031.54508  21356601.840    87452135.43348
  21044618.740   110590227.07709  21044619.520    86174207.41349
 15 02 02 00 18 30.0000000  0  5G16G21G25G29G31
  24554113.560   129032734.86906  24554115.840   100544995.20044
  21228076.960   111554404.80108  21228077.700    86925564.51248
  22060769.440   115930268.75008  22060773.560    90335347.25347
  21367670.300   112288204.33608  21367671.740    87497464.88248
  21048936.080   110612914.73109  21048936.860    86191886.09849
 15 02 02 00 19  0.0000000  0  5G16G21G25G29G31
  24536788.940   128941692.66206  24536790.700   100474053.22645
  21220522.280   111514704.72408  21220523.040    86894629.40148
  22073258.380   115995898.18108  22073262.460    90386487.05147
  21378775.980   112346565.24908  21378777.480    87542940.91648
  21053366.840   110636198.38209  21053367.580    86210029.19949
 15 02 02 00 19 30.0000000  0  5G16G21G25G29G31
  24519459.860   128850627.34805  24519461.360   100403093.23145
  21213050.260   111475438.89208  21213051.000    86864032.66148
  22085801.180   116061810.80708  22085805.320    90437847.51447
  21389908.240   112405065.39708  21389909.720    87588525.43748
  21057901.900   110660030.17209  21057902.600    86228599.41149
 15 02 02 00 20  0.0000000  0  5G16G21G25G29G31
  24502127.760   128759546.63505  24502129.160   100332121.27944
  21205662.280   111436614.66908  21205662.980    86833780.03448
  22098398.980   116128012.82108  22098403.260    90489433.48547
  21401068.040   112463710.14008  21401069.500    87634222.63148
  21062542.300   110684415.52109  21062542.960    86247600.97349
 15 02 02 00 20 30.0000000  0  5G16G21G25G29G31
  24484792.860   128668451.31005  24484794.340   100261137.92844
  21198358.540   111398233.19808  21198359.200    86803872.41348
  22111051.820   116194504.44908  22111056.280    90541245.13247
  21412255.220   112522498.52608  21412256.580    87680031.75348
  21067288.040   110709354.41109  21067288.640    86267033.87049
 15 02 02 00 21  0.0000000  0  5G16G21G25G29G31
  24467454.940   128577340.23806  24467456.380   100190142.29144
  21191138.620   111360292.24108  21191139.260    86774308.04548
  22123759.180   116261282.59408  22123763.700    90593280.04047
  21423469.080   112581427.19308  21423470.340    87725950.19548
  21072138.380   110734842.99609  21072138.960    86286895.09549
 15 02 02 00 21 30.0000000  0  5G16G21G25G29G31
  24450114.060   128486213.76306  24450115.460   100119134.67844
  21184002.540   111322791.98208  21184003.200    86745087.07748
  22136521.020   116328346.47108  22136525.460    90645537.58747
  21434709.240   112640494.34608  21434710.460    87771976.53648
  21077093.040   110760879.86009  21077093.620    86307183.55949
 15 02 02 00 22  0.0000000  0  5G16G21G25G29G31
  24432770.720   128395073.98105  24432772.080   100048116.67544
  21176950.620   111285734.03208  21176951.320    86716210.76048
  22149337.380   116395696.72108  22149341.680    90698018.28347
  21445975.620   112699699.71508  21445976.900    87818110.58148
  21082152.080   110787465.17409  21082152.660    86327899.38049
 15 02 02 00 22 30.0000000  0  5G16G21G25G29G31
  24415425.300   128303923.41705  24415426.560    99977090.28544
  21169983.280   111249120.43408  21169984.000    86687680.69648
  22162208.540   116463334.56408  22162212.680    90750723.07947
  21457268.360   112759043.59308  21457269.680    87864352.56048
  21087315.560   110814599.45509  21087316.200    86349042.96949
 15 02 02 00 23  0.0000000  0  5G16G21G25G29G31
  24398077.840   128212762.35205  24398079.180    99906055.69444
  21163100.460   111212951.11308  21163101.240    86659496.82148
  22175134.120   116531258.56908  22175138.200    90803650.86347
  21468587.080   112818524.17008  21468588.480    87910701.04948
  21092583.140   110842280.88309  21092583.860    86370612.90449
 15 02 02 00 23 30.0000000  0  5G16G21G25G29G31
  24380728.460   128121590.98906  24380729.860    99835013.09845
  21156302.100   111177225.51408  21156302.880    86631658.69848
  22188113.920   116599467.58208  22188117.980    90856800.72047
  21479931.400   112878139.38908  21479932.920    87957154.45248
  21097954.400   110870507.27309  21097955.180    86392607.48849
 15 02 02 00 24  0.0000000  0  5G16G21G25G29G31
  24363378.120   128030414.53606  24363379.600    99763966.52044
  21149589.060   111141948.28408  21149589.820    86604169.96048
  22201148.540   116667965.16908  22201152.680    90910175.45247
  21491301.900   112937891.99308  21491303.480    88003714.90948
  21103429.960   110899281.66409  21103430.780    86415029.08549
 15 02 02 00 24 30.0000000  0  5G16G21G25G29G31
  24346026.240   127939229.67106  24346027.760    99692913.38245
  21142960.680   111107116.06508  21142961.460    86577027.98548
  22214237.240   116736747.13808  22214241.540    90963771.78347
  21502697.640   112997777.05608  21502699.260    88050378.58848
  21109008.880   110928599.20409  21109009.720    86437873.91849
 15 02 02 00 25  0.0000000  0  5G16G21G25G29G31
  24328673.200   127848038.32006  24328674.640    99621855.21444
  21136417.140   111072729.88508  21136417.960    86550233.57648
  22227380.060   116805813.53608  22227384.520    91017589.74747
  21514118.520   113057793.99908  21514120.140    88097145.02448
  21114691.120   110958459.46209  21114691.940    86461141.64149
 15 02 02 00 25 30.0000000  0  5G16G21G25G29G31
  24311319.000   127756841.25506  24311320.400    99550792.57645
  21129958.420   111038789.37908  21129959.300    86523786.44548
  22240576.940   116875163.55908  22240581.420    91071628.71947
  21525564.180   113117941.27708  21525565.820    88144013.02348
  21120476.260   110988860.49609  21120477.080    86484830.74849
 15 02 02 00 26  0.0000000  0  5G16G21G25G29G31
  24293964.020   127665640.23506  24293965.380    99479726.87145
  21123584.840   111005296.09008  21123585.700    86497687.78849
  22253827.880   116944797.46608  22253832.300    91125888.89147
  21537034.540   113178218.49908  21537036.200    88190982.27548
  21126364.300   111019802.15309  21126365.100    86508941.12049
 15 02 02 00 26 30.0000000  0  5G16G21G25G29G31
  24276608.540   127574436.57506  24276609.920    99408659.12045
  21117296.480   110972250.37708  21117297.320    86471937.89549
  22267132.820   117014715.07208  22267137.120    91180370.11947
  21548529.440   113238624.60108  21548531.100    88238051.95148
  21132355.040   111051283.53609  21132355.820    86533472.05949
 15 02 02 00 27  0.0000000  0  5G16G21G25G29G31
  24259252.820   127483231.72206  24259254.220    99337590.46545
  21111093.600   110939653.90708  21111094.420    86446538.06249
  22280491.720   117084916.54408  22280495.940    91235072.54347
  21560048.800   113299159.28608  21560050.440    88285221.82748
  21138448.380   111083304.09309  21138449.160    86558423.13549
 15 02 02 00 27 30.0000000  0  5G16G21G25G29G31
  24241897.400   127392028.70806  24241898.860    99266523.20245
  21104976.480   110907508.16708  21104977.260    86421489.44449
  22293904.780   117155402.85808  22293908.980    91289996.91947
  21571592.740   113359823.11608  21571594.380    88332492.33348
  21144644.320   111115863.93609  21144645.120    86583794.43549
 15 02 02 00 28  0.0000000  0  5G16G21G25G29G31
  24224541.940   127300825.80905  24224543.440    99195456.06145
  21098944.620   110875810.45008  21098945.380    86396789.92849
  22307371.400   117226170.71808  22307375.720    91345140.68347
  21583160.500   113420612.01008  21583162.120    88379860.29148
  21150942.120   111148959.14309  21150942.960    86609582.90449
 15 02 02 00 28 30.0000000  0  5G16G21G25G29G31
  24207186.640   127209623.68306  24207188.180    99124389.49244
  21092998.020   110844560.99508  21092998.760    86372439.71248
  22320891.520   117297219.51708  22320895.940    91400503.37247
  21594751.800   113481524.42508  21594753.360    88427324.49748
  21157341.520   111182588.25109  21157342.380    86635787.39349
 15 02 02 00 29  0.0000000  0  5G16G21G25G29G31
  24189831.640   127118423.17906  24189833.220    99053324.19745
  21087136.780   110813760.16608  21087137.520    86348439.07149
  22334465.040   117368548.25808  22334469.460    91456084.19847
  21606366.360   113542559.19208  21606367.900    88474884.05248
  21163842.140   111216749.37409  21163843.040    86662406.44449
 15 02 02 00 29 30.0000000  0  5G16G21G25G29G31
  24172477.360   127027225.61706  24172479.000    98982261.18845
  21081361.060   110783408.79608  21081361.820    86324788.66848
  22348091.860   117440156.96008  22348096.200    91511883.18547
  21618004.020   113603715.44508  21618005.540    88522538.26548
  21170443.920   111251441.86409  21170444.820    86689439.54549
 15 02 02 00 30  0.0000000  0  5G16G21G25G29G31
  24155124.460   126936035.33606  24155126.020    98911203.85345
  21075671.400   110753509.55208  21075672.200    86301490.56449
  22361772.300   117512047.61908  22361776.480    91567901.86047
  21629665.120   113664995.24908  21629666.700    88570288.75148
  21177147.020   111286666.75609  21177147.900    86716887.50549
 15 02 02 00 30 30.0000000  0  5G16G21G25G29G31
  24137773.340   126844854.21406  24137774.780    98840153.65345
  21070068.040   110724063.68608  21070068.860    86278545.74649
  22375506.460   117584220.68908  22375510.440    91624140.59747
  21641349.640   113726398.00808  21641351.260    88618135.04448
  21183951.400   111322423.76709  21183952.220    86744750.09649
 15 02 02 00 31  0.0000000  0  5G16G21G25G29G31
  24120423.400   126753679.21506  24120424.680    98769108.19145
  21064550.140   110695066.99708  21064550.980    86255950.93749
  22389293.320   117656671.24508  22389297.180    91680595.56447
  21653056.540   113787918.20608  21653058.200    88666072.84948
  21190855.900   111358707.07309  21190856.700    86773022.79449
 15 02 02 00 31 30.0000000  0  5G16G21G25G29G31
  24103075.520   126662515.14606  24103076.660    98698071.27045
  21059118.540   110666523.79108  21059119.400    86233709.48449
  22403133.600   117729402.86008  22403137.460    91737269.53247
  21664786.440   113849559.10208  21664788.080    88714104.71248
  21197861.100   111395519.59809  21197861.900    86801707.86849
 15 02 02 00 32  0.0000000  0  5G16G21G25G29G31
  24085729.200   126571359.74006  24085730.420    98627041.10445
  21053772.360   110638429.45708  21053773.200    86211817.80549
  22417026.560   117802411.19308  22417030.480    91794159.11947
  21676538.360   113911315.89308  21676539.980    88762226.87648
  21204965.900   111432855.74209  21204966.740    86830800.95949
 15 02 02 00 32 30.0000000  0  5G16G21G25G29G31
  24068384.900   126480214.95406  24068386.160    98556019.21644
  21048512.020   110610786.22008  21048512.820    86190277.63649
  22430972.260   117875696.54708  22430976.320    91851264.57647
  21688312.320   113973188.54108  21688313.980    88810439.31548
  21212170.240   111470715.18509  21212171.160    86860301.81849
 15 02 02 00 33  0.0000000  0  5G16G21G25G29G31
  24051043.060   126389083.25906  24051044.420    98485007.54245
  21043337.880   110583596.05508  21043338.680    86169090.50049
  22444970.940   117949259.69708  22444975.140    91908586.48947
  21700108.360   114035177.34908  21700110.060    88858742.27548
  21219474.200   111509097.93009  21219475.180    86890210.44249
 15 02 02 00 33 30.0000000  0  5G16G21G25G29G31
  24033703.880   126297965.32706  24033705.220    98414006.56645
  21038249.760   110556857.93508  21038250.540    86148255.61149
  22459022.240   118023099.31908  22459026.600    91966123.83947
  21711926.220   114097280.58908  21711927.920    88907134.39748
  21226877.300   111548001.39909  21226878.260    86920524.82749
 15 02 02 00 34  0.0000000  0  5G16G21G25G29G31
  24016370.520   126206877.66106  24016371.920    98343029.19345
  21033250.460   110530586.37108  21033251.160    86127784.27149
  22473128.860   118097229.84508  22473133.360    92023887.87047
  21723768.440   114159511.92508  21723770.140    88955626.34148
  21234382.100   111587439.37909  21234383.060    86951255.70849
 15 02 02 00 34 30.0000000  0  6G16G18G21G25G29G31
  23999037.780   126115793.61006  23999039.340    98272054.64345
  24495991.340   128727300.31305  24495995.900   100307009.08944
  21028335.040   110504755.42808  21028335.660    86107656.27349
  22487285.520   118171623.41408  22487290.080    92081856.87347
  21735629.720   114221843.17208  21735631.420    89004196.13448
  21241983.160   111627383.01909  21241984.100    86982380.60649
 15 02 02 00 35  0.0000000  0  6G16G18G21G25G29G31
  23981707.320   126024721.67306  23981708.920    98201089.52745
  24480922.640   128648114.49805  24480927.300   100245306.29044
  21023504.580   110479370.97608  21023505.160    86087876.19249
  22501493.340   118246286.36908  22501497.980    92140035.78747
  21747511.160   114284280.16408  21747512.820    89052848.32948
  21249681.460   111667837.65109  21249682.360    87013903.68849
 15 02 02 00 35 30.0000000  0  6G16G18G21G25G29G31
  23964381.500   125933674.56006  23964383.200    98130143.75445
  24465843.240   128568872.40205  24465848.160   100183559.61044
  21018761.500   110454445.67608  21018762.060    86068453.88349
  22515754.460   118321229.47108  22515759.080    92198433.00347
  21759414.760   114346833.72308  21759416.380    89101591.35048
  21257478.880   111708813.14609  21257479.740    87045832.63949
 15 02 02 00 36  0.0000000  0  6G16G18G21G25G29G31
  23947059.520   125842647.16106  23947061.260    98059213.32445
  24450752.380   128489570.23305  24450757.060   100121766.10144
  21014104.400   110429972.18708  21014104.940    86049383.63349
  22530067.560   118396445.75808  22530072.160    92257043.08447
  21771339.200   114409496.52108  21771340.680    89150419.49848
  21265373.860   111750301.37009  21265374.680    87078161.11749
 15 02 02 00 36 30.0000000  0  6G16G18G21G25G29G31
  23929741.780   125751641.83906  23929743.480    97988300.10045
  24435650.460   128410211.28405  24435655.160   100059928.37644
  21009533.540   110405952.31608  21009534.120    86030666.86049
  22544432.820   118471935.64008  22544437.360    92315866.34347
  21783284.420   114472268.66608  21783285.820    89199332.84548
  21273366.340   111792302.10409  21273367.160    87110888.95849
 15 02 02 00 37  0.0000000  0  6G16G18G21G25G29G31
  23912428.320   125660658.79306  23912429.800    97917404.24045
  24420538.200   128330797.07505  24420543.020    99998047.49044
  21005048.860   110382385.35808  21005049.480    86012302.99949
  22558849.880   118547697.55508  22558854.320    92374901.57447
  21795250.040   114535148.03208  21795251.400    89248329.74248
  21281455.820   111834812.48809  21281456.620    87144013.92649
 15 02 02 00 37 30.0000000  0  6G16G18G21G25G29G31
  23895119.860   125569702.29806  23895121.220    97846529.08045
  24405416.380   128251333.05605  24405421.120    99936127.83944
  21000650.800   110359273.56008  21000651.440    85994293.80749
  22573319.140   118623733.65908  22573323.540    92434150.46847
  21807236.380   114598136.35108  21807237.720    89297411.53848
  21289642.520   111877833.89209  21289643.360    87177537.08849
 15 02 02 00 38  0.0000000  0  6G16G18G21G25G29G31
  23877815.900   125478769.31906  23877817.120    97775672.22245
  24390284.920   128171817.06206  24390289.540    99874167.64243
  20996338.600   110336612.96408  20996339.260    85976636.21149
  22587839.640   118700039.12807  22587844.040    92493609.25547
  21819242.460   114661228.54808  21819243.840    89346574.29048
  21297925.300   111921360.18409  21297926.140    87211453.67149
 15 02 02 00 38 30.0000000  0  6G16G18G21G25G29G31
  23860517.380   125387864.83106  23860518.460    97704837.56444
  24375144.760   128092255.33105  24375149.320    99812171.84944
  20992113.000   110314407.33108  20992113.640    85959333.12849
  22602411.820   118776616.81107  22602416.380    92553280.15447
  21831268.720   114724427.23908  21831270.200    89395820.00448
  21306304.580   111965393.55309  21306305.400    87245765.37049
 15 02 02 00 39  0.0000000  0  6G16G18G21G25G29G31
  23843224.260   125296988.78806  23843225.320    97634025.07544
  24359996.140   128012648.86906  24360000.040    99750141.10344
  20987973.680   110292655.27308  20987974.300    85942383.48149
  22617035.360   118853464.70507  22617040.100    92613161.62847
  21843314.840   114787730.51608  21843316.380    89445147.21848
  21314779.720   112009930.78509  21314780.540    87280469.69948
 15 02 02 00 39 30.0000000  0  6G16G18G21G25G29G31
  23825936.720   125206142.26006  23825937.820    97563235.58544
  24344839.460   127933000.08605  24344842.860    99688077.41544
  20983920.600   110271356.26208  20983921.180    85925786.85949
  22631710.100   118930581.89107  22631714.960    92673252.94746
  21855380.580   114851137.01208  21855382.220    89494554.87448
  21323350.380   112054969.94209  21323351.180    87315565.13948
 15 02 02 00 40  0.0000000  0  6G16G18G21G25G29G31
  23808655.080   125115326.72806  23808656.160    97492470.22745
  24329675.240   127853311.24906  24329678.200    99625982.52944
  20979953.740   110250510.33208  20979954.300    85909543.28049
  22646435.980   119007967.71407  22646440.880    92733553.56846
  21867465.860   114914645.70008  21867467.500    89544042.15548
  21332016.180   112100509.22509  21332017.020    87351050.28748
 15 02 02 00 40 30.0000000  0  6G16G18G21G25G29G31
  23791379.700   125024543.91006  23791380.740    97421730.35445
  24314503.960   127773585.35305  24314506.480    99563858.68444
  20976073.240   110230118.12508  20976073.780    85893653.24849
  22661213.060   119085621.96107  22661217.880    92794063.34947
  21879570.680   114978256.70108  21879572.240    89593609.16448
  21340776.940   112146547.47409  21340777.800    87386924.23948
 15 02 02 00 41  0.0000000  0  6G16G18G21G25G29G31
  23774111.120   124933796.87206  23774112.120    97351018.39445
  24299326.180   127693826.66906  24299328.640    99501709.31344
  20972279.340   110210181.01408  20972279.860    85878117.84749
  22676041.540   119163545.46107  22676046.080    92854782.92947
  21891694.980   115041970.01708  21891696.440    89643255.90048
  21349632.600   112193084.27409  21349633.460    87423186.67048
 15 02 02 00 41 30.0000000  0  6G16G18G21G25G29G31
  23756849.340   124843085.56407  23756850.420    97280334.27045
  24284142.340   127614036.40706  24284144.840    99439535.31244
  20968571.760   110190697.68108  20968572.300    85862936.03649
  22690920.980   119241736.25907  22690925.160    92915710.79846
  21903838.280   115105783.38208  21903839.700    89692980.58648
  21358582.620   112240116.65409  21358583.460    87459835.27348
 15 02 02 00 42  0.0000000  0  6G16G18G21G25G29G31
  23739594.780   124752412.46307  23739596.020    97209679.91145
  24268953.000   127534217.74206  24268955.540    99377339.18344
  20964950.720   110171669.08808  20964951.260    85848108.56849
  22705851.320   119320194.69207  22705855.260    92976847.22146
  21916000.700   115169697.48208  21916002.140    89742783.77348
  21367626.820   112287644.03309  21367627.660    87496869.58648
 15 02 02 00 42 30.0000000  0  6G16G18G21G25G29G31
  23722347.420   124661777.26307  23722348.820    97139055.11145
  24253758.500   127454371.72106  24253761.080    99315121.73443
  20961415.900   110153093.39908  20961416.420    85833634.01849
  22720832.000   119398918.29807  22720835.940    93038190.26847
  21928181.860   115233709.98908  21928183.320    89792663.63448
  21376764.460   112335662.47709  21376765.280    87534286.54948
 15 02 02 00 43  0.0000000  0  6G16G18G21G25G29G31
  23705107.880   124571182.62707  23705109.240    97068461.90245
  24238559.340   127374502.03705  24238562.320    99252885.82645
  20957967.500   110134972.04808  20957968.020    85819513.49349
  22735863.180   119477907.66107  22735867.320    93099740.41947
  21940381.700   115297820.85408  21940383.240    89842620.14048
  21385995.480   112384171.98309  21385996.340    87572086.15548
 15 02 02 00 43 30.0000000  0  6G16G18G21G25G29G31
  23687875.980   124480628.11106  23687877.300    96997899.94845
  24223355.880   127294608.91306  24223359.040    99190631.63845
  20954605.060   110117302.29308  20954605.580    85805744.85949
  22750944.320   119557159.85707  22750948.740    93161495.35747
  21952599.660   115362026.77508  21952601.240    89892650.71548
  21395319.100   112433168.26808  21395320.020    87610265.07048
 15 02 02 00 44  0.0000000  0  6G16G18G21G25G29G31
  23670652.260   124390117.19106  23670653.620    96927371.96845
  24208149.020   127214697.69306  24208152.400    99128363.33343
  20951328.900   110100085.98008  20951329.440    85792329.55849
  22766075.820   119636676.63907  22766080.500    93223456.47347
  21964836.160   115426330.13708  21964837.800    89942757.22348
  21404735.460   112482651.76809  21404736.400    87648823.63048
 15 02 02 00 44 30.0000000  0  6G16G18G21G25G29G31
  23653436.820   124299649.73707  23653438.140    96856877.84845
  24192938.820   127134768.74805  24192942.340    99066081.20444
  20948138.700   110083321.49408  20948139.300    85779266.33149
  22781257.340   119716455.48207  22781262.060    93285621.79347
  21977090.680   115490727.98008  21977092.320    89992937.35848
  21414243.920   112532618.89209  21414244.820    87687759.04548
 15 02 02 00 45  0.0000000  0  6G16G18G21G25G29G31
  23636230.260   124209229.12206  23636231.580    96786420.24244
  24177726.140   127054826.41106  24177729.740    99003788.70943
  20945034.960   110067011.32008  20945035.580    85766557.10849
  22796488.920   119796497.25707  22796493.540    93347991.98347
  21989363.240   115555220.80008  21989364.940    90043191.49348
  21423844.320   112583069.02109  21423845.140    87727070.82048
 15 02 02 00 45 30.0000000  0  6G16G18G21G25G29G31
  23619032.760   124118855.75406  23619033.960    96715999.46344
  24162511.120   126974872.38105  24162514.440    98941486.96245
  20942017.420   110051153.88808  20942018.000    85754200.67749
  22811770.320   119876800.54707  22811774.660    93410565.96346
  22001653.680   115619807.50008  22001655.380    90093518.78448
  21433536.240   112634000.02409  21433537.000    87766757.30148
 15 02 02 00 46  0.0000000  0  6G16G18G21G25G29G31
  23601844.540   124028530.74406  23601845.700    96645616.34245
  24147294.340   126894908.89506  24147297.780    98879177.95444
  20939085.840   110035748.20708  20939086.380    85742196.25949
  22827101.160   119957364.15107  22827105.260    93473342.77146
  22013961.840   115684487.18108  22013963.520    90143918.52748
  21443319.160   112685409.41609  21443319.900    87806816.55548
 15 02 02 00 46 30.0000000  0  6G16G18G21G25G29G31
  23584665.940   123938256.62006  23584667.060    96575272.87445
  24132076.360   126814939.22106  24132079.980    98816864.08641
  20936240.460   110020795.62908  20936240.980    85730544.91849
  22842481.320   120038188.27307  22842485.420    93536322.57546
  22026287.640   115749259.57908  22026289.300    90194390.51348
  21453192.940   112737296.34808  21453193.680    87847247.92148
 15 02 02 00 47  0.0000000  0  6G16G18G21G25G29G31
  23567497.320   123848035.17306  23567498.420    96504970.47245
  24116857.880   126734966.61706  24116861.520    98754547.90343
  20933481.220   110006295.80708  20933481.720    85719246.36149
  22857910.840   120119272.26107  22857915.100    93599504.88546
  22038631.080   115814124.30808  22038632.620    90244934.44647
  21463157.160   112789658.67809  21463157.900    87888049.73048
 15 02 02 00 47 30.0000000  0  6G16G18G21G25G29G31
  23550338.560   123757865.54406  23550339.600    96434708.42745
  24101638.860   126654990.99906  24101642.540    98692229.39543
  20930807.540   109992245.65508  20930808.040    85708298.19749
  22873389.260   120200613.16607  22873393.760    93662887.40046
  22050991.480   115879078.20208  22050992.960    90295547.85348
  21473211.040   112842492.25309  21473211.800    87929218.73748
 15 02 02 00 48  0.0000000  0  6G16G18G21G25G29G31
  23533190.320   123667751.15506  23533191.440    96364489.44545
  24086420.200   126575016.73006  24086423.740    98629911.90145
  20928219.820   109978647.48308  20928220.360    85697702.22649
  22888916.820   120282211.85407  22888921.520    93726470.77346
  22063368.960   115944121.99108  22063370.400    90346231.30747
  21483354.600   112895797.08908  21483355.420    87970754.96248
 15 02 02 00 48 30.0000000  0  6G16G18G21G25G29G31
  23516052.480   123577691.15306  23516053.560    96294312.82545
  24071201.980   126495044.12305  24071205.280    98567595.73645
  20925717.500   109965497.88708  20925718.060    85687455.79349
  22904492.980   120364065.21907  22904497.760    93790252.60446
  22075763.000   116009252.98408  22075764.360    90396982.71447
  21493586.920   112949568.55608  21493587.800    88012654.79548
 15 02 02 00 49  0.0000000  0  6G16G18G21G25G29G31
  23498925.760   123487689.85306  23498926.840    96224181.96245
  24055985.320   126415079.05806  24055988.240    98505285.43744
  20923301.160   109952800.13208  20923301.760    85677561.44649
  22920118.140   120446175.42407  22920122.960    93854234.56546
  22088174.060   116074473.40608  22088175.400    90447803.80947
  21503908.280   113003807.74509  21503909.180    88054919.08648
 15 02 02 00 49 30.0000000  0  6G16G18G21G25G29G31
  23481810.400   123397748.47606  23481811.640    96154097.78445
  24040770.400   126335123.07606  24040772.920    98442982.20944
  20920970.740   109940553.55308  20920971.320    85668018.66449
  22935791.980   120528541.11607  22935796.740    93918415.61047
  22100601.780   116139781.70708  22100603.160    90498693.38647
  21514318.140   113058511.90808  21514319.040    88097545.69848
 15 02 02 00 50  0.0000000  0  6G16G18G21G25G29G31
  23464709.120   123307880.94807  23464710.480    96084071.17645
  24025560.180   126255191.42706  24025562.460    98380697.94544
  20918728.380   109928769.48808  20918728.920    85658836.27749
  22951516.680   120611173.96307  22951521.300    93982804.84146
  22113048.560   116205190.08008  22113050.020    90549660.94547
  21524818.520   113113691.66108  21524819.400    88140542.89848
 15 02 02 00 50 30.0000000  0  7G16G18G21G25G27G29G31
  23447615.020   123218050.86707  23447616.480    96014073.73145
  24010347.580   126175248.48306  24010349.640    98318404.83042
  20916566.840   109917410.15808  20916567.340    85649984.85449
  22967284.700   120694034.97907  22967289.240    94047371.85446
  24614884.460   129352093.68805  24614888.660   100793849.17344
  22125506.960   116270659.46408  22125508.460    90600676.04447
  21535401.720   113169306.66608  21535402.620    88183879.25748
 15 02 02 00 51  0.0000000  0  7G16G18G21G25G27G29G31
  23430535.020   123128294.64307  23430536.480    95944133.83445
  23995140.000   126095331.75806  23995141.960    98256132.19244
  20914492.540   109906509.42308  20914493.020    85641490.78749
  22983102.520   120777158.09507  22983107.020    94112143.08746
  24600105.780   129274430.61205  24600110.000   100733332.63645
  22137983.560   116336224.14508  22137984.980    90651765.39747
  21546073.960   113225389.49508  21546074.860    88227580.15348
 15 02 02 00 51 30.0000000  0  7G16G18G21G25G27G29G31
  23413468.420   123038608.83407  23413469.780    95874248.79045
  23979936.640   126015438.36606  23979938.460    98193877.71244
  20912504.620   109896062.91708  20912505.140    85633350.66049
  22998969.080   120860537.62507  22998973.520    94177114.13546
  24585344.200   129196857.77005  24585348.400   100672886.39943
  22150477.060   116401877.90408  22150478.500    90702924.15747
  21556833.920   113281933.33808  21556834.820    88271640.28048
 15 02 02 00 52  0.0000000  0  7G16G18G21G25G27G29G31
  23396414.780   122948991.17707  23396416.040    95804416.88945
  23964737.540   125935567.82606  23964739.380    98131641.02344
  20910602.140   109886065.53808  20910602.680    85625560.50149
  23014883.520   120944168.60007  23014887.780    94242281.10046
  24570598.760   129119370.96605  24570603.120   100612507.19244
  22162986.640   116467616.14608  22162988.100    90754148.74047
  21567680.400   113338931.85408  21567681.300    88316054.69548
 15 02 02 00 52 30.0000000  0  7G16G18G21G25G27G29G31
  23379374.300   122859442.62707  23379375.400    95734638.81245
  23949543.060   125855721.93706  23949544.880    98069423.54244
  20908784.960   109876516.51508  20908785.520    85618119.71549
  23030845.680   121028049.89407  23030849.740    94307643.12946
  24555868.680   129041961.01905  24555872.740   100552202.90045
  22175512.280   116533438.56308  22175513.680    90805438.91947
  21578612.940   113396382.78908  21578613.860    88360821.64848
 15 02 02 00 53  0.0000000  0  7G16G18G21G25G27G29G31
  23362347.000   122769963.64107  23362348.060    95664914.94945
  23934353.480   125775901.78406  23934355.280    98007226.11444
  20907052.800   109867414.16908  20907053.340    85611026.97549
  23046855.100   121112179.26807  23046858.960    94373198.47046
  24541156.540   128964646.49105  24541161.400   100491951.31545
  22188053.500   116599342.90108  22188054.800    90856792.92447
  21589630.860   113454282.36808  21589631.800    88405938.18848
 15 02 02 00 53 30.0000000  0  7G16G18G21G25G27G29G31
  23345333.860   122680559.23307  23345334.940    95595249.20445
  23919170.080   125696113.65306  23919171.760    97945053.63944
  20905406.280   109858761.74008  20905406.800    85604284.82649
  23062912.160   121196559.22307  23062915.980    94438949.06846
  24526460.260   128887417.87305  24526465.500   100431773.29545
  22200610.780   116665331.71908  22200612.040    90908212.75947
  21600734.380   113512631.68608  21600735.320    88451405.17948
 15 02 02 00 54  0.0000000  0  7G16G18G21G25G27G29G31
  23328334.220   122591225.76707  23328335.300    95525638.72745
  23903992.360   125616354.70306  23903993.980    97882903.91244
  20903844.200   109850552.91708  20903844.680    85597888.35149
  23079015.700   121281183.49707  23079019.540    94504890.04946
  24511779.740   128810271.67705  24511785.020   100371659.48045
  22213182.960   116731399.04208  22213184.200    90959693.76847
  21611922.060   113571423.35708  21611923.040    88497216.86348
 15 02 02 00 54 30.0000000  0  7G16G18G21G25G27G29G31
  23311349.400   122501970.18707  23311350.500    95456088.94545
  23888821.680   125536632.94806  23888823.440    97820783.17944
  20902367.480   109842792.69008  20902367.920    85591841.43049
  23095166.500   121366056.59507  23095170.500    94571024.92846
  24497115.940   128733213.46005  24497121.320   100311614.21346
  22225770.900   116797549.41008  22225772.160    91011239.49747
  21623194.580   113630660.85408  21623195.560    88543375.94148
 15 02 02 00 55  0.0000000  0  7G16G18G21G25G27G29G31
  23294378.900   122412789.86307  23294379.980    95386597.81045
  23873657.940   125456946.93906  23873659.640    97758690.27444
  20900975.200   109835476.16508  20900975.640    85586140.24349
  23111363.660   121451173.28207  23111367.880    94637349.62646
  24482468.100   128656238.76505  24482473.420   100251634.03244
  22238373.720   116863778.01708  22238375.040    91062846.20047
  21634550.640   113690337.37108  21634551.600    88589877.11348
 15 02 02 00 55 30.0000000  0  7G16G18G21G25G27G29G31
  23277423.580   122323689.09707  23277424.620    95317168.68145
  23858501.920   125377301.36906  23858503.640    97696628.87943
  20899667.840   109828606.10508  20899668.320    85580786.95849
  23127607.460   121536535.16907  23127611.800    94703865.36946
  24467836.680   128579350.22305  24467841.980   100191720.98945
  22250991.840   116930086.91908  22250993.220    91114515.47447
  21645990.320   113750453.09508  21645991.200    88636720.52648
 15 02 02 00 56  0.0000000  0  7G16G18G21G25G27G29G31
  23260483.740   122234669.67607  23260484.840    95247802.92745
  23843353.960   125297699.08206  23843355.840    97634601.20744
  20898445.280   109822181.79208  20898445.800    85575781.01049
  23143897.780   121622141.66007  23143902.200    94770571.70146
  24453221.680   128502548.08705  24453226.880   100131875.24845
  22263625.120   116996475.26208  22263626.520    91166246.64047
  21657513.180   113811006.04708  21657514.000    88683904.63048
 15 02 02 00 56 30.0000000  0  7G16G18G21G25G27G29G31
  23243559.540   122145732.55207  23243560.700    95178501.30446
  23828214.820   125218142.40906  23828216.620    97572609.04044
  20897307.280   109816201.90908  20897307.860    85571121.36749
  23160234.320   121707990.80407  23160238.680    94837467.11246
  24438622.820   128425831.36705  24438627.940   100072096.10245
  22276273.340   117062942.03308  22276274.780    91218038.91047
  21669118.660   113871993.26608  21669119.460    88731427.12848
 15 02 02 00 57  0.0000000  0  7G16G18G21G25G27G29G31
  23226651.560   122056880.80707  23226652.800    95109266.20345
  23813084.960   125138634.82106  23813086.940    97510655.15944
  20896253.960   109810666.72208  20896254.520    85566808.24149
  23176617.080   121794083.20407  23176621.340    94904552.08646
  24424040.500   128349201.62005  24424045.680   100012384.70744
  22288936.620   117129487.80308  22288938.060    91269892.73547
  21680806.600   113933413.91608  21680807.420    88779287.35648
 15 02 02 00 57 30.0000000  0  7G16G18G21G25G27G29G31
  23209759.780   121968114.24807  23209761.060    95040097.48045
  23797964.600   125059177.43606  23797966.760    97448740.36944
  20895284.920   109805574.39308  20895285.480    85562840.19449
  23193045.540   121880415.94007  23193049.740    94971824.31246
  24409474.380   128272656.81805  24409479.340    99952739.50845
  22301614.440   117196110.06008  22301615.880    91321806.16147
  21692576.180   113995263.45508  21692577.020    88827481.79948
 15 02 02 00 58  0.0000000  0  7G16G18G21G25G27G29G31
  23192884.600   121879434.66207  23192885.880    94970996.52745
  23782854.400   124979773.18306  23782856.700    97386867.01145
  20894400.040   109800924.39408  20894400.620    85559216.82849
  23209519.600   121966988.38007  23209523.800    95039283.33745
  24394924.560   128196197.27105  24394929.340    99893160.74445
  22314306.680   117262808.30208  22314308.160    91373778.79147
  21704426.980   114057539.81408  21704427.860    88876008.82548
 15 02 02 00 58 30.0000000  0  7G16G18G21G25G27G29G31
  23176026.280   121790843.43807  23176027.480    94901964.42945
  23767754.780   124900423.94506  23767757.020    97325036.50545
  20893599.140   109796715.39908  20893599.680    85555937.09849
  23226039.080   122053799.04107  23226043.240    95106927.99445
  24380390.860   128119822.48505  24380395.520    99833648.02945
  22327013.300   117329582.02508  22327014.780    91425810.24147
  21716358.500   114120240.52708  21716359.440    88924866.51148
 15 02 02 00 59  0.0000000  0  7G16G18G21G25G27G29G31
  23159185.240   121702342.97807  23159186.320    94833003.06445
  23752666.440   124821133.24506  23752668.460    97263251.59844
  20892882.280   109792948.08808  20892882.760    85553001.53749
  23242603.900   122140847.61807  23242608.040    95174758.04845
  24365873.340   128043533.13305  24365877.820    99774201.85843
  22339734.280   117396430.87408  22339735.660    91477900.22547
  21728370.460   114183363.77908  21728371.440    88974053.45548
 15 02 02 00 59 30.0000000  0  7G16G18G21G25G27G29G31
  23142361.980   121613936.17707  23142363.080    94764114.68045
  23737589.780   124741904.33406  23737591.820    97201514.87045
  20892249.520   109789622.71508  20892249.960    85550410.33749
  23259214.100   122228134.25707  23259218.160    95242773.60445
  24351372.360   127967330.34505  24351376.660    99714823.12944
  22352469.700   117463355.53308  22352470.960    91530049.29147
  21740462.620   114246908.51408  21740463.600    89023568.82148
 15 02 02 01 00  0.0000000  0  7G16G18G21G25G27G29G31
  23125556.680   121525623.87307  23125557.760    94695299.91545
  23722525.280   124662739.70706  23722527.220    97139828.22445
  20891700.520   109786737.61908  20891700.940    85548162.22149
  23275869.300   122315657.04607  23275873.320    95310973.16646
  24336887.720   127891213.14005  24336891.960    99655511.13845
  22365219.180   117530354.42308  22365220.440    91582256.19847
  21752634.320   114310871.08008  21752635.260    89073409.77048
 15 02 02 01 00 30.0000000  0  7G16G18G21G25G27G29G31
  23108769.760   121437408.19507  23108770.800    94626560.45445
  23707473.420   124583642.04606  23707475.400    97078193.75845
  20891235.220   109784292.48008  20891235.640    85546256.92249
  23292569.320   122403415.41007  23292573.380    95379356.28846
  24322419.360   127815181.92305  24322423.780    99596266.12445
  22377982.720   117597427.44908  22377984.040    91634520.88347
  21764885.200   114375249.74108  21764886.080    89123574.94348
 15 02 02 01 01  0.0000000  0  7G16G18G21G25G27G29G31
  23092001.600   121349290.96707  23092002.580    94557897.69946
  23692434.720   124504614.08506  23692436.660    97016613.59645
  20890853.460   109782286.55908  20890853.940    85544693.87549
  23309313.880   122491408.26807  23309318.060    95447922.13946
  24307967.420   127739236.62105  24307972.040    99537088.03845
  22390760.280   117664573.99908  22390761.680    91686842.85847
  21777214.800   114440042.02708  21777215.640    89174062.41848
 15 02 02 01 01 30.0000000  0  7G16G18G21G25G27G29G31
  23075252.440   121261273.61508  23075253.380    94489312.77045
  23677409.680   124425658.51906  23677411.720    96955089.82645
  20890555.200   109780719.39708  20890555.720    85543472.71649
  23326102.740   122579634.59307  23326107.080    95516669.90946
  24293531.800   127663377.16505  24293536.620    99477976.86445
  22403551.700   117731793.64308  22403553.220    91739221.79147
  21789622.620   114505245.49508  21789623.460    89224870.30348
 15 02 02 01 02  0.0000000  0  7G16G18G21G25G27G29G31
  23058522.880   121173359.23907  23058523.800    94420808.08446
  23662398.940   124346778.62406  23662401.120    96893625.04044
  20890340.380   109779590.65008  20890340.920    85542593.17649
  23342936.020   122668094.53106  23342940.500    95585599.71046
  24279112.680   127587604.84005  24279117.780    99418933.60945
  22416357.180   117799087.01808  22416358.780    91791658.16947
  21802108.460   114570858.79108  21802109.300    89275997.53248
 15 02 02 01 02 30.0000000  0  7G16G18G21G25G27G29G31
  23041812.800   121085547.21107  23041813.740    94352383.15346
  23647402.700   124267974.53506  23647405.060    96832219.28944
  20890208.640   109778898.37508  20890209.160    85542053.75049
  23359812.980   122756784.58206  23359817.700    95654708.80846
  24264709.720   127511916.99005  24264714.900    99359956.11446
  22429176.060   117866450.65308  22429177.700    91844149.30947
  21814671.340   114636876.89008  21814672.200    89327440.19448
 15 02 02 01 03  0.0000000  0  7G16G18G21G25G27G29G31
  23025122.700   120997840.19607  23025123.680    94284040.04346
  23632421.780   124189250.37506  23632423.980    96770875.82945
  20890159.860   109778641.99508  20890160.360    85541853.97549
  23376733.640   122845704.36706  23376738.480    95723996.92346
  24250322.880   127436314.37105  24250328.140    99301045.06345
  22442008.420   117933885.07908  22442010.080    91896695.61247
  21827310.900   114703298.02408  21827311.780    89379196.90348
 15 02 02 01 03 30.0000000  0  7G16G18G21G25G27G29G31
  23008452.760   120910239.40607  23008453.820    94215779.71246
  23617456.620   124110608.37306  23617458.640    96709596.41045
  20890193.780   109778820.04108  20890194.200    85541992.72249
  23393697.960   122934852.62806  23393702.720    95793463.08245
  24235952.160   127360796.67105  24235957.420    99242200.17545
  22454854.040   118001389.18108  22454855.660    91949296.19747
  21840026.640   114770119.69108  21840027.520    89431265.72148
 15 02 02 01 04  0.0000000  0  7G16G18G21G25G27G29G31
  22991803.580   120822747.46907  22991804.700    94147604.20246
  23602507.880   124032051.77206  23602509.640    96648383.52244
  20890310.500   109779433.15308  20890310.860    85542470.48149
  23410705.820   123024229.01507  23410710.300    95863107.01245
  24221597.740   127285364.63805  24221602.940    99183422.04245
  22467713.000   118068963.60308  22467714.580    92001951.57547
  21852818.260   114837340.32608  21852819.180    89483645.42648
 15 02 02 01 04 30.0000000  0  7G16G18G21G25G27G29G31
  22975175.340   120735365.31307  22975176.460    94079514.24246
  23587575.660   123953582.00906  23587577.440    96587238.32344
  20890509.600   109780479.43408  20890509.940    85543285.77449
  23427756.760   123113831.39807  23427760.960    95932927.02245
  24207259.460   127210017.16205  24207264.660    99124709.79645
  22480585.040   118136606.66608  22480586.640    92054660.43947
  21865685.100   114904956.17408  21865686.020    89536333.08348
 15 02 02 01 05  0.0000000  0  7G16G18G21G25G27G29G31
  22958568.480   120648095.45607  22958569.600    94011511.77746
  23572660.680   123875202.68206  23572662.320    96526163.56044
  20890791.080   109781958.50808  20890791.400    85544438.30249
  23444850.680   123203659.59207  23444854.580    96002923.01645
  24192937.480   127134755.04905  24192942.580    99066064.09645
  22493470.240   118204318.71808  22493471.800    92107423.06047
  21878626.800   114972965.42408  21878627.740    89589327.28648
 15 02 02 01 05 30.0000000  0  7G16G18G21G25G27G29G31
  22941983.420   120560940.27007  22941984.540    93943598.66446
  23557763.460   123796917.03706  23557765.100    96465161.80745
  20891154.820   109783870.02708  20891155.160    85545927.80149
  23461987.360   123293712.77807  23461991.220    96073094.30545
  24178631.900   127059578.61806  24178636.800    99007485.13544
  22506368.520   118272099.19308  22506369.940    92160239.00447
  21891642.980   115041366.03008  21891644.000    89642626.45548
 15 02 02 01 06  0.0000000  0  7G16G18G21G25G27G29G31
  22925420.440   120473901.61407  22925421.600    93875776.35546
  23542884.580   123718727.63706  23542886.240    96404235.05244
  20891600.820   109786213.69408  20891601.140    85547754.04049
  23479166.660   123383989.96306  23479170.480    96143440.15445
  24164342.680   126984487.94306  24164347.320    98948973.01445
  22519279.860   118339948.32508  22519281.180    92213108.43747
  21904733.160   115110155.47908  21904734.200    89696228.61748
 15 02 02 01 06 30.0000000  0  7G16G18G21G25G27G29G31
  22908879.800   120386980.31607  22908880.980    93808045.49046
  23528024.400   123640636.14407  23528025.980    96343384.57045
  20892128.640   109788987.52808  20892128.980    85549915.46649
  23496388.160   123474489.32706  23496392.060    96213959.11546
  24150069.620   126909482.24306  24150074.040    98890527.09345
  22532203.980   118407864.48208  22532205.240    92266030.09247
  21917896.700   115179330.34308  21917897.760    89750131.09548
 15 02 02 01 07  0.0000000  0  7G16G18G21G25G27G29G31
  22892362.220   120300180.18107  22892363.360    93740409.04146
  23513183.600   123562646.74607  23513185.200    96282613.67445
  20892738.400   109792192.08008  20892738.780    85552412.52849
  23513651.820   123565211.28506  23513655.980    96284651.52546
  24135812.980   126834562.99206  24135817.320    98832148.54845
  22545141.060   118475848.59508  22545142.280    92319004.70847
  21931133.420   115248889.71308  21931134.480    89804333.18748
 15 02 02 01 07 30.0000000  0  7G16G18G21G25G27G29G31
  22875868.020   120213502.79307  22875869.140    93672868.24246
  23498362.640   123484762.47807  23498364.360    96221924.66145
  20893430.020   109795826.53608  20893430.400    85555244.57649
  23530957.540   123656154.89506  23530962.120    96355516.64145
  24121572.840   126759730.33306  24121577.120    98773837.46545
  22558091.020   118543900.67308  22558092.280    92372032.28847
  21944442.940   115318831.46108  21944443.980    89858833.23548
 15 02 02 01 08  0.0000000  0  7G16G18G21G25G27G29G31
  22859397.180   120126947.80007  22859398.200    93605422.80946
  23483561.760   123406983.61506  23483563.580    96161317.78546
  20894202.900   109799888.14008  20894203.300    85558409.46849
  23548304.820   123747316.51706  23548309.740    96426551.65746
  24107348.620   126684981.72106  24107352.960    98715591.86045
  22571053.260   118612017.59108  22571054.580    92425110.39447
