     2.11           OBSERVATION DATA    G                   RINEX VERSION / TYPE
SPIDER V4,0,0,3554                      2015 04 15 02:41    PGM / RUN BY / DATE 
CABS                                                        MARKER NAME         
CABS                                                        MARKER NUMBER       
                                                            OBSERVER / AGENCY   
462287              LEICA GRX1200PRO    8.10/2.127          REC # / TYPE / VERS 
103298              LEIAT504                                ANT # / TYPE        
  5116912.3402   671231.6412  3737143.4301                  APPROX POSITION XYZ 
        0.0600        0.0000        0.0000                  ANTENNA: DELTA H/E/N
     1     1                                                WAVELENGTH FACT L1/2
     4    C1    L1    P2    L2                              # / TYPES OF OBSERV 
    30.000                                                  INTERVAL            
  2015    01    23    00    00    0.0000000     GPS         TIME OF FIRST OBS   
  2015    01    23    23    59   30.0000000     GPS         TIME OF LAST OBS    
    16                                                      LEAP SECONDS        
    30                                                      # OF SATELLITES     
   G 1   792   792   792   792                              PRN / # OF OBS      
   G 2   948   948   948   948                              PRN / # OF OBS      
   G 3   846   846   846   846                              PRN / # OF OBS      
   G 4   832   832   832   832                              PRN / # OF OBS      
   G 5   646   646   646   646                              PRN / # OF OBS      
   G 6   831   831   831   831                              PRN / # OF OBS      
   G 7   671   671   671   671                              PRN / # OF OBS      
   G 9   806   806   806   806                              PRN / # OF OBS      
   G10   753   753   753   753                              PRN / # OF OBS      
   G11   771   771   771   771                              PRN / # OF OBS      
   G12   836   836   836   836                              PRN / # OF OBS      
   G13   791   791   791   791                              PRN / # OF OBS      
   G14   948   948   948   948                              PRN / # OF OBS      
   G15   699   699   699   699                              PRN / # OF OBS      
   G16   659   659   659   659                              PRN / # OF OBS      
   G17   942   942   942   942                              PRN / # OF OBS      
   G18   900   900   900   900                              PRN / # OF OBS      
   G19   751   751   751   751                              PRN / # OF OBS      
   G20   827   827   827   827                              PRN / # OF OBS      
   G21   744   744   744   744                              PRN / # OF OBS      
   G22   656   656   656   656                              PRN / # OF OBS      
   G23   756   756   756   756                              PRN / # OF OBS      
   G24   816   816   816   816                              PRN / # OF OBS      
   G25   856   856   855   855                              PRN / # OF OBS      
   G27   793   793   793   793                              PRN / # OF OBS      
   G28   851   851   851   851                              PRN / # OF OBS      
   G29   784   784   784   784                              PRN / # OF OBS      
   G30   711   711   711   711                              PRN / # OF OBS      
   G31   867   867   867   867                              PRN / # OF OBS      
   G32   772   772   772   772                              PRN / # OF OBS      
BIT 2 OF LLI FLAGS DATA COLLECTED UNDER A/S CONDITION       COMMENT             
SNR is mapped to RINEX snr flag value [2-9]                 COMMENT             
Lx:     = 25dBHz -> 1; 26-27dBHz -> 2; 28-31dBHz -> 3       COMMENT             
       32-35dBHz -> 4; 36-38dBHz -> 5; 39-41dBHz -> 6       COMMENT             
       42-44dBHz -> 7; 45-48dBHz -> 8; >=49dBHz -> 9        COMMENT             
                                                            END OF HEADER       
 15 01 23 00 00  0.0000000  0  7G02G12G14G21G25G29G31
  24606542.100   129308269.22206  24606540.860   100759683.03944
  23545828.940   123734241.22407  23545830.320    96416332.74845
  24013134.180   126189850.88106  24013136.580    98329745.11545
  22676351.140   119165055.60307  22676352.320    92855901.41046
  20982881.540   110265842.71009  20982885.440    85921474.35548
  20307424.260   106716330.54009  20307425.580    83155636.23749
  21268713.780   111767854.38709  21268714.300    87091834.98448
 15 01 23 00 00 30.0000000  0  7G02G12G14G21G25G29G31
  24622296.840   129391061.03206  24622295.660   100824196.12545
  23559762.380   123807460.43507  23559763.440    96473386.67245
  24028310.980   126269605.00106  24028313.400    98391891.11145
  22660538.460   119081958.20807  22660539.220    92791150.22846
  20988920.040   110297575.24709  20988923.960    85946200.99948
  20313162.600   106746485.64409  20313163.900    83179133.71949
  21260841.180   111726483.68909  21260841.720    87059598.07548
 15 01 23 00 01  0.0000000  0  7G02G12G14G21G25G29G31
  24638098.660   129474100.36906  24638097.560   100888902.09445
  23573722.940   123880823.40207  23573724.020    96530552.59246
  24043507.020   126349460.84906  24043509.460    98454116.37144
  22644774.140   118999115.63307  22644774.620    92726597.57346
  20995010.800   110329582.47809  20995014.720    85971141.68848
  20318962.680   106776965.37009  20318964.020    83202884.15149
  21253062.200   111685604.72909  21253062.700    87027744.33548
 15 01 23 00 01 30.0000000  0  7G02G12G14G21G25G29G31
  24653947.040   129557384.27306  24653946.060   100953798.65344
  23587710.500   123954329.25407  23587711.860    96587829.86746
  24058721.720   126429414.81606  24058724.100    98516418.10044
  22629058.460   118916529.40007  22629058.920    92662244.68746
  21001153.820   110361864.02709  21001157.720    85996296.13248
  20324824.160   106807767.78909  20324825.520    83226886.03249
  21245376.980   111645218.47509  21245377.440    86996274.52348
 15 01 23 00 02  0.0000000  0  7G02G12G14G21G25G29G31
  24669841.600   129640910.52606  24669840.720   101018884.01445
  23601725.360   124027978.30007  23601726.980    96645218.72446
  24073954.540   126509463.70706  24073956.740    98578793.76344
  22613391.820   118834201.66607  22613392.480    92598093.22046
  21007349.140   110394420.43809  21007353.020    86021664.75548
  20330746.700   106838891.16209  20330748.120    83251138.00949
  21237785.840   111605326.83909  21237786.300    86965190.13148
 15 01 23 00 02 30.0000000  0  7G02G12G14G21G25G29G31
  24685781.800   129724676.90106  24685780.980   101084156.53845
  23615767.500   124101770.32507  23615769.360    96702718.98946
  24089204.840   126589604.39806  24089207.000    98641240.95345
  22597774.760   118752134.60407  22597775.740    92534144.87146
  21013596.820   110427251.94409  21013600.640    86047247.73548
  20336730.000   106870333.77609  20336731.420    83275638.74549
  21230289.020   111565931.12809  21230289.580    86934492.17948
 15 01 23 00 03  0.0000000  0  7G02G12G14G21G25G29G31
  24701767.520   129808682.21906  24701766.700   101149615.21745
  23629837.080   124175706.17307  23629838.940    96760331.32346
  24104472.260   126669834.89806  24104474.500    98703758.14345
  22582208.040   118670331.44607  22582209.260    92470402.15446
  21019897.140   110460360.05509  21019900.900    86073046.24948
  20342774.020   106902095.21909  20342775.420    83300387.92149
  21222887.100   111527033.94709  21222887.720    86904182.68748
 15 01 23 00 03 30.0000000  0  7G02G12G14G21G25G29G31
  24717798.020   129892923.33305  24717797.140   101215257.62944
  23643934.020   124249785.09407  23643935.700    96818055.13146
  24119756.060   126750151.02106  24119758.280    98766342.02945
  22566691.900   118588793.12808  22566693.120    92406865.82146
  21026250.000   110493744.19709  21026253.680    86099059.85648
  20348878.140   106934172.48909  20348879.520    83325383.19849
  21215580.260   111488636.26909  21215580.900    86874262.41748
 15 01 23 00 04  0.0000000  0  7G02G12G14G21G25G29G31
  24733872.840   129977397.78905  24733872.120   101281081.86044
  23658058.080   124324006.64807  23658059.640    96875890.09446
  24135055.700   126830549.76106  24135057.780    98828990.29945
  22551226.680   118507521.90508  22551227.780    92343537.61846
  21032655.440   110527404.72809  21032659.100    86125288.83648
  20355042.060   106966563.96509  20355043.440    83350623.30549
  21208368.780   111450739.52109  21208369.400    86844732.47748
 15 01 23 00 04 30.0000000  0  7G02G12G14G21G25G29G31
  24749991.860   130062104.56206  24749991.220   101347087.09544
  23672209.540   124398372.14707  23672210.940    96933837.22246
  24150370.580   126911029.16006  24150372.740    98891701.39545
  22535812.960   118426521.06908  22535813.760    92280420.10446
  21039113.660   110561343.03209  21039117.380    86151734.26448
  20361265.760   106999269.63509  20361267.120    83376108.23949
  21201253.120   111413346.43309  21201253.720    86815595.00448
 15 01 23 00 05  0.0000000  0  7G02G12G14G21G25G29G31
  24766154.720   130147041.28306  24766154.240   101413271.54744
  23686388.180   124472881.26107  23686389.600    96991896.23146
  24165700.080   126991585.91106  24165702.260    98954472.79745
  22520451.000   118345792.52908  22520451.560    92217514.76646
  21045624.760   110595559.39808  21045628.540    86178396.36548
  20367548.840   107032287.24309  20367550.180    83401836.25049
  21194233.560   111376458.37009  21194234.140    86786851.05748
 15 01 23 00 05 30.0000000  0  7G02G12G14G21G25G29G31
  24782360.900   130232205.46506  24782360.600   101479633.24745
  23700594.000   124547533.72807  23700595.460    97050066.96546
  24181043.620   127072216.49306  24181045.960    99017301.69845
  22505141.000   118265338.01207  22505141.500    92154822.95146
  21052188.780   110630053.86108  21052192.640    86205275.16348
  20373890.860   107065614.68609  20373892.200    83427805.68849
  21187310.320   111340076.56709  21187310.900    86758501.59348
 15 01 23 00 06  0.0000000  0  7G02G12G14G21G25G29G31
  24798609.940   130317594.17905  24798609.580   101546169.90344
  23714826.960   124622328.60007  23714828.480    97108348.67046
  24196400.480   127152917.07406  24196402.980    99080185.16844
  22489883.300   118185159.07207  22489883.900    92092345.86546
  21058805.660   110664826.05408  21058809.580    86232370.36748
  20380291.440   107099249.91909  20380292.760    83454014.95449
  21180483.640   111304202.16809  21180484.240    86730547.51349
 15 01 23 00 06 30.0000000  0  6G12G14G21G25G29G31
  23729088.500   124697273.06007  23729089.760    97166746.95445
  24211771.560   127233692.25806  24211774.060    99143126.73545
  22474679.620   118105264.88107  22474680.480    92030090.66447
  21065476.900   110699883.64709  21065480.840    86259687.95548
  20386751.660   107133198.55709  20386752.960    83480468.43449
  21173755.140   111268843.61509  21173755.740    86702995.38948
 15 01 23 00 07  0.0000000  0  6G12G14G21G25G29G31
  23743376.240   124772355.24407  23743377.240    97225252.53045
  24227154.040   127314527.20006  24227156.500    99206114.86645
  22459528.360   118025645.75407  22459529.480    91968049.79846
  21072200.260   110735215.18108  21072204.220    86287219.00748
  20393268.940   107167446.89709  20393270.200    83507155.44849
  21167122.900   111233990.60909  21167123.460    86675837.19949
 15 01 23 00 07 30.0000000  0  6G12G14G21G25G29G31
  23757691.040   124847579.74707  23757692.000    97283868.98945
  24242548.140   127395423.38706  24242550.700    99269150.74744
  22444430.880   117946308.47407  22444432.140    91906228.54747
  21078976.720   110770825.64009  21078980.700    86314967.39248
  20399843.820   107201997.93009  20399845.060    83534078.33949
  21160588.080   111199649.46509  21160588.560    86649077.86149
 15 01 23 00 08  0.0000000  0  6G12G14G21G25G29G31
  23772033.080   124922947.83107  23772034.000    97342597.38045
  24257953.600   127476379.06106  24257956.200    99332232.95144
  22429387.920   117867256.62608  22429389.120    91844629.71947
  21085806.600   110806716.74208  21085810.620    86342934.45748
  20406476.280   107236851.70109  20406477.500    83561237.11849
  21154151.100   111165822.80609  21154151.600    86622719.42448
 15 01 23 00 08 30.0000000  0  6G12G14G21G25G29G31
  23786402.340   124998458.77307  23786403.360    97401437.05546
  24273369.560   127557390.39305  24273372.140    99395358.52044
  22414399.620   117788491.39508  22414400.620    91783254.22747
  21092689.820   110842888.01809  21092693.820    86371119.85548
  20413165.800   107272005.36609  20413167.020    83588629.58449
  21147812.060   111132511.20009  21147812.620    86596762.32648
 15 01 23 00 09  0.0000000  0  6G12G14G21G25G29G31
  23800798.580   125074111.51407  23800799.800    97460387.21046
  24288795.500   127638453.68505  24288798.140    99458524.56744
  22399466.060   117710014.09108  22399466.900    91722103.10347
  21099626.360   110879339.27409  21099630.320    86399523.41348
  20419912.040   107307456.88309  20419913.240    83616254.14349
  21141571.280   111099715.98209  21141571.920    86571207.60648
 15 01 23 00 09 30.0000000  0  6G12G14G21G25G29G31
  23815221.640   125149905.35607  23815222.900    97519447.32645
  24304230.560   127719565.14405  24304233.220    99521728.16944
  22384587.420   117631826.06008  22384588.180    91661177.36746
  21106616.040   110916069.99708  21106620.000    86428144.75348
  20426714.400   107343203.52409  20426715.640    83644108.67049
  21135428.820   111067437.31509  21135429.480    86546055.39948
 15 01 23 00 10  0.0000000  0  6G12G14G21G25G29G31
  23829671.540   125225839.88006  23829672.680    97578617.10845
  24319674.080   127800720.95305  24319676.860    99584966.26945
  22369764.000   117553928.85408  22369764.720    91600478.25746
  21113658.840   110953080.08708  21113662.820    86456983.77048
  20433572.600   107379243.58709  20433573.880    83672191.83249
  21129384.880   111035676.29109  21129385.540    86521306.54748
 15 01 23 00 10 30.0000000  0  6G12G14G21G25G29G31
  23844148.660   125301917.25207  23844149.780    97637898.16845
  24335126.180   127881921.37806  24335129.040    99648239.18045
  22354996.800   117476327.40108  22354997.540    91540009.61547
  21120755.400   110990372.75908  21120759.340    86486042.97648
  20440486.780   107415577.88509  20440488.060    83700504.26249
  21123440.280   111004437.11209  21123440.900    86496964.32848
 15 01 23 00 11  0.0000000  0  6G12G14G21G25G29G31
  23858652.880   125378138.20406  23858654.140    97697291.09045
  24350586.220   127963163.54006  24350589.000    99711544.57344
  22340286.320   117399024.12408  22340287.180    91479773.30647
  21127905.900   111027948.73708  21127909.780    86515322.94548
  20447456.780   107452205.59509  20447458.060    83729045.33749
  21117595.380   110973722.01609  21117595.980    86473030.47848
 15 01 23 00 11 30.0000000  0  6G12G14G21G25G29G31
  23873184.360   125454502.39806  23873185.760    97756795.67146
  24366053.740   128044444.78505  24366056.320    99774880.42944
  22325633.020   117322020.64708  22325633.840    91419770.61047
  21135110.300   111065808.14408  21135114.140    86544823.76948
  20454482.240   107489124.71309  20454483.540    83757813.48049
  21111850.280   110943531.30109  21111850.840    86449505.24248
 15 01 23 00 12  0.0000000  0  6G12G14G21G25G29G31
  23887742.840   125531008.45007  23887744.440    97816410.73545
  24381527.800   128125760.32605  24381530.220    99838243.00444
  22311037.020   117245317.80508  22311037.760    91360002.17747
  21142368.420   111103950.07108  21142372.260    86574544.74248
  20461562.540   107526331.95609  20461563.820    83786806.13549
  21106205.100   110913865.51709  21106205.640    86426389.04848
 15 01 23 00 12 30.0000000  0  6G12G14G21G25G29G31
  23902328.180   125607655.25706  23902329.960    97876135.51246
  24397007.500   128207105.77105  24397009.800    99901628.85245
  22296498.420   117168916.23408  22296499.080    91300468.50847
  21149680.080   111142373.67208  21149684.000    86604485.19348
  20468697.220   107563825.07109  20468698.540    83816021.53949
  21100659.840   110884724.84509  21100660.340    86403682.02548
 15 01 23 00 13  0.0000000  0  6G12G14G21G25G29G31
  23916940.860   125684445.14907  23916942.640    97935971.76845
  24412492.700   128288481.30105  24412495.360    99965038.18644
  22282018.200   117092821.52608  22282018.820    91241173.95047
  21157045.940   111181082.07408  21157049.960    86634647.56848
  20475886.500   107601605.06909  20475887.860    83845460.49649
  21095215.260   110856113.51309  21095215.800    86381387.47849
 15 01 23 00 13 30.0000000  0  6G12G14G21G25G29G31
  23931580.420   125761376.28306  23931582.120    97995918.08446
  24427982.580   128369881.70605  24427985.440   100028466.86244
  22267596.140   117017033.09408  22267596.820    91182118.04247
  21164465.740   111220073.42008  21164469.780    86665030.41748
  20483129.620   107639667.98209  20483130.980    83875119.90549
  21089871.240   110828030.40909  21089871.760    86359504.53849
 15 01 23 00 14  0.0000000  0  6G12G14G21G25G29G31
  23946246.640   125838447.04506  23946248.160    98055973.24245
  24443476.500   128451302.90705  24443479.640   100091911.73344
  22253232.340   116941551.53108  22253233.180    91123301.24947
  21171939.260   111259346.97008  21171943.300    86695633.17448
  20490426.020   107678010.85409  20490427.400    83904997.46649
  21084627.800   110800475.69109  21084628.260    86338033.32549
 15 01 23 00 14 30.0000000  0  6G12G14G21G25G29G31
  23960939.640   125915658.96406  23960941.000    98116138.34045
  24458974.320   128532743.85505  24458977.540   100155371.98744
  22238927.600   116866380.83108  22238928.640    91064726.68247
  21179467.000   111298905.03508  21179470.960    86726457.62648
  20497775.900   107716634.66009  20497777.220    83935093.94049
  21079485.560   110773452.77709  21079485.980    86316976.50749
 15 01 23 00 15  0.0000000  0  6G12G14G21G25G29G31
  23975659.160   125993010.71806  23975660.580    98176412.41746
  24474475.380   128614200.39105  24474478.420   100218844.40444
  22224682.120   116791521.53208  22224683.360    91006394.77347
  21187048.660   111338746.37308  21187052.520    86757502.81648
  20505178.600   107755536.06909  20505179.900    83965406.72949
  21074444.440   110746961.30009  21074444.840    86296333.79849
 15 01 23 00 15 30.0000000  0  6G12G14G21G25G29G31
  23990405.860   126070505.96406  23990407.540    98236798.30646
  24489979.460   128695672.51405  24489982.480   100282328.91944
  22210497.020   116716978.86908  22210498.360    90948309.59447
  21194684.880   111378874.54308  21194688.680    86788771.50348
  20512634.420   107794716.60709  20512635.720    83995937.01849
  21069505.280   110721005.85709  21069505.700    86276108.77349
 15 01 23 00 16  0.0000000  0  6G12G14G21G25G29G31
  24005179.880   126148144.41306  24005181.640    98297295.76045
  24505485.880   128777157.51505  24505488.980   100345823.48344
  22196372.800   116642755.17208  22196374.020    90890472.95947
  21202375.760   111419290.10408  21202379.520    86820264.14148
  20520143.060   107834174.81409  20520144.380    84026683.67249
  21064668.280   110695587.58209  21064668.780    86256302.31949
 15 01 23 00 16 30.0000000  0  6G12G14G21G25G29G31
  24019980.500   126225922.20406  24019982.300    98357901.83545
  24520993.380   128858648.63705  24520996.460   100409322.81544
  22182309.020   116568848.60308  22182310.000    90832883.45147
  21210120.640   111459989.57908  21210124.380    86851978.00148
  20527703.520   107873905.26809  20527704.880    84057642.46649
  21059933.060   110670704.05309  21059933.620    86236912.55949
 15 01 23 00 17  0.0000000  0  5G12G21G25G29G31
  24034807.860   126303840.29907  24034809.600    98418617.23344
  22168306.200   116495262.59608  22168307.020    90775543.72647
  21217919.920   111500974.90608  21217923.640    86883914.60848
  20535315.800   107913908.06109  20535317.180    84088813.47449
  21055300.140   110646358.07609  21055300.760    86217941.66549
 15 01 23 00 17 30.0000000  0  5G12G21G25G29G31
  24049662.220   126381899.30506  24049663.580    98479442.47446
  22154364.680   116421999.17008  22154365.380    90718455.35047
  21225773.680   111542246.66208  21225777.420    86916074.41148
  20542979.640   107954181.74709  20542981.020    84120195.56649
  21050769.800   110622550.93609  21050770.440    86199390.64349
 15 01 23 00 18  0.0000000  0  5G12G21G25G29G31
  24064543.400   126460099.71607  24064544.620    98540377.76746
  22140484.960   116349060.97508  22140485.700    90661620.40147
  21233682.080   111583805.51608  21233685.820    86948457.93648
  20550694.800   107994725.14409  20550696.160    84151787.82249
  21046342.360   110599284.38809  21046342.980    86181260.86349
 15 01 23 00 18 30.0000000  0  5G12G21G25G29G31
  24079449.940   126538432.36306  24079451.040    98601416.20546
  22126665.700   116276440.78808  22126666.540    90605033.25147
  21241643.480   111625642.92908  21241647.260    86981058.51848
  20558459.220   108035527.53609  20558460.580    84183581.89149
  21042016.260   110576550.46809  21042016.860    86163546.11249
 15 01 23 00 19  0.0000000  0  5G12G21G25G29G31
  24094384.360   126616912.88406  24094385.520    98662569.78246
  22112910.420   116204156.70608  22112911.340    90548708.00047
  21249661.020   111667775.40208  21249664.820    87013889.01848
  20566275.840   108076604.28309  20566277.200    84215589.74449
  21037794.860   110554366.51709  21037795.420    86146259.91549
 15 01 23 00 19 30.0000000  0  5G12G21G25G29G31
  24109345.460   126695534.14706  24109346.600    98723833.13744
  22099218.180   116132203.59608  22099219.100    90492640.66447
  21257733.400   111710196.12408  21257737.280    87046944.12048
  20574142.960   108117946.38809  20574144.340    84247804.36749
  21033676.960   110532726.63909  21033677.480    86129397.66549
 15 01 23 00 20  0.0000000  0  5G12G21G25G29G31
  24124332.800   126774293.25806  24124333.900    98785203.92445
  22085588.860   116060580.83108  22085589.680    90436830.73647
  21265860.120   111752902.46508  21265864.060    87080221.77848
  20582059.640   108159548.81409  20582061.020    84280221.84449
  21029662.200   110511628.91409  21029662.720    86112957.87649
 15 01 23 00 20 30.0000000  0  5G12G21G25G29G31
  24139346.900   126853194.21006  24139348.220    98846685.12845
  22072023.440   115989293.56108  22072024.100    90381282.22047
  21274041.980   111795898.54508  21274045.960    87113725.21548
  20590026.460   108201414.73309  20590027.860    84312844.64049
  21025751.520   110491078.27009  21025752.060    86096944.38349
 15 01 23 00 21  0.0000000  0  5G12G21G25G29G31
  24154387.740   126932234.45507  24154389.060    98908274.93645
  22058521.900   115918342.18208  22058522.480    90325995.44747
  21282278.700   111839182.94808  21282282.700    87147453.31348
  20598042.740   108243540.31409  20598044.100    84345669.76849
  21021944.800   110471073.94009  21021945.400    86081356.59349
 15 01 23 00 21 30.0000000  0  5G12G21G25G29G31
  24169453.640   127011405.35606  24169454.960    98969966.58445
  22045082.880   115847719.90008  22045083.500    90270965.11047
  21290568.720   111882747.31608  21290572.720    87181399.56148
  20606106.480   108285915.38309  20606107.780    84378689.30249
  21018240.600   110451608.30309  21018241.220    86066188.56549
 15 01 23 00 22  0.0000000  0  5G12G21G25G29G31
  24184547.380   127090723.81606  24184548.760    99031773.08746
  22031709.840   115777444.86208  22031710.620    90216205.34447
  21298915.220   111926608.28808  21298919.180    87215576.93248
  20614220.420   108328554.34409  20614221.680    84411914.46149
  21014642.260   110432698.88009  21014642.900    86051453.94149
 15 01 23 00 22 30.0000000  0  5G12G21G25G29G31
  24199667.240   127170179.04607  24199668.680    99093686.26446
  22018401.360   115707508.91108  22018402.320    90161709.80647
  21307316.260   111970756.03808  21307320.220    87249977.77248
  20622382.540   108371446.45809  20622383.780    84445336.88749
  21011147.980   110414336.27809  21011148.580    86037145.41449
 15 01 23 00 23  0.0000000  0  5G12G21G25G29G31
  24214812.720   127249768.51806  24214814.100    99155704.03646
  22005157.360   115637911.46308  22005158.380    90107478.03547
  21315771.540   112015188.78708  21315775.460    87284600.66948
  20630592.060   108414587.57709  20630593.300    84478953.33849
  21007757.580   110396519.48809  21007758.140    86023262.19949
 15 01 23 00 23 30.0000000  0  5G12G21G25G29G31
  24229985.500   127329502.71106  24229987.020    99217834.53845
  21991980.240   115568665.16208  21991981.240    90053519.88647
  21324283.040   112059916.99308  21324286.960    87319453.79348
  20638850.580   108457986.11209  20638851.800    84512770.37849
  21004473.200   110379259.74709  21004473.720    86009813.04849
 15 01 23 00 24  0.0000000  0  5G12G21G25G29G31
  24245184.420   127409374.13706  24245186.100    99280072.00046
  21978868.880   115499764.20508  21978869.800    89999830.83547
  21332849.420   112104933.65008  21332853.380    87354531.69848
  20647156.480   108501633.72409  20647157.700    84546781.49849
  21001293.560   110362550.57609  21001294.060    85996792.91049
 15 01 23 00 24 30.0000000  0  5G12G21G25G29G31
  24260409.480   127489382.68006  24260411.100    99342416.32845
  21965823.560   115431210.27908  21965824.400    89946412.20147
  21341470.720   112150238.94708  21341474.760    87389834.51548
  20655509.380   108545528.44209  20655510.600    84580985.17649
  20998218.840   110346392.75609  20998219.320    85984202.39749
 15 01 23 00 25  0.0000000  0  5G12G21G25G29G31
  24275660.640   127569528.59206  24275662.260    99404867.68845
  21952844.820   115363006.32708  21952845.580    89893266.27947
  21350147.240   112195834.28408  21350151.320    87425363.33448
  20663909.200   108589670.00709  20663910.460    84615381.19949
  20995249.420   110330788.28509  20995249.900    85972043.06549
 15 01 23 00 25 30.0000000  0  5G12G21G25G29G31
  24290937.520   127649808.52906  24290938.940    99467423.46245
  21939932.260   115295150.18508  21939932.940    89840391.37647
  21358878.280   112241715.95408  21358882.360    87461115.27848
  20672354.960   108634052.95909  20672356.260    84649965.31349
  20992384.720   110315734.22709  20992385.200    85960312.62649
 15 01 23 00 26  0.0000000  0  5G12G21G25G29G31
  24306240.820   127730226.82306  24306241.980    99530087.03144
  21927087.100   115227648.27708  21927087.700    89787792.50547
  21367664.740   112287888.73708  21367668.760    87497094.05448
  20680847.280   108678680.37009  20680848.580    84684739.91549
  20989625.800   110301236.20209  20989626.320    85949015.45349
 15 01 23 00 26 30.0000000  0  5G12G21G25G29G31
  24321570.160   127810781.79806  24321571.120    99592857.12945
  21914309.560   115160501.85608  21914310.120    89735470.62747
  21376506.560   112334352.47308  21376510.480    87533299.55548
  20689385.780   108723550.28309  20689387.040    84719703.48449
  20986972.640   110287293.87509  20986973.200    85938151.29949
 15 01 23 00 27  0.0000000  0  5G12G21G25G29G31
  24336925.860   127891475.78906  24336926.780    99655735.53745
  21901600.200   115093713.96008  21901600.780    89683428.12147
  21385403.980   112381108.66008  21385407.820    87569732.92848
  20697970.380   108768662.44709  20697971.560    84754855.82249
  20984425.680   110273909.58409  20984426.260    85927721.97949
 15 01 23 00 27 30.0000000  0  5G12G21G25G29G31
  24352307.540   127972307.14407  24352308.600    99718721.00545
  21888959.180   115027285.31208  21888959.840    89631665.54847
  21394356.900   112428156.54008  21394360.700    87606393.60048
  20706600.520   108814014.15209  20706601.700    84790194.80949
  20981984.900   110261083.08309  20981985.460    85917727.29649
 15 01 23 00 28  0.0000000  0  5G12G21G25G29G31
  24367714.920   128053274.07507  24367716.160    99781812.11145
  21876386.580   114961216.14208  21876387.300    89580183.08647
  21403365.020   112475494.66708  21403368.840    87643280.43648
  20715275.600   108859602.11309  20715276.820    84825717.88549
  20979650.120   110248813.56309  20979650.640    85908166.62349
 15 01 23 00 28 30.0000000  0  5G12G21G25G29G31
  24383147.820   128134374.56906  24383149.120    99845007.33645
  21863882.340   114895506.13808  21863883.120    89528980.48947
  21412428.100   112523121.67608  21412432.000    87680392.37948
  20723995.020   108905423.37408  20723996.320    84861422.76149
  20977421.160   110237100.18609  20977421.660    85899039.30949
 15 01 23 00 29  0.0000000  0  5G12G21G25G29G31
  24398606.980   128215613.09806  24398608.300    99908310.08445
  21851447.740   114830161.96808  21851448.560    89478062.96347
  21421547.060   112571042.30508  21421551.040    87717733.11248
  20732759.500   108951481.61308  20732760.940    84897312.29849
  20975299.000   110225948.16009  20975299.500    85890349.41649
 15 01 23 00 29 30.0000000  0  5G12G21G25G29G31
  24414092.000   128296988.13705  24414093.420    99971719.19545
  21839082.800   114765183.84408  21839083.620    89427430.66847
  21430721.760   112619255.57408  21430725.760    87755301.88348
  20741568.400   108997773.29208  20741569.940    84933383.72249
  20973283.540   110215357.00909  20973284.060    85882096.56949
 15 01 23 00 30  0.0000000  0  5G12G21G25G29G31
  24429602.920   128378499.04205  24429604.420   100035234.16145
  21826787.700   114700572.72008  21826788.520    89377084.33847
  21439952.080   112667761.01808  21439956.080    87793098.32248
  20750421.440   109044296.47008  20750423.020    84969635.54549
  20971374.780   110205326.73609  20971375.340    85874280.76249
 15 01 23 00 30 30.0000000  0  5G12G21G25G29G31
  24445138.960   128460141.34406  24445140.440   100098851.52345
  21814562.140   114636326.93208  21814562.940    89327022.70147
  21449237.340   112716555.11508  21449241.260    87831119.68548
  20759317.700   109091046.49008  20759319.260    85006064.12849
  20969572.200   110195854.16709  20969572.760    85866899.53749
 15 01 23 00 31  0.0000000  0  5G12G21G25G29G31
  24460700.460   128541916.80306  24460701.880   100162572.63245
  21802406.640   114572449.33308  21802407.380    89277247.96347
  21458577.820   112765639.45308  21458581.640    87869367.21348
  20768257.060   109138022.77908  20768258.540    85042669.01849
  20967876.140   110186941.24309  20967876.700    85859954.39349
 15 01 23 00 31 30.0000000  0  5G12G21G25G29G31
  24476287.960   128623828.85106  24476289.180   100226400.23844
  21790322.320   114508945.56108  21790322.920    89227764.51947
  21467974.340   112815018.17308  21467978.060    87907844.13148
  20777239.980   109185227.98708  20777241.400    85079452.29349
  20966287.480   110178592.60709  20966288.040    85853448.95549
 15 01 23 00 32  0.0000000  0  5G12G21G25G29G31
  24491900.760   128705874.46706  24491901.840   100290331.86645
  21778308.800   114445813.90808  21778309.320    89178571.03147
  21477426.300   112864688.50308  21477430.000    87946548.27648
  20786265.520   109232657.33308  20786266.880    85116410.22549
  20964805.720   110170805.70909  20964806.280    85847381.23449
 15 01 23 00 32 30.0000000  0  5G12G21G25G29G31
  24507539.080   128788054.27006  24507540.080   100354368.07445
  21766366.660   114383057.58408  21766367.180    89129670.01247
  21486933.960   112914651.65708  21486937.660    87985480.58748
  20795333.620   109280310.34408  20795334.940    85153542.43349
  20963431.200   110163582.37409  20963431.740    85841752.65949
 15 01 23 00 33  0.0000000  0  5G12G21G25G29G31
  24523202.620   128870366.48606  24523203.420   100418507.46045
  21754496.000   114320676.73908  21754496.520    89081061.57247
  21496497.060   112964906.52008  21496500.860    88024640.21148
  20804443.780   109328184.19609  20804445.040    85190846.72749
  20962163.740   110156921.77109  20962164.280    85836562.56949
 15 01 23 00 33 30.0000000  0  5G12G21G25G29G31
  24538891.660   128952812.64006  24538892.340   100482751.22045
  21742697.360   114258674.27808  21742697.900    89032747.97448
  21506115.960   113015454.55908  21506119.800    88064028.29148
  20813596.100   109376279.60209  20813597.280    85228323.66949
  20961003.640   110150825.46809  20961004.200    85831812.19849
 15 01 23 00 34  0.0000000  0  5G12G21G25G29G31
  24554606.260   129035393.50706  24554606.940   100547099.93244
  21730971.200   114197052.70808  21730971.740    88984731.16448
  21515790.960   113066297.14308  21515794.780    88103645.87748
  20822790.400   109424595.81209  20822791.520    85265972.66649
  20959951.240   110145295.50409  20959951.900    85827503.13249
 15 01 23 00 34 30.0000000  0  5G12G21G25G29G31
  24570346.000   129118106.78306  24570346.820   100611551.82444
  21719317.440   114135811.74908  21719318.040    88937010.94048
  21525521.680   113117432.57608  21525525.540    88143491.64748
  20832025.980   109473129.10209  20832027.100    85303790.80349
  20959006.380   110140330.42109  20959007.100    85823634.22749
 15 01 23 00 35  0.0000000  0  5G12G21G25G29G31
  24586110.560   129200950.29706  24586111.380   100676105.23244
  21707736.000   114074950.90008  21707736.660    88889586.91247
  21535307.840   113168858.79508  21535311.720    88183564.00848
  20841302.260   109521876.32908  20841303.400    85341775.65449
  20958168.660   110135928.27209  20958169.400    85820203.97849
 15 01 23 00 35 30.0000000  0  5G12G21G25G29G31
  24601900.420   129283926.79206  24601901.280   100740762.20444
  21696227.820   114014475.07708  21696228.500    88842462.91248
  21545149.960   113220579.21908  21545153.900    88223865.61548
  20850619.620   109570839.61809  20850620.840    85379928.86249
  20957438.840   110132092.95309  20957439.560    85817215.41149
 15 01 23 00 36  0.0000000  0  5G12G21G25G29G31
  24617714.820   129367032.04306  24617715.640   100805519.53745
  21684792.360   113954381.57608  21684793.060    88795636.81648
  21555047.240   113272589.77108  21555051.280    88264393.30048
  20859976.980   109620012.87709  20859978.240    85418245.68749
  20956816.140   110128820.39509  20956816.820    85814665.36049
 15 01 23 00 36 30.0000000  0  5G12G21G25G29G31
  24633554.580   129450271.01706  24633555.520   100870381.06944
  21673430.940   113894677.23408  21673431.680    88749113.96048
  21565000.700   113324895.93308  21565004.880    88305151.33148
  20869375.060   109669400.10208  20869376.320    85456729.23949
  20956301.600   110126116.27209  20956302.240    85812558.24749
 15 01 23 00 37  0.0000000  0  5G12G21G25G29G31
  24649419.080   129533639.87106  24649420.060   100935343.77845
  21662143.180   113835359.74408  21662143.900    88702892.54848
  21575009.720   113377494.04508  21575014.020    88346136.86548
  20878812.840   109718996.15509  20878814.140    85495375.51049
  20955894.640   110123977.51009  20955895.240    85810891.67349
 15 01 23 00 37 30.0000000  0  5G12G21G25G29G31
  24665308.340   129617138.42006  24665309.280   101000407.60844
  21650929.460   113776431.43408  21650930.220    88656974.39348
  21585074.520   113430384.78408  21585078.800    88387350.41148
  20888290.180   109768799.91009  20888291.480    85534183.62649
  20955595.380   110122404.79109  20955595.980    85809666.17149
 15 01 23 00 38  0.0000000  0  5G12G21G25G29G31
  24681222.360   129700766.99106  24681223.360   101065572.73544
  21639790.140   113717893.87008  21639790.900    88611360.71748
  21595195.180   113483568.73808  21595199.360    88428792.43548
  20897806.940   109818810.68409  20897808.220    85573153.05949
  20955404.000   110121399.01109  20955404.620    85808882.43849
 15 01 23 00 38 30.0000000  0  5G12G21G25G29G31
  24697161.360   129784526.20506  24697162.300   101130839.65345
  21628725.680   113659749.76708  21628726.420    88566053.63348
  21605371.960   113537047.33208  21605375.980    88470464.04448
  20907363.060   109869028.36309  20907364.360    85612283.71449
  20955320.740   110120961.51409  20955321.380    85808541.52749
 15 01 23 00 39  0.0000000  0  5G12G21G25G29G31
  24713124.580   129868412.30806  24713125.380   101196205.43545
  21617735.540   113601996.51708  21617736.300    88521051.11448
  21615603.980   113590816.50608  21615607.920    88512362.08348
  20916957.520   109919447.50909  20916958.820    85651571.35849
  20955344.900   110121088.53609  20955345.560    85808640.49749
 15 01 23 00 39 30.0000000  0  5G12G21G25G29G31
  24729112.620   129952429.72006  24729113.480   101261673.54245
  21606820.940   113544640.23008  21606821.720    88476357.90948
  21625892.080   113644880.85408  21625896.040    88554490.13348
  20926590.780   109970070.76408  20926592.120    85691018.04449
  20955477.380   110121784.83009  20955478.060    85809183.06149
 15 01 23 00 40  0.0000000  0  5G12G21G25G29G31
  24745125.040   130036575.68106  24745126.040   101327241.78945
  21595981.920   113487680.89808  21595982.700    88431974.02848
  21636236.040   113699239.08308  21636240.100    88596847.18248
  20936262.420   110020895.80108  20936263.800    85730621.95849
  20955717.940   110123049.00809  20955718.620    85810168.13249
 15 01 23 00 40 30.0000000  0  4G21G25G29G31
  21585239.240   113431227.59208  21585239.980    88387984.45148
  21646656.400   113753999.07508  21646660.580    88639517.29948
  20945992.800   110072029.34508  20945994.200    85770466.27349
  20956087.200   110124989.28509  20956087.860    85811680.02849
 15 01 23 00 41  0.0000000  0  4G21G25G29G31
  21574552.500   113375068.23708  21574553.240    88344223.91748
  21657112.620   113808947.30008  21657116.840    88682334.08848
  20955740.880   110123255.93308  20955742.300    85810383.09048
  20956544.540   110127392.37609  20956545.160    85813552.56049
 15 01 23 00 41 30.0000000  0  4G21G25G29G31
  21563936.960   113319282.91408  21563937.700    88300754.84848
  21667619.800   113864162.81108  21667623.940    88725359.15348
  20965521.460   110174653.36208  20965522.920    85850433.02448
  20957104.940   110130337.11409  20957105.520    85815847.15549
 15 01 23 00 42  0.0000000  0  4G21G25G29G31
  21553397.740   113263898.77608  21553398.440    88257598.38548
  21678182.720   113919670.87408  21678186.720    88768612.17448
  20975339.060   110226245.47108  20975340.560    85890634.66248
  20957773.280   110133848.96309  20957773.800    85818583.65049
 15 01 23 00 42 30.0000000  0  4G21G25G29G31
  21542939.160   113208938.66108  21542939.880    88214772.33048
  21688805.440   113975493.25808  21688809.320    88812110.12048
  20985197.620   110278052.58008  20985199.120    85931003.83248
  20958553.620   110137949.47509  20958554.100    85821778.84449
 15 01 23 00 43  0.0000000  0  4G21G25G29G31
  21532558.260   113154386.83708  21532559.000    88172264.41348
  21699484.720   114031613.19808  21699488.580    88855839.92948
  20995093.680   110330056.64708  20995095.180    85971526.47748
  20959442.840   110142622.32009  20959443.320    85825420.01749
 15 01 23 00 43 30.0000000  0  4G21G25G29G31
  21522255.240   113100244.26208  21522255.980    88130075.40848
  21710220.520   114088030.27808  21710224.420    88899801.27448
  21005026.840   110382255.64308  21005028.320    86012201.01148
  20960440.800   110147866.73009  20960441.300    85829506.56649
 15 01 23 00 44  0.0000000  0  4G21G25G29G31
  21512029.440   113046507.41708  21512030.180    88088202.55648
  21721011.920   114144739.62608  21721015.840    88943990.36648
  21014995.920   110434643.24908  21014997.360    86053022.52048
  20961546.620   110153678.05309  20961547.200    85834034.85949
 15 01 23 00 44 30.0000000  0  4G21G25G29G31
  21501880.860   112993176.10708  21501881.540    88046645.70548
  21731858.680   114201739.94408  21731862.620    88988406.19048
  21025000.480   110487217.27008  21025001.860    86093989.28648
  20962760.080   110160055.01509  20962760.700    85839003.91649
 15 01 23 00 45  0.0000000  0  4G21G25G29G31
  21491809.340   112940249.92008  21491809.980    88005404.53348
  21742760.460   114259029.32208  21742764.440    89033047.24748
  21035039.840   110539974.36308  21035041.180    86135098.70748
  20964080.760   110166995.38309  20964081.420    85844411.98449
 15 01 23 00 45 30.0000000  0  4G21G25G29G31
  21481814.320   112887725.84308  21481814.960    87964476.68948
  21753716.540   114316603.78508  21753720.560    89077910.44848
  21045112.960   110592909.06008  21045114.320    86176346.51948
  20965507.920   110174495.35609  20965508.600    85850256.11349
 15 01 23 00 46  0.0000000  0  4G21G25G29G31
  21471895.920   112835604.59908  21471896.640    87923862.74348
  21764726.740   114374462.34008  21764730.800    89122995.02548
  21055219.440   110646019.03708  21055220.820    86217730.91048
  20967041.380   110182553.68509  20967042.060    85856535.32749
 15 01 23 00 46 30.0000000  0  4G21G25G29G31
  21462056.940   112783900.64908  21462057.740    87883573.95348
  21775793.560   114432618.32208  21775797.660    89168311.36048
  21065361.620   110699316.63608  21065363.020    86259261.50348
  20968683.640   110191183.67809  20968684.300    85863259.98849
 15 01 23 00 47  0.0000000  0  4G21G25G29G31
  21452297.280   112732613.58608  21452298.140    87843610.01448
  21786916.680   114491070.07908  21786920.820    89213858.17848
  21075538.860   110752798.37508  21075540.260    86300935.57948
  20970434.340   110200383.68409  20970435.000    85870428.82049
 15 01 23 00 47 30.0000000  0  4G21G25G29G31
  21442617.760   112681747.41008  21442618.600    87803974.04348
  21798096.680   114549820.68508  21798100.800    89259637.86648
  21085751.520   110806466.31308  21085752.900    86342754.75148
  20972294.060   110210156.47609  20972294.720    85878043.97749
 15 01 23 00 48  0.0000000  0  4G21G25G29G31
  21433017.580   112631298.07108  21433018.380    87764662.87648
  21809332.540   114608865.29608  21809336.680    89305646.64448
  21095998.520   110860314.78508  21095999.880    86384714.59448
  20974261.840   110220497.06209  20974262.460    85886101.56749
 15 01 23 00 48 30.0000000  0  4G21G25G29G31
  21423496.820   112581265.91608  21423497.540    87725676.78948
  21820624.140   114668202.75508  21820628.240    89351883.61548
  21106279.360   110914341.16608  21106280.760    86426813.06648
  20976337.400   110231404.20809  20976338.020    85894600.63349
 15 01 23 00 49  0.0000000  0  4G21G25G29G31
  21414055.880   112531653.36608  21414056.560    87687017.66548
  21831971.480   114727833.23508  21831975.540    89398348.91648
  21116593.740   110968543.75408  21116595.160    86469048.84148
  20978520.780   110242877.93409  20978521.400    85903541.19449
 15 01 23 00 49 30.0000000  0  4G21G25G29G31
  21404696.500   112482469.56808  21404697.180    87648692.63848
  21843376.180   114787765.32808  21843380.200    89445049.23148
  21126943.260   111022930.97508  21126944.740    86511428.48148
  20980813.540   110254926.65609  20980814.180    85912929.80049
 15 01 23 00 50  0.0000000  0  4G21G25G29G31
  21395415.780   112433699.06608  21395416.480    87610689.65348
  21854835.180   114847982.93908  21854839.120    89491972.02748
  21137324.540   111077485.01908  21137326.080    86553938.11648
  20983212.640   110267534.01709  20983213.260    85922753.71249
 15 01 23 00 50 30.0000000  0  4G21G25G29G31
  21386215.280   112385350.19808  21386216.020    87573015.22448
  21866349.780   114908492.79708  21866353.700    89539122.55348
  21147738.620   111132211.34708  21147740.220    86596581.99848
  20985719.300   110280706.52009  20985719.900    85933017.99249
 15 01 23 00 51  0.0000000  0  4G21G25G29G31
  21377094.780   112337421.60508  21377095.500    87535668.28048
  21877919.620   114969292.89208  21877923.560    89586499.24348
  21158184.840   111187106.50408  21158186.460    86639357.43848
  20988333.100   110294441.98509  20988333.700    85943720.94549
 15 01 23 00 51 30.0000000  0  4G21G25G29G31
  21368055.340   112289918.89108  21368056.000    87498653.19048
  21889545.460   115030387.17808  21889549.420    89634105.16547
  21168663.940   111242174.26508  21168665.540    86682267.37648
  20991054.700   110308744.08109  20991055.340    85954865.43049
 15 01 23 00 52  0.0000000  0  4G21G25G29G31
  21359096.560   112242840.03508  21359097.160    87461968.36948
  21901226.620   115091772.07008  21901230.600    89681937.54248
  21179174.840   111297409.06508  21179176.380    86725307.47248
  20993883.380   110323608.88709  20993884.040    85966448.38749
 15 01 23 00 52 30.0000000  0  4G21G25G29G31
  21350218.380   112196184.85508  21350218.960    87425613.69248
  21912962.900   115153446.71608  21912966.900    89729995.70047
  21189717.180   111352809.15808  21189718.660    86768476.37148
  20996818.960   110339035.40909  20996819.640    85978469.04549
 15 01 23 00 53  0.0000000  0  4G21G25G29G31
  21341421.480   112149956.84408  21341422.020    87389591.86748
  21924754.720   115215413.52208  21924758.800    89778281.50648
  21200291.200   111408375.93908  21200292.660    86811775.15648
  20999861.840   110355025.66209  20999862.540    85990928.97949
 15 01 23 00 53 30.0000000  0  4G21G25G29G31
  21332706.060   112104157.10308  21332706.620    87353903.76948
  21936602.100   115277672.29908  21936606.260    89826794.82747
  21210896.700   111464108.14708  21210898.180    86855202.84248
  21003011.880   110371578.97409  21003012.540    86003827.65549
 15 01 23 00 54  0.0000000  0  4G21G25G29G31
  21324070.420   112058776.72908  21324071.020    87318542.44948
  21948503.300   115340213.58308  21948507.460    89875528.28047
  21221531.680   111519995.21808  21221533.160    86898751.20348
  21006267.200   110388685.73609  21006267.860    86017157.58949
 15 01 23 00 54 30.0000000  0  4G21G25G29G31
  21315517.340   112013830.25808  21315518.020    87283519.23648
  21960460.680   115403049.96808  21960464.780    89924491.68547
  21232198.260   111576048.20108  21232199.720    86942428.83948
  21009630.140   110406358.19409  21009630.800    86030928.32849
 15 01 23 00 55  0.0000000  0  4G21G25G29G31
  21307045.900   111969312.70308  21307046.640    87248830.24048
  21972473.180   115466175.80008  21972477.180    89973680.63547
  21242895.240   111632261.03708  21242896.680    86986231.04548
  21013099.560   110424590.31909  21013100.260    86045135.16849
 15 01 23 00 55 30.0000000  0  4G21G25G29G31
  21298656.360   111925225.41508  21298657.120    87214476.52148
  21984540.840   115529591.26408  21984544.700    90023095.27247
  21253622.460   111688632.66908  21253623.820    87030156.98648
  21016675.460   110443381.81809  21016676.160    86059777.88549
 15 01 23 00 56  0.0000000  0  4G21G25G29G31
  21290349.600   111881573.05208  21290350.340    87180461.69948
  21996664.280   115593300.00308  21996668.100    90072738.43747
  21264380.340   111745165.56908  21264381.640    87074208.58848
  21020358.400   110462735.90109  21020359.100    86074858.97449
 15 01 23 00 56 30.0000000  0  4G21G25G29G31
  21282125.800   111838356.39408  21282126.480    87146786.38848
  22008843.340   115657301.37708  22008847.200    90122609.62747
  21275168.600   111801858.24708  21275169.860    87118384.69348
  21024148.260   110482651.70809  21024148.940    86090377.77649
 15 01 23 00 57  0.0000000  0  4G21G25G29G31
  21273984.420   111795572.90408  21273985.020    87113448.61548
  22021077.400   115721592.19308  22021081.380    90172706.35947
  21285986.440   111858706.33008  21285987.660    87162681.89048
  21028044.320   110503125.57309  21028045.020    86106331.42749
 15 01 23 00 57 30.0000000  0  4G21G25G29G31
  21265925.560   111753223.12508  21265926.100    87080448.79248
  22033366.400   115786171.75208  22033370.500    90223028.09147
  21296833.600   111915708.64808  21296834.840    87207099.27348
  21032046.320   110524156.16509  21032047.020    86122718.89749
 15 01 23 00 58  0.0000000  0  5G16G21G25G29G31
  24573476.020   129134484.89206  24573478.760   100624276.71044
  21257949.420   111711308.15008  21257949.880    87047787.77048
  22045710.420   115851040.09908  22045714.520    90273574.84547
  21307709.880   111972863.94308  21307711.100    87251635.85648
  21036154.200   110545743.23309  21036154.940    86139539.98149
 15 01 23 00 58 30.0000000  0  5G16G21G25G29G31
  24556161.840   129043498.28806  24556163.840   100553378.02945
  21250039.440   111669741.28208  21250039.940    87015398.00348
  22058092.760   115916109.52008  22058096.820    90324278.28147
  21318598.380   112030083.35708  21318599.580    87296222.40648
  21040351.220   110567798.63209  21040351.980    86156725.99649
 15 01 23 00 59  0.0000000  0  5G16G21G25G29G31
  24538863.060   128952592.85905  24538864.960   100482542.60745
  21242231.520   111628710.83008  21242232.060    86983426.23048
  22070549.060   115981567.44808  22070553.040    90375284.44947
  21329534.640   112087553.87608  21329535.840    87341004.61648
  21044672.880   110590509.09109  21044673.660    86174422.44949
 15 01 23 00 59 30.0000000  0  5G16G21G25G29G31
  24521557.920   128861653.77905  24521559.640   100411680.99345
  21234503.920   111588102.30108  21234504.480    86951783.23148
  22083057.220   116047298.00108  22083061.200    90426503.05247
  21340496.320   112145158.39008  21340497.600    87385891.24248
  21049097.060   110613758.29209  21049097.840    86192538.69849
 15 01 23 01 00  0.0000000  0  5G16G21G25G29G31
  24504249.560   128770697.66205  24504251.200   100340806.09444
  21226859.680   111547931.56508  21226860.240    86920481.36548
  22095620.060   116113316.19008  22095624.160    90477945.77948
  21351486.140   112202910.89808  21351487.520    87430893.18348
  21053626.580   110637560.86309  21053627.300    86211086.14749
 15 01 23 01 00 30.0000000  0  5G16G21G25G29G31
  24486938.140   128679725.31006  24486939.660   100269918.56044
  21219298.940   111508199.50508  21219299.520    86889521.32948
  22108237.560   116179621.94608  22108241.860    90529612.59347
  21362503.980   112260810.32208  21362505.420    87476009.61948
  21058261.260   110661916.24409  21058261.980    86230064.36049
 15 01 23 01 01  0.0000000  0  5G16G21G25G29G31
  24469623.800   128588737.45906  24469625.120   100199018.96144
  21211821.640   111468905.75508  21211822.180    86858902.82848
  22120909.620   116246214.28908  22120913.960    90581502.72847
  21373549.620   112318855.54108  21373551.060    87521239.65248
  21063000.840   110686822.70009  21063001.520    86249471.97449
 15 01 23 01 01 30.0000000  0  5G16G21G25G29G31
  24452306.880   128497736.22506  24452308.060   100128108.92343
  21204428.240   111430053.04708  21204428.740    86828627.99348
  22133636.480   116313094.32908  22133640.740    90633617.03747
  21384623.020   112377046.59108  21384624.480    87566583.32248
  21067845.380   110712280.88209  21067846.060    86269309.50849
 15 01 23 01 02  0.0000000  0  5G16G21G25G29G31
  24434987.320   128406721.73305  24434988.480   100057188.54444
  21197118.640   111391640.89508  21197119.140    86798696.45848
  22146417.840   116380260.53808  22146421.960    90685954.33647
  21395723.660   112435380.42708  21395725.080    87612038.25648
  21072794.540   110738288.69909  21072795.180    86289575.33149
 15 01 23 01 02 30.0000000  0  5G16G21G25G29G31
  24417665.620   128315696.16005  24417666.900    99986259.55544
  21189893.180   111353670.83608  21189893.680    86769109.40548
  22159253.820   116447713.68708  22159257.780    90738515.21547
  21406851.620   112493857.85208  21406852.980    87657605.07448
  21077848.320   110764846.26909  21077848.940    86310269.53349
 15 01 23 01 03  0.0000000  0  5G16G21G25G29G31
  24400341.780   128224659.07406  24400343.060    99915321.57844
  21182751.620   111316141.73208  21182752.160    86739865.95248
  22172144.060   116515452.03208  22172147.900    90791298.33547
  21418006.380   112552476.02308  21418007.660    87703281.57548
  21083006.200   110791951.19309  21083006.880    86331390.24549
 15 01 23 01 03 30.0000000  0  5G16G21G25G29G31
  24383016.160   128133612.42406  24383017.440    99844376.12644
  21175694.400   111279055.83308  21175695.000    86710967.84648
  22185088.640   116583476.14908  22185092.420    90844304.12847
  21429187.840   112611234.68208  21429189.080    87749067.53548
  21088268.240   110819603.52609  21088269.000    86352937.51149
 15 01 23 01 04  0.0000000  0  5G16G21G25G29G31
  24365688.980   128042557.42006  24365690.240    99773424.20045
  21168721.600   111242413.52708  21168722.240    86682415.40448
  22198087.460   116651785.84508  22198091.360    90897532.45947
  21440395.760   112670132.74608  21440397.020    87794962.12648
  21093634.280   110847802.53509  21093635.120    86374910.75549
 15 01 23 01 04 30.0000000  0  5G16G21G25G29G31
  24348359.700   127951499.20406  24348360.720    99702459.74245
  21161832.380   111206210.28708  21161833.000    86654205.09148
  22211139.540   116720375.53808  22211143.600    90950978.96847
  21451629.040   112729163.99708  21451630.320    87840960.49348
  21099103.120   110876541.74309  21099104.020    86397304.93149
 15 01 23 01 05  0.0000000  0  5G16G21G25G29G31
  24331030.300   127860433.06706  24331031.560    99631499.11645
  21155029.080   111170458.58308  21155029.680    86626346.63148
  22224247.180   116789257.31608  22224251.440    91004653.07347
  21462889.740   112788339.55608  21462891.060    87887071.30848
  21104677.000   110905832.75409  21104677.920    86420129.08749
 15 01 23 01 05 30.0000000  0  5G16G21G25G29G31
  24313699.100   127769357.28806  24313700.620    99560530.98145
  21148309.600   111135147.46408  21148310.180    86598831.49048
  22237408.180   116858418.94508  22237412.500    91058545.24947
  21474175.460   112847646.92008  21474176.900    87933284.83048
  21110353.440   110935662.60009  21110354.360    86443373.11349
 15 01 23 01 06  0.0000000  0  5G16G21G25G29G31
  24296367.000   127678276.28806  24296368.540    99489558.76944
  21141674.720   111100281.07408  21141675.300    86571662.88048
  22250623.060   116927863.18308  22250627.300    91112657.63447
  21485486.680   112907087.97408  21485488.160    87979602.52248
  21116132.780   110966033.13409  21116133.700    86467038.45249
 15 01 23 01 06 30.0000000  0  5G16G21G25G29G31
  24279034.400   127587192.68206  24279035.840    99418584.57146
  21135124.760   111065861.24108  21135125.400    86544842.23748
  22263891.980   116997591.33408  22263896.100    91166991.24447
  21496823.440   112966662.88708  21496824.900    88026024.52848
  21122015.260   110996945.44409  21122016.120    86491125.95849
 15 01 23 01 07  0.0000000  0  5G16G21G25G29G31
  24261701.640   127496108.62106  24261703.100    99347609.98645
  21128660.040   111031889.10708  21128660.680    86518370.45948
  22277215.000   117067604.02408  22277219.020    91221546.56147
  21508185.840   113026372.39208  21508187.280    88072551.40748
  21128000.700   111028399.00509  21128001.540    86515635.21349
 15 01 23 01 07 30.0000000  0  5G16G21G25G29G31
  24244368.980   127405025.50306  24244370.540    99276636.14345
  21122280.800   110998366.04908  21122281.420    86492248.60748
  22290592.020   117137900.91208  22290596.020    91276323.33647
  21519573.620   113086215.35608  21519575.020    88119182.28248
  21134088.940   111060392.84009  21134089.760    86540565.47349
 15 01 23 01 08  0.0000000  0  5G16G21G25G29G31
  24227036.020   127313940.53306  24227037.700    99205660.88445
  21115986.240   110965287.96208  21115986.860    86466473.48448
  22304022.260   117208477.67008  22304026.300    91331318.19047
  21530985.760   113146186.47308  21530987.180    88165913.00848
  21140279.040   111092921.95109  21140279.860    86565912.82049
 15 01 23 01 08 30.0000000  0  5G16G21G25G29G31
  24209703.080   127222855.62106  24209704.880    99134685.63845
  21109776.640   110932656.36008  21109777.260    86441046.26948
  22317505.760   117279334.30908  22317509.920    91386531.14747
  21542422.020   113206284.73508  21542423.500    88212742.81048
  21146570.840   111125985.56809  21146571.700    86591676.67349
 15 01 23 01 09  0.0000000  0  5G16G21G25G29G31
  24192370.840   127131774.35806  24192372.580    99063713.29345
  21103652.520   110900473.69808  21103653.100    86415968.87248
  22331043.060   117350473.17408  22331047.260    91441964.01547
  21553882.900   113266512.38308  21553884.420    88259673.43448
  21152964.640   111159585.26909  21152965.540    86617858.25049
 15 01 23 01 09 30.0000000  0  5G16G21G25G29G31
  24175038.980   127040695.04006  24175040.660    98992742.40844
  21097613.420   110868737.95808  21097613.960    86391239.73248
  22344633.520   117421890.88808  22344637.740    91497614.17147
  21565367.780   113326865.82508  21565369.260    88306702.07948
  21159459.660   111193716.78709  21159460.580    86644454.23449
 15 01 23 01 10  0.0000000  0  5G16G21G25G29G31
  24157708.200   126949621.31806  24157709.740    98921775.88445
  21091659.840   110837451.78108  21091660.380    86366860.89948
  22358277.420   117493589.37808  22358281.540    91553483.11647
  21576876.740   113387345.81008  21576878.220    88353829.33048
  21166056.140   111228381.37609  21166057.040    86671465.59449
 15 01 23 01 10 30.0000000  0  5G16G21G25G29G31
  24140378.680   126858553.67706  24140380.140    98850814.09444
  21085791.620   110806614.23708  21085792.180    86342831.64448
  22371974.500   117565567.42308  22371978.460    91609569.89447
  21588409.540   113447950.79608  21588410.980    88401053.97848
  21172753.660   111263577.02109  21172754.520    86698890.76349
 15 01 23 01 11  0.0000000  0  5G16G21G25G29G31
  24123050.860   126767495.06306  24123052.100    98779859.32644
  21080009.400   110776228.58708  21080009.980    86319154.52648
  22385724.920   117637826.28908  22385728.740    91665875.50247
  21599966.240   113508681.52308  21599967.680    88448376.61448
  21179552.300   111299304.08409  21179553.120    86726730.02549
 15 01 23 01 11 30.0000000  0  5G16G21G25G29G31
  24105724.740   126676445.69306  24105726.000    98708911.78545
  21074312.980   110746293.74508  21074313.580    86295828.67348
  22399528.420   117710364.53608  22399532.180    91722398.79947
  21611546.480   113569535.96608  21611547.940    88495795.65548
  21186451.640   111335560.16309  21186452.400    86754981.50549
 15 01 23 01 12  0.0000000  0  5G16G21G25G29G31
  24088400.240   126585405.19606  24088401.580    98637971.15145
  21068702.100   110716808.17208  21068702.700    86272852.90848
  22413384.620   117783180.06308  22413388.440    91779138.15047
  21623149.680   113630511.54808  21623151.220    88543309.08148
  21193451.100   111372342.53709  21193451.840    86783643.09549
 15 01 23 01 12 30.0000000  0  5G16G21G25G29G31
  24071077.800   126494375.33606  24071079.200    98567038.81445
  21063176.880   110687772.94208  21063177.500    86250228.06049
  22427293.620   117856272.81308  22427297.540    91836093.53047
  21634775.860   113691607.76008  21634777.480    88590916.50848
  21200550.420   111409649.91809  21200551.220    86812713.77749
 15 01 23 01 13  0.0000000  0  5G16G21G25G29G31
  24053757.600   126403357.23106  24053759.000    98496115.63644
  21057737.340   110659188.05008  21057737.980    86227954.12548
  22441255.400   117929642.34408  22441259.440    91893264.58147
  21646424.840   113752823.53708  21646426.480    88638617.09748
  21207749.420   111447481.19609  21207750.280    86842192.69449
 15 01 23 01 13 30.0000000  0  5G16G21G25G29G31
  24036439.780   126312350.98606  24036441.260    98425201.71845
