     2.11           OBSERVATION DATA    G                   RINEX VERSION / TYPE
SPIDER V4,0,0,3554                      2015 03 24 06:28    PGM / RUN BY / DATE 
CNAJ                                                        MARKER NAME         
CNAJ                                                        MARKER NUMBER       
                                                            OBSERVER / AGENCY   
496642              LEICA GRX1200+GNSS  8.10/4.007          REC # / TYPE / VERS 
10321018            LEIAR25         NONE                    ANT # / TYPE        
  5206098.7325   612081.0247  3621806.3029                  APPROX POSITION XYZ 
        0.0720        0.0000        0.0000                  ANTENNA: DELTA H/E/N
     1     1                                                WAVELENGTH FACT L1/2
     4    C1    L1    P2    L2                              # / TYPES OF OBSERV 
    30.000                                                  INTERVAL            
  2015    01    19    00    00    0.0000000     GPS         TIME OF FIRST OBS   
  2015    01    19    23    59   30.0000000     GPS         TIME OF LAST OBS    
    16                                                      LEAP SECONDS        
    30                                                      # OF SATELLITES     
   G 1   800   800   800   800                              PRN / # OF OBS      
   G 2   942   941   941   941                              PRN / # OF OBS      
   G 3   851   851   851   851                              PRN / # OF OBS      
   G 4   841   841   840   840                              PRN / # OF OBS      
   G 5   652   652   652   652                              PRN / # OF OBS      
   G 6   794   793   790   789                              PRN / # OF OBS      
   G 7   643   643   642   642                              PRN / # OF OBS      
   G 9   807   805   804   803                              PRN / # OF OBS      
   G10   762   762   761   761                              PRN / # OF OBS      
   G11   775   775   775   775                              PRN / # OF OBS      
   G12   841   841   841   841                              PRN / # OF OBS      
   G13   795   795   795   795                              PRN / # OF OBS      
   G14   947   947   946   946                              PRN / # OF OBS      
   G15   705   705   703   703                              PRN / # OF OBS      
   G16   664   664   661   661                              PRN / # OF OBS      
   G17   936   935   934   934                              PRN / # OF OBS      
   G18   904   904   902   902                              PRN / # OF OBS      
   G19   757   756   756   755                              PRN / # OF OBS      
   G20   844   844   843   843                              PRN / # OF OBS      
   G21   743   743   740   740                              PRN / # OF OBS      
   G22   656   656   654   654                              PRN / # OF OBS      
   G23   755   755   751   751                              PRN / # OF OBS      
   G24   830   830   830   830                              PRN / # OF OBS      
   G25   862   862   861   861                              PRN / # OF OBS      
   G27   804   804   804   804                              PRN / # OF OBS      
   G28   874   873   866   865                              PRN / # OF OBS      
   G29   784   784   781   781                              PRN / # OF OBS      
   G30   686   686   680   680                              PRN / # OF OBS      
   G31   841   839   836   834                              PRN / # OF OBS      
   G32   772   769   759   758                              PRN / # OF OBS      
BIT 2 OF LLI FLAGS DATA COLLECTED UNDER A/S CONDITION       COMMENT             
SNR is mapped to RINEX snr flag value [2-9]                 COMMENT             
Lx:     = 25dBHz -> 1; 26-27dBHz -> 2; 28-31dBHz -> 3       COMMENT             
       32-35dBHz -> 4; 36-38dBHz -> 5; 39-41dBHz -> 6       COMMENT             
       42-44dBHz -> 7; 45-48dBHz -> 8; >=49dBHz -> 9        COMMENT             
                                                            END OF HEADER       
 15 01 19 00 00  0.0000000  0  7G02G12G14G21G25G29G31
  24289682.140   127643170.47107  24289678.140    99462203.21445
  23182593.900   121825464.31608  23182592.160    94928962.23345
  23394478.100   122938807.41308  23394477.100    95796441.62745
  23078284.560   121277315.31808  23078281.800    94501746.16544
  20890658.780   109781189.11809  20890658.240    85543814.00247
  20192442.860   106112169.79609  20192440.040    82684861.50548
  21602340.800   113521053.19809  21602337.600    88457964.77448
 15 01 19 00 00 30.0000000  0  7G02G12G14G21G25G29G31
  24303930.940   127718049.61607  24303927.120    99520550.56944
  23195210.940   121891766.72808  23195209.140    94980626.45645
  23408314.140   123011514.21508  23408312.680    95853096.21545
  23061445.340   121188825.03508  23061442.940    94432792.77445
  20894870.140   109803319.51809  20894869.420    85561058.48147
  20196625.640   106134149.86709  20196622.680    82701988.83148
  21591165.500   113462327.08609  21591162.380    88412204.17347
 15 01 19 00 01  0.0000000  0  7G02G12G14G21G25G29G31
  24318238.640   127793237.49608  24318234.540    99579138.53644
  23207854.280   121958207.52108  23207852.140    95032398.45145
  23422191.760   123084439.96908  23422190.140    95909921.42645
  23044643.340   121100530.17108  23044641.080    94363991.63644
  20899128.240   109825695.90609  20899127.440    85578494.62547
  20200878.820   106156500.57309  20200875.800    82719404.95748
  21580069.540   113404017.94809  21580066.460    88366768.48147
 15 01 19 00 01 30.0000000  0  7G02G12G14G21G25G29G31
  24332603.540   127868725.49208  24332598.960    99637960.36544
  23220522.920   122024780.24608  23220520.240    95084273.30445
  23436109.080   123157574.87008  23436107.380    95966909.61445
  23027877.740   121012426.53208  23027875.600    94295339.51545
  20903431.900   109848312.04909  20903431.280    85596117.59247
  20205200.780   106179213.14709  20205197.680    82737103.07148
  21569052.100   113346121.54109  21569049.080    88321654.40847
 15 01 19 00 02  0.0000000  0  7G02G12G14G21G25G29G31
  24347026.040   127944515.84708  24347021.220    99697017.81544
  23233217.380   122091489.62407  23233214.640    95136254.58745
  23450066.500   123230920.66407  23450064.660    96024062.13145
  23011149.860   120924521.33108  23011147.760    94226842.02245
  20907782.200   109871173.26409  20907781.760    85613931.51347
  20209592.220   106202291.07909  20209589.020    82755085.89848
  21558114.520   113288644.73309  21558111.500    88276867.29947
 15 01 19 00 02 30.0000000  0  7G02G12G14G21G25G29G31
  24361504.800   128020602.23407  24361499.960    99756305.91944
  23245937.140   122158331.85708  23245934.120    95188339.42944
  23464062.520   123304469.83608  23464060.460    96081373.12344
  22994459.220   120836812.15408  22994457.180    94158497.27845
  20912178.360   109894275.66909  20912178.080    85631933.36147
  20214051.980   106225728.32709  20214048.740    82773348.69448
  21547256.360   113231585.26309  21547253.320    88232405.38747
 15 01 19 00 03  0.0000000  0  7G02G12G14G21G25G29G31
  24376040.400   128096987.63007  24376035.380    99815826.99144
  23258683.060   122225312.23707  23258679.520    95240531.91944
  23478097.640   123378224.54807  23478095.120    96138844.26644
  22977807.340   120749306.65108  22977805.120    94090311.20145
  20916621.560   109917624.93409  20916621.360    85650127.59447
  20218580.820   106249528.51709  20218577.560    82791894.30548
  21536479.020   113174950.33009  21536475.860    88188274.28847
 15 01 19 00 03 30.0000000  0  7G02G12G14G21G25G29G31
  24390631.540   128173665.14507  24390626.340    99875575.68344
  23271454.320   122292425.30408  23271450.560    95292827.80744
  23492170.280   123452176.77507  23492167.820    96196469.34944
  22961193.700   120662002.11708  22961191.320    94022281.74744
  20921110.820   109941216.56509  20921110.700    85668510.66647
  20223177.480   106273685.00509  20223174.300    82810717.53748
  21525782.060   113118737.45209  21525778.620    88144472.06247
 15 01 19 00 04  0.0000000  0  7G02G12G14G21G25G29G31
  24405278.760   128250637.27907  24405273.380    99935553.95744
  23284251.660   122359675.77407  23284247.740    95345230.73244
  23506280.580   123526327.87206  23506277.800    96254249.36744
  22944619.600   120574905.75308  22944616.980    93954414.48544
  20925647.180   109965055.73309  20925647.080    85687086.63647
  20227842.540   106298200.67109  20227839.440    82829820.64948
  21515166.680   113062952.85909  21515162.680    88101003.55347
 15 01 19 00 04 30.0000000  0  7G02G12G14G21G25G29G31
  24419981.520   128327900.60407  24419975.760    99995759.14844
  23297075.220   122427063.69508  23297070.560    95397740.81044
  23520427.540   123600673.58305  23520425.260    96312181.07444
  22928085.440   120488018.64208  22928082.080    93886710.28944
  20930230.600   109989141.86809  20930230.480    85705855.05847
  20232575.500   106323072.59309  20232572.420    82849201.36748
  21504633.180   113007597.97609  21504628.300    88057869.87147
 15 01 19 00 05  0.0000000  0  7G02G12G14G21G25G29G31
  24434739.040   128405451.53007  24434732.860   100056188.44744
  23309924.600   122494586.88908  23309919.380    95450356.28844
  23534610.420   123675209.45605  23534608.980    96370260.93644
  22911591.360   120401341.67108  22911587.120    93819169.80544
  20934860.880   110013473.86709  20934860.680    85724815.06047
  20237375.760   106348297.89909  20237372.660    82868857.45448
  21494181.540   112952673.07109  21494175.640    88015071.23346
 15 01 19 00 05 30.0000000  0  7G02G12G14G21G25G29G31
  24449550.420   128483284.88007  24449543.400   100116837.83344
  23322799.100   122562242.62008  23322793.580    95503075.00443
  23548828.400   123749929.23405  23548827.940    96428484.08344
  22895137.240   120314873.85208  22895132.680    93751792.31844
  20939537.500   110038049.25309  20939537.200    85743964.70547
  20242242.320   106373871.86509  20242239.360    82888785.22648
  21483811.620   112898177.76409  21483804.900    87972607.34246
 15 01 19 00 06  0.0000000  0  7G02G12G14G21G25G29G31
  24464416.100   128561403.21807  24464408.080   100177709.25144
  23335699.900   122630035.24408  23335693.900    95555900.45744
  23563081.680   123824834.12105  23563082.600    96486851.51044
  22878724.320   120228622.30308  22878719.680    93684583.34044
  20944261.360   110062873.04809  20944261.000    85763307.90347
  20247175.620   106399797.13609  20247172.920    82908986.74648
  21473524.540   112844118.01109  21473517.360    87930482.84547
 15 01 19 00 06 30.0000000  0  7G02G12G14G21G25G29G31
  24479335.220   128639802.09407  24479326.000   100238799.26742
  23348626.160   122697962.93408  23348619.860    95608831.09144
  23577369.480   123899919.24505  23577371.540    96545359.25845
  22862352.540   120142586.97508  22862348.200    93617542.86245
  20949032.080   110087943.54809  20949031.560    85782843.34547
  20252174.900   106426069.63809  20252172.560    82929458.83048
  21463320.260   112790493.81109  21463313.080    87888697.73347
 15 01 19 00 07  0.0000000  0  7G02G12G14G21G25G29G31
  24494307.180   128718478.43007  24494297.180   100300105.51644
  23361577.940   122766024.75008  23361571.020    95661866.28544
  23591691.140   123975180.27805  23591693.200    96604004.12744
  22846022.080   120056769.47708  22846017.960    93550672.13745
  20953849.740   110113260.39009  20953848.900    85802570.74747
  20257239.840   106452687.35509  20257237.860    82950199.91248
  21453199.060   112737306.32009  21453192.160    87847252.93347
 15 01 19 00 07 30.0000000  0  7G02G12G14G21G25G29G31
  24509331.440   128797429.33707  24509321.020   100361625.69543
  23374555.040   122834220.38008  23374548.220    95715005.72944
  23606045.980   124050613.60305  23606047.480    96662783.28845
  22829733.320   119971171.38108  22829729.740    93483972.38145
  20958714.420   110138823.42109  20958713.020    85822489.98447
  20262370.040   106479647.71809  20262368.200    82971207.98948
  21443161.160   112684556.96509  21443154.740    87806149.53347
 15 01 19 00 08  0.0000000  0  7G02G12G14G21G25G29G31
  24524408.300   128876657.18407  24524398.080   100423361.67543
  23387558.380   122902554.30008  23387552.180    95768252.94345
  23620434.160   124126220.51306  23620434.720    96721697.64045
  22813487.580   119885799.41208  22813484.500    93417448.81645
  20963626.900   110164637.58509  20963625.000    85842604.90647
  20267566.000   106506953.61009  20267564.180    82992485.30548
  21433207.840   112632252.21009  21433201.980    87765392.57947
 15 01 19 00 08 30.0000000  0  7G02G12G14G21G25G29G31
  24539537.140   128956159.07607  24539526.880   100485311.23843
  23400588.020   122971025.85108  23400582.020    95821607.39244
  23634854.700   124201997.08706  23634854.440    96780744.26445
  22797285.180   119800655.09708  22797282.340    93351102.67245
  20968587.080   110190702.62409  20968584.860    85862915.32847
  20272827.200   106534602.27809  20272825.300    83014029.74048
  21423339.340   112580393.48809  21423334.120    87724983.18847
 15 01 19 00 09  0.0000000  0  7G02G12G14G21G25G29G31
  24554717.420   129035932.00407  24554707.500   100547471.92544
  23413643.560   123039634.18108  23413638.140    95875068.38345
  23649306.740   124277939.19106  23649305.800    96839919.82745
  22781126.400   119715739.55908  22781123.620    93284934.76045
  20973594.840   110217018.11809  20973592.500    85883420.90047
  20278153.260   106562591.09009  20278151.240    83035839.20248
  21413555.820   112528981.53509  21413551.140    87684921.92148
 15 01 19 00 09 30.0000000  0  7G02G12G14G21G25G29G31
  24569949.020   129115974.46607  24569939.680   100609842.60843
  23426725.420   123108379.88208  23426720.740    95928636.44445
  23663789.700   124354044.61706  23663788.260    96899222.64645
  22765011.840   119631056.30708  22765008.700    93218947.84545
  20978650.460   110243585.16509  20978648.160    85904122.49747
  20283544.060   106590919.22409  20283541.920    83057913.07248
  21403857.860   112478019.26009  21403853.680    87645211.05548
 15 01 19 00 10  0.0000000  0  7G02G12G14G21G25G29G31
  24585231.600   129196284.37207  24585222.820   100672421.73644
  23439833.420   123177263.15208  23439829.200    95982311.69345
  23678303.100   124430310.46107  23678301.080    96958650.45945
  22748941.840   119546607.63508  22748938.280    93153143.72445
  20983754.080   110270404.62509  20983751.940    85925020.76147
  20288999.240   106619585.50509  20288997.120    83080250.43748
  21394245.840   112427508.76009  21394242.100    87605852.22948
 15 01 19 00 10 30.0000000  0  7G02G12G14G21G25G29G31
  24600564.300   129276857.81507  24600556.320   100735206.25344
  23452967.440   123246283.03508  23452963.520    96036093.39945
  23692846.120   124506732.04806  23692843.760    97018199.66244
  22732916.560   119462394.02608  22732912.640    93087522.75845
  20988905.520   110297475.32009  20988903.580    85946114.80947
  20294518.040   106648586.11209  20294515.960    83102848.32048
  21384719.940   112377450.68509  21384716.500    87566845.94948
 15 01 19 00 11  0.0000000  0  7G02G12G14G21G25G29G31
  24615946.860   129357694.60407  24615939.700   100798195.94544
  23466127.820   123315441.15708  23466124.200    96089982.80445
  23707418.400   124583307.69707  23707415.460    97077868.90144
  22716936.620   119378419.46008  22716932.380    93022088.05545
  20994105.140   110324799.52809  20994103.500    85967406.39047
  20300100.340   106677921.31209  20300098.380    83125706.92048
  21375280.840   112327848.45709  21375277.600    87528194.86848
 15 01 19 00 11 30.0000000  0  7G02G12G14G21G25G29G31
  24631379.200   129438793.76207  24631372.860   100861390.09744
  23479314.560   123384738.96508  23479311.340    96143981.04745
  23722019.520   124660035.87107  23722016.140    97137657.01243
  22701002.760   119294687.38908  22700998.380    92956842.31544
  20999353.380   110352378.97409  20999352.060    85988896.86748
  20305746.120   106707590.75909  20305744.340    83148825.97648
  21365929.160   112278705.34209  21365925.980    87489901.54848
 15 01 19 00 12  0.0000000  0  7G02G12G14G21G25G29G31
  24646860.780   129520152.76207  24646855.580   100924786.73844
  23492527.940   123454175.82508  23492524.540    96198087.67245
  23736648.760   124736912.67807  23736645.080    97197560.95043
  22685115.440   119211199.93108  22685110.860    92891787.18844
  21004650.180   110380213.76409  21004649.180    86010586.29148
  20311455.080   106737591.87209  20311453.340    83172203.46848
  21356665.140   112230022.85309  21356661.920    87451967.15248
 15 01 19 00 12 30.0000000  0  7G02G12G14G21G25G29G31
  24662390.700   129601766.14307  24662386.400   100988381.57045
  23505767.200   123523748.58508  23505763.520    96252300.17644
  23751305.020   124813932.03308  23751301.240    97257575.95041
  22669274.620   119127955.98108  22669269.840    92826921.79745
  21009995.000   110408301.00709  21009994.280    86032472.45048
  20317226.420   106767920.14309  20317224.620    83195835.88948
  21347488.540   112181799.55309  21347485.220    87414390.56048
 15 01 19 00 13  0.0000000  0  7G02G12G14G21G25G29G31
  24677969.000   129683634.12006  24677965.760   101052174.80645
  23519032.960   123593459.93308  23519028.960    96306620.67044
  23765988.200   124891093.22207  23765985.220    97317701.51543
  22653481.080   119044960.26308  22653476.200    92762249.85245
  21015388.440   110436643.77009  21015387.900    86054557.71048
  20323060.260   106798576.26409  20323058.320    83219723.77248
  21338400.260   112134040.13209  21338396.800    87377175.43348
 15 01 19 00 13 30.0000000  0  7G02G12G14G21G25G29G31
  24693595.020   129765752.60206  24693592.820   101116163.24445
  23532325.000   123663308.14908  23532320.440    96361047.83945
  23780697.340   124968391.06806  23780695.240    97377933.53743
  22637734.860   118962212.89008  22637729.700    92697771.41045
  21020830.160   110465240.65109  21020829.740    86076840.98148
  20328955.820   106829556.51709  20328953.700    83243864.22448
  21329400.300   112086744.56609  21329396.680    87340321.73948
 15 01 19 00 14  0.0000000  0  7G02G12G14G21G25G29G31
  24709268.620   129848121.13406  24709267.420   101180346.49344
  23545643.380   123733295.11008  23545638.440    96415583.09745
  23795432.240   125045824.83505  23795430.560    97438271.47443
  22622036.620   118879717.90308  22622031.380    92633489.64545
  21026320.540   110494093.79909  21026320.220    86099323.92748
  20334912.960   106860860.85009  20334910.720    83268257.19948
  21320489.220   112039916.02509  21320485.520    87303831.96348
 15 01 19 00 14 30.0000000  0  7G02G12G14G21G25G29G31
  24724986.260   129930720.63506  24724985.840   101244709.72745
  23558984.880   123803403.40608  23558979.680    96470212.91145
  23810188.840   125123374.27405  23810188.620    97498745.48343
  22606383.600   118797460.96408  22606378.320    92569393.36644
  21031856.640   110523187.06809  21031856.380    86121993.99948
  20340928.160   106892470.55809  20340925.800    83292888.14248
  21311664.180   111993539.82809  21311660.620    87267694.67648
 15 01 19 00 15  0.0000000  0  7G02G12G14G21G25G29G31
  24740756.160   130013593.17507  24740756.040   101309285.72645
  23572358.020   123873677.97308  23572352.800    96524972.30745
  23824975.080   125201080.38105  23824973.480    97559283.61841
  22590784.660   118715488.50408  22590779.380    92505518.75544
  21037446.920   110552565.01009  21037446.720    86144885.89248
  20347009.640   106924428.89109  20347007.140    83317790.74548
  21302933.880   111947662.08109  21302930.640    87231945.78948
 15 01 19 00 15 30.0000000  0  7G02G12G14G21G25G29G31
  24756570.600   130096697.41507  24756570.100   101374042.28245
  23585755.260   123944079.95908  23585750.460    96579830.95745
  23839783.360   125278900.49806  23839782.140    97619922.59944
  22575232.560   118633763.10408  22575227.720    92441836.67845
  21043084.100   110582188.99009  21043084.020    86167969.49248
  20353149.560   106956694.27509  20353146.840    83342932.60548
  21294291.220   111902245.51309  21294288.380    87196556.26148
 15 01 19 00 16  0.0000000  0  7G02G12G14G21G25G29G31
  24772429.300   130180033.02607  24772428.120   101438979.12846
  23599176.900   124014610.61209  23599172.340    96634789.86845
  23854613.820   125356833.74906  23854612.600    97680649.66444
  22559728.400   118552289.49408  22559723.900    92378350.76245
  21048768.600   110612061.43909  21048768.600    86191246.72148
  20359347.980   106989267.31308  20359345.160    83368314.19748
  21285737.040   111857293.76909  21285734.400    87161528.93248
 15 01 19 00 16 30.0000000  0  7G02G12G14G21G25G29G31
  24788333.000   130263603.88607  24788330.780   101504099.27746
  23612624.060   124085276.20108  23612619.740    96689853.95045
  23869466.800   125434883.24407  23869465.360    97741467.31143
  22544273.580   118471075.27308  22544269.520    92315067.00345
  21054501.660   110642188.62009  21054501.600    86214722.42648
  20365605.660   107022151.99009  20365602.880    83393938.61748
  21277272.960   111812814.84609  21277270.200    87126870.02847
 15 01 19 00 17  0.0000000  0  7G02G12G14G21G25G29G31
  24804282.420   130347414.60807  24804279.140   101569406.32545
  23626098.180   124156083.86008  23626094.360    96745028.71045
  23884342.620   125513052.40907  23884341.020    97802378.20844
  22528870.060   118390129.69608  22528866.140    92251992.54845
  21060284.660   110672577.96209  21060284.480    86238402.43148
  20371923.540   107055353.24908  20371920.980    83419809.72248
  21268900.540   111768817.00909  21268897.380    87092585.99747
 15 01 19 00 17 30.0000000  0  6G12G14G21G25G29G31
  23639599.060   124227032.25708  23639595.600    96800313.15445
  23899240.320   125591337.07208  23899238.640    97863379.11744
  22513518.000   118309453.85608  22513514.180    92189128.29445
  21066117.480   110703228.83209  21066117.180    86262286.21148
  20378301.040   107088868.21808  20378298.760    83445925.27048
  21260619.820   111725301.18809  21260616.160    87058677.54647
 15 01 19 00 18  0.0000000  0  6G12G14G21G25G29G31
  23653127.280   124298125.54008  23653124.280    96855710.48144
  23914160.080   125669738.37208  23914158.160    97924470.90244
  22498218.640   118229053.98608  22498214.640    92126479.05144
  21072000.900   110734145.79809  21072000.480    86286377.33248
  20384738.760   107122699.64008  20384736.620    83472287.41048
  21252431.840   111682273.09409  21252427.700    87025149.14747
 15 01 19 00 18 30.0000000  0  6G12G14G21G25G29G31
  23666681.180   124369354.75308  23666678.660    96911213.73544
  23929099.480   125748243.57308  23929097.280    97985643.66944
  22482970.420   118148922.92508  22482966.140    92064039.29344
  21077933.220   110765319.95009  21077932.560    86310668.87048
  20391234.580   107156836.24808  20391232.440    83498887.38148
  21244335.160   111639725.25509  21244330.740    86991994.98347
 15 01 19 00 19  0.0000000  0  6G12G14G21G25G29G31
  23680261.020   124440719.44008  23680258.660    96966822.58145
  23944057.960   125826849.83608  23944055.520    98046895.16842
  22467773.660   118069062.55308  22467769.180    92001810.44845
  21083914.540   110796751.52609  21083913.460    86335161.00548
  20397788.240   107191276.55408  20397785.880    83525724.00448
  21236330.160   111597659.43209  21236325.780    86959216.40547
 15 01 19 00 19 30.0000000  0  6G12G14G21G25G29G31
  23693867.660   124512225.07908  23693865.440    97022541.22744
  23959036.000   125905559.20308  23959032.820    98108226.95543
  22452629.640   117989480.47708  22452625.200    91939798.48245
  21089945.900   110828446.46809  21089944.400    86359858.34848
  20404400.300   107226023.98408  20404397.700    83552799.92348
  21228418.280   111556082.65509  21228414.060    86926818.90747
 15 01 19 00 20  0.0000000  0  6G12G14G21G25G29G31
  23707500.300   124583867.12708  23707497.780    97078366.15744
  23974032.320   125984364.28308  23974028.160    98169633.41942
  22437537.980   117910174.52708  22437533.960    91878001.66245
  21096026.560   110860400.82009  21096024.740    86384757.83747
  20411069.560   107261072.14108  20411066.920    83580110.17548
  21220598.920   111514991.71509  21220594.820    86894799.99647
 15 01 19 00 20 30.0000000  0  6G12G14G21G25G29G31
  23721157.640   124655637.37708  23721154.360    97134291.04144
  23989044.740   126063253.66908  23989039.820    98231105.53043
  22422497.540   117831138.53608  22422493.940    91816415.22744
  21102155.040   110892606.85409  21102153.100    86409853.44447
  20417794.000   107296410.65408  20417791.560    83607646.67948
  21212870.880   111474380.46709  21212866.820    86863154.85347
 15 01 19 00 21  0.0000000  0  6G12G14G21G25G29G31
  23734842.020   124727548.63608  23734838.600    97190325.75944
  24004074.940   126142236.43407  24004070.060    98292650.41743
  22407511.160   117752387.03407  22407507.960    91755050.46845
  21108333.820   110925077.43509  21108331.920    86435155.19747
  20424576.040   107332051.18008  20424573.860    83635418.50348
  21205236.780   111434263.12208  21205232.720    86831894.58447
 15 01 19 00 21 30.0000000  0  6G12G14G21G25G29G31
  23748552.980   124799599.26608  23748549.580    97246469.07344
  24019122.060   126221308.36907  24019117.620    98354264.73242
  22392578.920   117673920.29808  22392575.960    91693907.59944
  21114562.760   110957811.26109  21114560.980    86460662.07247
  20431414.980   107367989.92308  20431412.940    83663422.72548
  21197696.540   111394639.65508  21197692.600    86801019.16247
 15 01 19 00 22  0.0000000  0  6G12G14G21G25G29G31
  23762291.860   124871795.90108  23762288.420    97302726.16744
  24034186.500   126300472.73507  24034182.940    98415951.07943
  22377702.760   117595747.26008  22377699.980    91632993.57044
  21120843.260   110990815.43209  21120841.540    86486379.61947
  20438311.700   107404231.39408  20438309.540    83691662.83048
  21190251.780   111355518.23608  21190248.120    86770534.93347
 15 01 19 00 22 30.0000000  0  6G12G14G21G25G29G31
  23776057.440   124944132.35008  23776054.120    97359092.23144
  24049266.580   126379720.42307  24049263.680    98477702.24443
  22362882.120   117517863.97408  22362878.860    91572305.30644
  21127174.240   111024084.34209  21127172.420    86512303.43647
  20445264.620   107440768.04508  20445262.260    83720132.94148
  21182901.640   111316894.55608  21182898.440    86740438.53647
 15 01 19 00 23  0.0000000  0  6G12G14G21G25G29G31
  23789850.440   125016613.36008  23789847.660    97415570.89044
  24064362.800   126459053.35507  24064360.580    98539519.91243
  22348118.140   117440277.09608  22348114.100    91511848.01045
  21133556.640   111057623.36809  21133554.560    86538437.73647
  20452274.440   107477603.51508  20452271.840    83748835.89948
  21175647.300   111278774.97508  21175644.760    86710734.97548
 15 01 19 00 23 30.0000000  0  6G12G14G21G25G29G31
  23803669.240   125089229.82508  23803667.120    97472155.11945
  24079473.020   126538458.91407  24079471.440    98601394.17343
  22333409.420   117362979.87808  22333405.180    91451616.41645
  21139988.700   111091423.65709  21139986.340    86564775.62147
  20459339.040   107514726.33109  20459336.160    83777762.77148
  21168487.420   111241151.92208  21168485.660    86681418.32348
 15 01 19 00 24  0.0000000  0  6G12G14G21G25G29G31
  23817513.980   125161982.92508  23817512.260    97528845.82545
  24094596.920   126617935.58207  24094595.780    98663323.81143
  22318756.440   117285975.46808  22318752.120    91391612.99444
  21146470.740   111125486.99909  21146468.220    86591318.47347
  20466458.380   107552136.16709  20466455.120    83806913.28248
  21161422.720   111204028.17808  21161421.520    86652490.74048
 15 01 19 00 24 30.0000000  0  6G12G14G21G25G29G31
  23831385.180   125234875.75808  23831383.880    97585645.41544
  24109734.500   126697483.19208  24109733.440    98725308.76143
  22304160.160   117209269.13108  22304155.860    91331841.84144
  21153003.360   111159816.82109  21153000.960    86618068.97847
  20473632.560   107589834.16209  20473628.920    83836288.34948
  21154454.220   111167408.55308  21154453.200    86623955.97048
 15 01 19 00 25  0.0000000  0  6G12G14G21G25G29G31
  23845282.560   125307907.41108  23845281.600    97642553.16645
  24124884.860   126777097.66008  24124884.080    98787345.85142
  22289620.560   117132861.52008  22289616.340    91272303.46945
  21159586.540   111194412.68509  21159584.460    86645026.78647
  20480860.960   107627817.72209  20480856.940    83865885.93648
  21147581.980   111131293.31408  21147580.820    86595814.24548
 15 01 19 00 25 30.0000000  0  6G12G14G21G25G29G31
  23859205.840   125381075.36208  23859205.280    97699567.12145
  24140046.920   126856773.49908  24140044.780    98849430.65442
  22275137.560   117056752.29708  22275133.500    91212997.62145
  21166220.040   111229272.29109  21166218.220    86672190.10347
  20488142.580   107666082.18909  20488138.200    83895702.40248
  21140805.740   111095681.67508  21140804.240    86568064.92348
 15 01 19 00 26  0.0000000  0  6G12G14G21G25G29G31
  23873155.080   125454380.55808  23873154.780    97756688.03845
  24155220.320   126936508.82508  24155214.840    98911562.04441
  22260711.700   116980944.29608  22260707.880    91153926.47345
  21172904.140   111264397.04809  21172902.520    86699560.04547
  20495477.540   107704627.74209  20495472.840    83925737.90148
  21134125.900   111060576.25108  21134123.940    86540710.04548
 15 01 19 00 26 30.0000000  0  6G12G14G21G25G29G31
  23887138.440   125527865.50008  23887138.180    97813949.02244
  24170412.400   127016342.61207  24170403.000    98973759.16053
  22246351.440   116905482.17608  22246348.100    91095124.88745
  21179646.820   111299829.63209  21179645.380    86727169.84948
  20502873.620   107743494.48409  20502868.700    83956023.67547
  21127550.680   111026020.62008  21127548.180    86513783.58948
 15 01 19 00 27  0.0000000  0  6G12G14G21G25G29G31
  23901124.220   125601362.63308  23901124.020    97871219.49744
  24185590.760   127096104.68006  24185585.320    99035925.24241
  22232025.480   116830200.87108  22232022.620    91036464.15845
  21186416.440   111335403.27709  21186415.060    86754889.56448
  20510298.680   107782513.21209  20510293.720    83986427.87047
  21121048.480   110991849.16108  21121045.600    86487156.49048
 15 01 19 00 27 30.0000000  0  6G12G14G21G25G29G31
  23915157.040   125675105.95508  23915156.840    97928681.83045
  24200799.340   127176025.97406  24200795.060    99098201.30843
  22217778.880   116755336.12508  22217776.160    90978128.04445
  21193257.480   111371352.44909  21193256.240    86782901.89547
  20517796.940   107821916.40009  20517792.040    84017131.67047
  21114664.200   110958297.32808  21114660.940    86461012.22648
 15 01 19 00 28  0.0000000  0  6G12G14G21G25G29G31
  23929214.460   125748977.34708  23929214.080    97986243.92545
  24216015.180   127255985.25406  24216012.700    99160506.99543
  22203589.460   116680771.95408  22203586.760    90920026.12145
  21200147.540   111407559.59109  21200146.560    86811115.23248
  20525345.380   107861584.03308  20525340.740    84048041.50247
  21108375.560   110925248.50508  21108372.040    86435259.88748
 15 01 19 00 28 30.0000000  0  6G12G14G21G25G29G31
  23943296.600   125822978.46208  23943295.980    98043907.10145
  24231238.080   127335981.29806  24231236.260    99222841.29443
  22189457.920   116606511.84408  22189455.160    90862161.12545
  21207087.100   111444026.76209  21207086.340    86839531.20848
  20532943.900   107901516.51208  20532939.820    84079157.69447
  21102183.100   110892705.59108  21102179.400    86409901.78548
 15 01 19 00 29  0.0000000  0  6G12G14G21G25G29G31
  23957405.520   125897121.27408  23957404.920    98101680.69445
  24246469.600   127416022.75307  24246468.260    99285210.96443
  22175386.840   116532569.64008  22175383.900    90804543.85445
  21214078.420   111480765.98909  21214077.820    86868159.17148
  20540594.480   107941723.60508  20540591.100    84110487.88047
  21096089.360   110860681.92509  21096085.420    86384948.29048
 15 01 19 00 29 30.0000000  0  6G12G14G21G25G29G31
  23971540.340   125971400.33308  23971539.680    98159560.47244
  24261708.180   127496101.40307  24261707.060    99347609.62442
  22161375.760   116458942.14508  22161372.560    90747171.79445
  21221120.560   111517772.53509  21221120.140    86896995.42648
  20548296.200   107982198.23008  20548293.120    84142026.54347
  21090093.760   110829173.78909  21090089.480    86360396.48548
 15 01 19 00 30  0.0000000  0  6G12G14G21G25G29G31
  23985701.440   126045817.10608  23985700.640    98217547.53945
  24276953.640   127576216.10307  24276952.000    99410036.40143
  22147425.360   116385632.91808  22147422.000    90690047.73645
  21228213.880   111555048.52009  21228213.600    86926041.62548
  20556049.080   108022940.40708  20556045.860    84173773.69447
  21084196.840   110798184.30609  21084192.280    86336248.82648
 15 01 19 00 30 30.0000000  0  6G12G14G21G25G29G31
  23999888.880   126120372.35408  23999888.000    98275642.50745
  24292205.520   127656364.54107  24292204.400    99472489.45642
  22133536.200   116312644.26508  22133532.500    90633173.45845
  21235358.600   111592595.05709  21235358.440    86955298.65548
  20563852.860   108063949.57608  20563849.380    84205728.90547
  21078398.940   110767715.42109  21078394.160    86312506.83547
 15 01 19 00 31  0.0000000  0  6G12G14G21G25G29G31
  24014103.020   126195067.30508  24014101.960    98333846.36045
  24307463.420   127736544.46607  24307462.760    99534967.07542
  22119708.940   116239980.00208  22119705.180    90576551.98145
  21242555.000   111630413.49509  21242554.940    86984767.54648
  20571707.060   108105224.44308  20571703.600    84237891.12947
  21072700.480   110737769.49709  21072695.540    86289172.33447
 15 01 19 00 31 30.0000000  0  6G12G14G21G25G29G31
  24028343.740   126269901.38308  24028342.360    98392158.62745
  24322726.760   127816752.66407  24322726.400    99597466.73343
  22105943.660   116167641.36108  22105939.900    90520184.21845
  21249803.220   111668503.88909  21249803.180    87014448.35848
  20579611.440   108146763.13708  20579608.180    84270258.94447
  21067101.520   110708347.52009  21067096.620    86266246.11747
 15 01 19 00 32  0.0000000  0  6G12G14G21G25G29G31
  24042610.800   126344874.11508  24042608.960    98450578.93345
  24337994.860   127896985.54907  24337994.600    99659985.55843
  22092240.480   116095629.41408  22092236.560    90464071.02845
  21257103.300   111706866.07109  21257103.200    87044340.96348
  20587565.920   108188563.76208  20587562.680    84302830.85147
  21061602.260   110679450.09008  21061597.580    86243728.63147
 15 01 19 00 32 30.0000000  0  6G12G14G21G25G29G31
  24056903.980   126419984.75708  24056901.780    98509106.71045
  24353266.920   127977239.36807  24353266.820    99722520.77243
  22078599.600   116023945.38608  22078595.660    90408213.36845
  21264455.140   111745499.68109  21264454.880    87074445.07348
  20595569.960   108230623.37609  20595566.420    84335604.59347
  21056202.920   110651078.00709  21056198.460    86221620.51047
 15 01 19 00 33  0.0000000  0  6G12G14G21G25G29G31
  24071223.160   126495232.39308  24071220.960    98567741.19345
  24368542.240   128057510.61807  24368542.120    99785069.48544
  22065021.360   115952590.74308  22065017.420    90352612.36245
  21271858.640   111784404.43509  21271858.240    87104760.45348
  20603623.120   108272940.06709  20603619.080    84368578.64247
  21050903.700   110623231.93909  21050899.420    86199922.26547
 15 01 19 00 33 30.0000000  0  6G12G14G21G25G29G31
  24085568.940   126570619.80708  24085566.660    98626484.61245
  24383820.860   128137799.11307  24383820.860    99847631.64344
  22051506.680   115881570.01608  22051502.580    90297271.53845
  21279314.300   111823583.47809  21279313.860    87135289.58148
  20611725.280   108315514.62009  20611720.700    84401753.63947
  21045705.440   110595915.85209  21045701.240    86178637.00447
 15 01 19 00 34  0.0000000  0  6G12G14G21G25G29G31
  24099941.120   126646146.11208  24099938.540    98685336.29545
  24399102.040   128218101.30706  24399101.760    99910204.45443
  22038055.800   115810884.55008  22038051.380    90242191.96245
  21286822.040   111863036.67909  21286821.600    87166032.32548
  20619875.920   108358345.06609  20619870.980    84435128.02346
  21040608.200   110569130.22709  21040603.940    86157765.06647
 15 01 19 00 34 30.0000000  0  6G12G14G21G25G29G31
  24114339.920   126721813.70507  24114337.260    98744298.06944
  24414385.580   128298416.52405  24414384.680    99972787.40844
  22024669.460   115740538.77908  22024664.720    90187377.09145
  21294382.460   111902766.85209  21294382.080    87196990.90148
  20628075.080   108401431.89008  20628070.120    84468702.17847
  21035612.760   110542879.08909  21035608.260    86137309.63447
 15 01 19 00 35  0.0000000  0  5G12G21G25G29G31
  24128771.060   126797653.12007  24128768.920    98803393.67745
  22011353.620   115670564.42708  22011348.860    90132851.63445
  21302001.340   111942804.38409  21302001.040    87228188.96648
  20636328.200   108444803.05908  20636323.560    84502497.88947
  21030724.860   110517193.12709  21030720.120    86117294.58647
 15 01 19 00 35 30.0000000  0  5G12G21G25G29G31
  24143220.340   126873586.58807  24143218.900    98862562.58945
  21998094.200   115600886.59508  21998089.660    90078557.24445
  21309664.100   111983072.68509  21309663.880    87259566.86548
  20644620.680   108488380.98708  20644616.560    84536454.73347
  21025930.140   110491997.06908  21025925.220    86097661.30247
 15 01 19 00 36  0.0000000  0  6G12G14G21G25G29G31
  24157682.400   126949585.13707  24157681.400    98921782.23346
  24460234.160   128539384.34106  24460227.600   100160547.05143
  21984885.980   115531477.48808  21984881.640    90024472.24345
  21317365.120   112023542.62809  21317364.980    87291101.87548
  20652946.520   108532133.80009  20652942.860    84570547.84447
  21021223.140   110467262.45008  21021218.160    86078387.57147
 15 01 19 00 36 30.0000000  0  6G12G14G21G25G29G31
  24172187.180   127025807.91106  24172186.580    98981176.59245
  24475520.100   128619712.59806  24475514.740   100223140.20343
  21971759.740   115462498.42408  21971755.640    89970722.33745
  21325134.920   112064374.36609  21325134.920    87322918.82348
  20661335.720   108576219.64908  20661332.480    84604900.47647
  21016634.460   110443150.22408  21016629.640    86059598.83247
 15 01 19 00 37  0.0000000  0  6G12G14G21G25G29G31
  24186719.660   127102178.96505  24186719.840    99040686.41445
  24490806.940   128700045.82006  24490803.160   100285737.14543
  21958701.280   115393874.92308  21958697.460    89917249.48846
  21332959.040   112105491.51609  21332959.200    87354958.15248
  20669773.340   108620560.40308  20669770.420    84639451.71547
  21012149.820   110419584.96808  21012145.320    86041236.29547
 15 01 19 00 37 30.0000000  0  6G12G14G21G25G29G31
  24201277.680   127178682.00307  24201278.120    99100299.12445
  24506091.100   128780365.87906  24506089.120   100348323.78045
  21945707.940   115325593.45908  21945704.260    89864043.17346
  21340834.620   112146878.93809  21340834.900    87387208.08748
  20678255.880   108665138.36708  20678253.420    84674187.77747
  21007766.420   110396551.88508  21007762.380    86023288.44447
 15 01 19 00 38  0.0000000  0  6G12G14G21G25G29G31
  24215861.880   127255319.95808  24215862.020    99160017.07344
  24521372.540   128860672.16205  24521372.180   100410899.71145
  21932780.480   115257658.02408  21932776.940    89811106.48146
  21348762.260   112188539.77709  21348762.700    87419671.06648
  20686783.920   108709955.22208  20686781.800    84709109.99147
  21003485.040   110374054.99708  21003481.500    86005758.39347
 15 01 19 00 38 30.0000000  0  5G12G21G25G29G31
  24230476.920   127332119.81908  24230476.580    99219861.18145
  21919924.440   115190097.95008  21919920.800    89758462.29046
  21356747.240   112230501.62109  21356747.700    87452368.59348
  20695362.440   108755036.32408  20695360.520    84744238.13147
  20999311.180   110352122.79108  20999308.160    85988668.37547
 15 01 19 00 39  0.0000000  0  5G12G21G25G29G31
  24245111.880   127409025.94907  24245111.360    99279788.04045
  21907129.540   115122859.38008  21907125.680    89706068.61546
  21364779.040   112272708.90509  21364779.320    87485257.37348
  20703980.520   108800324.70608  20703978.760    84779527.76947
  20995234.460   110330700.52608  20995231.900    85971975.69147
 15 01 19 00 39 30.0000000  0  5G12G21G25G29G31
  24259774.780   127486083.55004  24259775.020    99339832.79944
  21894404.680   115055989.75508  21894400.660    89653962.43546
  21372866.460   112315207.74809  21372866.480    87518373.35148
  20712646.240   108845863.87408  20712644.760    84815012.83547
  20991263.740   110309834.70609  20991261.420    85955716.59847
 15 01 19 00 40  0.0000000  0  5G12G21G25G29G31
  24274461.980   127563267.36207  24274462.260    99399975.91945
  21881745.320   114989465.06308  21881741.100    89602125.04345
  21381004.620   112357972.93009  21381004.260    87551696.87548
  20721354.240   108891626.72508  20721353.300    84850672.18747
  20987394.360   110289500.85309  20987392.140    85939872.02147
 15 01 19 00 40 30.0000000  0  5G12G21G25G29G31
  24289173.720   127640576.04708  24289173.280    99460216.48144
  21869151.720   114923286.69608  21869147.340    89550557.50745
  21389193.440   112401004.29009  21389192.740    87585227.78848
  20730104.240   108937611.03908  20730103.840    84886504.09147
  20983626.480   110269699.68009  20983624.260    85924442.51548
 15 01 19 00 41  0.0000000  0  5G12G21G25G29G31
  24303911.880   127718022.24708  24303910.480    99520564.23144
  21856626.640   114857468.62508  21856622.140    89499270.71046
  21397435.300   112444314.48909  21397434.280    87618975.98048
  20738898.760   108983827.35208  20738898.480    84922516.78747
  20979962.520   110250444.34709  20979960.300    85909438.34548
 15 01 19 00 41 30.0000000  0  5G12G21G25G29G31
  24318676.720   127795608.91808  24318675.120    99581021.45944
  21844170.860   114792014.84608  21844166.380    89448267.78445
  21405730.680   112487906.35909  21405729.460    87652943.66848
  20747738.160   109030277.27808  20747737.540    84958711.55047
  20976403.160   110231738.39209  20976400.900    85894862.26648
 15 01 19 00 42  0.0000000  0  5G12G21G25G29G31
  24333467.780   127873335.06507  24333466.000    99641587.33745
  21831784.840   114726926.97308  21831780.460    89397549.96745
  21414079.560   112531779.87809  21414078.280    87687130.81548
  20756621.780   109076958.52008  20756620.680    84995086.56547
  20972948.480   110213582.51009  20972946.100    85880714.82948
 15 01 19 00 42 30.0000000  0  5G12G21G25G29G31
  24348286.080   127951208.00106  24348284.640    99702267.44045
  21819470.260   114662214.07008  21819466.040    89347124.34646
  21422483.440   112575942.41009  21422482.120    87721543.16647
  20765550.360   109123876.41508  20765548.900    85031645.96947
  20969599.920   110195984.33609  20969597.220    85867001.96548
 15 01 19 00 43  0.0000000  0  5G12G21G25G29G31
  24363129.520   128029213.23507  24363128.600    99763050.63345
  21807224.720   114597863.64608  21807220.740    89296981.18845
  21430939.620   112620380.44909  21430938.280    87756170.18647
  20774520.760   109171015.43908  20774519.200    85068377.66247
  20966355.040   110178931.04709  20966351.940    85853713.69048
 15 01 19 00 43 30.0000000  0  5G12G21G25G29G31
  24377997.300   128107343.13708  24377996.120    99823931.05245
  21795047.240   114533870.50708  21795043.400    89247116.40646
  21439446.820   112665087.16909  21439445.600    87791006.56747
  20783531.460   109218366.93208  20783529.980    85105274.90747
  20963212.620   110162416.27109  20963209.100    85840845.03748
 15 01 19 00 44  0.0000000  0  5G12G21G25G29G31
  24392893.560   128185621.68809  24392892.060    99884927.29744
  21782942.600   114470259.38708  21782938.680    89197549.31246
  21448009.600   112710086.14309  21448008.560    87826070.68847
  20792586.860   109265952.71508  20792585.240    85142354.73047
  20960177.280   110146464.37709  20960173.420    85828414.99648
 15 01 19 00 44 30.0000000  0  5G12G21G25G29G31
  24407813.980   128264027.19608  24407812.000    99946022.50843
  21770906.940   114407010.34808  21770902.640    89148264.35346
  21456623.940   112755356.01609  21456623.060    87861345.90047
  20801682.640   109313749.75108  20801680.520    85179599.16947
  20957245.060   110131054.63409  20957240.940    85816407.40648
 15 01 19 00 45  0.0000000  0  5G12G21G25G29G31
  24422760.660   128342570.77708  24422754.580   100007225.55841
  21758942.700   114344136.67108  21758938.080    89099271.88345
  21465292.280   112800908.87609  21465291.560    87896841.61947
  20810820.560   109361768.00308  20810817.520    85217016.00546
  20954418.340   110116199.64009  20954414.220    85804832.09248
 15 01 19 00 45 30.0000000  0  5G12G21G25G29G31
  24437732.560   128421246.12305  24437727.400   100068531.14542
  21747049.000   114281633.94608  21747044.060    89050568.46746
  21474013.500   112846738.85009  21474012.780    87932553.26447
  20819998.900   109409999.64908  20819994.740    85254599.11846
  20951696.120   110101893.88809  20951692.160    85793684.73948
 15 01 19 00 46  0.0000000  0  5G12G21G25G29G31
  24452728.460   128499942.10206  24452728.060   100129830.70445
  21735227.040   114219508.43608  21735221.840    89002159.00446
  21482788.480   112892850.67409  21482787.660    87968484.53947
  20829218.160   109458447.52308  20829213.140    85292350.71946
  20949079.480   110088142.88709  20949075.740    85782969.67948
 15 01 19 00 46 30.0000000  0  5G12G21G25G29G31
  24467759.600   128578928.43008  24467758.720   100191378.46846
  21723484.440   114157800.01008  21723478.920    88954074.53445
  21491624.520   112939283.16409  21491623.560    88004665.69247
  20838485.500   109507148.53008  20838480.180    85330299.56446
  20946575.780   110074985.51609  20946572.260    85772717.18648
 15 01 19 00 47  0.0000000  0  5G12G21G25G29G31
  24482806.620   128657997.93809  24482805.200   100252991.05146
  21711804.000   114096419.16208  21711798.340    88906245.31445
  21500504.200   112985945.24609  21500503.120    88041025.72947
  20847783.400   109556009.95008  20847778.420    85368373.39146
  20944167.760   110062331.30109  20944164.420    85762856.74948
 15 01 19 00 47 30.0000000  0  5G12G21G25G29G31
  24497882.280   128737218.83309  24497880.500   100314721.59646
  21700199.080   114035435.71608  21700193.380    88858725.78545
  21509440.620   113032905.55709  21509439.520    88077618.17747
  20857124.620   109605098.93908  20857120.220    85406624.55547
  20941868.540   110050249.49409  20941865.420    85753442.34748
 15 01 19 00 48  0.0000000  0  5G12G21G25G29G31
  24512983.800   128816576.34508  24512981.700   100376558.59045
  21688667.260   113974836.67508  21688661.600    88811505.76346
  21518430.940   113080149.98409  21518429.980    88114432.00447
  20866505.960   109654399.29608  20866502.340    85445040.40647
  20939675.540   110038726.08409  20939672.620    85744463.05948
 15 01 19 00 48 30.0000000  0  5G12G21G25G29G31
  24528109.960   128896062.83705  24528107.680   100438496.14043
  21677207.700   113914616.75908  21677201.940    88764581.15545
  21527473.900   113127671.53009  21527473.060    88151461.76847
  20875925.780   109703901.77508  20875922.780    85483613.75347
  20937587.600   110027754.63409  20937584.840    85735913.87548
 15 01 19 00 49  0.0000000  0  5G12G21G25G29G31
  24543252.260   128975663.24805  24543255.040   100500502.53842
  21665814.580   113854745.33608  21665808.860    88717928.10345
  21536563.540   113175438.49109  21536562.740    88188682.76447
  20885377.800   109753573.35808  20885375.140    85522318.86747
  20935598.740   110017303.79009  20935596.040    85727770.36048
 15 01 19 00 49 30.0000000  0  5G12G21G25G29G31
  24558409.200   129055312.83808  24558402.340   100562550.70641
  21654482.180   113795192.47808  21654476.700    88671523.27646
  21545693.980   113223419.66109  21545693.260    88226070.68947
  20894855.720   109803381.21708  20894853.400    85561130.19247
  20933703.100   110007342.91509  20933700.500    85720008.64548
 15 01 19 00 50  0.0000000  0  5G12G21G25G29G31
  24573641.680   129135358.68908  24573636.420   100624924.02744
  21643273.740   113736290.89008  21643268.600    88625625.92745
  21554928.420   113271946.78409  21554927.800    88263884.00947
  20904422.160   109853655.00908  20904420.320    85600304.55147
  20931963.940   109998203.94809  20931961.460    85712887.37148
 15 01 19 00 50 30.0000000  0  5G12G21G25G29G31
  24588871.960   129215393.06509  24588867.180   100687288.44244
  21632111.840   113677633.96108  21632106.860    88579919.22546
  21564189.160   113320611.46009  21564188.420    88301804.52247
  20913999.300   109903984.33608  20913997.860    85639522.19447
  20930303.760   109989478.97909  20930301.240    85706088.70548
 15 01 19 00 51  0.0000000  0  5G12G21G25G29G31
  24604125.500   129295550.01608  24604120.860   100749748.38344
  21621022.320   113619357.68308  21621017.620    88534509.14046
  21573501.760   113369548.58109  21573500.900    88339937.31947
  20923612.760   109954503.14708  20923611.520    85678887.48647
  20928748.240   109981303.10809  20928745.440    85699717.89948
 15 01 19 00 51 30.0000000  0  5G12G21G25G29G31
  24619405.720   129375847.89308  24619401.280   100812318.12244
  21610009.100   113561482.35108  21610004.440    88489411.48946
  21582869.840   113418777.28809  21582868.980    88378297.33847
  20933265.720   110005228.20408  20933264.400    85718413.51548
  20927300.920   109973695.65809  20927297.840    85693790.01848
 15 01 19 00 52  0.0000000  0  5G12G21G25G29G31
  24634713.180   129456293.07405  24634709.520   100875002.61044
  21599073.560   113504015.51108  21599068.900    88444632.15446
  21592294.660   113468304.02209  21592293.780    88416889.57948
  20942958.920   110056164.24408  20942957.300    85758103.92947
  20925962.880   109966663.29909  20925959.540    85688310.25648
 15 01 19 00 52 30.0000000  0  5G12G21G25G29G31
  24650047.100   129536879.44806  24650044.500   100937796.96944
  21588214.940   113446952.96008  21588210.340    88400167.85246
  21601775.100   113518122.99809  21601774.160    88455709.54047
  20952690.820   110107303.87308  20952688.940    85797952.98147
  20924733.100   109960200.79009  20924729.520    85683274.53047
 15 01 19 00 53  0.0000000  0  5G12G21G25G29G31
  24665401.600   129617569.36408  24665398.440   101000672.22142
  21577426.420   113390259.03608  21577421.900    88355990.78546
  21611304.000   113568197.38009  21611303.160    88494728.51748
  20962454.000   110158608.85808  20962451.940    85837930.87947
  20923604.760   109954271.79109  20923600.980    85678654.52347
 15 01 19 00 53 30.0000000  0  5G12G21G25G29G31
  24680780.960   129698387.22708  24680777.120   101063647.32841
  21566712.880   113333959.30308  21566708.520    88312120.88446
  21620886.080   113618551.53709  21620885.360    88533965.51048
  20972252.860   110210101.99208  20972250.680    85878055.40347
  20922582.560   109948900.66909  20922578.600    85674469.23347
 15 01 19 00 54  0.0000000  0  5G12G21G25G29G31
  24696185.380   129779335.89608  24696182.380   101126724.28543
  21556075.180   113278058.65308  21556071.060    88268561.96846
  21630522.100   113669189.33509  21630521.480    88573423.51847
  20982087.780   110261784.98208  20982085.400    85918327.86547
  20921667.240   109944091.39709  20921663.120    85670721.74147
 15 01 19 00 54 30.0000000  0  5G12G21G25G29G31
  24711616.600   129860425.54708  24711614.380   101189911.04044
  21545515.460   113222568.45508  21545511.740    88225322.86646
  21640214.060   113720121.21709  21640213.420    88613110.68147
  20991960.500   110313666.86408  20991957.880    85958755.30847
  20920860.980   109939854.90109  20920856.660    85667420.56447
 15 01 19 00 55  0.0000000  0  5G12G21G25G29G31
  24727072.920   129941647.63807  24727071.040   101253200.95244
  21535032.400   113167481.99908  21535029.280    88182398.40446
  21649960.460   113771338.81309  21649959.660    88653020.49247
  21001869.040   110365737.40308  21001866.440    85999329.77247
  20920162.160   109936182.38809  20920157.580    85664558.87447
 15 01 19 00 55 30.0000000  0  5G12G21G25G29G31
  24742553.900   130023000.83406  24742552.260   101316592.95345
  21524626.160   113112799.77908  21524623.580    88139788.91946
  21659761.120   113822841.31709  21659760.020    88693152.29247
  21011813.040   110417994.52708  21011810.560    86040049.59246
  20919570.740   109933073.63209  20919565.780    85662136.47347
 15 01 19 00 56  0.0000000  0  4G21G25G29G31
  21514297.700   113058525.97308  21514295.480    88097497.65946
  21669616.620   113874631.86709  21669615.320    88733508.54647
  21021792.720   110470439.51807  21021790.580    86080915.81946
  20919087.360   109930532.10809  20919081.940    85660156.06047
 15 01 19 00 56 30.0000000  0  4G21G25G29G31
  21504044.180   113004644.72808  21504041.860    88055512.29845
  21679523.660   113926693.43809  21679522.240    88774075.99047
  21031804.400   110523053.32407  21031802.820    86121913.57846
  20918708.640   109928540.71009  20918702.840    85658604.32847
 15 01 19 00 57  0.0000000  0  4G21G25G29G31
  21493859.340   112950992.38918  21493856.340    88013747.94755
  21689475.760   113978964.31919  21689474.360    88814770.92657
  21041841.340   110575622.47117  21041840.760    86162819.58056
  20918428.240   109927082.01219  20918422.260    85657441.77257
 15 01 19 00 57 30.0000000  0  4G21G25G29G31
  21483794.660   112898101.33208  21483791.160    87972534.15745
  21699524.220   114031769.73709  21699522.880    88855918.00747
  21051955.500   110628772.45707  21051954.780    86204235.15846
  20918297.140   109926393.27609  20918291.440    85656905.09547
 15 01 19 00 58  0.0000000  0  4G21G25G29G31
  21473528.900   112844152.91508  21473524.700    87930496.42545
  21709347.660   114083392.99609  21709346.320    88896143.91347
  21061824.520   110680633.34308  21061823.640    86244646.25246
  20917994.160   109924801.73909  20917988.920    85655664.91947
 15 01 19 00 58 30.0000000  0  4G21G25G29G31
  21463580.740   112791872.86308  21463575.760    87889758.73545
  21719464.580   114136558.51309  21719463.280    88937571.59447
  21071966.620   110733928.69408  21071965.560    86286175.10146
  20918037.820   109925032.17509  20918033.040    85655844.48647
 15 01 19 00 59  0.0000000  0  4G21G25G29G31
  21453948.040   112741256.69008  21453941.780    87850305.05345
  21729872.320   114191249.51909  21729871.260    88980189.02847
  21082379.140   110788649.12308  21082377.760    86328812.46247
  20918425.360   109927067.71009  20918421.400    85657437.67747
 15 01 19 00 59 30.0000000  0  4G21G25G29G31
  21444172.880   112689887.73908  21444166.580    87810277.30144
  21740114.060   114245070.40009  21740113.180    89022127.36247
  21092603.680   110842379.23808  21092602.380    86370680.08647
  20918700.260   109928512.79509  20918696.420    85658563.71948
 15 01 19 01 00  0.0000000  0  4G21G25G29G31
  21434476.960   112638935.79208  21434469.940    87770571.70345
  21750410.320   114299176.72609  21750409.680    89064290.89747
  21102861.560   110896284.33308  21102859.900    86412683.26447
  20919082.780   109930521.18009  20919079.060    85660131.02547
 15 01 19 01 00 30.0000000  0  4G21G25G29G31
  21424860.800   112588402.94008  21424853.920    87731195.44744
  21760761.700   114353573.75509  21760761.120    89106678.18547
  21113152.800   110950363.92408  21113150.860    86454823.21147
  20919573.820   109933101.67309  20919570.100    85662141.79647
 15 01 19 01 01  0.0000000  0  4G21G25G29G31
  21415311.720   112538222.49908  21415305.220    87692094.17045
  21771155.420   114408193.78209  21771154.800    89149239.01947
  21123464.720   111004555.52908  21123461.820    86497044.33947
  20920160.420   109936184.95009  20920156.660    85664544.12847
 15 01 19 01 01 30.0000000  0  4G21G25G29G31
  21405848.280   112488493.09208  21405842.060    87653343.97945
  21781609.440   114463129.86509  21781608.720    89192046.34647
  21133814.100   111058941.42808  21133811.040    86539422.96547
  20920860.560   109939864.23409  20920856.780    85667411.10547
 15 01 19 01 02 30.0000000  0  4G21G25G29G31
  21387171.200   112390344.35308  21387167.240    87576872.71445
  21802692.100   114573918.36509  21802690.920    89278374.23947
  21154618.520   111168271.15908  21154615.880    86624613.95247
  20922594.400   109948975.40609  20922590.160    85674509.48847
 15 01 19 01 03  0.0000000  0  4G21G25G29G31
  21377960.260   112341940.96708  21377956.720    87539155.82346
  21813321.580   114629775.78909  21813320.200    89321899.50547
  21165074.580   111223218.86108  21165072.120    86667430.31847
  20923629.440   109954414.57009  20923625.180    85678747.80147
 15 01 19 01 03 30.0000000  0  4G21G25G29G31
  21368793.780   112293767.98408  21368791.140    87501626.16846
  21823969.400   114685732.38709  21823967.700    89365499.05547
  21175525.500   111278137.10608  21175523.240    86710227.45347
  20924735.760   109960228.27909  20924731.940    85683278.10547
 15 01 19 01 04  0.0000000  0  4G21G25G29G31
  21359659.560   112245765.76508  21359656.820    87464221.87546
  21834622.800   114741715.94309  21834620.960    89409122.59747
  21185958.840   111332964.14108  21185956.440    86752949.80747
  20925901.160   109966352.51909  20925897.560    85688050.24448
 15 01 19 01 04 30.0000000  0  4G21G25G29G31
  21351145.620   112201021.88908  21351142.620    87429356.54546
  21845869.720   114800818.55709  21845867.900    89455176.57047
  21196961.820   111390784.58208  21196959.180    86798004.69347
  20927713.260   109975874.95009  20927709.900    85695470.31948
 15 01 19 01 05  0.0000000  0  4G21G25G29G31
  21343311.920   112159852.12808  21343308.360    87397276.22746
  21857770.020   114863355.15809  21857768.340    89503906.36647
  21208594.080   111451911.98008  21208591.100    86845636.40547
  20930231.940   109989110.48509  20930228.760    85705783.70848
 15 01 19 01 05 30.0000000  0  4G21G25G29G31
  21333025.300   112105804.31708  21333020.160    87355151.16646
  21867189.760   114912857.59009  21867188.580    89542481.45647
  21217721.640   111499878.81608  21217718.160    86883008.38447
  20930323.200   109989590.51409  20930320.420    85706162.53348
 15 01 19 01 06  0.0000000  0  4G21G25G29G31
  21324310.640   112060007.24008  21324305.060    87319465.14246
  21878155.580   114970483.78809  21878154.540    89587384.96947
  21228370.380   111555837.94408  21228366.920    86926612.89647
  20932013.500   109998473.07709  20932010.800    85713084.00448
 15 01 19 01 06 30.0000000  0  4G21G25G29G31
  21315671.860   112014609.32509  21315665.720    87284090.14846
  21889170.080   115028365.86309  21889169.180    89632487.86047
  21239042.940   111611922.27108  21239039.600    86970314.97847
  20933805.600   110007890.20509  20933802.960    85720422.01948
 15 01 19 01 07  0.0000000  0  4G21G25G29G31
  21307085.600   111969491.08809  21307078.580    87248925.31645
