     2.11           OBSERVATION DATA    G                   RINEX VERSION / TYPE
SPIDER V4,0,0,3554                      2015 03 17 00:00    PGM / RUN BY / DATE 
ABZH                                                        MARKER NAME         
ABZH                                                        MARKER NUMBER       
                                                            OBSERVER / AGENCY   
462405              LEICA GRX1200PRO    8.20/2.127          REC # / TYPE / VERS 
103261              LEIAT504                                ANT # / TYPE        
  5106694.6829   270584.9059  3799508.1083                  APPROX POSITION XYZ 
        0.0770        0.0000        0.0000                  ANTENNA: DELTA H/E/N
     1     1                                                WAVELENGTH FACT L1/2
     4    C1    L1    P2    L2                              # / TYPES OF OBSERV 
    30.000                                                  INTERVAL            
  2015    02    24    00    00    0.0000000     GPS         TIME OF FIRST OBS   
  2015    02    24    23    59   30.0000000     GPS         TIME OF LAST OBS    
    16                                                      LEAP SECONDS        
    30                                                      # OF SATELLITES     
   G 1   819   819   819   819                              PRN / # OF OBS      
   G 2   920   920   916   916                              PRN / # OF OBS      
   G 3   832   832   832   832                              PRN / # OF OBS      
   G 4   833   833   833   833                              PRN / # OF OBS      
   G 5   662   662   662   662                              PRN / # OF OBS      
   G 6   787   787   787   787                              PRN / # OF OBS      
   G 7   662   662   662   662                              PRN / # OF OBS      
   G 9   783   783   783   783                              PRN / # OF OBS      
   G10   769   769   769   769                              PRN / # OF OBS      
   G11   784   784   784   784                              PRN / # OF OBS      
   G12   810   810   810   810                              PRN / # OF OBS      
   G13   807   807   807   807                              PRN / # OF OBS      
   G14   915   915   906   906                              PRN / # OF OBS      
   G15   720   720   720   720                              PRN / # OF OBS      
   G16   681   681   678   678                              PRN / # OF OBS      
   G17   925   925   923   923                              PRN / # OF OBS      
   G18   913   913   913   913                              PRN / # OF OBS      
   G19   768   768   768   768                              PRN / # OF OBS      
   G20   794   794   794   794                              PRN / # OF OBS      
   G21   705   705   705   705                              PRN / # OF OBS      
   G22   753   753   752   752                              PRN / # OF OBS      
   G23   732   732   732   732                              PRN / # OF OBS      
   G24   827   827   827   827                              PRN / # OF OBS      
   G25   838   838   838   838                              PRN / # OF OBS      
   G27   816   816   816   816                              PRN / # OF OBS      
   G28   879   879   879   879                              PRN / # OF OBS      
   G29   746   746   746   746                              PRN / # OF OBS      
   G30   697   697   697   697                              PRN / # OF OBS      
   G31   823   823   822   822                              PRN / # OF OBS      
   G32   746   746   746   746                              PRN / # OF OBS      
BIT 2 OF LLI FLAGS DATA COLLECTED UNDER A/S CONDITION       COMMENT             
SNR is mapped to RINEX snr flag value [2-9]                 COMMENT             
Lx:     = 25dBHz -> 1; 26-27dBHz -> 2; 28-31dBHz -> 3       COMMENT             
       32-35dBHz -> 4; 36-38dBHz -> 5; 39-41dBHz -> 6       COMMENT             
       42-44dBHz -> 7; 45-48dBHz -> 8; >=49dBHz -> 9        COMMENT             
                                                            END OF HEADER       
 15 02 24 00 00  0.0000000  0  7G16G18G21G25G27G29G31
  21978898.420   115499914.14508  21978897.580    89999937.47746
  23148543.860   121646419.79707  23148543.760    94789416.60744
  21116434.820   110967622.39108  21116433.800    86468276.64548
  24627726.480   129419556.50906  24627729.580   100846415.55243
  23136083.020   121580953.46408  23136085.420    94738420.80845
  23578366.540   123905141.16007  23578367.700    96549456.74045
  22465228.600   118055559.97808  22465228.140    91991339.12746
 15 02 24 00 00 30.0000000  0  7G16G18G21G25G27G29G31
  21964590.200   115424725.03908  21964589.580    89941348.58946
  23135264.340   121576635.47807  23135264.200    94735039.25844
  21121281.580   110993092.49408  21121280.540    86488123.48748
  24646448.700   129517942.58305  24646451.880   100923079.96644
  23123017.920   121512296.15207  23123020.400    94684921.63945
  23592828.140   123981137.38707  23592829.520    96608674.55045
  22481614.920   118141670.75008  22481614.560    92058438.40746
 15 02 24 00 01  0.0000000  0  7G16G18G21G25G27G29G31
  21950323.700   115349755.28208  21950323.220    89882930.62246
  23122024.160   121507057.64407  23122023.900    94680822.80344
  21126203.560   111018957.79708  21126202.520    86508278.27548
  24665199.560   129616479.88005  24665202.980   100999862.25444
  23109976.120   121443761.95007  23109978.660    94631518.39545
  23607295.400   124057163.40607  23607296.860    96667915.56745
  22498052.620   118228051.67208  22498052.320    92125748.20546
 15 02 24 00 01 30.0000000  0  7G16G18G21G25G27G29G31
  21936098.260   115275000.38508  21936097.840    89824680.06346
  23108822.500   121437682.03207  23108822.080    94626763.90344
  21131199.080   111045209.44808  21131198.040    86528734.11748
  24683977.600   129715160.13905  24683981.300   101076755.87944
  23096956.460   121375343.89007  23096958.920    94578205.67446
  23621767.100   124133212.18807  23621768.520    96727174.31744
  22514539.860   118314693.06608  22514539.580    92193260.95946
 15 02 24 00 02  0.0000000  0  7G16G18G21G25G27G29G31
  21921914.740   115200465.36608  21921914.280    89766600.83046
  23095660.400   121368514.15207  23095659.740    94572866.88644
  21136268.520   111071849.59808  21136267.540    86549492.67948
  24702783.260   129813985.27205  24702787.240   101153762.45043
  23083959.520   121307045.12707  23083962.140    94524985.89146
  23636243.500   124209286.76107  23636245.100    96786453.19445
  22531076.720   118401595.19608  22531076.420    92260976.87946
 15 02 24 00 02 30.0000000  0  8G16G18G21G22G25G27G29G31
  21907773.840   115126154.23508  21907773.360    89708696.07946
  23082538.520   121299558.45107  23082537.900    94519135.20544
  21141411.920   111098878.29508  21141410.940    86570554.02048
  24557032.240   129048075.16106  24557032.900   100556936.81744
  24721616.480   129912955.82705  24721620.980   101230882.36144
  23070985.660   121238867.51807  23070988.460    94471860.54045
  23650724.980   124285388.53207  23650726.680    96845753.24844
  22547663.000   118488757.15308  22547662.680    92328895.26746
 15 02 24 00 03  0.0000000  0  8G16G18G21G22G25G27G29G31
  21893672.360   115052050.30508  21893671.820    89650952.77746
  23069453.900   121230799.25007  23069453.540    94465556.65344
  21146625.620   111126276.17108  21146624.600    86591903.01248
  24539417.440   128955507.27006  24539417.700   100484806.12243
  24740473.680   130012051.98604  24740478.320   101308100.07941
  23058031.420   121170792.57207  23058034.160    94418815.15245
  23665208.160   124361498.38807  23665209.800    96905059.61543
  22564294.620   118576157.40508  22564294.340    92396999.33346
 15 02 24 00 03 30.0000000  0  8G16G18G21G22G25G27G29G31
  21879615.860   114978182.93308  21879615.380    89593393.81346
  23056412.380   121162266.40907  23056412.260    94412154.47644
  21151914.320   111154068.15408  21151913.200    86613559.11348
  24521790.240   128862875.82206  24521790.140   100412626.00441
  24759359.740   130111299.49005  24759364.400   101385435.73144
  23045101.820   121102847.31807  23045104.520    94365870.86145
  23679698.080   124437643.67306  23679699.700    96964393.59344
  22580976.160   118663819.92108  22580976.020    92465307.77546
 15 02 24 00 04  0.0000000  0  8G16G18G21G22G25G27G29G31
  21865602.460   114904542.16908  21865602.020    89536011.41246
  23043411.940   121093950.03907  23043412.060    94358920.98244
  21157275.540   111182241.42608  21157274.360    86635512.32548
  24504148.980   128770171.45206  24504149.180   100340388.95843
  24778272.300   130210685.08805  24778276.900   101462879.05041
  23032194.540   121035019.81907  23032197.400    94313018.29346
  23694192.380   124513812.14406  23694194.180    97023745.61745
  22597704.900   118751730.12708  22597704.940    92533809.20946
 15 02 24 00 04 30.0000000  0  8G16G18G21G22G25G27G29G31
  21851632.740   114831130.34308  21851632.140    89478807.40446
  23030453.400   121025853.47107  23030453.600    94305858.76044
  21162709.040   111210794.67508  21162707.900    86657761.61548
  24486494.260   128677396.73306  24486494.640   100268097.15544
  24797210.980   130310207.62705  24797215.480   101540429.05043
  23019309.760   120967310.19707  23019312.780    94260257.60046
  23708691.060   124590002.93006  23708693.040    97083115.03544
  22614480.380   118839885.21008  22614480.500    92602501.45746
 15 02 24 00 05  0.0000000  0  8G16G18G21G22G25G27G29G31
  21837707.220   114757950.65808  21837706.460    89421784.28946
  23017537.460   120957979.87407  23017537.540    94252970.26844
  21168214.760   111239727.45508  21168213.640    86680306.65148
  24468826.740   128584555.12606  24468827.420   100195753.17943
  24816175.800   130409867.00006  24816179.800   101618085.62841
  23006447.740   120899719.72407  23006450.640    94207589.73746
  23723194.380   124666217.91506  23723196.380    97142503.29645
  22631302.220   118928283.61408  22631302.320    92671383.30446
 15 02 24 00 05 30.0000000  0  7G16G18G21G22G27G29G31
  21823826.420   114685006.29908  21823825.540    89364944.52946
  23004664.980   120890333.70508  23004664.740    94200259.00644
  21173792.600   111269039.24108  21173791.540    86703147.01248
  24451147.240   128491650.73906  24451148.360   100123360.31243
  22993608.680   120832249.75607  22993611.460    94155015.78646
  23737702.340   124742458.08806  23737704.360    97201911.22144
  22648170.040   119016923.61608  22648170.020    92740453.41146
 15 02 24 00 06  0.0000000  0  7G16G18G21G22G27G29G31
  21809990.340   114612297.50208  21809989.440    89308288.32946
  22991835.760   120822914.83907  22991835.140    94147724.87244
  21179441.880   111298726.32708  21179440.800    86726279.81648
  24433455.840   128398683.54906  24433457.180   100050918.49944
  22980792.040   120764897.87607  22980794.840    94102533.85145
  23752214.620   124818720.29807  23752216.520    97261336.28745
  22665082.780   119105800.16208  22665082.680    92809707.83446
 15 02 24 00 06 30.0000000  0  7G16G18G21G22G27G29G31
  21796199.260   114539825.26008  21796198.460    89251816.47146
  22979050.140   120755725.30108  22979049.360    94095369.41544
  21185162.260   111328787.13708  21185161.220    86749703.83348
  24415752.960   128305655.22706  24415754.120    99978429.02143
  22967997.800   120697663.40507  22968000.580    94050143.37446
  23766730.940   124895003.90907  23766732.700    97320778.03744
  22682039.680   119194909.39708  22682039.480    92879143.57446
 15 02 24 00 07  0.0000000  0  7G16G18G21G22G27G29G31
  21782453.500   114467591.37708  21782452.860    89195530.35346
  22966308.460   120688766.86908  22966307.620    94043194.03944
  21190953.240   111359218.92108  21190952.220    86773416.92048
  24398038.780   128212567.53207  24398039.880    99905893.31044
  22955225.820   120630545.65007  22955228.500    93997843.88046
  23781251.360   124971308.00907  23781252.880    97380235.75744
  22699040.140   119284247.86908  22699039.860    92948757.96446
 15 02 24 00 07 30.0000000  0  7G16G18G21G22G27G29G31
  21768753.660   114395598.11409  21768753.000    89139431.71246
  22953611.260   120622042.52507  22953610.460    93991201.07744
  21196814.660   111390020.84708  21196813.640    86797418.42048
  24380314.060   128119423.91206  24380314.860    99833314.00142
  22942476.180   120563545.39607  22942478.720    93945635.91346
  23795775.860   125047632.86707  23795777.160    97439709.65144
  22716083.880   119373813.42508  22716083.520    93018549.28045
 15 02 24 00 08  0.0000000  0  7G16G18G21G22G27G29G31
  21755100.500   114323850.12108  21755099.760    89083524.19847
  22940959.460   120555557.54007  22940958.920    93939394.62844
  21202746.700   111421193.97708  21202745.700    86821709.18748
  24362579.600   128026229.22906  24362580.300    99760694.91343
  22929749.260   120496664.99107  22929751.720    93893521.33945
  23810304.760   125123980.99707  23810305.700    97499201.67844
  22733170.800   119463605.63808  22733170.400    93088517.22146
 15 02 24 00 08 30.0000000  0  7G16G18G21G22G27G29G31
  21741494.320   114252349.32309  21741493.520    89027809.29846
  22928353.660   120489314.43107  22928353.340    93887776.64144
  21208749.060   111452736.78908  21208748.080    86846288.01048
  24344835.740   127932985.44306  24344835.960    99688037.55043
  22917045.100   120429904.23208  22917047.500    93841500.00045
  23824837.860   125200351.95207  23824838.480    97558711.48044
  22750300.280   119553621.21608  22750299.840    93158659.19645
 15 02 24 00 09  0.0000000  0  7G16G18G21G22G27G29G31
  21727935.040   114181094.99609  21727934.240    88972286.46146
  22915793.720   120423312.48607  22915793.680    93836346.58744
  21214820.840   111484644.50808  21214819.900    86871151.17147
  24327082.560   127839692.22806  24327082.300    99615341.63341
  22904363.100   120363260.06408  22904365.420    93789569.51646
  23839374.660   125276742.31107  23839375.160    97618236.42944
  22767471.120   119643854.08208  22767470.620    93228970.48946
 15 02 24 00 09 30.0000000  0  7G16G18G21G22G27G29G31
  21714423.360   114110090.63109  21714422.620    88916958.40446
  22903280.480   120357555.85707  22903280.780    93785107.69045
  21220962.080   111516917.27808  21220961.200    86896298.79348
  24309320.840   127746353.77806  24309320.380    99542610.46543
  22891703.580   120296734.24208  22891705.920    93737731.24245
  23853915.400   125353153.54306  23853915.800    97677777.61644
  22784682.980   119734303.11408  22784682.560    93299450.23445
 15 02 24 00 10  0.0000000  0  7G16G18G21G22G27G29G31
  21700960.280   114039341.91508  21700959.620    88861829.55146
  22890815.200   120292050.66207  22890815.680    93734064.72644
  21227173.120   111549556.66908  21227172.220    86921732.09047
  24291551.540   127652975.80706  24291550.840    99469848.57044
  22879067.280   120230329.96108  22879069.580    93685987.67946
  23868460.480   125429588.64806  23868460.920    97737337.39044
  22801936.020   119824968.77408  22801935.660    93370098.77045
 15 02 24 00 10 30.0000000  0  7G16G18G21G22G27G29G31
  21687545.600   113968847.54008  21687545.040    88806898.88046
  22878397.600   120226795.82307  22878398.080    93683216.81644
  21233453.000   111582557.76608  21233452.040    86947447.24348
  24273774.520   127559557.44906  24273773.820    99397055.15043
  22866453.460   120164043.94408  22866455.700    93634336.26946
  23883009.500   125506044.04906  23883009.880    97796913.02344
  22819228.980   119915844.32608  22819228.760    93440910.88645
 15 02 24 00 11  0.0000000  0  7G16G18G21G22G27G29G31
  21674179.700   113898609.34609  21674179.160    88752167.84846
  22866028.120   120161793.62808  22866028.500    93632565.79444
  21239801.380   111615918.73808  21239800.380    86973442.80847
  24255990.280   127466101.39606  24255989.460    99324232.34644
  22853862.180   120097876.14808  22853864.400    93582776.97745
  23897562.320   125582519.41106  23897562.620    97856504.18944
  22836561.360   120006927.34108  22836561.280    93511884.64145
 15 02 24 00 11 30.0000000  0  7G16G18G21G22G27G29G31
  21660863.500   113828631.90608  21660862.900    88697639.98946
  22853707.600   120097049.22907  22853707.940    93582115.63345
  21246218.500   111649640.99208  21246217.480    86999719.89547
  24238199.780   127372612.50206  24238199.160    99251384.01143
  22841293.780   120031829.11007  22841296.040    93531311.79845
  23912119.400   125659017.81906  23912119.780    97916113.30944
  22853933.220   120098217.24508  22853933.140    93583019.60845
 15 02 24 00 12  0.0000000  0  7G16G18G21G22G27G29G31
  21647596.880   113758915.33708  21647596.180    88643315.39846
  22841436.220   120032562.82608  22841436.480    93531866.51244
  21252703.600   111683720.32808  21252702.540    87026275.23447
  24220402.960   127279090.79306  24220402.640    99178510.04044
  22828747.880   119965900.40207  22828750.120    93479938.82345
  23926680.160   125735535.95407  23926680.780    97975737.78944
  22871343.480   120189708.61308  22871343.340    93654311.55945
 15 02 24 00 12 30.0000000  0  7G16G18G21G22G27G29G31
  21634380.400   113689462.30508  21634379.700    88589196.16747
  22829214.620   119968337.68708  22829214.760    93481820.97744
  21259256.540   111718156.42308  21259255.500    87053108.55348
  24202600.640   127185539.95806  24202600.360    99105613.40844
  22816224.680   119900091.05407  22816226.880    93428658.84346
  23941244.900   125812074.68906  23941245.640    98035378.31945
  22888791.660   120281399.45708  22888791.580    93725758.93746
 15 02 24 00 13  0.0000000  0  7G16G18G21G22G27G29G31
  21621214.160   113620273.20709  21621213.480    88535282.60147
  22817042.680   119904373.55807  22817042.700    93431978.82544
  21265876.580   111752945.00008  21265875.540    87080216.54148
  24184792.900   127091960.08606  24184792.320    99032694.13444
  22803723.800   119834398.68107  22803726.060    93377470.01146
  23955813.120   125888631.53307  23955813.900    98095032.99344
  22906276.720   120373284.33308  22906276.800    93797357.51746
 15 02 24 00 13 30.0000000  0  7G16G18G21G22G27G29G31
  21608099.100   113551353.06009  21608098.380    88481578.60047
  22804921.720   119840677.53107  22804921.680    93382345.56944
  21272564.120   111788088.10708  21272563.060    87107600.79147
  24166980.760   126998357.24206  24166980.180    98959756.95944
  22791245.680   119768826.82607  22791248.200    93326375.07846
  23970385.480   125965209.69706  23970386.120    98154704.26644
  22923798.960   120465364.06808  22923799.020    93869107.95046
 15 02 24 00 14  0.0000000  0  7G16G18G21G22G27G29G31
  21595035.620   113482703.53609  21595034.720    88428085.47346
  22792852.060   119777251.13407  22792852.020    93332922.45044
  21279318.640   111823583.25508  21279317.500    87135259.34347
  24149164.560   126904733.64106  24149164.100    98886803.61443
  22778790.380   119703374.97307  22778793.140    93275373.66346
  23984961.700   126041808.73106  23984962.520    98214391.78644
  22941357.580   120557635.04708  22941357.740    93941007.40046
 15 02 24 00 14 30.0000000  0  7G16G18G21G22G27G29G31
  21582023.320   113414323.13609  21582022.280    88374802.05446
  22780833.440   119714092.83907  22780833.400    93283708.22444
  21286139.300   111859425.72908  21286138.100    87163188.55447
  24131344.340   126811087.90206  24131343.880    98813832.99744
  22766357.360   119638039.46707  22766360.180    93224462.91846
  23999541.260   126118424.65706  23999541.940    98274092.47544
  22958951.460   120650090.90108  22958951.580    94013050.88245
 15 02 24 00 15  0.0000000  0  7G16G18G21G22G27G29G31
  21569063.500   113346218.80109  21569062.420    88321733.75446
  22768867.180   119651209.87607  22768867.100    93234708.53144
  21293026.520   111895618.00708  21293025.280    87191390.32747
  24113521.340   126717427.15006  24113520.680    98740850.67544
  22753947.400   119572824.95707  22753950.180    93173646.43946
  24014124.740   126195061.81106  24014125.220    98333809.73244
  22976580.780   120742732.89108  22976580.760    94085239.42345
 15 02 24 00 15 30.0000000  0  7G16G18G21G22G27G29G31
  21556156.240   113278391.02309  21556155.200    88268880.95247
  22756953.400   119588603.01207  22756953.460    93185923.99345
  21299979.660   111932156.94908  21299978.460    87219862.23648
  24095695.560   126623752.50906  24095694.820    98667857.53844
  22741560.080   119507729.85807  22741562.840    93122923.03546
  24028711.920   126271718.67606  24028712.500    98393542.34844
  22994244.780   120835556.72308  22994244.500    94157569.65545
 15 02 24 00 16  0.0000000  0  7G16G18G21G22G27G29G31
  21543301.760   113210840.79509  21543300.820    88216244.43147
  22745092.440   119526273.43308  22745092.620    93137355.50645
  21306998.300   111969040.14608  21306997.100    87248602.38748
  24077867.440   126530065.59806  24077866.620    98594854.84245
  22729195.240   119442753.13907  22729198.100    93072291.86846
  24043302.680   126348393.82406  24043303.260    98453289.19844
  23011942.500   120928558.29908  23011942.020    94230038.38145
 15 02 24 00 16 30.0000000  0  7G16G18G21G22G27G29G31
  21530500.700   113143570.96009  21530499.800    88163826.39246
  22733284.940   119464224.63108  22733285.240    93089005.83144
  21314082.140   112006266.33608  21314081.020    87277609.81747
  24060037.560   126436369.45806  24060036.660    98521844.94745
  22716853.140   119377895.67507  22716856.140    93021753.62546
  24057897.100   126425088.01906  24057897.600    98513050.84744
  23029673.540   121021735.57808  23029673.020    94302644.03645
 15 02 24 00 17  0.0000000  0  7G16G18G21G22G27G29G31
  21517753.220   113076582.50609  21517752.260    88111627.60046
  22721531.220   119402458.20008  22721531.520    93040876.16545
  21321230.840   112043833.12408  21321229.700    87306882.63247
  24042206.280   126342665.80906  24042205.260    98448829.23544
  22704533.760   119313156.34707  22704536.720    92971307.41446
  24072494.880   126501800.06005  24072495.520    98572826.40444
  23047437.160   121115084.40108  23047436.680    94375383.35045
 15 02 24 00 17 30.0000000  0  7G16G18G21G22G27G29G31
  21505060.100   113009879.95209  21505059.180    88059651.60147
  22709832.080   119340978.27908  22709832.180    92992969.77045
  21328444.420   112081740.88708  21328443.260    87336421.15347
  24024374.460   126248959.44406  24024373.500    98375811.36043
  22692237.340   119248537.39107  22692240.200    92920955.01446
  24087096.440   126578531.95206  24087097.220    98632617.48244
  23065233.300   121208603.93707  23065232.960    94448255.68946
 15 02 24 00 18  0.0000000  0  7G16G18G21G22G27G29G31
  21492421.300   112943462.68309  21492420.380    88007897.89747
  22698187.480   119279785.06208  22698187.320    92945286.75644
  21335722.040   112119985.11208  21335720.920    87366221.84848
  24006542.120   126155250.15106  24006541.080    98302791.20143
  22679963.320   119184036.14008  22679965.980    92870694.30946
  24101701.340   126655280.68806  24101701.920    98692421.65844
  23083060.880   121302288.62607  23083060.660    94521256.71946
 15 02 24 00 18 30.0000000  0  7G16G18G21G22G27G29G31
  21479837.720   112877335.41909  21479836.720    87956370.16746
  22686598.280   119218882.90008  22686597.900    92897830.56145
  21343063.820   112158566.57008  21343062.700    87396285.32447
  23988710.040   126061542.85006  23988709.040    98229772.64445
  22667712.120   119119655.09207  22667714.640    92820527.28746
  24116309.980   126732048.67406  24116310.540    98752240.86044
  23100919.960   121396138.00508  23100919.740    94594386.09745
 15 02 24 00 19  0.0000000  0  7G16G18G21G22G27G29G31
  21467309.720   112811500.00809  21467308.560    87905069.84347
  22675064.860   119158274.46408  22675064.420    92850603.23745
  21350469.460   112197483.82108  21350468.380    87426610.45048
  23970878.780   125967840.23106  23970877.920    98156757.68044
  22655483.740   119055394.10708  22655486.060    92770453.79246
  24130922.140   126808835.58606  24130922.880    98812074.76844
  23118809.800   121490148.69207  23118809.540    94667641.11945
 15 02 24 00 19 30.0000000  0  7G16G18G21G22G27G29G31
  21454837.600   112745958.68608  21454836.400    87853998.68747
  22663587.720   119097961.79908  22663587.240    92803606.37944
  21357938.740   112236735.19908  21357937.660    87457195.94247
  23953048.920   125874144.62006  23953048.120    98083748.21144
  22643278.160   118991253.07508  22643280.400    92720473.79646
  24145537.920   126885641.29606  24145538.820    98871923.33244
  23136729.800   121584317.97408  23136729.440    94741019.74945
 15 02 24 00 20  0.0000000  0  7G16G18G21G22G27G29G31
  21442421.400   112680711.46909  21442420.340    87803156.71447
  22652166.960   119037945.66308  22652166.500    92756840.56945
  21365470.920   112276317.06508  21365469.800    87488038.95048
  23935220.680   125780457.20106  23935220.040    98010745.12844
  22631095.140   118927230.57608  22631097.380    92670586.17346
  24160157.000   126962463.91306  24160157.860    98931785.11544
  23154678.960   121678641.23107  23154678.500    94814518.36645
 15 02 24 00 20 30.0000000  0  7G16G18G21G22G27G29G31
  21430062.040   112615763.26909  21430061.260    87752547.74847
  22640803.580   118978230.88908  22640803.260    92710309.61045
  21373066.160   112316230.17308  21373065.000    87519140.07347
  23917395.040   125686782.77506  23917394.200    97937752.16344
  22618935.100   118863329.04008  22618937.300    92620792.79146
  24174779.780   127039305.91306  24174780.480    98991661.94244
  23172657.100   121773117.79607  23172656.700    94888136.44245
 15 02 24 00 21  0.0000000  0  7G16G18G21G22G27G29G31
  21417760.040   112551116.28309  21417759.420    87702173.48947
  22629497.980   118918819.76508  22629497.800    92664015.25045
  21380724.160   112356472.82708  21380722.920    87550497.98647
  23899572.300   125593123.73106  23899571.260    97864771.18044
  22606798.180   118799548.53208  22606800.220    92571093.71346
  24189406.100   127116167.21606  24189406.840    99051553.89044
  23190663.740   121867744.74707  23190663.580    94961871.69245
 15 02 24 00 21 30.0000000  0  7G16G18G21G22G27G29G31
  21405515.880   112486772.71709  21405515.260    87652035.64347
  22618250.600   118859714.78908  22618250.540    92617959.44945
  21388444.500   112397043.16208  21388443.260    87582111.22748
  23881753.120   125499483.22906  23881751.800    97791804.61644
  22594684.200   118735889.05108  22594686.240    92521488.94546
  24204035.940   127193047.44606  24204036.600    99111460.51443
  23208698.460   121962519.03307  23208698.560    95035721.74245
 15 02 24 00 22  0.0000000  0  7G16G18G21G22G27G29G31
  21393329.480   112422732.99709  21393328.920    87602134.57947
  22607061.600   118800916.51008  22607061.500    92572142.62745
  21396226.760   112437938.74908  21396225.500    87613977.92148
  23863937.640   125405862.24507  23863936.200    97718853.27344
  22582592.920   118672349.02708  22582595.020    92471977.24446
  24218669.020   127269944.87706  24218669.520    99171380.57244
  23226760.480   122057436.24007  23226760.680    95109683.17945
 15 02 24 00 22 30.0000000  0  7G16G18G21G22G27G29G31
  21381201.480   112358999.81609  21381200.880    87552472.36947
  22595931.540   118742427.92608  22595931.320    92526567.13945
  21404070.480   112479157.48708  21404069.220    87646096.42047
  23846126.380   125312263.68306  23846124.760    97645919.41144
  22570524.500   118608929.10208  22570526.660    92422559.14146
  24233305.460   127346860.29006  24233306.020    99231314.63144
  23244849.460   122152493.91207  23244849.580    95183754.07445
 15 02 24 00 23  0.0000000  0  7G16G18G21G22G27G29G31
  21369132.420   112295576.10709  21369131.700    87503051.30347
  22584860.960   118684252.07708  22584860.680    92481235.32744
  21411975.460   112520698.50308  21411974.240    87678466.04148
  23828320.120   125218690.86106  23828318.280    97573005.61444
  22558479.040   118545629.97208  22558481.180    92373235.15946
  24247945.300   127423793.98606  24247945.880    99291262.93544
  23262964.780   122247689.78607  23262964.760    95257932.63045
 15 02 24 00 23 30.0000000  0  7G16G18G21G22G27G29G31
  21357122.500   112232463.10509  21357121.660    87453872.34647
  22573850.180   118626390.63608  22573850.000    92436148.51945
  21419941.240   112562559.37208  21419940.100    87711084.90247
  23810519.000   125125145.82006  23810517.180    97500113.44444
  22546456.360   118482451.07908  22546458.520    92324004.86246
  24262588.580   127500745.34606  24262589.100    99351225.00743
  23281105.680   122343020.13607  23281105.500    95332215.96545
 15 02 24 00 24  0.0000000  0  7G16G18G21G22G27G29G31
  21345172.020   112169662.36809  21345171.120    87404936.71347
  22562899.600   118568845.11608  22562899.400    92391307.87045
  21427967.460   112604737.58708  21427966.320    87743951.04547
  23792723.420   125031630.22807  23792721.540    97427244.21944
  22534456.360   118419391.57108  22534458.600    92274867.59946
  24277235.160   127577713.55406  24277235.620    99411200.21043
  23299271.500   122438481.29507  23299271.200    95406601.25145
 15 02 24 00 24 30.0000000  0  7G16G18G21G22G27G29G31
  21333281.480   112107176.97209  21333280.560    87356246.79847
  22552009.740   118511618.90408  22552009.600    92346716.03345
  21436054.020   112647232.92608  21436052.900    87777064.29047
  23774934.220   124938148.02606  23774932.240    97354400.99244
  22522479.400   118356452.74908  22522481.640    92225824.39246
  24291885.120   127654699.45406  24291885.540    99471189.21844
  23317461.780   122534071.42607  23317461.400    95481087.02345
 15 02 24 00 25  0.0000000  0  7G16G18G21G22G27G29G31
  21321451.320   112045008.93009  21321450.400    87307804.17647
  22541181.100   118454713.96408  22541180.940    92302374.54844
  21444200.480   112690043.06408  21444199.440    87810422.84147
  23757151.920   124844701.73706  23757149.880    97281585.76944
  22510525.400   118293634.50708  22510527.700    92176875.12746
  24306538.380   127731702.70506  24306538.860    99531191.73144
  23335675.980   122629787.46407  23335675.580    95555670.91545
 15 02 24 00 25 30.0000000  0  7G16G18G21G22G27G29G31
  21309682.280   111983162.04709  21309681.340    87259611.80247
  22530414.420   118398134.31908  22530414.160    92258286.52745
  21452406.920   112733168.30308  21452405.920    87844026.92347
  23739377.260   124751295.43707  23739375.320    97208801.70745
  22498594.640   118230938.38108  22498597.040    92128021.02546
  24321195.220   127808724.82406  24321195.600    99591208.94244
  23353913.760   122725627.80207  23353913.380    95630351.66344
 15 02 24 00 26  0.0000000  0  7G16G18G21G22G27G29G31
  21297974.860   111921639.13709  21297973.880    87211671.87647
  22519710.120   118341882.66708  22519709.760    92214454.08345
  21460673.000   112776607.09608  21460672.100    87877875.33647
  23721610.740   124657932.36106  23721608.940    97136051.32844
  22486687.220   118168365.07107  22486689.720    92079262.62746
  24335855.440   127885766.09306  24335855.960    99651241.07943
  23372174.720   122821590.15007  23372174.500    95705127.46745
 15 02 24 00 26 30.0000000  0  7G16G18G21G22G27G29G31
  21286328.760   111860438.80709  21286327.820    87163983.31847
  22509067.940   118285957.82008  22509067.540    92170876.30345
  21468997.860   112820354.68508  21468997.000    87911964.36647
  23703852.440   124564611.94606  23703850.820    97063334.18544
  22474802.540   118105911.39207  22474805.260    92030597.44447
  24350518.860   127962823.46106  24350519.620    99711285.76143
  23390457.740   122917668.59907  23390457.680    95779993.74845
 15 02 24 00 27  0.0000000  0  7G16G18G21G22G27G29G31
  21274744.580   111799564.08009  21274743.660    87116548.47747
  22498488.620   118230363.02608  22498488.180    92127555.71545
  21477381.160   112864409.49508  21477380.420    87946292.78747
  23686102.960   124471337.42906  23686101.360    96990652.80044
  22462940.920   118043578.15608  22462943.680    91982026.11446
  24365185.380   128039897.44505  24365186.360    99771343.40143
  23408762.580   123013860.80907  23408762.520    95854948.67445
 15 02 24 00 27 30.0000000  0  7G16G18G21G22G27G29G31
  21263222.520   111739015.61109  21263221.660    87069367.86547
  22487972.380   118175099.22308  22487971.780    92084493.03445
  21485822.380   112908768.44708  21485821.680    87980858.21347
  23668362.420   124378110.42806  23668360.800    96918008.45944
  22451102.080   117981364.09308  22451104.680    91933547.65246
  24379854.920   128116986.73906  24379856.140    99831412.94244
  23427088.320   123110162.27707  23427088.120    95929988.73044
 15 02 24 00 28  0.0000000  0  7G16G18G21G22G27G29G31
  21251763.720   111678799.26309  21251762.840    87022446.03947
  22477520.220   118120172.35008  22477519.540    92041692.88745
  21494321.980   112953434.22608  21494321.240    88015662.71047
  23650632.180   124284936.91207  23650630.360    96845405.77944
  22439286.660   117919272.98208  22439289.080    91885164.98146
  24394528.020   128194094.69505  24394529.340    99891497.01844
  23445434.960   123206573.60707  23445434.600    96005114.40045
 15 02 24 00 28 30.0000000  0  7G16G18G21G22G27G29G31
  21240368.260   111618915.83009  21240367.400    86975783.63447
  22467132.240   118065583.08908  22467131.640    91999155.81945
  21502879.360   112998403.53508  21502878.580    88050703.74047
  23632912.480   124191818.34307  23632910.480    96772845.90444
  22427494.360   117857303.43908  22427496.660    91836877.05246
  24409204.440   128271220.27805  24409206.040    99951594.85044
  23463801.640   123303090.45207  23463801.100    96080322.28244
 15 02 24 00 29  0.0000000  0  7G16G18G21G22G27G29G31
  21229036.560   111559367.62509  21229035.740    86929382.44047
  22456808.960   118011334.04108  22456808.480    91956883.83445
  21511494.200   113043674.86908  21511493.400    88085980.09647
  23615203.880   124098757.76107  23615201.680    96700331.20644
  22415725.260   117795455.95208  22415727.500    91788684.22346
  24423884.200   128348363.55206  24423886.000   100011706.48444
  23482187.900   123399710.43007  23482187.260    96155610.54045
 15 02 24 00 29 30.0000000  0  7G16G18G21G22G27G29G31
  21217769.020   111500156.50009  21217768.180    86883243.91347
  22446550.680   117957426.82308  22446550.360    91914878.24745
  21520166.180   113089246.13508  21520165.260    88121490.17147
  23597506.640   124005757.34307  23597504.240    96627863.39944
  22403979.300   117733730.22908  22403981.460    91740586.28646
  24438567.300   128425523.54805  24438569.140   100071831.16543
  23500592.960   123496430.22507  23500592.480    96230976.56745
 15 02 24 00 30  0.0000000  0  7G16G18G21G22G27G29G31
  21206565.860   111441283.23709  21206564.940    86837368.64947
  22436357.620   117903862.49308  22436357.440    91873139.82445
  21528894.620   113135113.97108  21528893.580    88157231.34247
  23579821.000   123912818.33107  23579818.580    96555443.44944
  22392256.260   117672124.98808  22392258.300    91692582.21646
  24453253.660   128502699.55906  24453255.140   100131968.26243
  23519016.040   123593245.37807  23519015.920    96306416.91345
 15 02 24 00 30 30.0000000  0  7G16G18G21G22G27G29G31
  21195427.820   111382752.32609  21195426.900    86791760.15547
  22426230.640   117850645.31208  22426230.460    91831671.90945
  21537679.460   113181278.39108  21537678.320    88193203.61147
  23562147.920   123819945.76107  23562145.480    96483075.25144
  22380556.560   117610642.65508  22380558.500    91644673.92946
  24467943.360   128579893.38905  24467944.480   100192119.25843
  23537457.300   123690155.39707  23537457.480    96381931.16144
 15 02 24 00 31  0.0000000  0  7G16G18G21G22G27G29G31
  21184355.500   111324566.77309  21184354.600    86746420.77047
  22416170.360   117797778.39608  22416170.100    91790476.92245
  21546520.700   113227739.17408  21546519.460    88229406.81947
  23544488.100   123727143.19507  23544485.680    96410761.63044
  22368880.360   117549284.12308  22368882.300    91596862.09846
  24482636.500   128657106.04505  24482637.660   100252284.97944
  23555916.320   123787158.18607  23555916.640    96457517.69845
 15 02 24 00 31 30.0000000  0  7G16G18G21G22G27G29G31
  21173348.920   111266726.88909  21173348.060    86701350.73847
  22406176.840   117745262.19908  22406176.520    91749555.21445
  21555417.680   113274492.57308  21555416.280    88265838.04547
  23526841.840   123634411.95707  23526839.380    96338503.56544
  22357227.540   117488048.00908  22357229.400    91549145.65046
  24497332.700   128734335.81805  24497334.280   100312463.96544
  23574392.260   123884249.04707  23574392.500    96533172.86544
 15 02 24 00 32  0.0000000  0  7G16G18G21G22G27G29G31
  21162408.540   111209234.81509  21162407.680    86656551.72547
  22396250.520   117693099.03808  22396250.240    91708908.63245
  21564370.080   113321537.42108  21564368.620    88302496.35647
  23509209.600   123541754.47007  23509207.260    96266302.96044
  22345598.000   117426934.30608  22345599.860    91501524.61147
  24512032.140   128811582.41105  24512033.960   100372656.08944
  23592884.540   123981425.20707  23592884.600    96608894.50044
 15 02 24 00 32 30.0000000  0  7G16G18G21G22G27G29G31
  21151534.480   111152090.98609  21151533.540    86612024.06947
  22386391.500   117641289.03108  22386391.140    91668537.20245
  21573377.120   113368869.42008  21573375.660    88339378.43147
  23491591.540   123449171.52507  23491589.380    96194160.47845
  22333991.400   117365941.20608  22333993.200    91453997.54147
  24526734.580   128888844.18106  24526736.220   100432860.02544
  23611392.080   124078681.72007  23611391.980    96684678.71345
 15 02 24 00 33  0.0000000  0  7G16G18G21G22G27G29G31
  21140727.820   111095301.99409  21140726.940    86567772.91647
  22376600.860   117589838.68708  22376600.500    91628446.04545
  21582439.400   113416491.51608  21582437.860    88376486.55647
  23473989.000   123356670.07907  23473987.040    96122081.47244
  22322408.600   117305073.32608  22322410.320    91406568.04446
  24541440.680   128966125.32906  24541442.280   100493079.08744
  23629914.940   124176019.82007  23629914.840    96760526.51044
 15 02 24 00 33 30.0000000  0  8G16G18G19G21G22G27G29G31
  21129989.540   111038871.84109  21129988.620    86523801.37147
  22366879.540   117538752.79008  22366879.300    91588638.86945
  24548565.320   129003579.93006  24548563.300   100522265.98744
  21591556.980   113464404.33308  21591555.380    88413821.21147
  23456402.900   123264255.37707  23456401.200    96050070.07545
  22310850.120   117244333.16108  22310851.880    91359238.06246
  24556151.060   129043428.36505  24556152.260   100553315.20444
  23648453.180   124273439.54307  23648453.160    96836437.92144
 15 02 24 00 34  0.0000000  0  7G16G18G19G21G22G27G31
  21119311.320   110982757.70509  21119310.460    86480076.07647
  22357219.200   117487987.64908  22357219.040    91549081.62545
  24533100.060   128922311.85506  24533098.940   100458940.27344
  21600720.860   113512560.94808  21600719.260    88451345.84347
  23438825.220   123171884.60207  23438823.740    95978092.90544
  22299307.400   117183675.50808  22299309.180    91311972.37747
  23666997.620   124370892.25307  23666997.700    96912375.07545
 15 02 24 00 34 30.0000000  0  7G16G18G19G21G22G27G31
  21108709.860   110927046.48609  21108708.960    86436664.74147
  22347636.500   117437630.55708  22347636.440    91509842.35745
  24517658.240   128841165.48605  24517658.100   100395709.39444
  21609946.940   113561044.47808  21609945.320    88489125.21147
  23421272.580   123079645.54007  23421271.200    95906218.35045
  22287796.560   117123185.40208  22287798.400    91264837.26047
  23685563.980   124468460.13407  23685564.420    96988401.92845
 15 02 24 00 35  0.0000000  0  7G16G18G19G21G22G27G31
  21098175.820   110871689.86409  21098174.940    86393529.72048
  22338122.100   117387632.67908  22338122.180    91470882.98745
  24502230.000   128760089.72406  24502229.980   100332533.52343
  21619225.220   113609802.17908  21619223.620    88527118.22147
  23403735.880   122987490.03207  23403734.600    95834408.91745
  22276307.960   117062812.28308  22276309.800    91217793.29446
  23704142.100   124566089.53607  23704142.980    97064476.71144
 15 02 24 00 35 30.0000000  0  7G16G18G19G21G22G27G31
  21087710.760   110816695.60509  21087709.840    86350677.05147
  22328677.700   117338002.24008  22328677.720    91432209.92645
  24486816.360   128679091.02206  24486816.340   100269417.71244
  21628556.420   113658838.26508  21628554.900    88565328.15447
  23386216.920   122895427.07907  23386215.700    95762671.58545
  22264842.740   117002562.32708  22264844.560    91170845.28446
  23722732.620   124663783.61707  23722733.680    97140601.90144
 15 02 24 00 36  0.0000000  0  7G16G18G19G21G22G27G31
  21077314.620   110762063.44909  21077313.700    86308106.54448
  22319303.220   117288738.81208  22319303.100    91393822.85745
  24471417.000   128598166.73406  24471416.940   100206359.85844
  21637939.760   113708148.62508  21637938.400    88603751.80147
  23368715.660   122803457.04807  23368714.320    95691006.68145
  22253400.420   116942433.23408  22253402.320    91123991.46446
  23741334.600   124761536.97007  23741335.660    97216773.26545
 15 02 24 00 36 30.0000000  0  7G16G18G19G21G22G27G31
  21066988.640   110707799.89809  21066987.660    86265823.25848
  22309999.840   117239848.99508  22309999.540    91355726.90745
  24456032.760   128517321.72406  24456032.620   100143363.81044
  21647375.840   113757735.92008  21647374.600    88642391.25247
  23351233.320   122711586.75007  23351231.960    95619419.48545
  22241982.000   116882429.48608  22241983.980    91077235.31546
  23759948.180   124859350.94507  23759949.200    97292991.87544
 15 02 24 00 37  0.0000000  0  7G16G18G19G21G22G27G31
  21056733.000   110653905.72009  21056731.980    86223827.79748
  22300767.480   117191332.82308  22300767.080    91317922.11245
  24440663.300   128436554.31105  24440663.020   100080428.22744
  21656863.960   113807596.89208  21656862.820    88681243.95947
  23333770.220   122619817.35607  23333768.780    95547910.92445
  22230587.240   116822549.87608  22230589.280    91030575.89546
  23778572.400   124957221.24606  23778573.420    97369254.37545
 15 02 24 00 37 30.0000000  0  7G16G18G19G21G22G27G31
  21046547.980   110600382.83209  21046546.940    86182121.65448
  22291606.780   117143192.62308  22291606.220    91280410.27445
  24425308.640   128355864.63706  24425308.400   100017553.21644
  21666403.800   113857729.60008  21666402.740    88720308.40047
  23316326.840   122528151.66707  23316325.220    95476483.13945
  22219216.100   116762794.48608  22219218.160    90984013.26846
  23797206.820   125055145.00607  23797207.600    97445558.52045
 15 02 24 00 38  0.0000000  0  7G16G18G19G21G22G27G31
  21036433.780   110547232.43909  21036432.800    86140705.76947
  22282517.800   117095429.55308  22282517.140    91243192.31645
  24409968.720   128275251.97806  24409968.380    99954738.19744
  21675994.860   113908131.40908  21675993.900    88759582.54047
  23298903.460   122436591.45307  23298901.860    95405137.56145
  22207868.540   116703162.56108  22207870.540    90937546.84446
  23815850.760   125153118.45807  23815851.040    97521901.38244
 15 02 24 00 38 30.0000000  0  7G16G18G19G21G22G27G31
  21026391.780   110494461.39909  21026390.820    86099585.47548
  22273501.820   117048050.46008  22273501.180    91206273.56345
  24394644.200   128194721.06306  24394643.860    99891986.88744
  21685637.760   113958805.57708  21685636.900    88799068.89447
  23281501.680   122345144.41607  23281500.100    95333880.17445
  22196545.360   116643659.04908  22196547.280    90891180.48246
  23834504.600   125251143.51407  23834504.420    97598284.43644
 15 02 24 00 39  0.0000000  0  7G16G18G19G21G22G27G31
  21016421.600   110442067.76809  21016420.680    86058759.27548
  22264558.460   117001052.81308  22264557.860    91169652.01945
  24379334.440   128114267.89205  24379333.980    99829296.11845
  21695331.400   114009745.88108  21695330.520    88838762.62947
  23264121.160   122253809.25607  23264119.620    95262709.97144
  22185245.880   116584280.05408  22185247.740    90844911.14846
  23853166.980   125349213.14107  23853166.400    97674702.25144
 15 02 24 00 39 30.0000000  0  7G16G18G19G21G22G27G31
  21006524.240   110390057.03409  21006523.360    86018231.43448
  22255688.820   116954442.58508  22255688.220    91133332.37345
  24364040.100   128033896.22106  24364039.560    99766668.89744
  21705075.960   114060953.92108  21705075.100    88878664.99647
  23246762.900   122162591.68107  23246761.360    95191631.36145
  22173970.820   116525029.26908  22173972.680    90798741.71746
  23871837.940   125447327.88507  23871837.220    97751155.18244
 15 02 24 00 40  0.0000000  0  7G16G18G19G21G22G27G31
  20996698.040   110338420.29909  20996697.260    85977995.02148
  22246891.160   116908210.48808  22246890.600    91097307.37145
  24348759.360   127953595.07206  24348758.680    99704096.62344
  21714869.140   114112417.60308  21714868.300    88918766.56047
  23229425.580   122071483.86207  23229423.960    95120638.29044
  22162718.060   116465895.91508  22162719.940    90752663.79846
  23890514.700   125545474.05407  23890514.120    97827632.62244
 15 02 24 00 40 30.0000000  0  7G16G18G19G21G22G27G31
  20986944.820   110287167.16809  20986944.140    85938057.52548
  22238167.260   116862366.21308  22238166.780    91061584.58245
  24333493.600   127873372.15506  24333492.740    99641585.32444
  21724712.000   114164142.44108  21724711.120    88959071.62347
  23212110.980   121980495.79407  23212109.320    95049738.53544
  22151489.120   116406887.66308  22151491.040    90706683.35646
  23909198.100   125643656.19706  23909197.720    97904138.09844
 15 02 24 00 41  0.0000000  0  7G16G18G19G21G22G27G31
  20977265.860   110236304.31109  20977265.260    85898424.13248
  22229518.300   116816915.83108  22229517.840    91026168.71045
  24318243.400   127793231.94705  24318242.540    99579138.47044
  21734605.060   114216131.06108  21734604.240    88999582.22847
  23194820.600   121889634.82607  23194819.020    94978937.83345
  22140284.900   116348009.21108  22140286.860    90660804.06746
  23927888.480   125741876.08406  23927888.440    97980672.97044
 15 02 24 00 41 30.0000000  0  7G16G18G19G21G22G27G31
  20967661.680   110185834.30609  20967661.100    85859096.86248
  22220944.740   116771861.82108  22220944.280    90991061.69845
  24303008.820   127713175.20505  24303008.260    99516756.60044
  21744548.100   114268382.18908  21744547.320    89040297.38647
  23177555.180   121798904.33407  23177553.560    94908238.76544
  22129105.500   116289261.38808  22129107.500    90615026.55946
  23946585.500   125840131.12406  23946585.840    98057235.23745
 15 02 24 00 42  0.0000000  0  7G16G18G19G21G22G27G31
  20958130.820   110135749.42009  20958130.160    85820069.68147
  22212445.260   116727196.72908  22212444.700    90956257.74846
  24287788.520   127633192.01805  24287787.880    99454432.09944
  21754538.820   114320883.68508  21754538.060    89081207.63847
  23160313.220   121708297.23007  23160311.560    94837635.89345
  22117949.200   116230634.62508  22117951.220    90569343.37446
  23965287.060   125938409.01607  23965287.520    98133815.31444
 15 02 24 00 42 30.0000000  0  7G16G18G19G21G22G27G31
  20948675.660   110086062.13209  20948674.920    85781352.31448
  22204022.000   116682932.57708  22204021.500    90921766.22845
  24272584.160   127553293.09705  24272583.600    99392173.23544
  21764579.120   114373645.59408  21764578.400    89122320.80447
  23143097.140   121617826.37907  23143095.460    94767139.15645
  22106818.040   116172139.51708  22106819.960    90523762.79246
  23983994.620   126036717.36107  23983995.000    98210419.08643
 15 02 24 00 43  0.0000000  0  7G16G18G19G21G22G27G31
  20939295.180   110036767.20309  20939294.380    85742940.68047
  22195673.980   116639063.56508  22195673.500    90887582.58245
  24257394.580   127473471.17405  24257394.060    99329974.38343
  21774667.020   114426657.54608  21774666.280    89163628.80847
  23125906.240   121527487.60107  23125904.500    94696745.33845
  22095710.500   116113768.70608  22095712.320    90478279.05246
  24002706.120   126135045.55907  24002706.440    98287038.34544
 15 02 24 00 43 30.0000000  0  7G16G18G19G21G22G27G31
  20929990.260   109987869.37209  20929989.440    85704838.47948
  22187402.140   116595594.83108  22187401.660    90853710.85446
  24242220.140   127393729.21105  24242219.520    99267837.82144
  21784802.900   114479921.36408  21784802.060    89205133.07447
  23108741.580   121437286.49307  23108739.780    94626458.79545
  22084627.280   116055525.60808  22084629.000    90432894.82647
  24021421.500   126233394.06806  24021421.820    98363673.41744
 15 02 24 00 44  0.0000000  0  7G16G18G19G21G22G27G31
  20920761.440   109939371.56609  20920760.660    85667047.99248
  22179207.000   116552529.20008  22179206.620    90820153.22446
  24227061.000   127314064.48105  24227059.840    99205769.56544
  21794986.460   114533435.76008  21794985.540    89246832.59947
  23091603.780   121347226.50507  23091602.020    94556282.20345
  22073568.600   115997411.33208  22073570.260    90387610.98747
  24040140.260   126331760.92206  24040140.680    98440322.77944
 15 02 24 00 44 30.0000000  0  7G16G18G19G21G22G27G31
  20911608.840   109891274.09509  20911608.000    85629569.43847
  22171088.560   116509866.29008  22171088.200    90786909.40545
  24211916.900   127234482.83605  24211915.520    99143757.90444
  21805217.020   114587197.20608  21805216.020    89288724.62547
  23074492.940   121257308.30007  23074491.220    94486216.10045
  22062534.000   115939423.85808  22062535.700    90342425.95246
  24058861.380   126430140.74606  24058862.100    98516982.27644
 15 02 24 00 45  0.0000000  0  7G16G18G19G21G22G27G31
  20902532.340   109843576.36609  20902531.340    85592402.37947
  22163046.640   116467605.78308  22163046.320    90753979.16145
  24196787.580   127154978.25106  24196786.500    99081806.34543
  21815493.820   114641201.74208  21815492.800    89330806.06947
  23057409.100   121167532.35407  23057407.420    94416260.85245
  22051523.040   115881561.20608  22051524.840    90297338.20047
  24077584.060   126528528.91007  24077584.860    98593648.23644
 15 02 24 00 45 30.0000000  0  7G16G18G19G21G22G27G31
  20893532.500   109796281.57509  20893531.400    85555549.29347
  22155081.800   116425750.54208  22155081.480    90721364.69245
  24181673.280   127075551.50106  24181672.240    99019915.39744
  21825816.720   114695448.39308  21825815.580    89373076.19347
  23040352.960   121077902.10108  23040351.380    94346419.13045
  22040536.140   115823824.87008  22040537.920    90252348.86146
  24096307.920   126626923.70006  24096309.000    98670319.36644
 15 02 24 00 46  0.0000000  0  7G16G18G19G21G22G27G31
  20884610.820   109749397.67509  20884609.720    85519016.38848
  22147195.480   116384307.61908  22147195.180    90689071.51945
  24166574.960   126996208.86306  24166573.880    98958090.00044
  21836186.380   114749941.28808  21836185.200    89415538.17846
  23023326.360   120988426.90307  23023324.780    94276698.23144
  22029574.360   115766220.85508  22029576.240    90207462.62947
  24115033.700   126725328.18306  24115034.920    98746998.03044
 15 02 24 00 46 30.0000000  0  7G16G18G19G21G22G27G31
  20875766.800   109702921.99709  20875765.700    85482801.57048
  22139387.160   116343274.76008  22139386.900    90657097.87345
  24151491.780   126916945.76506  24151490.640    98896326.59845
  21846601.780   114804674.32908  21846600.540    89458187.29547
  23006328.860   120899104.66907  23006327.300    94207096.53145
  22018637.000   115708744.74008  22018638.880    90162676.06847
  24133759.920   126823734.72606  24133760.920    98823678.29644
 15 02 24 00 47  0.0000000  0  7G16G18G19G21G22G27G31
  20867000.920   109656857.27009  20866999.900    85446906.98648
  22131657.420   116302654.52408  22131657.060    90625445.74945
  24136423.920   126837762.91706  24136422.640    98834625.72544
  21857062.560   114859646.09408  21857061.300    89501022.43347
  22989361.040   120809938.92707  22989359.620    94137616.76745
  22007724.220   115651397.60808  22007726.060    90117990.01947
  24152486.240   126922141.36106  24152486.840    98900358.63144
 15 02 24 00 47 30.0000000  0  7G16G18G19G21G22G27G31
  20858313.700   109611205.70809  20858312.660    85411334.34248
  22124006.560   116262448.59108  22124006.100    90594116.45946
  24121371.400   126758660.90406  24121370.080    98772987.81345
  21867568.540   114914855.14208  21867567.320    89544042.46447
  22972423.440   120720932.06607  22972422.200    94068260.81044
  21996835.980   115594179.70108  21996837.900    90073404.65647
  24171212.060   127020545.15306  24171212.220    98977036.72044
 15 02 24 00 48  0.0000000  0  7G16G18G19G21G22G27G31
  20849705.160   109565967.84309  20849704.180    85376084.05748
  22116434.520   116222657.40508  22116434.180    90563110.36045
  24106334.140   126679638.69706  24106332.700    98711412.11744
  21878119.040   114970298.63008  21878117.900    89587245.17247
  22955516.480   120632086.05607  22955515.280    93999030.18845
  21985972.120   115537090.13408  21985974.160    90028919.30647
  24189936.700   127118942.47906  24189936.340    99053709.82844
 15 02 24 00 48 30.0000000  0  7G16G18G19G21G22G27G31
  20841176.700   109521150.75909  20841175.800    85341161.65848
  22108942.760   116183287.99608  22108942.400    90532432.91345
  24091312.720   126600701.07506  24091311.300    98649902.30644
  21888714.800   115025979.92908  21888713.720    89630633.18946
  22938641.520   120543408.18407  22938640.480    93929930.58045
  21975133.660   115480134.16508  21975135.700    89984538.05447
  24208660.500   127217335.40606  24208659.940    99130379.45344
 15 02 24 00 49  0.0000000  0  7G16G18G19G21G22G27G31
  20832727.760   109476751.33509  20832726.920    85306564.70248
  22101530.600   116144336.51108  22101530.100    90502081.11145
  24076306.440   126521842.78607  24076304.980    98588454.33844
  21899354.320   115081891.27908  21899353.260    89674200.47046
  22921798.280   120454896.43708  22921797.200    93860960.41645
  21964319.680   115423306.82908  21964321.760    89940257.03346
  24227381.820   127315715.69706  24227381.600    99207039.23844
 15 02 24 00 49 30.0000000  0  7G16G18G19G21G22G27G31
  20824359.100   109432773.71909  20824358.240    85272296.42847
  22094198.640   116105807.04308  22094198.180    90472058.16145
  24061315.840   126443066.68607  24061314.460    98527070.38843
  21910037.880   115138034.18608  21910036.840    89717948.18846
  22904987.620   120366556.02507  22904986.520    93792123.76845
  21953530.720   115366610.96308  21953532.840    89896078.45347
  24246100.680   127414083.41106  24246100.880    99283689.20244
 15 02 24 00 50  0.0000000  0  7G16G18G19G21G22G27G31
  20816071.000   109389219.38609  20816070.080    85238357.98747
  22086947.240   116067700.74008  22086946.820    90442364.95445
  24046340.780   126364372.04607  24046339.300    98465749.90644
  21920764.960   115194405.58708  21920763.880    89761873.95346
  22888209.900   120278388.55308  22888208.680    93723421.87344
  21942766.640   115310045.84808  21942768.780    89852001.76046
  24264816.440   127512434.68107  24264816.900    99360326.39144
 15 02 24 00 50 30.0000000  0  7G16G18G19G21G22G27G31
  20807863.820   109346090.04609  20807862.820    85204750.70948
  22079776.620   116030018.93508  22079776.120    90413002.51545
  24031381.220   126285759.04907  24031379.700    98404493.07644
  21931535.200   115251003.56208  21931534.140    89805976.26146
  22871465.620   120190396.69408  22871464.280    93654856.82144
  21932027.580   115253611.82808  21932029.680    89808027.21946
  24283528.520   127610766.85006  24283529.440    99436948.63744
 15 02 24 00 51  0.0000000  0  7G16G18G19G21G22G27G31
  20799738.380   109303390.48909  20799737.380    85171478.31948
  22072687.540   115992766.24108  22072687.040    90383974.45845
  24016437.680   126207230.83607  24016436.180    98343302.26744
  21942348.800   115307829.41308  21942347.800    89850256.13546
  22854755.800   120102585.76908  22854754.340    93586432.76045
  21921314.060   115197312.13908  21921316.180    89764157.35747
  24302236.820   127709079.89506  24302238.420    99513556.00044
 15 02 24 00 51 30.0000000  0  7G16G18G19G21G22G27G31
  20791693.660   109261115.15609  20791692.680    85138536.50548
  22065679.060   115955936.45908  22065678.520    90355275.94345
  24001508.900   126128779.38907  24001507.220    98282171.30644
  21953204.100   115364874.29208  21953203.100    89894706.68846
  22838079.580   120014951.70708  22838078.020    93518146.51145
  21910624.700   115141139.39908  21910626.840    89720386.41747
  24320939.580   127807363.62606  24320941.540    99590140.52143
 15 02 24 00 52  0.0000000  0  7G16G18G19G21G22G27G31
  20783731.420   109219273.43109  20783730.480    85105932.56148
  22058752.880   115919539.20808  22058752.360    90326914.45545
  23986596.240   126050412.83706  23986594.640    98221106.47343
  21964102.200   115422144.12608  21964101.180    89939332.52046
  22821438.960   119927504.56108  22821437.340    93450005.91345
  21899961.060   115085101.58808  21899963.240    89676720.61747
  24339637.680   127905622.91206  24339639.720    99666705.95544
 15 02 24 00 52 30.0000000  0  7G16G18G19G21G22G27G31
  20775851.260   109177863.32609  20775850.400    85073664.95548
  22051908.440   115883572.09008  22051908.020    90298888.15245
  23971698.940   125972127.28106  23971697.480    98160104.79243
  21975041.940   115479632.79308  21975040.960    89984128.88446
  22804833.660   119840242.80308  22804831.900    93382009.77245
  21889322.400   115029195.04408  21889324.540    89633157.10347
  24358329.980   128003850.97307  24358331.840    99743247.07243
 15 02 24 00 53  0.0000000  0  7G16G18G19G21G22G27G31
  20768054.380   109136890.37409  20768053.520    85041737.97348
  22045146.920   115848040.17308  22045146.540    90271200.94145
  23956817.700   125893926.65405  23956816.480    98099169.29444
  21986023.580   115537341.75008  21986022.620    90029096.89846
  22788264.880   119753173.02108  22788263.040    93314163.21845
  21878709.380   114973423.61008  21878711.540    89589698.86547
  24377016.720   128102048.72306  24377018.060    99819764.58843
 15 02 24 00 53 30.0000000  0  7G16G18G19G21G22G27G31
  20760340.920   109096355.78409  20760340.060    85010152.57348
  22038468.380   115812944.29808  22038468.060    90243853.51646
  23941952.380   125815810.37005  23941951.420    98038299.51044
  21997046.700   115595268.91008  21997045.760    90074234.93746
  22771733.060   119666297.51308  22771731.120    93246468.04645
  21868122.040   114917787.05708  21868124.240    89546345.71947
  24395697.020   128200212.49706  24395697.940    99896255.56243
 15 02 24 00 54  0.0000000  0  7G16G18G19G21G22G27G31
  20752710.480   109056257.79309  20752709.700    84978907.38948
  22031872.400   115778282.26808  22031872.120    90216844.16345
  23927102.460   125737774.43405  23927101.340    97977492.34844
  22008110.340   115653409.16208  22008109.460    90119539.02946
