     2.11           OBSERVATION DATA    G                   RINEX VERSION / TYPE
SPIDER V4,0,0,3554                      2015 03 16 00:51    PGM / RUN BY / DATE 
AKET                                                        MARKER NAME         
AKET                                                        MARKER NUMBER       
                                                            OBSERVER / AGENCY   
496661              LEICA GRX1200+GNSS  8.20/4.007          REC # / TYPE / VERS 
10271023            LEIAR25         NONE                    ANT # / TYPE        
  5151584.4739   350346.6892  3733756.9574                  APPROX POSITION XYZ 
        0.0480        0.0000        0.0000                  ANTENNA: DELTA H/E/N
     1     1                                                WAVELENGTH FACT L1/2
     4    C1    L1    P2    L2                              # / TYPES OF OBSERV 
    30.000                                                  INTERVAL            
  2015    02    24    00    00    0.0000000     GPS         TIME OF FIRST OBS   
  2015    02    24    23    59   30.0000000     GPS         TIME OF LAST OBS    
    16                                                      LEAP SECONDS        
    30                                                      # OF SATELLITES     
   G 1   424   424   424   424                              PRN / # OF OBS      
   G 2   859   858   858   858                              PRN / # OF OBS      
   G 3   463   463   463   463                              PRN / # OF OBS      
   G 4   506   506   506   506                              PRN / # OF OBS      
   G 5   594   594   590   590                              PRN / # OF OBS      
   G 6   621   621   619   619                              PRN / # OF OBS      
   G 7   573   573   573   573                              PRN / # OF OBS      
   G 9   569   569   569   569                              PRN / # OF OBS      
   G10   640   640   640   640                              PRN / # OF OBS      
   G11   415   415   415   415                              PRN / # OF OBS      
   G12   781   781   781   781                              PRN / # OF OBS      
   G13   758   758   750   750                              PRN / # OF OBS      
   G14   771   771   771   771                              PRN / # OF OBS      
   G15   647   647   645   645                              PRN / # OF OBS      
   G16   607   607   606   606                              PRN / # OF OBS      
   G17   530   530   528   528                              PRN / # OF OBS      
   G18   853   851   851   851                              PRN / # OF OBS      
   G19   620   619   620   619                              PRN / # OF OBS      
   G20   576   576   572   572                              PRN / # OF OBS      
   G21   600   599   599   599                              PRN / # OF OBS      
   G22   647   647   647   647                              PRN / # OF OBS      
   G23   383   383   383   383                              PRN / # OF OBS      
   G24   772   772   769   769                              PRN / # OF OBS      
   G25   759   759   759   759                              PRN / # OF OBS      
   G27   749   749   748   748                              PRN / # OF OBS      
   G28   713   713   713   713                              PRN / # OF OBS      
   G29   657   657   657   657                              PRN / # OF OBS      
   G30   624   624   624   624                              PRN / # OF OBS      
   G31   518   517   517   517                              PRN / # OF OBS      
   G32   371   371   365   365                              PRN / # OF OBS      
BIT 2 OF LLI FLAGS DATA COLLECTED UNDER A/S CONDITION       COMMENT             
SNR is mapped to RINEX snr flag value [2-9]                 COMMENT             
Lx:     = 25dBHz -> 1; 26-27dBHz -> 2; 28-31dBHz -> 3       COMMENT             
       32-35dBHz -> 4; 36-38dBHz -> 5; 39-41dBHz -> 6       COMMENT             
       42-44dBHz -> 7; 45-48dBHz -> 8; >=49dBHz -> 9        COMMENT             
                                                            END OF HEADER       
 15 02 24 00 00  0.0000000  0  6G16G18G21G27G29G31
  22064871.800   115951695.71609  22064867.840    90351960.80747
  23047343.240   121114604.80609  23047340.580    94375023.02547
  21104880.280   110906900.23608  21104876.500    86420948.40848
  23216298.600   122002457.21008  23216298.120    95066850.11047
  23539378.200   123700254.88908  23539375.400    96389792.41047
  22433880.720   117890831.45308  22433878.120    91862968.83347
 15 02 24 00 00 30.0000000  0  6G16G18G21G27G29G31
  22050291.140   115875073.42309  22050287.040    90292255.15147
  23034215.240   121045616.62909  23034212.560    94321266.03547
  21109919.560   110933381.67608  21109915.760    86441583.30848
  23203344.420   121934382.45408  23203343.940    95013804.88647
  23553523.060   123774586.81408  23553520.620    96447713.36047
  22449993.700   117975505.13608  22449990.920    91928948.30947
 15 02 24 00 01  0.0000000  0  6G16G18G21G27G29G31
  22035749.340   115798655.81209  22035745.240    90232708.98347
  23021127.080   120976837.65309  23021124.280    94267672.05747
  21115031.500   110960244.91508  21115027.540    86462515.70548
  23190410.760   121866415.68308  23190410.280    94960843.78247
  23567672.500   123848942.48408  23567670.060    96505652.81246
  22466157.740   118060446.93008  22466154.760    91995136.69647
 15 02 24 00 01 30.0000000  0  6G16G18G21G27G29G31
  22021247.720   115722449.78309  22021243.780    90173327.67447
  23008080.100   120908274.90009  23008077.180    94214246.57447
  21120216.580   110987492.44508  21120212.440    86483747.55048
  23177498.480   121798561.26708  23177498.140    94907970.25847
  23581827.300   123923326.42108  23581824.880    96563614.29946
  22482373.120   118145658.59909  22482370.000    92061535.38347
 15 02 24 00 02  0.0000000  0  6G16G18G21G27G29G31
  22006785.500   115646451.19209  22006781.720    90114108.00347
  22995073.540   120839924.74309  22995070.560    94160986.74447
  21125473.440   111015117.18908  21125469.220    86505273.32348
  23164606.520   121730813.14708  23164606.080    94855179.56147
  23595986.260   123997732.41508  23595984.180    96621592.95947
  22498638.020   118231131.10708  22498634.960    92128137.31747
 15 02 24 00 02 30.0000000  0  6G16G18G21G27G29G31
  21992364.080   115570667.04609  21992360.360    90055055.45247
  22982108.820   120771794.58008  22982105.720    94107898.34846
  21130802.600   111043122.11908  21130798.440    86527095.35448
  23151735.740   121663176.18208  23151735.180    94802475.46347
  23610150.360   124072164.95308  23610148.380    96679592.31546
  22514952.880   118316866.63309  22514950.000    92194944.19348
 15 02 24 00 03  0.0000000  0  6G16G18G21G27G29G31
  21977983.500   115495097.47109  21977979.820    89996170.07747
  22969186.160   120703885.47508  22969182.980    94054982.21146
  21136203.640   111071504.58608  21136199.560    86549211.57148
  23138885.640   121595648.51408  23138885.280    94749856.54447
  23624319.020   124146621.68308  23624317.200    96737610.51346
  22531316.860   118402860.29609  22531314.160    92261952.21748
 15 02 24 00 03 30.0000000  0  6G16G18G21G27G29G31
  21963644.420   115419745.41509  21963640.840    89937454.20847
  22956306.160   120636200.86708  22956302.940    94002241.01846
  21141676.220   111100263.09108  21141672.140    86571620.80648
  23126056.400   121528230.78408  23126056.020    94697323.28047
  23638492.540   124221103.71508  23638490.780    96795648.44846
  22547729.580   118489109.75009  22547726.920    92329159.56848
 15 02 24 00 04  0.0000000  0  6G16G18G21G27G29G31
  21949347.120   115344612.23109  21949343.620    89878908.88847
  22943469.140   120568742.10308  22943466.040    93949675.80746
  21147220.060   111129396.02308  21147215.920    86594321.78548
  23113247.900   121460922.20608  23113247.660    94644875.09947
  23652670.620   124295609.99208  23652668.940    96853705.26646
  22564190.340   118575611.59109  22564187.680    92396563.56948
 15 02 24 00 04 30.0000000  0  6G16G18G21G27G29G31
  21935092.220   115269701.30709  21935088.720    89820536.75248
  22930675.920   120501513.58108  22930672.920    93897289.99646
  21152835.100   111158903.06008  21152830.900    86617314.28448
  23100460.340   121393723.97808  23100460.100    94592512.88547
  23666853.360   124370140.77208  23666851.880    96911781.16647
  22580698.800   118662364.11009  22580696.140    92464162.90048
 15 02 24 00 05  0.0000000  0  6G16G18G21G27G29G31
  21920879.860   115195013.94909  21920876.380    89762338.83847
  22917926.740   120434516.52108  22917923.820    93845084.54346
  21158520.860   111188781.80908  21158516.640    86640596.43948
  23087693.540   121326635.38708  23087693.500    94540236.11246
  23681040.740   124444696.10408  23681039.520    96969876.17947
  22597254.260   118749363.75309  22597251.680    92531954.80148
 15 02 24 00 05 30.0000000  0  6G16G18G21G27G29G31
  21906710.140   115120551.23209  21906706.580    89704315.95747
  22905222.040   120367753.23208  22905219.120    93793061.24146
  21164276.840   111219029.56208  21164272.620    86664166.12648
  23074947.480   121259655.61108  23074947.520    94488044.08947
  23695232.520   124519274.88508  23695231.460    97027989.46546
  22613856.080   118836606.66409  22613853.540    92599936.26148
 15 02 24 00 06  0.0000000  0  6G16G18G21G27G29G31
  21892583.900   115046317.69409  21892580.340    89646471.65947
  22892562.600   120301227.83309  22892559.720    93741223.29546
  21170103.200   111249646.85509  21170098.940    86688023.76548
  23062222.400   121192786.47808  23062222.660    94435938.34247
  23709429.080   124593878.24808  23709428.060    97086121.93647
  22630504.100   118924092.10009  22630501.540    92668106.70748
 15 02 24 00 06 30.0000000  0  6G16G18G21G27G29G31
  21878500.520   114972309.37709  21878496.900    89588802.85047
  22879947.920   120234937.32609  22879945.040    93689568.36146
  21175998.660   111280627.07309  21175994.260    86712164.19548
  23049517.440   121126022.27908  23049517.980    94383914.28347
  23723629.360   124668500.65508  23723628.180    97144269.24046
  22647196.580   119011811.17609  22647193.920    92736459.20248
 15 02 24 00 07  0.0000000  0  6G16G18G21G27G29G31
  21864461.140   114898531.69609  21864457.360    89531313.76847
  22867378.900   120168887.05309  22867376.040    93638100.62446
  21181963.300   111311971.02109  21181958.760    86736588.05448
  23036833.140   121059365.89908  23036833.960    94331974.30247
  23737833.880   124743144.76408  23737832.360    97202433.46646
  22663933.540   119099764.06109  22663930.800    92804993.89148
 15 02 24 00 07 30.0000000  0  6G16G18G21G27G29G31
  21850466.800   114824990.07509  21850462.800    89474008.63247
  22854856.800   120103083.21809  22854853.920    93586824.92646
  21187997.500   111343680.98008  21187992.840    86761297.12548
  23024170.120   120992821.20308  23024171.260    94280121.34847
  23752043.120   124817814.18308  23752041.320    97260617.41847
  22680715.180   119187951.68009  22680712.320    92873711.49248
 15 02 24 00 08  0.0000000  0  6G16G18G21G27G29G31
  21836516.880   114751682.27609  21836512.780    89416885.68147
  22842381.260   120037524.15209  22842378.400    93535739.97246
  21194100.180   111375751.05808  21194095.520    86786286.80148
  23011527.660   120926383.62908  23011528.480    94228351.80947
  23766256.200   124892504.42808  23766254.060    97318817.57646
  22697540.080   119276366.71909  22697537.140    92942606.30348
 15 02 24 00 08 30.0000000  0  6G16G18G21G27G29G31
  21822612.240   114678613.17509  21822608.300    89359948.73848
  22829953.320   119972215.17009  22829950.520    93484849.90246
  21200271.640   111408182.59308  21200267.000    86811558.12148
  22998906.180   120860055.79808  22998906.600    94176667.84347
  23780473.700   124967218.08608  23780471.340    97377036.00146
  22714408.180   119365008.74909  22714405.160    93011677.99048
 15 02 24 00 09  0.0000000  0  6G16G18G21G27G29G31
  21808753.020   114605783.24409  21808749.300    89303198.15547
  22817573.040   119907156.73509  22817570.300    93434155.05446
  21206511.160   111440971.96808  21206506.700    86837108.29348
  22986305.060   120793835.85608  22986305.280    94125067.91447
  23794695.220   125041952.97008  23794692.920    97435270.95146
  22731318.480   119453872.87009  22731315.420    93080922.72948
 15 02 24 00 09 30.0000000  0  6G16G18G21G27G29G31
  21794939.480   114533192.75109  21794935.760    89246634.14948
  22805240.660   119842349.77509  22805237.900    93383656.15546
  21212818.180   111474116.05508  21212813.860    86862934.86148
  22973724.140   120727722.17908  22973724.140    94073550.81047
  23808920.400   125116707.31008  23808918.140    97493521.05846
  22748270.220   119542954.76309  22748267.180    93150337.16448
 15 02 24 00 10  0.0000000  0  6G16G18G21G27G29G31
  21781173.300   114460850.34609  21781169.340    89190263.45848
  22792957.880   119777803.32509  22792955.100    93333360.23246
  21219193.620   111507619.30508  21219189.340    86889041.28948
  22961164.580   120661720.97208  22961164.240    94022121.34847
  23823150.440   125191487.10308  23823148.160    97551791.01646
  22765264.000   119632257.75609  22765261.040    93219923.88148
 15 02 24 00 10 30.0000000  0  6G16G18G21G27G29G31
  21767454.780   114388758.47209  21767450.620    89134087.99048
  22780725.200   119713519.99309  22780722.400    93283269.35046
  21225637.240   111541480.48309  21225632.840    86915426.62348
  22948626.400   120595832.62808  22948625.900    93970779.77747
  23837385.360   125266292.56708  23837383.300    97610080.95546
  22782299.240   119721778.84009  22782296.340    93289680.54448
 15 02 24 00 11  0.0000000  0  6G16G18G21G27G29G31
  21753783.040   114316913.43209  21753778.900    89078104.86348
  22768541.980   119649496.46609  22768539.080    93233380.90946
  21232147.560   111575692.15709  21232143.000    86942085.07848
  22936108.500   120530051.42908  22936107.960    93919521.77147
  23851624.180   125341117.85108  23851622.320    97668386.34246
  22799374.400   119811510.01109  22799371.620    93359600.90848
 15 02 24 00 11 30.0000000  0  6G16G18G21G27G29G31
  21740158.320   114245316.38509  21740154.460    89022314.96848
  22756408.500   119585734.45909  22756405.520    93183696.25746
  21238724.180   111610252.24409  21238719.600    86969015.02348
  22923610.940   120464376.56308  22923610.380    93868346.57147
  23865866.800   125415962.57508  23865865.120    97726706.88246
  22816488.800   119901447.22909  22816486.160    93429681.83748
 15 02 24 00 12  0.0000000  0  6G16G18G21G27G29G31
  21726582.160   114173974.47609  21726578.560    88966723.87847
  22744326.160   119522241.10309  22744323.100    93134220.92646
  21245367.600   111645163.52809  21245363.120    86996218.62748
  22911134.480   120398812.43108  22911134.160    93817257.68247
  23880113.900   125490830.53208  23880112.240    97785045.51946
  22833642.760   119991592.03109  22833640.220    93499924.50747
 15 02 24 00 12 30.0000000  0  6G16G18G21G27G29G31
  21713054.820   114102888.11909  21713051.200    88911331.93248
  22732295.080   119459017.42909  22732292.020    93084955.75746
  21252077.320   111680423.35309  21252072.860    87023693.81548
  22898678.920   120333357.80608  22898678.600    93766254.09947
  23894365.140   125565720.31908  23894363.380    97843401.18746
  22850835.460   120081940.17709  22850832.980    93570325.63347
 15 02 24 00 13  0.0000000  0  6G16G18G21G27G29G31
  21699576.680   114032059.81009  21699572.900    88856141.06948
  22720315.660   119396065.21009  22720312.540    93035902.12346
  21258852.920   111716029.53209  21258848.540    87051438.90148
  22886244.160   120268012.36708  22886243.700    93715335.59047
  23908620.360   125640631.65108  23908618.660    97901773.63146
  22868066.240   120172488.31109  22868063.800    93640882.60047
 15 02 24 00 13 30.0000000  0  6G16G18G21G27G29G31
  21686147.980   113961491.10309  21686143.940    88801152.47047
  22708388.560   119333388.02609  22708385.360    92987062.77946
  21265694.140   111751980.55909  21265689.780    87079452.69148
  22873830.060   120202776.05208  22873829.680    93664502.13447
  23922879.460   125715564.20808  23922878.000    97960162.59546
  22885334.560   120263233.69009  22885332.120    93711593.24847
 15 02 24 00 14  0.0000000  0  6G16G18G21G27G29G31
  21672769.800   113891188.04309  21672765.500    88746370.87947
  22696514.860   119270991.69309  22696511.780    92938442.28447
  21272601.260   111788278.21808  21272596.940    87107736.59448
  22861437.520   120137652.76008  22861437.080    93613756.74847
  23937143.280   125790521.98608  23937142.020    98018571.22146
  22902640.560   120354177.05509  22902638.060    93782458.18647
 15 02 24 00 14 30.0000000  0  6G16G18G21G27G29G31
  21659441.040   113821144.74409  21659436.580    88691791.70248
  22684693.480   119208870.29209  22684690.500    92890036.02846
  21279572.620   111824913.40108  21279568.260    87136283.49248
  22849064.920   120072634.32608  22849064.340    93563093.05447
  23951410.300   125865496.65208  23951409.100    98076993.01646
  22919982.180   120445307.61609  22919979.640    93853468.97947
 15 02 24 00 15  0.0000000  0  6G16G18G21G27G29G31
  21646163.300   113751369.65009  21646158.860    88637421.49848
  22672926.080   119147032.41609  22672923.080    92841850.69547
  21286608.980   111861889.96209  21286604.700    87165096.39648
  22836713.420   120007726.81308  22836712.840    93512515.79447
  23965681.640   125940494.01208  23965680.320    98135432.50946
  22937359.960   120536628.06109  22937357.380    93924627.73747
 15 02 24 00 15 30.0000000  0  6G16G18G21G27G29G31
  21632936.440   113681862.13409  21632932.140    88583259.80848
  22661212.480   119085477.74008  22661209.520    92793886.05747
  21293709.520   111899203.62809  21293705.260    87194171.98848
  22824382.580   119942927.51808  22824381.820    93462022.86747
  23979956.880   126015511.43508  23979955.560    98193887.61146
  22954772.840   120628132.91409  22954770.180    93995930.19747
 15 02 24 00 16  0.0000000  0  6G16G18G21G27G29G31
  21619760.680   113612623.17109  21619756.620    88529307.38848
  22649553.040   119024207.31009  22649550.140    92746142.89446
  21300873.720   111936851.87608  21300869.500    87223508.28348
  22812072.080   119878235.27208  22812071.200    93411613.35047
  23994235.820   126090547.50008  23994234.480    98252357.23646
  22972220.040   120719818.08309  22972217.300    94067373.15147
 15 02 24 00 16 30.0000000  0  6G16G18G21G27G29G31
  21606637.220   113543659.34909  21606633.420    88475569.35348
  22637949.100   118963228.38109  22637946.140    92698626.86446
  21308102.000   111974837.18808  21308097.860    87253107.24048
  22799782.760   119813654.64108  22799781.820    93361290.84247
  24008519.260   126165606.74808  24008517.960    98310844.93746
  22989701.860   120811685.22309  22989698.980    94138957.91347
 15 02 24 00 17  0.0000000  0  6G16G18G21G27G29G31
  21593565.640   113474968.14009  21593562.020    88422043.74948
  22626400.200   118902538.98808  22626397.240    92651336.43647
  21315393.260   112013153.57508  21315389.180    87282964.16548
  22787513.800   119749180.95808  22787512.680    93311051.65347
  24022806.280   126240684.45208  24022804.860    98369347.02946
  23007216.820   120903726.60908  23007213.820    94210678.44347
 15 02 24 00 17 30.0000000  0  6G16G18G21G27G29G31
  21580547.260   113406556.07309  21580543.700    88368735.66048
  22614907.560   118842145.11108  22614904.660    92604276.30547
  21322747.960   112051803.32008  21322743.900    87313080.85848
  22775266.080   119684818.46308  22775264.840    93260899.08047
  24037097.500   126315784.73408  24037095.920    98427866.70946
  23024765.080   120995943.34608  23024761.980    94282535.61447
 15 02 24 00 18  0.0000000  0  6G16G18G21G27G29G31
  21567582.080   113338423.24009  21567578.480    88315645.15548
  22603471.400   118782047.68508  22603468.600    92557447.17946
  21330165.380   112090782.59608  21330161.380    87343454.31548
  22763038.980   119620565.04208  22763037.920    93210831.47947
  24051392.540   126390905.21908  24051390.680    98486402.12146
  23042345.700   121088330.57408  23042342.680    94354525.62746
 15 02 24 00 18 30.0000000  0  6G16G18G21G27G29G31
  21554670.600   113270572.87309  21554666.960    88262774.75848
  22592092.140   118722249.43308  22592089.480    92510851.18146
  21337645.400   112130090.58208  21337641.440    87374083.91848
  22750832.820   119556421.60608  22750831.860    93160849.62047
  24065691.560   126466046.83508  24065689.520    98544954.02846
  23059958.340   121180886.21108  23059955.460    94426646.87246
 15 02 24 00 19  0.0000000  0  6G16G18G21G27G29G31
  21541813.220   113203007.88909  21541809.740    88210126.72848
  22580770.560   118662754.08709  22580767.820    92464491.18746
  21345187.980   112169726.88409  21345184.060    87404969.34548
  22738647.740   119492389.10108  22738647.060    93110954.17847
  24079994.720   126541210.39008  24079992.600    98603523.03446
  23077602.620   121273607.99008  23077599.900    94498897.57046
 15 02 24 00 19 30.0000000  0  6G16G18G21G27G29G31
  21529010.480   113135730.29509  21529007.240    88157702.63548
  22569507.000   118603563.43509  22569504.120    92418368.62847
  21352792.640   112209689.54208  21352788.740    87436109.08248
  22726483.640   119428467.09708  22726483.100    93061144.85747
  24094301.820   126616395.51008  24094299.880    98662108.81746
  23095277.960   121366492.87608  23095275.440    94571275.37246
 15 02 24 00 20  0.0000000  0  6G16G18G21G27G29G31
  21516262.560   113068740.40309  21516259.400    88105502.73248
  22558301.600   118544678.41609  22558298.680    92372484.22047
  21360458.720   112249975.09308  21360454.940    87467500.42348
  22714340.380   119364654.41308  22714339.840    93011420.70047
  24108612.660   126691600.69007  24108610.780    98720710.23946
  23112983.580   121459536.52608  23112981.160    94643776.87946
 15 02 24 00 20 30.0000000  0  6G16G18G21G27G29G31
  21503569.560   113002038.20609  21503566.260    88053527.00648
  22547154.240   118486098.87009  22547151.380    92326837.84947
  21368185.480   112290579.41209  21368181.740    87499140.15248
  22702217.520   119300948.51608  22702217.080    92961779.77047
  24122926.920   126766823.41707  24122925.260    98779325.31546
  23130718.380   121552733.26408  23130716.040    94716397.67146
 15 02 24 00 21  0.0000000  0  6G16G18G21G27G29G31
  21490932.800   112935631.47109  21490929.500    88001781.51348
  22536066.420   118427832.62109  22536063.660    92281435.60246
  21375973.680   112331506.23309  21375969.840    87531031.17948
  22690115.980   119237354.89408  22690115.760    92912226.34347
  24137245.700   126842069.15308  24137244.280    98837958.31746
  23148482.820   121646085.69508  23148480.540    94789139.79046
 15 02 24 00 21 30.0000000  0  6G16G18G21G27G29G31
  21478351.560   112869516.73809  21478348.380    87950263.54348
  22525037.600   118369876.44509  22525034.880    92236274.97246
  21383821.840   112372748.03509  21383817.900    87563167.64248
  22678034.840   119173867.98508  22678034.600    92862756.04947
  24151567.880   126917331.98908  24151566.520    98896604.64246
  23166275.240   121739585.14408  23166272.880    94861996.47345
 15 02 24 00 22  0.0000000  0  6G16G18G21G27G29G31
  21465827.300   112803701.64609  21465824.260    87898979.05648
  22514069.300   118312237.97109  22514066.580    92191361.88846
  21391730.840   112414309.44809  21391726.720    87595553.15548
  22665975.040   119110493.20308  22665974.700    92813373.11147
  24165894.420   126992617.34608  24165892.800    98955268.52546
  23184096.140   121833234.18308  23184093.780    94934969.71746
 15 02 24 00 22 30.0000000  0  6G16G18G21G27G29G31
  21453359.920   112738185.24309  21453356.860    87847927.31948
  22503161.300   118254916.57208  22503158.680    92146695.88546
  21399699.480   112456184.76609  21399695.300    87628183.26848
  22653935.920   119047227.52108  22653935.620    92764075.19347
  24180224.660   127067922.37408  24180222.760    99013947.72546
  23201944.340   121927026.81007  23201942.000    95008054.83446
 15 02 24 00 23  0.0000000  0  6G16G18G21G27G29G31
  21440950.060   112672970.76309  21440946.820    87797110.85548
  22492314.300   118197915.50509  22492311.720    92102279.49447
  21407727.660   112498373.30709  21407723.500    87661057.45748
  22641917.740   118984071.92408  22641917.400    92714863.08547
  24194558.720   127143247.68808  24194556.660    99072642.73646
  23219819.380   122020960.96307  23219817.200    95081250.24945
 15 02 24 00 23 30.0000000  0  6G16G18G21G27G29G31
  21428598.320   112608061.46309  21428594.880    87746532.19048
  22481529.060   118141238.42109  22481526.340    92058115.53646
  21415815.380   112540874.62109  21415811.240    87694175.36748
  22629920.800   118921027.75508  22629920.400    92665737.78248
  24208896.760   127218594.79108  24208894.980    99131354.74446
  23237721.000   122115034.87107  23237718.960    95154554.56245
 15 02 24 00 24  0.0000000  0  6G16G18G21G27G29G31
  21416304.520   112543456.61909  21416300.880    87696190.76248
  22470805.200   118084884.38208  22470802.500    92014203.32746
  21423961.740   112583683.84208  21423957.640    87727533.20648
  22617944.420   118858091.91608  22617944.100    92616696.88147
  24223238.440   127293960.46508  24223236.760    99190081.23145
  23255648.040   122209242.59607  23255646.080    95227963.13845
 15 02 24 00 24 30.0000000  0  6G16G18G21G27G29G31
  21404069.700   112479161.68909  21404065.940    87646090.82848
  22460143.920   118028859.12208  22460141.360    91970547.31347
  21432167.100   112626803.06109  21432162.960    87761132.59348
  22605989.340   118795267.92508  22605989.160    92567743.15748
  24237584.280   127369347.96708  24237582.580    99248824.72846
  23273600.660   122303584.56407  23273598.680    95301476.32745
 15 02 24 00 25  0.0000000  0  6G16G18G21G27G29G31
  21391893.620   112415175.02409  21391889.680    87596231.10248
  22449544.960   117973160.93009  22449542.340    91927146.13647
  21440430.340   112670226.27309  21440426.120    87794968.85848
  22594054.880   118732551.94308  22594054.820    92518873.58147
  24251933.500   127444753.30908  24251931.640    99307582.12345
  23291577.520   122398054.03106  23291575.340    95375088.85044
 15 02 24 00 25 30.0000000  0  6G16G18G21G27G29G31
  21379777.380   112351503.17209  21379773.320    87546616.68248
  22439009.480   117917796.41209  22439006.780    91884004.98047
  21448751.960   112713956.46609  21448747.720    87829044.33748
  22582141.740   118669948.27008  22582141.780    92470091.52248
  24266286.960   127520180.83008  24266285.080    99366356.80545
  23309578.880   122492652.09806  23309576.940    95448801.58845
 15 02 24 00 26  0.0000000  0  6G16G18G21G27G29G31
  21367721.180   112288147.01709  21367717.000    87497248.24948
  22428537.660   117862766.37909  22428534.900    91841124.46847
  21457131.240   112757990.07109  21457126.940    87863356.23248
  22570249.720   118607455.54808  22570250.000    92421395.92648
  24280644.220   127595628.86408  24280642.620    99425147.43145
  23327603.880   122587374.46405  23327602.120    95522611.19444
 15 02 24 00 26 30.0000000  0  6G16G18G21G27G29G31
  21355725.220   112225107.49809  21355720.920    87448126.54948
  22418129.700   117808071.83909  22418126.900    91798505.35047
  21465567.760   112802324.60909  21465563.360    87897902.61648
  22558378.740   118545072.94109  22558379.000    92372786.10047
  24295005.180   127671096.69908  24295003.660    99483953.49246
  23345651.880   122682217.45505  23345650.260    95596514.75144
 15 02 24 00 27  0.0000000  0  6G16G18G21G27G29G31
  21343789.420   112162384.56109  21343785.160    87399251.54948
  22407785.540   117753712.86409  22407782.680    91756147.71547
  21474060.600   112846955.35709  21474056.180    87932679.82348
  22546528.300   118482797.98009  22546528.500    92324260.17047
  24309369.440   127746581.66008  24309367.960    99542772.95446
  23363721.800   122777175.61205  23363720.680    95670508.09844
 15 02 24 00 27 30.0000000  0  6G16G18G21G27G29G31
  21331915.100   112099985.37409  21331911.020    87350628.81248
  22397506.620   117699696.85109  22397503.720    91714057.33847
  21482610.440   112891885.72608  21482606.040    87967690.50248
  22534699.340   118420635.95209  22534699.500    92275822.26048
  24323738.080   127822089.10508  24323736.540    99601609.90245
  23381813.980   122872250.94104  23381813.340    95744592.71244
 15 02 24 00 28  0.0000000  0  5G16G18G21G27G29
  21320101.520   112037905.37309  21320097.560    87302254.79348
  22387292.200   117646019.28109  22387289.220    91672230.66647
  21491215.800   112937107.90508  21491211.480    88002928.56648
  22522890.460   118358580.09808  22522890.580    92227467.06348
  24338109.700   127897611.96308  24338107.960    99660458.86546
 15 02 24 00 28 30.0000000  0  5G16G18G21G27G29
  21308351.080   111976156.80109  21308347.140    87254139.03148
  22377144.460   117592692.17109  22377141.420    91630677.08447
  21499878.260   112982630.00708  21499874.060    88038400.33148
  22511103.640   118296640.41608  22511103.820    92179202.43348
  24352486.160   127973160.55708  24352484.560    99719327.84146
 15 02 24 00 29  0.0000000  0  5G16G18G21G27G29
  21296663.020   111914735.96009  21296659.140    87206278.64848
  22367062.700   117539711.99909  22367059.640    91589393.84847
  21508596.400   113028444.42609  21508592.300    88074099.88148
  22499337.940   118234811.39509  22499338.040    92131023.98548
  24366866.420   128048729.08108  24366864.600    99778212.39046
 15 02 24 00 29 30.0000000  0  5G16G18G21G27G29
  21285037.740   111853645.36309  21285034.040    87158675.60248
  22357047.380   117487081.07209  22357044.200    91548382.75447
  21517369.980   113074549.69509  21517365.900    88110026.06648
  22487593.380   118173093.31809  22487593.380    92082931.99648
  24381250.400   128124317.21408  24381248.340    99837112.19446
 15 02 24 00 30  0.0000000  0  5G16G18G21G27G29
  21273475.980   111792888.72109  21273472.580    87111332.76048
  22347099.180   117434803.13809  22347096.000    91507646.72247
  21526198.800   113120945.27909  21526194.740    88146178.46348
  22475870.200   118111487.71309  22475870.080    92034927.64048
  24395638.520   128199926.97508  24395636.440    99896028.86146
 15 02 24 00 30 30.0000000  0  5G16G18G21G27G29
  21261977.280   111732463.24409  21261974.140    87064247.98348
  22337217.560   117382875.20609  22337214.460    91467183.42347
  21535081.500   113167623.89108  21535077.440    88182551.40348
  22464167.520   118049989.63808  22464167.180    91987007.08748
  24410029.780   128275553.10508  24410027.720    99954958.31346
 15 02 24 00 31  0.0000000  0  5G16G18G21G27G29
  21250543.540   111672378.62109  21250540.460    87017428.80748
  22327404.360   117331306.94109  22327401.320    91427000.38847
  21544019.220   113214591.94208  21544015.240    88219149.88348
  22452486.840   117988606.69109  22452486.280    91939176.24648
  24424425.540   128351203.20508  24424423.540   100013906.44146
 15 02 24 00 31 30.0000000  0  5G16G18G21G27G29
  21239173.960   111612631.19309  21239170.800    86970872.38448
  22317658.960   117280094.83909  22317655.920    91387094.88047
  21553010.480   113261841.66308  21553006.580    88255967.85148
  22440827.000   117927333.41809  22440826.300    91891430.85748
  24438824.700   128426871.60908  24438822.760   100072868.79145
 15 02 24 00 32  0.0000000  0  5G16G18G21G27G29
  21227869.020   111553223.58809  21227865.740    86924580.74348
  22307981.840   117229241.55609  22307978.780    91347468.95447
  21562055.160   113309372.27408  21562051.380    88293004.68548
  22429188.080   117866170.26009  22429187.360    91843771.27248
  24453227.380   128502558.48708  24453225.260   100131845.57945
 15 02 24 00 32 30.0000000  0  5G16G18G21G27G29
  21216629.880   111494161.93409  21216626.580    86878558.68348
  22298374.100   117178752.80109  22298371.100    91308127.07847
  21571153.560   113357185.15608  21571149.900    88330261.47248
  22417570.780   117805121.00009  22417570.140    91796200.44848
  24467634.360   128578267.98308  24467632.140   100190839.96545
 15 02 24 00 33  0.0000000  0  5G16G18G21G27G29
  21205456.820   111435447.34709  21205453.740    86832807.05648
  22288835.940   117128629.57209  22288833.020    91269070.03247
  21580305.220   113405277.69908  21580301.580    88367736.17648
  22405974.980   117744184.71509  22405974.520    91748717.64148
  24482045.500   128653998.69608  24482043.400   100249850.87745
 15 02 24 00 33 30.0000000  0  5G16G18G21G27G29
  21194349.620   111377078.94809  21194346.920    86787325.18148
  22279367.360   117078871.66609  22279364.300    91230297.64647
  21589509.320   113453645.64208  21589505.620    88405425.47948
  22394400.180   117683358.98209  22394399.820    91701320.97948
  24496460.360   128729748.28708  24496458.220   100308876.53145
 15 02 24 00 34  0.0000000  0  5G16G18G21G27G29
  21183309.060   111319060.53109  21183306.580    86742116.02448
  22269968.780   117029481.89209  22269965.740    91191812.12547
  21598765.780   113502288.52808  21598762.020    88443329.01848
  22382846.800   117622645.10909  22382846.380    91654011.49148
  24510879.020   128805517.83208  24510876.540   100367917.69645
 15 02 24 00 34 30.0000000  0  5G16G18G21G27G29
  21172335.860   111261395.18309  21172333.220    86697181.99248
  22260640.960   116980463.72309  22260637.940    91153616.16347
  21608074.480   113551205.69308  21608070.680    88481446.27948
  22371314.980   117562044.32309  22371314.520    91606790.11048
  24525301.620   128881308.53108  24525298.680   100426975.39845
 15 02 24 00 35  0.0000000  0  5G16G18G21G27G29
  21161430.520   111204085.81309  21161427.460    86652525.35648
  22251384.300   116931819.39409  22251381.300    91115711.52247
  21617435.080   113600395.52609  21617431.260    88519776.01948
  22359804.800   117501557.17009  22359804.240    91559657.29948
  24539728.320   128957120.78408  24539725.460   100486049.86245
 15 02 24 00 35 30.0000000  0  5G16G18G21G27G29
  21150593.400   111147135.03609  21150589.960    86608148.14248
  22242199.340   116883551.94309  22242196.260    91078100.54147
  21626847.420   113649857.04709  21626843.600    88558317.45848
  22348316.360   117441184.64609  22348315.720    91512613.78348
  24554159.180   129032955.62008  24554156.660   100545141.85645
 15 02 24 00 36  0.0000000  0  4G16G18G21G27
  21139824.520   111090544.08409  21139821.060    86564051.30148
  22233086.300   116835662.29309  22233083.140    91040783.94347
  21636310.920   113699587.56808  21636307.080    88597068.51048
  22336849.480   117380925.89709  22336848.940    91465658.91848
 15 02 24 00 36 30.0000000  0  5G16G18G19G21G27
  21129129.720   111034343.29609  21129126.480    86520258.48048
  22224050.960   116788180.83209  22224047.620    91003785.41247
  24539606.620   128956505.33008  24539602.760   100485571.40347
  21645830.500   113749613.51908  21645826.780    88636049.76448
  22325409.500   117320809.13009  22325409.080    91418814.72148
 15 02 24 00 37  0.0000000  0  5G16G18G19G21G27
  21118492.960   110978428.46509  21118489.900    86476685.29048
  22215076.940   116741016.50809  22215073.440    90967011.89947
  24524401.780   128876599.91707  24524399.900   100423320.41645
  21655389.220   113799837.64608  21655385.600    88675183.67848
  22313979.800   117260755.13609  22313979.400    91372015.17348
 15 02 24 00 37 30.0000000  0  5G16G18G19G21G27
  21107934.520   110922942.97909  21107931.400    86433449.86348
  22206184.160   116694285.00109  22206180.800    90930597.76747
  24509221.460   128796828.84406  24509219.180   100361161.14246
  21665006.660   113850377.40009  21665002.940    88714565.30348
  22302580.420   117200851.37409  22302579.980    91325336.94348
 15 02 24 00 38  0.0000000  0  5G16G18G19G21G27
  21097445.120   110867820.20309  21097441.800    86390497.05448
  22197363.720   116647933.61009  22197360.400    90894479.82447
  24494053.300   128717123.42206  24494052.040   100299053.19946
  21674672.880   113901173.30609  21674669.000    88754146.51248
  22291201.760   117141056.18809  22291201.240    91278743.30948
 15 02 24 00 38 30.0000000  0  5G16G18G19G21G27
  21087023.440   110813053.77809  21087019.960    86347821.92148
  22188614.420   116601955.84609  22188611.100    90858652.99647
  24478896.780   128637475.23207  24478896.280   100236989.76144
  21684385.940   113952215.26609  21684381.920    88793919.45548
  22279842.220   117081361.27109  22279841.640    91232227.79948
 15 02 24 00 39  0.0000000  0  5G16G18G19G21G27
  21076673.300   110758663.50209  21076669.820    86305439.88948
  22179939.760   116556370.75809  22179936.480    90823132.16947
  24463754.260   128557901.58007  24463751.560   100174984.23245
  21694148.760   114003518.77709  21694144.660    88833896.20948
  22268505.180   117021784.35109  22268504.420    91185804.25148
 15 02 24 00 39 30.0000000  0  5G16G18G19G21G27
  21066391.120   110704629.99209  21066387.620    86263335.85648
  22171336.280   116511159.43009  22171333.040    90787902.57447
  24448622.540   128478381.72405  24448620.000   100113020.76145
  21703956.820   114055060.52208  21703952.760    88874058.59748
  22257186.600   116962304.23609  22257185.680    91139456.12648
 15 02 24 00 40  0.0000000  0  5G16G18G19G21G27
  21056183.680   110650989.21509  21056180.120    86221537.84948
  22162810.720   116466357.34409  22162807.500    90752991.87247
  24433507.300   128398948.90208  24433503.740   100051125.01245
  21713816.340   114106873.20908  21713812.420    88914432.12248
  22245892.880   116902954.94009  22245891.900    91093209.93648
 15 02 24 00 40 30.0000000  0  5G16G18G19G21G27
  21046046.120   110597716.22509  21046042.640    86180026.43248
  22154358.300   116421939.53009  22154354.920    90718380.58447
  24418403.540   128319576.57005  24418400.260    99989276.62444
  21723721.920   114158927.77208  21723718.140    88954994.10748
  22234618.880   116843709.57809  22234617.860    91047044.72548
 15 02 24 00 41  0.0000000  0  5G16G18G19G21G27
  21035981.600   110544827.44309  21035978.240    86138814.39748
  22145982.020   116377921.70609  22145978.600    90684080.98547
  24403314.140   128240278.88408  24403310.160    99927486.10645
  21733675.920   114211236.49809  21733672.200    88995754.15548
  22223367.360   116784582.43109  22223366.260    91000971.63848
 15 02 24 00 41 30.0000000  0  5G16G18G19G21G27
  21025990.260   110492322.91009  21025986.920    86097901.76148
  22137681.800   116334303.70509  22137678.480    90650092.93747
  24388238.240   128161053.67506  24388234.860    99865752.33746
  21743677.640   114263795.52609  21743673.900    89036709.22548
  22212137.920   116725571.73809  22212136.820    90954989.29648
 15 02 24 00 42  0.0000000  0  5G16G18G19G21G27
  21016073.680   110440210.53109  21016070.140    86057294.72348
  22129459.220   116291093.65609  22129455.920    90616422.78747
  24373177.200   128081906.96008  24373173.820    99804079.53146
  21753727.720   114316608.38309  21753723.900    89077862.09948
  22200931.720   116666683.57409  22200930.760    90909102.43348
 15 02 24 00 42 30.0000000  0  5G16G18G19G21G27
  21006228.860   110388475.41109  21006225.200    86016981.65348
  22121311.240   116248276.07309  22121308.020    90583058.45747
  24358127.900   128002821.68806  24358124.780    99742454.74845
  21763822.740   114369657.57209  21763818.920    89119199.11948
  22189745.580   116607901.07309  22189744.800    90863297.90848
 15 02 24 00 43  0.0000000  0  5G16G18G19G21G27
  20996459.660   110337138.00009  20996456.060    85976978.47148
  22113241.720   116205870.74909  22113238.640    90550015.35747
  24343093.980   127923816.41007  24343090.340    99680892.10645
  21773965.540   114422958.37209  21773961.740    89160732.21448
  22178583.060   116549242.48809  22178582.520    90817589.93648
 15 02 24 00 43 30.0000000  0  5G16G18G19G21G27
  20986766.380   110286199.35909  20986762.780    85937286.01648
  22105250.920   116163879.04209  22105247.920    90517294.55347
  24328074.560   127844889.97608  24328071.520    99619391.09946
  21784155.840   114476508.91209  21784152.100    89202459.89948
  22167444.080   116490707.42409  22167443.660    90771978.20948
 15 02 24 00 44  0.0000000  0  5G16G18G19G21G27
  20977151.160   110235670.89009  20977147.580    85897913.18948
  22097340.960   116122312.15609  22097337.900    90484904.77847
  24313071.760                    24313070.200                  
  21794395.000   114530316.35808  21794391.300    89244387.76948
  22156330.500   116432305.54209  22156330.140    90726470.26448
 15 02 24 00 44 30.0000000  0  5G16G18G19G21G27
  20967594.380   110185449.66709  20967590.760    85858779.76448
  22089492.080   116081066.36509  22089489.080    90452765.21547
  24298067.060   127687191.01207  24298064.500    99496512.27846
  21804662.680   114584273.81409  21804658.960    89286432.53248
  22145222.320   116373931.45709  22145221.860    90680983.98148
 15 02 24 00 45  0.0000000  0  6G16G18G19G21G22G27
  20958135.820   110135744.71909  20958132.120    85820048.64248
  22081744.200   116040350.89409  22081741.200    90421038.88847
  24283097.260   127608527.37207  24283095.460    99435216.10146
  21814998.040   114638586.94908  21814994.380    89328754.44548
  22964770.660   120680682.75904  22964767.560    94036879.61343
  22134158.940   116315792.75309  22134158.440    90635681.11748
 15 02 24 00 45 30.0000000  0  6G16G18G19G21G22G27
  20948745.880   110086400.74509  20948742.180    85781598.79448
  22074067.600   116000009.98109  22074064.580    90389604.42747
  24268134.020   127529896.62008  24268132.440    99373945.39246
  21825370.740   114693096.24208  21825367.140    89371229.21548
  22947804.440   120591524.67105  22947800.020    93967405.87042
  22123110.440   116257732.33609  22123109.880    90590439.26748
 15 02 24 00 46  0.0000000  0  6G16G18G19G21G22G27
  20939428.280   110037436.51909  20939424.620    85743444.84648
  22066465.660   115960061.42009  22066462.500    90358475.68047
  24253180.480   127451315.73106  24253178.280    99312713.57345
  21835783.640   114747816.48208  21835779.960    89413868.35348
  22930864.360   120502504.46006  22930859.540    93898039.47245
  22112079.980   116199767.00409  22112079.360    90545271.46948
 15 02 24 00 46 30.0000000  0  6G16G18G19G21G22G27
  20930187.420   109988875.38509  20930183.760    85705605.00148
  22058942.860   115920528.86009  22058939.620    90327671.09647
  24238241.040   127372806.35508  24238238.560    99251537.46946
  21846240.480   114802767.68708  21846236.800    89456687.46948
  22913955.000   120413646.05106  22913950.040    93828799.21444
  22101071.680   116141918.25509  22101071.060    90500194.54448
 15 02 24 00 47  0.0000000  0  6G16G18G19G21G22G27
  20921025.180   109940727.66209  20921021.500    85668087.29748
  22051501.140   115881422.32109  22051497.900    90297198.47847
  24223316.360   127294376.30407  24223313.200    99190423.14745
  21856742.420   114857955.88509  21856738.780    89499691.24148
  22897078.640   120324960.38206  22897073.620    93759693.54044
  22090087.220   116084194.73509  22090086.680    90455215.18648
 15 02 24 00 47 30.0000000  0  6G16G18G19G21G22G27
  20911939.040   109892980.16309  20911935.460    85630881.45448
  22044137.860   115842727.98109  22044134.480    90267047.05347
  24208404.280   127216010.91608  24208400.780    99129359.24145
  21867286.260   114913364.17508  21867282.620    89542866.52848
  22880232.740   120236434.48906  22880227.680    93690712.35744
  22079123.760   116026581.18309  22079123.180    90410321.53648
 15 02 24 00 48  0.0000000  0  6G16G18G19G21G22G27
  20902931.260   109845644.43009  20902927.700    85593996.46548
  22036855.200   115804457.18409  22036851.840    90237225.65547
  24193506.360   127137719.93208  24193502.380    99068353.35545
  21877873.480   114969000.66208  21877869.900    89586219.62748
  22863419.560   120148081.24306  22863414.440    93621865.72544
  22068183.200   115969087.68409  22068182.540    90365521.42148
 15 02 24 00 48 30.0000000  0  6G16G18G19G21G22G27
  20894003.740   109798729.57809  20894000.020    85557439.44148
  22029654.860   115766618.94509  22029651.540    90207741.32547
  24178623.540   127059510.02408  24178618.960    99007410.61546
  21888505.180   115024870.79608  21888501.700    89629754.79248
  22846641.020   120059909.98007  22846635.840    93553160.85745
  22057266.840   115911721.46509  22057266.100    90320820.50648
 15 02 24 00 49  0.0000000  0  6G16G18G19G21G22G27
  20885154.320   109752224.65009  20885150.480    85521201.84348
  22022534.500   115729201.38209  22022531.260    90178584.80147
  24163753.700   126981368.27507  24163748.760    98946520.91245
  21899178.340   115080958.82308  21899174.940    89673459.74648
  22829895.140   119971910.70407  22829890.020    93484590.03445
  22046372.220   115854469.68509  22046371.460    90276208.74648
 15 02 24 00 49 30.0000000  0  6G16G18G19G21G22G27
  20876383.680   109706133.90909  20876379.760    85485286.97648
  22015494.880   115692208.60709  22015491.800    90149759.28247
  24148897.560   126903297.35308  24148892.860    98885686.52345
  21909893.340   115137266.34108  21909890.000    89717335.72648
  22813183.040   119884088.67207  22813177.940    93416157.31045
  22035499.900   115797335.16909  22035499.080    90231688.37448
 15 02 24 00 50  0.0000000  0  6G16G18G19G21G22G27
  20867694.220   109660470.35909  20867690.280    85449704.98748
  22008538.480   115655653.20909  22008535.580    90121274.57347
  24134056.540   126825307.87108  24134051.780    98824915.53146
  21920651.740   115193801.77308  21920648.460    89761389.29948
  22796507.160   119796457.04907  22796502.180    93347872.94445
  22024651.940   115740328.72509  22024651.040    90187267.77748
 15 02 24 00 50 30.0000000  0  6G16G18G19G21G22G27
  20859084.260   109615224.50409  20859080.320    85414448.47248
  22001663.500   115619525.21609  22001660.560    90093122.90047
  24119228.980   126747389.00008  24119224.480    98764199.60845
  21931451.060   115250551.95208  21931447.720    89805610.21648
  22779865.900   119709007.20508  22779860.940    93279730.24045
  22013826.300   115683439.39509  22013825.300    90142938.46048
 15 02 24 00 51  0.0000000  0  6G16G18G19G21G22G27
  20850554.380   109570399.17009  20850550.380    85379519.64748
  21994870.340   115583827.16109  21994867.460    90065306.24647
  24104415.020   126669541.60908  24104410.360    98703539.25646
  21942291.100   115307516.12909  21942287.640    89849997.88448
  22763259.900   119621742.41408  22763254.960    93211731.73246
  22003023.180   115626668.40109  22003022.080    90098701.34248
 15 02 24 00 51 30.0000000  0  6G16G18G19G21G22G27
  20842105.620   109526000.65509  20842101.700    85344923.40348
  21988160.140   115548564.59809  21988157.280    90037828.92948
  24089615.380   126591769.51707  24089611.100    98642937.66946
  21953172.360   115364697.29208  21953168.860    89894554.62648
  22746690.600   119534670.38308  22746685.700    93143883.42946
  21992243.380   115570020.12809  21992242.260    90054559.85748
 15 02 24 00 52  0.0000000  0  6G16G18G19G21G22G27
  20833737.980   109482028.27309  20833734.060    85310659.20448
  21981532.640   115513736.91109  21981529.740    90010690.48047
  24074829.620   126514070.73607  24074825.760    98582393.19146
  21964094.020   115422091.23908  21964090.580    89939277.18548
  22730158.000   119447791.03708  22730153.120    93076185.26446
  21981486.480   115513492.45009  21981485.340    90010512.34648
 15 02 24 00 52 30.0000000  0  6G16G18G19G21G22G27
  20825453.000   109438490.11209  20825448.960    85276733.37448
  21974989.320   115479351.71609  21974986.320    89983896.83247
  24060058.880   126436451.21908  24060055.200    98521910.49546
  21975056.880   115479701.87508  21975053.620    89984168.57947
  22713663.720   119361112.90208  22713658.840    93008643.90146
  21970753.800   115457091.72309  21970752.580    89966563.74448
 15 02 24 00 53  0.0000000  0  6G16G18G19G21G22G27
  20817248.600   109395375.48409  20817244.520    85243137.56248
  21968528.120   115445397.74709  21968525.040    89957439.18947
  24045301.000   126358898.69508  24045297.440    98461480.04345
  21986058.200   115537514.37508  21986055.060    90029217.27048
  22697205.840   119274626.28808  22697201.040    92941251.76146
  21960042.820   115400805.49709  21960041.700    89922704.37248
 15 02 24 00 53 30.0000000  0  6G16G18G19G21G22G27
  20809126.040   109352691.50609  20809122.080    85209877.32348
  21962150.180   115411881.57509  21962147.200    89931322.71447
  24030556.940   126281418.41808  24030553.260    98401105.77346
  21997098.700   115595532.52408  21997095.500    90074426.21548
  22680785.920   119188339.28608  22680781.100    92874015.16346
  21949354.680   115344639.38709  21949353.620    89878938.59648
 15 02 24 00 54  0.0000000  0  6G16G18G19G21G22G27
  20801086.940   109310446.56709  20801083.220    85176959.18548
  21955857.100   115378811.13209  21955854.060    89905553.53647
  24015827.700   126204016.27608  24015824.160    98340792.47246
  22008179.240   115653761.29608  22008176.020    90119799.27048
  22664405.580   119102260.65408  22664400.820    92806940.92346
  21938690.660   115288600.10609  21938689.620    89835271.62948
 15 02 24 00 54 30.0000000  0  6G16G18G19G21G22G27
  20793130.120   109268633.52709  20793126.600    85144377.60248
  21949647.400   115346178.87009  21949644.360    89880125.81147
  24001111.820   126126683.82508  24001108.040    98280533.44346
  22019297.820   115712189.91308  22019294.520    90165328.05848
  22648063.720   119016384.21508  22648059.040    92740024.25646
  21928049.080   115232678.92209  21928048.060    89791696.69948
 15 02 24 00 55  0.0000000  0  6G16G18G19G21G22G27
  20785256.700   109227258.41809  20785253.200    85112137.26148
  21943522.180   115313990.34909  21943519.100    89855043.85947
  23986410.220   126049425.48208  23986406.480    98220332.18546
  22030454.920   115770820.84808  22030451.500    90211014.49347
  22631761.720   118930716.84008  22631757.020    92673270.47946
  21917430.880   115176880.27209  21917430.000    89748217.24848
 15 02 24 00 55 30.0000000  0  6G16G18G19G21G22G27
  20777468.100   109186329.43509  20777464.540    85080244.55148
  21937482.720   115282252.87509  21937479.700    89830313.38647
  23971723.680   125972247.55808  23971719.680    98160193.54147
  22041651.180   115829657.67308  22041647.720    90256861.38148
  22615501.320   118845267.52708  22615496.480    92606686.62647
  21906837.320   115121210.76809  21906836.540    89704838.42948
 15 02 24 00 56  0.0000000  0  6G16G18G19G21G22G27
  20769762.160   109145835.17709  20769758.640    85048690.59248
  21931527.040   115250955.43109  21931523.960    89805925.78047
  23957049.940   125895136.45807  23957046.000    98100107.04546
  22052883.920   115888686.36108  22052880.500    90302857.75848
  22599280.340   118760025.55008  22599275.460    92540264.35146
  21896265.860   115065657.50709  21896265.220    89661550.19148
 15 02 24 00 56 30.0000000  0  6G16G18G19G21G22G27
  20762140.720   109105785.30609  20762137.400    85017482.90148
  21925656.740   115220106.72009  21925653.560    89781887.83247
  23942390.640   125818100.59908  23942386.480    98040079.08746
  22064154.300   115947912.57108  22064150.860    90349008.04647
  22583100.720   118675001.12008  22583095.760    92474011.58546
  21885718.040   115010228.60409  21885717.500    89618358.85848
 15 02 24 00 57  0.0000000  0  6G16G18G19G21G22G27
  20754605.920   109066190.26709  20754602.660    84986629.62548
  21919873.700   115189716.22209  21919870.420    89758206.93047
  23927746.860   125741147.97508  23927742.980    97980116.09346
  22075463.680   116007343.50908  22075460.160    90395317.85747
  22566964.720   118590205.92808  22566959.740    92407937.44746
  21875195.540   114954932.65409  21875195.060    89575271.10548
 15 02 24 00 57 30.0000000  0  6G16G18G19G21G22G27
  20747155.840   109027039.81909  20747152.580    84956122.78548
  21914175.800   115159773.39809  21914172.380    89734874.87447
  23913116.640   125664267.03708  23913113.100    97920208.92046
  22086809.360   116066965.01108  22086805.760    90441776.17047
  22550870.600   118505630.59708  22550865.520    92342034.63446
  21864696.140   114899758.22909  21864695.720    89532278.06648
 15 02 24 00 58  0.0000000  0  6G16G18G19G21G22G27
  20739790.300   108988333.10609  20739787.040    84925961.71848
  21908562.940   115130277.60109  21908559.520    89711891.15047
  23898499.860   125587455.14507  23898496.500    97860355.51746
  22098190.480   116126772.78208  22098186.760    90488379.62048
  22534818.200   118421274.77608  22534813.060    92276302.87047
  21854219.420   114844702.84909  21854219.000    89489377.78748
 15 02 24 00 58 30.0000000  0  6G16G18G19G21G22G27
  20732512.760   108950088.94209  20732509.440    84896161.07548
  21903038.520   115101246.61509  21903035.040    89689269.61747
  23883899.320   125510729.51208  23883896.140    97800569.37047
  22109609.820   116186781.88208  22109606.060    90535139.96047
  22518811.400   118337158.23508  22518806.120    92210757.55146
  21843768.740   114789784.02609  21843768.160    89446583.91548
 15 02 24 00 59  0.0000000  0  6G16G18G19G21G22G27
  20725321.040   108912295.94109  20725317.660    84866711.97948
  21897600.260   115072668.57809  21897596.760    89667001.03347
  23869312.600   125434076.83008  23869309.200    97740840.03446
  22121064.640   116246977.33109  22121060.840    90582045.49047
  22502848.100   118253270.38508  22502842.800    92145390.44446
  21833341.660   114734988.73809  21833340.920    89403886.30348
 15 02 24 00 59 30.0000000  0  6G16G18G19G21G22G27
  20718214.460   108874950.25609  20718211.020    84837611.45148
  21892247.280   115044538.78109  21892243.940    89645081.73347
  23854739.080   125357491.70308  23854735.600    97681163.33046
  22132553.620   116307352.02609  22132549.860    90629090.70547
  22486927.780   118169608.48608  22486922.480    92080199.39546
  21822937.160   114680311.70009  21822936.260    89361280.84748
 15 02 24 01 00  0.0000000  0  6G16G18G19G21G22G27
  20711195.900   108838066.92309  20711192.240    84808871.19648
  21886982.440   115016872.05409  21886979.060    89623523.24947
  23840180.920   125280987.46508  23840177.000    97621549.65346
  22144079.040   116367917.63909  22144075.180    90676284.68547
  22471053.480   118086188.44808  22471048.160    92015196.78246
  21812557.760   114625766.67009  21812556.700    89318778.24548
 15 02 24 01 00 30.0000000  0  6G16G18G19G21G22G27
  20704263.960   108801639.30909  20704260.180    84780486.05448
  21881804.280   114989660.56609  21881800.760    89602319.50247
  23825636.540   125204555.47808  23825632.240    97561992.28946
  22155638.880   116428663.95209  22155634.880    90723619.47648
  22455224.080   118003004.36008  22455218.720    91950378.03346
  21802201.820   114571345.46809  21802200.640    89276372.12948
 15 02 24 01 01  0.0000000  0  6G16G18G19G21G22G27
  20697419.740   108765672.86009  20697416.020    84752460.25048
  21876713.880   114962910.26309  21876710.340    89581475.12647
  23811106.560   125128199.93108  23811102.240    97502494.50547
  22167233.440   116489592.70409  22167229.360    90771096.42647
  22439440.660   117920062.06308  22439435.320    91885747.69046
  21791870.100   114517052.13609  21791868.900    89234065.65248
 15 02 24 01 01 30.0000000  0  6G16G18G19G21G22G27
  20690664.020   108730171.39409  20690660.360    84724796.76648
  21871711.760   114936624.03909  21871708.240    89560992.36347
  23796591.600   125051923.02808  23796586.800    97443057.94346
  22178862.720   116550704.55209  22178858.640    90818716.04048
  22423704.280   117837367.27408  22423699.020    91821310.21546
  21781563.180   114462889.24009  21781562.020    89191860.79548
 15 02 24 01 02  0.0000000  0  6G16G18G19G21G22G27
  20683997.260   108695137.43109  20683993.620    84697497.57048
  21866798.300   114910803.62209  21866794.780    89540872.57447
  23782091.560   124975725.27108  23782087.240    97383683.15446
  22190526.520   116611998.35309  22190522.500    90866477.43747
  22408015.560   117754922.96209  22408010.400    91757067.92246
  21771281.260   114408857.69309  21771280.140    89149758.29548
 15 02 24 01 02 30.0000000  0  6G16G18G19G21G22G27
  20677420.080   108660573.80609  20677416.480    84670564.87748
  21861973.920   114885451.22709  21861970.380    89521117.46047
  23767606.640   124899608.20808  23767602.360    97324371.22047
  22202224.740   116673473.49008  22202220.820    90914380.13748
  22392375.220   117672732.81509  22392370.160    91693023.67447
  21761024.680   114354959.25309  21761023.620    89107759.51348
 15 02 24 01 03  0.0000000  0  6G16G18G19G21G22G27
  20670930.720   108626471.27009  20670927.060    84643991.48048
  21857236.700   114860557.04909  21857233.260    89501719.41047
  23753135.040   124823560.86407  23753130.800    97265113.63346
  22213955.080   116735117.43108  22213951.160    90962414.38147
  22376781.640   117590788.29308  22376776.600    91629170.82147
  21750791.440   114301183.18309  21750790.360    89065856.09648
 15 02 24 01 03 30.0000000  0  6G16G18G19G21G22G27
  20664528.860   108592829.06109  20664525.080    84617776.78048
  21852586.340   114836119.68909  21852583.000    89482677.33647
  23738677.140   124747581.65607  23738672.480    97205908.90047
  22225716.760   116796925.89208  22225712.800    91010576.81147
  22361234.800   117509089.75708  22361229.820    91565509.66047
  21740581.020   114247527.38609  21740579.940    89024046.39348
 15 02 24 01 04  0.0000000  0  6G16G18G19G21G22G27
  20658218.740   108559669.66309  20658215.040    84591938.28548
  21848027.100   114812161.24409  21848023.740    89464008.42447
  23724235.600   124671690.18908  23724230.000    97146772.68746
  22237513.480   116858918.12109  22237509.460    91058882.43247
  22345739.300   117427660.56508  22345734.380    91502058.36346
  21730397.460   114194013.16409  21730396.500    88982347.01748
 15 02 24 01 04 30.0000000  0  6G16G18G19G21G22G27
  20651998.580   108526983.10909  20651994.940    84566468.24248
  21843556.940   114788670.94409  21843553.680    89445704.31047
  23709808.300   124595875.35608  23709803.860    97087696.43646
  22249342.680   116921080.60308  22249338.500    91107320.72847
  22330293.360   117346491.76008  22330288.560    91438809.97246
  21720238.640   114140629.17109  21720237.840    88940749.12548
 15 02 24 01 05  0.0000000  0  6G16G18G19G21G22G27
  20645868.320   108494768.89509  20645864.760    84541366.26048
  21839175.760   114765647.99509  21839172.520    89427764.36647
  23695395.420   124520135.47008  23695390.920    97028678.32147
  22261203.420   116983409.22608  22261199.200    91155888.46947
  22314897.080   117265583.74908  22314892.300    91375764.78147
  21710104.360   114087373.79809  21710103.640    88899251.42648
 15 02 24 01 05 30.0000000  0  6G16G18G19G21G22G27
  20639829.440   108463034.10709  20639825.740    84516637.85348
  21834884.720   114743098.55609  21834881.460    89410193.38147
  23680997.980   124444475.94707  23680992.920    96969722.82845
  22273096.540   117045908.19308  22273092.400    91204588.96347
  22299551.960   117184944.64409  22299547.200    91312929.13547
