     2.11           OBSERVATION DATA    G                   RINEX VERSION / TYPE
SPIDER V4,0,0,3554                      2015 04 17 02:53    PGM / RUN BY / DATE 
CABS                                                        MARKER NAME         
CABS                                                        MARKER NUMBER       
                                                            OBSERVER / AGENCY   
462287              LEICA GRX1200PRO    8.10/2.127          REC # / TYPE / VERS 
103298              LEIAT504                                ANT # / TYPE        
  5116912.3402   671231.6412  3737143.4301                  APPROX POSITION XYZ 
        0.0600        0.0000        0.0000                  ANTENNA: DELTA H/E/N
     1     1                                                WAVELENGTH FACT L1/2
     4    C1    L1    P2    L2                              # / TYPES OF OBSERV 
    30.000                                                  INTERVAL            
  2015    02    24    00    00    0.0000000     GPS         TIME OF FIRST OBS   
  2015    02    24    23    59   30.0000000     GPS         TIME OF LAST OBS    
    16                                                      LEAP SECONDS        
    30                                                      # OF SATELLITES     
   G 1   805   805   805   805                              PRN / # OF OBS      
   G 2   943   943   943   943                              PRN / # OF OBS      
   G 3   847   847   847   847                              PRN / # OF OBS      
   G 4   831   831   831   831                              PRN / # OF OBS      
   G 5   624   624   624   624                              PRN / # OF OBS      
   G 6   813   813   813   813                              PRN / # OF OBS      
   G 7   673   673   673   673                              PRN / # OF OBS      
   G 9   806   806   806   806                              PRN / # OF OBS      
   G10   719   719   719   719                              PRN / # OF OBS      
   G11   769   769   769   769                              PRN / # OF OBS      
   G12   794   794   793   793                              PRN / # OF OBS      
   G13   791   791   791   791                              PRN / # OF OBS      
   G14   941   941   941   941                              PRN / # OF OBS      
   G15   701   701   701   701                              PRN / # OF OBS      
   G16   664   664   664   664                              PRN / # OF OBS      
   G17   942   942   942   942                              PRN / # OF OBS      
   G18   907   907   907   907                              PRN / # OF OBS      
   G19   750   750   750   750                              PRN / # OF OBS      
   G20   752   752   752   752                              PRN / # OF OBS      
   G21   742   742   742   742                              PRN / # OF OBS      
   G22   665   665   665   665                              PRN / # OF OBS      
   G23   755   755   755   755                              PRN / # OF OBS      
   G24   817   817   817   817                              PRN / # OF OBS      
   G25   856   856   856   856                              PRN / # OF OBS      
   G27   799   799   799   799                              PRN / # OF OBS      
   G28   864   864   864   864                              PRN / # OF OBS      
   G29   765   765   765   765                              PRN / # OF OBS      
   G30   719   719   719   719                              PRN / # OF OBS      
   G31   872   872   871   871                              PRN / # OF OBS      
   G32   768   768   768   768                              PRN / # OF OBS      
BIT 2 OF LLI FLAGS DATA COLLECTED UNDER A/S CONDITION       COMMENT             
SNR is mapped to RINEX snr flag value [2-9]                 COMMENT             
Lx:     = 25dBHz -> 1; 26-27dBHz -> 2; 28-31dBHz -> 3       COMMENT             
       32-35dBHz -> 4; 36-38dBHz -> 5; 39-41dBHz -> 6       COMMENT             
       42-44dBHz -> 7; 45-48dBHz -> 8; >=49dBHz -> 9        COMMENT             
                                                            END OF HEADER       
 15 02 24 00 00  0.0000000  0  8G16G18G21G22G25G27G29G31
  22221644.160   116775537.16708  22221645.600    90993940.51547
  22875663.060   120212437.01407  22875665.180    93672063.92346
  21026364.340   110494375.39508  21026365.380    86099542.18449
  24530189.100   128907002.10506  24530188.840   100447022.75145
  24299216.220   127693422.17306  24299220.700    99501446.22444
  23504429.080   123516616.78906  23504433.600    96246738.36946
  23251525.160   122187905.28407  23251527.820    95211485.54746
  22586384.120   118692274.59508  22586385.740    92487501.94747
 15 02 24 00 00 30.0000000  0  8G16G18G21G22G25G27G29G31
  22206449.840   116695690.80708  22206451.240    90931722.59546
  22862154.840   120141450.55507  22862156.960    93616749.82846
  21030834.620   110517866.62308  21030835.580    86117847.03549
  24512068.780   128811781.87706  24512069.080   100372825.33344
  24318156.600   127792955.27505  24318161.380    99579004.40844
  23490921.320   123445633.18906  23490925.780    96191426.53246
  23265121.760   122259356.00707  23265124.620    95267161.41546
  22602350.300   118776177.26908  22602351.920    92552880.63547
 15 02 24 00 01  0.0000000  0  8G16G18G21G22G25G27G29G31
  22191295.860   116616056.16308  22191297.180    90869669.64646
  22848689.160   120070687.14107  22848691.260    93561609.53146
  21035375.760   110541730.50908  21035376.720    86136442.28149
  24493935.220   128716491.29106  24493935.840   100298573.05945
  24337128.140   127892651.96805  24337133.140    99656690.12045
  23477429.680   123374734.17906  23477434.100    96136180.59746
  23278727.420   122330854.06207  23278730.340    95322874.16947
  22618365.200   118860336.01108  22618366.860    92618458.85547
 15 02 24 00 01 30.0000000  0  8G16G18G21G22G25G27G29G31
  22176182.880   116536636.78608  22176184.140    90807784.43147
  22835266.640   120000150.36907  22835268.720    93506645.83546
  21039987.660   110565966.14108  21039988.600    86155327.18749
  24475788.900   128621133.70106  24475790.000   100224268.61445
  24356130.720   127992511.88605  24356136.020    99734502.99845
  23463954.400   123303920.78206  23463958.720    96081001.38246
  23292342.200   122402400.52607  23292345.200    95378624.63046
  22634428.520   118944749.02208  22634430.220    92684235.20347
 15 02 24 00 02  0.0000000  0  8G16G18G21G22G25G27G29G31
  22161110.940   116457433.42408  22161112.260    90746067.54547
  22821887.400   119929841.36807  22821889.540    93451859.60945
  21044669.840   110590571.22608  21044670.800    86174499.98149
  24457630.160   128525710.40806  24457631.400   100149912.93844
  24375163.920   128092532.22405  24375169.420    99812440.85745
  23450495.080   123233191.64106  23450499.380    96025887.82945
  23305965.920   122473994.08407  23305969.080    95434411.80346
  22650539.400   119029412.03108  22650541.080    92750206.35747
 15 02 24 00 02 30.0000000  0  8G16G18G21G22G25G27G29G31
  22146080.280   116378446.89908  22146081.680    90684519.62347
  22808551.620   119859761.23207  22808553.880    93397251.72546
  21049421.680   110615542.47408  21049422.660    86193958.09849
  24439459.300   128430222.47706  24439460.540   100075506.85245
  24394227.220   128192710.20306  24394233.020    99890501.57445
  23437051.540   123162545.42406  23437055.820    95970838.88946
  23319598.280   122545632.90807  23319601.620    95490234.24346
  22666697.080   119114320.83708  22666698.720    92816369.04247
 15 02 24 00 03  0.0000000  0  8G16G18G21G22G25G27G29G31
  22131091.920   116299682.91908  22131093.380    90623145.11047
  22795260.580   119789916.51607  22795262.920    93342827.28546
  21054243.760   110640882.82008  21054244.780    86213703.82249
  24421277.200   128334675.96406  24421278.640   100001055.17744
  24413320.960   128293048.08705  24413326.720    99968686.90444
  23423624.440   123091985.82906  23423628.760    95915857.42746
  23333239.840   122617320.26807  23333243.240    95546094.49346
  22682901.680   119199476.08608  22682903.220    92882723.75247
 15 02 24 00 03 30.0000000  0  8G16G18G21G22G25G27G29G31
  22116146.040   116221142.19708  22116147.540    90561944.56647
  22782014.420   119720308.25007  22782016.860    93288587.07846
  21059135.300   110666588.38108  21059136.380    86233734.13149
  24403084.080   128239071.69506  24403085.740    99926558.45944
  24432444.480   128393542.61905  24432450.220   100046994.31845
  23410213.460   123021511.15306  23410217.860    95860942.13646
  23346890.400   122689054.93906  23346893.800    95601991.60246
  22699152.220   119284872.98408  22699153.680    92949266.77047
 15 02 24 00 04  0.0000000  0  8G16G18G21G22G25G27G29G31
  22101243.020   116142826.67108  22101244.600    90500919.50147
  22768813.580   119650938.25107  22768816.060    93234532.56645
  21064096.180   110692658.11008  21064097.280    86254048.20649
  24384880.500   128143411.86906  24384882.220    99852018.44644
  24451597.400   128494192.19205  24451603.340   100125422.53544
  23396818.620   122951121.22506  23396823.080    95806092.86946
  23360549.900   122760836.35306  23360553.300    95657925.16446
  22715448.120   119370508.53008  22715449.560    93015995.74447
 15 02 24 00 04 30.0000000  0  8G16G18G21G22G25G27G29G31
  22086383.300   116064738.40808  22086384.880    90440071.52647
  22755658.760   119581809.52307  22755661.100    93180666.05246
  21069126.020   110719090.30208  21069127.140    86274644.71949
  24366666.720   128047698.73706  24366668.540    99777436.92545
  24470779.560   128594995.03905  24470785.620   100203970.17546
  23383439.900   122880815.81306  23383444.360    95751309.47146
  23374218.120   122832663.49206  23374221.520    95713894.31146
  22731788.740   119456379.62208  22731790.320    93082908.25447
 15 02 24 00 05  0.0000000  0  8G16G18G21G22G25G27G29G31
  22071567.240   115986879.36308  22071568.800    90379402.16147
  22742550.240   119512923.84807  22742552.360    93126988.93945
  21074224.540   110745883.17708  21074225.640    86295522.28849
  24348443.400   127951934.49705  24348444.920    99702815.50545
  24489990.680   128695949.59106  24489996.700   100282636.03344
  23370077.240   122810594.90006  23370081.680    95696591.90246
  23387895.260   122904536.88807  23387898.540    95769899.52246
  22748173.560   119542483.22608  22748175.360    93150001.95747
 15 02 24 00 05 30.0000000  0  8G16G18G21G22G25G27G29G31
  22056795.540   115909253.29108  22056797.080    90318914.32947
  22729488.960   119444285.95208  22729490.780    93073504.90745
  21079391.660   110773036.61208  21079392.760    86316680.80949
  24330211.020   127856123.57806  24330212.520    99628157.78044
  24509230.720   128797056.13706  24509236.640   100361420.32444
  23356731.000   122740460.17906  23356735.400    95641941.49246
  23401581.620   122976458.10507  23401584.700    95825942.01946
  22764602.400   119628817.95708  22764604.360    93217275.75747
 15 02 24 00 06  0.0000000  0  8G16G18G21G22G25G27G29G31
  22042068.220   115831860.77008  22042069.820    90258608.48747
  22716474.880   119375895.98207  22716476.440    93020214.04446
  21084626.740   110800547.11508  21084627.820    86338117.57049
  24311969.740   127760266.34206  24311971.420    99553463.94845
  24528499.000   128898311.06206  24528504.820   100440320.21044
  23343400.780   122670409.54806  23343405.240    95587356.60446
  23415276.620   123048424.33607  23415279.560    95882019.57146
  22781074.440   119715379.02408  22781076.460    93284725.91347
 15 02 24 00 06 30.0000000  0  8G16G18G21G22G25G27G29G31
  22027385.640   115754703.43108  22027387.280    90198485.90747
  22703508.340   119307756.44907  22703509.840    92967118.32746
  21089929.580   110828413.64508  21089930.640    86359831.75449
  24293720.100   127664364.87006  24293721.860    99478735.60445
  24547795.340   128999712.53405  24547800.640   100519334.33244
  23330086.560   122600442.74407  23330090.980    95532837.05246
  23428980.240   123120435.52707  23428983.060    95938132.16746
  22797589.020   119802162.97708  22797590.940    93352349.74947
 15 02 24 00 07  0.0000000  0  8G16G18G21G22G25G27G29G31
  22012749.120   115677788.17508  22012750.800    90138551.95647
  22690590.680   119239873.99507  22690592.180    92914222.92246
  21095300.620   110856638.39608  21095301.620    86381825.06949
  24275463.300   127568426.02806  24275465.240    99403978.16545
  24567119.940   129101263.42705  24567125.020   100598464.81843
  23316789.080   122530564.18607  23316793.440    95478386.26446
  23442693.140   123192495.79707  23442695.860    95994283.02346
  22814146.340   119889171.30608  22814148.060    93420148.42947
 15 02 24 00 07 30.0000000  0  8G16G18G21G22G25G27G29G31
  21998158.260   115601112.43908  21998159.820    90078804.65247
  22677721.540   119172246.70707  22677723.220    92861526.33846
  21100738.720   110885215.63108  21100739.700    86404093.04849
  24257199.060   127472448.16306  24257201.340    99329190.30445
  24586471.840   129202958.02005  24586476.700   100677707.32145
  23303507.620   122460769.64807  23303511.900    95424000.96146
  23456414.360   123264600.63807  23456417.040    96050468.60546
  22830744.960   119976396.81708  22830746.580    93488116.33447
 15 02 24 00 08  0.0000000  0  8G16G18G21G22G25G27G29G31
  21983613.700   115524680.20508  21983615.180    90019247.08347
  22664901.780   119104878.98408  22664903.740    92809032.03146
  21106243.940   110914145.59708  21106244.900    86426635.89149
  24238928.120   127376435.38606  24238930.560    99254375.25844
  24605851.120   129304796.37705  24605855.860   100757061.84245
  23290242.480   122391060.77207  23290246.800    95369682.39946
  23470144.340   123336751.71807  23470147.020    96106690.20946
  22847384.620   120063838.31608  22847386.200    93556252.54047
 15 02 24 00 08 30.0000000  0  8G16G18G21G22G25G27G29G31
  21969116.160   115448495.18308  21969117.600    89959882.14247
  22652132.200   119037774.93207  22652134.420    92756743.19246
  21111816.320   110943428.42608  21111817.260    86449453.68849
  24220651.400   127280391.43605  24220654.060    99179535.89044
  24625257.480   129406778.32005  24625262.460   100836528.24844
  23276993.880   122321439.01207  23276998.260    95315431.72446
  23483883.280   123408950.48207  23483886.000    96162948.96846
  22864064.920   120151494.01908  22864066.560    93624555.66047
 15 02 24 00 09  0.0000000  0  8G16G18G21G22G25G27G29G31
  21954665.580   115372556.92008  21954666.980    89900709.48247
  22639412.760   118970933.96808  22639415.120    92704659.33846
  21117454.980   110973059.55308  21117455.920    86472542.88649
  24202368.800   127184316.09706  24202371.300    99104672.07844
  24644690.420   129508899.55305  24644695.640   100916103.17044
  23263761.280   122251901.50307  23263765.740    95261246.70746
  23497630.600   123481193.71207  23497633.320    96219242.38345
  22880784.760   120239358.03808  22880786.500    93693021.10746
 15 02 24 00 09 30.0000000  0  8G16G18G21G22G25G27G29G31
  21940262.440   115296868.18208  21940263.880    89841731.26247
  22626744.100   118904359.38208  22626746.360    92652783.06446
  21123159.760   111003038.24508  21123160.680    86495902.91249
  24184080.860   127088212.64206  24184083.560    99029786.37146
  24664149.720   129611159.25905  24664155.080   100995786.01445
  23250544.900   122182449.10107  23250549.420    95207128.01146
  23511386.520   123553482.11907  23511389.020    96275570.99645
  22897543.820   120327428.34208  22897545.700    93761647.30547
 15 02 24 00 10  0.0000000  0  8G16G18G21G22G25G27G29G31
  21925907.480   115221432.35808  21925908.900    89782950.10947
  22614126.900   118838054.79208  22614128.900    92601117.17446
  21128930.460   111033363.65508  21128931.420    86519533.10749
  24165788.460   126992084.55906  24165790.980    98954881.45945
  24683635.220   129713556.72805  24683640.820   101075576.20944
  23237344.840   122113082.67307  23237349.480    95153076.28946
  23525151.160   123625816.35307  23525153.460    96331935.32446
  22914341.840   120415702.90008  22914343.800    93830432.65346
 15 02 24 00 10 30.0000000  0  8G16G18G21G22G25G27G29G31
  21911600.980   115146251.47208  21911602.420    89724367.61047
  22601561.420   118772022.31208  22601563.220    92549663.32946
  21134766.800   111064034.11008  21134767.800    86543432.16949
  24147491.960   126895934.08406  24147494.100    98879959.06445
  24703146.560   129816090.40205  24703152.400   101155472.55444
  23224161.100   122043802.17207  23224165.860    95099091.52646
  23538924.620   123698196.16607  23538926.700    96388335.14145
  22931178.160   120504178.16508  22931180.080    93899374.38747
 15 02 24 00 11  0.0000000  0  8G16G18G21G22G25G27G29G31
  21897343.300   115071326.85808  21897344.720    89665984.80247
  22589047.960   118706263.50508  22589049.580    92498422.74746
  21140668.360   111095047.11408  21140669.360    86567598.15149
  24129191.480   126799763.17506  24129193.420    98805020.78045
  24722683.300   129918758.01205  24722689.460   101235473.20744
  23210993.620   121974606.99107  23210998.420    95045173.22846
  23552706.640   123770620.64507  23552708.500    96444769.75945
  22948052.140   120592850.97408  22948053.920    93968470.05847
 15 02 24 00 11 30.0000000  0  8G16G18G21G22G25G27G29G31
  21883134.740   114996660.59708  21883136.220    89607803.31747
  22576586.980   118640780.92308  22576588.560    92447397.38746
  21146634.880   111126401.51708  21146635.860    86592030.15749
  24110887.480   126703574.27506  24110889.300    98730068.46445
  24742245.480   130021557.83605  24742251.640   101315576.92545
  23197842.340   121905496.98706  23197847.160    94991321.29546
  23566497.220   123843090.37407  23566498.880    96501239.65545
  22964963.100   120681718.15908  22964964.760    94037717.19046
 15 02 24 00 12  0.0000000  0  8G16G18G21G22G25G27G29G31
  21868975.840   114922255.11708  21868977.340    89549825.03147
  22564178.940   118575576.87408  22564180.600    92396589.06046
  21152665.980   111158095.28708  21152666.960    86616726.60849
  24092580.380   126607369.42906  24092582.060    98655103.73544
  24761832.620   130124488.08405  24761838.560   101395782.25444
  23184707.220   121836472.01707  23184712.140    94937535.62546
  23580296.200   123915604.33007  23580297.900    96557744.00045
  22981910.360   120770776.41107  22981911.940    94107113.19746
 15 02 24 00 12 30.0000000  0  8G16G18G21G22G25G27G29G31
  21854867.220   114848113.75308  21854868.740    89492052.55047
  22551824.580   118510655.13608  22551826.420    92346000.70946
  21158761.740   111190128.66508  21158762.720    86641687.68549
  24074270.920   126511153.01106  24074272.600    98580129.97945
  24781444.640   130227548.74905  24781450.180   101476089.21044
  23171588.620   121767533.64307  23171593.540    94883817.45047
  23594103.800   123988163.94407  23594105.820    96614283.91646
  22998893.660   120860024.21007  22998895.220    94176656.90546
 15 02 24 00 13  0.0000000  0  8G16G18G21G22G25G27G29G31
  21840809.480   114774239.68108  21840810.960    89434488.35247
  22539524.500   118446018.06308  22539526.480    92295634.17746
  21164921.820   111222500.08008  21164922.800    86666912.16849
  24055959.720   126414927.74206  24055961.260    98505149.29645
  24801081.220   130330738.44405  24801086.680   101556496.72144
  23158486.580   121698682.22107  23158491.400    94830167.02046
  23607920.120   124060769.53506  23607922.520    96670859.68946
  23015912.480   120949458.77907  23015914.060    94246346.15747
 15 02 24 00 13 30.0000000  0  8G16G18G21G22G25G27G29G31
  21826802.520   114700632.69108  21826804.020    89377132.26647
  22527278.980   118381667.34208  22527281.040    92245490.78546
  21171145.600   111255206.22508  21171146.580    86692397.48349
  24037646.900   126318694.34006  24037648.680    98430162.34045
  24820741.700   130434053.92605  24820746.940   101637002.24944
  23145400.880   121629915.91407  23145405.440    94776582.92046
  23621744.720   124133419.01006  23621747.420    96727469.63346
  23032965.940   121039075.51607  23032967.660    94316177.35647
 15 02 24 00 14  0.0000000  0  7G16G18G21G22G27G29G31
  21812846.940   114627295.70208  21812848.460    89319986.57347
  22515088.540   118317605.56408  22515090.560    92195572.52946
  21177432.800   111288245.74208  21177433.780    86718142.56548
  24019333.240   126222456.13506  24019334.980    98355171.60745
  23132331.480   121561235.42307  23132335.880    94723065.68646
  23635577.820   124206113.10106  23635580.800    96784114.38546
  23050053.600   121128871.90107  23050055.460    94386148.54347
 15 02 24 00 14 30.0000000  0  7G16G18G21G22G27G29G31
  21798943.680   114554233.51708  21798945.200    89263055.01047
  22502953.980   118253837.31908  22502955.920    92145883.02046
  21183783.700   111321620.13108  21183784.720    86744148.58448
  24001019.740   126126217.87406  24001021.220    98280180.81845
  23119278.860   121492643.23407  23119283.120    94669617.26346
  23649419.840   124278854.17706  23649423.140    96840795.73646
  23067175.520   121218847.69607  23067177.360    94456259.53046
 15 02 24 00 15  0.0000000  0  7G16G18G21G22G27G29G31
  21785092.540   114481445.00408  21785093.980    89206336.69547
  22490874.980   118190361.61208  22490876.820    92096421.44646
  21190197.260   111355323.67108  21190198.260    86770411.08949
  23982706.060   126029978.51306  23982707.280    98205189.19446
  23106242.340   121424135.87507  23106246.540    94616234.94846
  23663270.140   124351638.36006  23663273.620    96897510.67446
  23084330.300   121308995.92208  23084332.140    94526504.87647
 15 02 24 00 15 30.0000000  0  7G16G18G21G22G27G29G31
  21771293.840   114408932.14108  21771295.200    89149833.17347
  22478851.940   118127180.53308  22478853.740    92047189.47046
  21196673.140   111389354.64508  21196674.120    86796928.73548
  23964392.740   125933740.65206  23964393.540    98130198.73945
  23093221.980   121355713.20307  23093226.100    94562918.62746
  23677128.800   124424465.61607  23677132.260    96954259.15046
  23101517.300   121399313.62008  23101519.100    94596882.27046
 15 02 24 00 16  0.0000000  0  7G16G18G21G22G27G29G31
  21757548.480   114336699.80008  21757549.820    89093548.24047
  22466885.840   118064298.88908  22466887.620    91998190.81746
  21203211.580   111423714.35008  21203212.500    86823702.54048
  23946080.640   125837509.50806  23946081.220    98055213.49545
  23080218.220   121287377.86507  23080222.300    94509670.35746
  23690996.260   124497338.38806  23690999.500    97011043.11246
  23118736.420   121489800.35707  23118738.120    94667391.39146
 15 02 24 00 16 30.0000000  0  7G16G18G21G22G27G29G31
  21743856.760   114264749.57008  21743858.140    89037483.13248
  22454977.080   118001718.86608  22454978.840    91949427.19746
  21209812.120   111458400.25908  21209812.980    86850730.52348
  23927770.140   125741286.90506  23927770.520    97980234.93146
  23067231.020   121219129.52607  23067235.000    94456489.87246
  23704872.240   124570256.11206  23704875.360    97067862.10246
  23135987.020   121580452.74807  23135988.640    94738029.59246
 15 02 24 00 17  0.0000000  0  7G16G18G21G22G27G29G31
  21730219.180   114193083.68708  21730220.560    88981639.59448
  22443126.260   117939443.06408  22443128.000    91900900.62146
  21216474.460   111493411.10008  21216475.300    86878011.70348
  23909461.580   125645075.65306  23909461.860    97905265.18845
  23054260.340   121150968.18807  23054264.280    94403377.19047
  23718756.740   124643218.74007  23718759.720    97124716.03445
  23153268.540   121671267.68107  23153270.100    94808794.44346
 15 02 24 00 17 30.0000000  0  7G16G18G21G22G27G29G31
  21716636.320   114121705.56808  21716637.760    88926020.29248
  22431333.940   117877474.30908  22431335.760    91852613.29646
  21223198.480   111528745.99208  21223199.300    86905545.38848
  23891155.660   125548879.14106  23891156.060    97830306.96446
  23041306.400   121082894.94407  23041310.340    94350333.14346
  23732649.920   124716227.27406  23732652.700    97181605.77646
  23170580.600   121762243.04407  23170582.080    94879684.30846
 15 02 24 00 18  0.0000000  0  7G16G18G21G22G27G29G31
  21703108.660   114050617.26108  21703110.100    88870626.81448
  22419600.660   117815815.31008  22419602.580    91804567.35046
  21229983.840   111564403.05608  21229984.640    86933330.11748
  23872852.980   125452699.93406  23872853.540    97755362.18145
  23028369.140   121014909.62307  23028373.120    94297357.61346
  23746551.600   124789281.13506  23746554.380    97238530.85846
  23187922.540   121853375.81907  23187924.060    94950696.82146
 15 02 24 00 18 30.0000000  0  7G16G18G21G22G27G29G31
  21689636.540   113979820.80608  21689637.940    88815460.74948
  22407926.660   117754467.56808  22407928.660    91756763.93846
  21236830.100   111600380.29208  21236830.920    86961364.33148
  23854553.800   125356540.02406  23854554.640    97680432.45245
  23015448.520   120947012.01107  23015452.560    94244450.43046
  23760461.780   124862380.14406  23760464.700    97295491.08246
  23205293.720   121944662.66907  23205295.440    95021829.40146
 15 02 24 00 19  0.0000000  0  7G16G18G21G22G27G29G31
  21676220.280   113909317.66008  21676221.600    88760523.23148
  22396312.300   117693433.13008  22396314.320    91709204.66046
  21243736.920   111636675.71608  21243737.720    86989646.48448
  23836258.760   125260401.54906  23836259.980    97605519.42045
  23002544.480   120879201.48507  23002548.600    94191611.10247
  23774380.320   124935523.45106  23774383.460    97352485.85746
  23222693.540   122036099.65607  23222695.420    95093078.98946
 15 02 24 00 19 30.0000000  0  7G16G18G21G22G27G29G31
  21662860.160   113839109.59508  21662861.440    88705815.65748
  22384757.820   117632713.45708  22384759.820    91661890.65646
  21250703.820   111673287.17808  21250704.660    87018174.89748
  23817968.400   125164286.35706  23817969.780    97530624.53745
  22989656.920   120811477.43907  22989661.100    94138839.15746
  23788307.120   125008710.48006  23788310.540    97409514.67846
  23240121.320   122127683.45507  23240123.360    95164442.96346
 15 02 24 00 20  0.0000000  0  7G16G18G21G22G27G29G31
  21649556.220   113769196.93708  21649557.500    88651338.26148
  22373263.360   117572309.39708  22373265.260    91614822.57546
  21257730.200   111710211.20408  21257731.100    87046946.86648
  23799682.960   125068195.76006  23799684.360    97455748.81545
  22976785.620   120743838.59807  22976789.840    94086133.61147
  23802242.100   125081939.52006  23802245.440    97466576.27846
  23257576.240   122219409.63107  23257578.380    95235917.87346
 15 02 24 00 20 30.0000000  0  7G16G18G21G22G27G29G31
  21636309.080   113699582.92308  21636310.400    88597093.58048
  22361829.480   117512223.95408  22361831.300    91568002.76346
  21264815.860   111747446.82108  21264816.780    87075961.63548
  23781402.940   124972132.75606  23781404.080    97380894.60145
  22963930.720   120676285.72407  22963934.960    94033495.06347
  23816185.560   125155211.47307  23816188.660    97523671.29146
  23275057.820   122311275.67607  23275060.040    95307501.78346
 15 02 24 00 21  0.0000000  0  7G16G18G21G22G27G29G31
  21623119.520   113630271.58508  21623120.900    88543084.75048
  22350456.920   117452461.03708  22350458.600    91521434.27846
  21271960.840   111784994.04208  21271961.760    87105219.21148
  23763129.100   124876101.45206  23763129.940    97306065.08345
  22951092.520   120608820.60107  22951096.800    93980924.88347
  23830137.560   125228527.95706  23830140.440    97580800.98046
  23292565.800   122403280.27407  23292568.000    95379193.65246
 15 02 24 00 21 30.0000000  0  7G16G18G21G22G27G29G31
  21609988.280   113561266.55808  21609989.700    88489314.60748
  22339146.460   117393024.42908  22339147.940    91475120.05446
  21279165.040   111822852.38708  21279165.980    87134719.22248
  23744862.060   124780106.34706  23744862.700    97231263.76745
  22938271.240   120541444.63807  22938275.560    93928424.17947
  23844098.260   125301889.97007  23844100.880    97637966.16346
  23310099.860   122495421.78007  23310101.980    95450992.19546
 15 02 24 00 22  0.0000000  0  7G16G18G21G22G27G29G31
  21596915.540   113492568.88008  21596916.980    88435783.95548
  22327898.380   117333915.02508  22327899.680    91429060.80146
  21286428.080   111861019.89908  21286429.020    87164460.14348
  23726602.140   124684148.86407  23726602.800    97156491.76545
  22925466.760   120474156.72507  22925471.080    93875992.07147
  23858067.340   125375296.33907  23858069.700    97695165.87545
  23327659.160   122587696.08607  23327661.220    95522894.22246
 15 02 24 00 22 30.0000000  0  7G16G18G21G22G27G29G31
  21583902.280   113424183.77408  21583903.740    88382496.86348
  22316713.600   117275138.24708  22316714.800    91383260.74147
  21293750.020   111899496.99308  21293750.960    87194442.29648
  23708350.320   124588234.37706  23708350.940    97081753.26746
  22912679.640   120406960.01607  22912683.920    93823631.04447
  23872045.180   125448750.40206  23872047.580    97752402.78846
  23345243.660   122680103.21207  23345245.720    95594899.74146
 15 02 24 00 23  0.0000000  0  7G16G18G21G22G27G29G31
  21570948.480   113356111.28508  21570949.980    88329453.37548
  22305592.100   117216694.03908  22305593.260    91337719.82246
  21301130.160   111938279.79308  21301131.100    87224662.66248
  23690106.620   124492363.10406  23690107.440    97007048.44345
  22899909.500   120339852.28307  22899913.740    93771339.33747
  23886031.380   125522249.35406  23886034.020    97809674.65946
  23362852.340   122772637.83907  23362854.380    95667004.61046
 15 02 24 00 23 30.0000000  0  7G16G18G21G22G27G29G31
  21558054.440   113288352.77608  21558055.940    88276654.54248
  22294534.060   117158584.02008  22294535.380    91292439.31247
  21308568.000   111977365.92908  21308568.940    87255119.39448
  23671871.520   124396537.17806  23671872.540    96932378.96445
  22887156.140   120272832.99207  22887160.380    93719116.54147
  23900025.800   125595792.83206  23900028.960    97866981.24546
  23380484.580   122865296.13807  23380486.500    95739205.85346
 15 02 24 00 24  0.0000000  0  7G16G18G21G22G27G29G31
  21545220.520   113220910.09508  21545221.980    88224101.80948
  22283539.860   117100809.77908  22283541.420    91247420.44047
  21316063.100   112016753.07508  21316064.100    87285810.68048
  23653645.340   124300758.34206  23653646.600    96857746.16846
  22874419.500   120205901.53707  22874423.680    93666962.19147
  23914028.600   125669380.13706  23914032.080    97924321.99146
  23398139.760   122958074.66107  23398141.600    95811500.77446
 15 02 24 00 24 30.0000000  0  7G16G18G21G22G27G29G31
  21532446.940   113153784.37108  21532448.320    88171796.05048
  22272609.720   117043372.53608  22272611.560    91202664.16446
  21323615.060   112056438.97908  21323616.080    87316734.75948
  23635428.500   124205028.43807  23635429.880    96783151.50146
  22861699.440   120139057.18907  22861703.580    93614875.71547
  23928039.700   125743010.13606  23928043.280    97981696.00546
  23415817.100   123050969.41007  23415818.920    95883886.26846
 15 02 24 00 25  0.0000000  0  7G16G18G21G22G27G29G31
  21519734.060   113086977.52608  21519735.340    88119738.77448
  22261744.020   116986274.08208  22261746.120    91158171.87946
  21331223.420   112096421.19608  21331224.480    87347889.73348
  23617221.480   124109349.85207  23617222.840    96708596.82245
  22848995.860   120072299.71207  22848999.980    93562856.92047
  23942059.200   125816682.39606  23942062.640    98039102.92646
  23433515.880   123143977.18207  23433517.760    95956359.81146
 15 02 24 00 25 30.0000000  0  7G16G18G21G22G27G29G31
  21507082.400   113020492.34308  21507083.640    88067932.14748
  22250943.360   116929517.09508  22250945.540    91113945.67446
  21338888.040   112136698.90708  21338889.080    87379274.96548
  23599024.800   124013725.47006  23599026.080    96634084.37246
  22836308.920   120005629.57307  22836313.020    93510906.18547
  23956087.080   125890397.33007  23956090.280    98096543.07945
  23451235.620   123237095.14707  23451237.640    96028919.22846
 15 02 24 00 26  0.0000000  0  7G16G18G21G22G27G29G31
  21494493.400   112954336.65208  21494494.680    88016382.26848
  22240209.260   116873109.21008  22240211.320    91069991.49746
  21346609.540   112177275.50308  21346610.560    87410893.09148
  23580840.020   123918163.45907  23580841.200    96559620.53546
  22823639.640   119939052.38907  22823643.720    93459027.88847
  23970124.040   125964160.19006  23970126.960    98154020.63846
  23468976.840   123330325.84007  23468978.960    96101566.48046
 15 02 24 00 26 30.0000000  0  7G16G18G21G22G27G29G31
  21481966.920   112888509.47908  21481968.240    87965088.37348
  22229541.500   116817049.38008  22229543.320    91026308.53146
  21354387.100   112218146.56008  21354388.080    87442740.67648
  23562667.000   123822663.52806  23562668.060    96485205.05246
  22810987.500   119872565.36207  22810991.580    93407219.83647
  23984169.400   126037968.27206  23984172.160    98211533.36845
  23486738.540   123423663.64107  23486740.620    96174297.21446
 15 02 24 00 27  0.0000000  0  7G16G18G21G22G27G29G31
  21469503.300   112823012.71908  21469504.680    87914051.94148
  22218940.380   116761339.55108  22218941.980    90982898.29946
  21362220.120   112259309.29208  21362221.100    87474815.53548
  23544506.020   123727227.59907  23544506.980    96410839.44845
  22798352.460   119806168.06507  22798356.540    93355481.71547
  23998223.160   126111820.84806  23998225.840    98269080.81145
  23504519.940   123517104.91107  23504521.980    96247108.55846
 15 02 24 00 27 30.0000000  0  7G16G18G21G22G27G29G31
  21457102.620   112757846.73709  21457104.040    87863273.26448
  22208405.940   116705980.21408  22208407.400    90939761.17247
  21370108.000   112300760.28408  21370108.980    87507115.00748
  23526357.320   123631856.96107  23526358.360    96336524.71245
  22785734.200   119739858.96107  22785738.320    93303812.31047
  24012285.060   126185716.39006  24012287.780    98326661.70445
  23522320.080   123610644.75807  23522322.160    96319996.71046
 15 02 24 00 28  0.0000000  0  7G16G18G21G22G27G29G31
  21444766.100   112693017.84309  21444767.480    87812757.25048
  22197939.320   116650977.54708  22197940.720    90896901.96547
  21378051.280   112342502.58908  21378052.280    87539641.48048
  23508222.180   123536557.82007  23508223.340    96262265.68845
  22773133.540   119673642.15307  22773137.700    93252214.82647
  24026355.720   126259658.55906  24026358.620    98384278.92745
  23540139.060   123704284.06707  23540141.160    96392962.36046
 15 02 24 00 28 30.0000000  0  7G16G18G21G22G27G29G31
  21432493.540   112628525.13108  21432494.860    87762503.19548
  22187540.260   116596330.33908  22187541.740    90854319.74747
  21386049.020   112384531.17208  21386050.040    87572391.03048
  23490100.720   123441329.85107  23490101.800    96188062.12945
  22760549.940   119607514.55807  22760554.040    93200686.85647
  24040434.760   126333644.48706  24040437.700    98441930.31844
  23557975.760   123798016.65307  23557977.920    96466000.69546
 15 02 24 00 29  0.0000000  0  7G16G18G21G22G27G29G31
  21420285.260   112564370.33109  21420286.560    87712512.44648
  22177209.120   116542040.38108  22177210.700    90812015.90047
  21394100.800   112426843.83808  21394101.840    87605361.93048
  23471993.360   123346175.39507  23471994.200    96113915.84545
  22747983.300   119541476.02707  22747987.340    93149228.28047
  24054522.000   126407673.78305  24054524.940    98499615.47846
  23575829.540   123891839.42007  23575831.760    96539109.31446
 15 02 24 00 29 30.0000000  0  7G16G18G21G22G27G29G31
  21408142.580   112500560.26709  21408143.860    87662790.32848
  22166947.220   116488114.14208  22166948.920    90769995.46347
  21402207.140   112469443.41208  21402208.240    87638556.40148
  23453901.500   123251101.46107  23453902.000    96039832.30745
  22735434.440   119475531.20008  22735438.460    93097842.72047
  24068618.080   126481750.36506  24068621.240    98557337.45345
  23593700.740   123985753.85606  23593703.000    96612289.35646
 15 02 24 00 30  0.0000000  0  7G16G18G21G22G27G29G31
  21396065.300   112437093.74809  21396066.580    87613335.90048
  22156754.440   116434550.40908  22156756.080    90728257.50747
  21410367.080   112512324.48908  21410368.220    87671970.22348
  23435824.860   123156107.15207  23435825.040    95965810.82345
  22722902.800   119409676.75007  22722906.800    93046527.58147
  24082722.660   126555871.26906  24082726.040    98615093.97344
  23611588.220   124079753.37206  23611590.440    96685535.68246
 15 02 24 00 30 30.0000000  0  7G16G18G21G22G27G29G31
  21384053.500   112373971.01309  21384054.740    87564149.35848
  22146630.660   116381349.05308  22146632.200    90686801.91947
  21418579.800   112555482.76808  21418580.960    87705600.04748
  23417763.460   123061193.09807  23417763.460    95891851.86446
  22710387.980   119343910.80407  22710391.940    92995281.39947
  24096835.400   126630034.25806  24096838.620    98672883.35446
  23629491.100   124173833.12106  23629493.240    96758844.54346
 15 02 24 00 31  0.0000000  0  7G16G18G21G22G27G29G31
  21372107.900   112311196.37509  21372109.100    87515234.05948
  22136576.620   116328514.25908  22136578.060    90645631.96847
  21426845.520   112598919.28608  21426846.640    87739446.68448
  23399718.140   122966364.10107  23399718.000    95817959.20846
  22697890.380   119278235.53807  22697894.360    92944105.86847
  24110956.580   126704241.44706  24110959.300    98730707.09644
  23647409.140   124267992.14206  23647411.160    96832215.17246
 15 02 24 00 31 30.0000000  0  7G16G18G21G22G27G29G31
  21360229.080   112248772.83309  21360230.260    87466592.34548
  22126592.860   116276049.03308  22126594.260    90604749.98947
  21435163.980   112642632.91508  21435165.040    87773509.25248
  23381689.660   122871624.03107  23381689.540    95744135.81546
  22685410.300   119212652.21507  22685414.280    92893001.99247
  24125086.420   126778493.71807  24125089.000    98788565.90545
  23665341.860   124362228.31007  23665343.800    96905645.89346
 15 02 24 00 32  0.0000000  0  7G16G18G21G22G27G29G31
  21348417.440   112186702.35909  21348418.620    87418225.74348
  22116679.680   116223955.29908  22116681.180    90564157.48347
  21443534.900   112686622.25708  21443535.920    87807786.66248
  23363678.460   122776974.98007  23363678.520    95670383.35746
  22672947.680   119147160.62607  22672951.640    92841969.59147
  24139224.840   126852790.57407  24139227.220    98846459.54445
  23683288.660   124456538.54806  23683290.500    96979134.34746
 15 02 24 00 32 30.0000000  0  7G16G18G21G22G27G29G31
  21336673.540   112124987.99709  21336674.780    87370136.63948
  22106837.640   116172235.55308  22106839.260    90523856.39647
  21451957.980   112730885.57008  21451958.960    87842277.55148
  23345685.140   122682420.27807  23345685.480    95596704.40546
  22660502.600   119081761.50507  22660506.540    92791009.24347
  24153371.960   126927133.02507  24153374.220    98904388.72845
  23701248.980   124550920.30907  23701250.840    97052678.51346
 15 02 24 00 33  0.0000000  0  7G16G18G21G22G27G29G31
  21324997.700   112063631.12309  21324998.980    87322326.08948
  22097066.960   116120890.90508  22097068.740    90483847.59647
  21460432.740   112775420.50908  21460433.680    87876980.10148
  23327710.100   122587961.46707  23327710.600    95523100.17846
  22648074.960   119016454.21007  22648078.960    92740120.45247
  24167527.520   127001519.83006  24167529.700    98962352.49445
  23719222.120   124645369.55507  23719223.980    97126275.29146
 15 02 24 00 33 30.0000000  0  7G16G18G21G22G27G29G31
  21313390.820   112002636.50709  21313392.060    87274797.82148
  22087368.800   116069926.72808  22087370.580    90444135.26547
  21468959.420   112820228.47808  21468960.380    87911895.39948
  23309754.480   122493604.46007  23309755.020    95449575.27445
  22635665.400   118951241.99707  22635669.420    92689305.75347
  24181691.920   127075954.29706  24181694.360    99020353.30746
  23737208.200   124739886.92007  23737210.160    97199925.13346
 15 02 24 00 34  0.0000000  0  7G16G18G21G22G27G29G31
  21301852.680   111942003.21409  21301853.940    87227551.09948
  22077742.700   116019341.00008  22077744.400    90404717.83547
  21477537.060   112865304.30108  21477538.060    87947019.40748
  23291818.080   122399348.17607  23291818.640    95376128.84446
  22623273.340   118886121.45508  22623277.340    92638562.49247
  24195864.520   127150432.63205  24195867.300    99078388.38246
  23755205.940   124834465.56406  23755207.980    97273622.72046
 15 02 24 00 34 30.0000000  0  7G16G18G21G22G27G29G31
  21290383.660   111881733.34409  21290384.960    87180587.56848
  22068189.040   115969136.00708  22068190.620    90365597.07747
  21486165.320   112910646.27108  21486166.360    87982350.81448
  23273901.440   122305195.53107  23273902.020    95302763.17146
  22610898.800   118821092.84607  22610902.760    92587890.85847
  24210045.620   127224954.93705  24210048.820    99136457.66546
  23773214.780   124929102.66506  23773216.860    97347365.86846
 15 02 24 00 35  0.0000000  0  7G16G18G21G22G27G29G31
  21278984.480   111821830.66609  21278985.860    87133910.16348
  22058708.420   115919314.81308  22058709.880    90326775.38847
  21494844.100   112956253.70708  21494845.160    88017889.07048
  23256005.200   122211150.22107  23256005.840    95229481.14046
  22598542.080   118756157.67808  22598546.000    92537292.03747
  24224235.280   127299522.55506  24224238.820    99194562.29245
  23791234.460   125023796.57006  23791236.500    97421153.26946
 15 02 24 00 35 30.0000000  0  7G16G18G21G22G27G29G31
  21267655.540   111762296.91809  21267656.960    87087520.23048
  22049301.200   115869879.40708  22049302.620    90288254.31147
  21503573.060   113002124.70708  21503574.120    88053632.69848
  23238129.820   122117215.14307  23238130.680    95156285.00446
  22586203.120   118691316.01408  22586207.060    92486766.07247
  24238433.640   127374135.57705  24238437.080    99252702.27945
  23809264.240   125118544.21806  23809266.380    97494982.55146
 15 02 24 00 36  0.0000000  0  7G16G18G21G22G27G29G31
  21256397.160   111703133.90609  21256398.600    87041419.18348
  22039967.640   115820831.19408  22039969.040    90250034.93947
  21512351.780   113048257.18908  21512352.820    88089580.08748
  23220275.740   122023392.53106  23220276.880    95083176.52246
  22573881.900   118626567.63608  22573885.880    92436312.80047
  24252640.740   127448793.13805  24252643.720    99310877.05346
  23827303.520   125213342.27606  23827305.920    97568851.11846
 15 02 24 00 36 30.0000000  0  7G16G18G21G22G27G29G31
  21245209.840   111644344.13409  21245211.300    86995608.97648
  22030708.160   115772172.63208  22030709.600    90212119.18847
  21521180.020   113094649.78508  21521181.040    88125730.16248
  23202443.660   121929685.22407  23202445.020    95010157.88346
  22561578.580   118561912.99108  22561582.520    92385932.56447
  24266856.360   127523495.61406  24266858.960    99369086.69945
  23845351.900   125308187.79606  23845354.540    97642756.66546
 15 02 24 00 37  0.0000000  0  7G16G18G21G22G27G29G31
  21234094.040   111585930.10609  21234095.480    86950091.55748
  22021523.160   115723905.27308  22021524.640    90174508.27247
  21530057.400   113141300.92908  21530058.440    88162081.69648
  23184634.180   121836095.86507  23184635.540    94937231.13746
  22549293.160   118497352.57008  22549297.060    92335625.75247
  24281080.520   127598243.49905  24281082.800    99427331.75745
  23863408.920   125403078.21406  23863411.620    97716697.19245
 15 02 24 00 37 30.0000000  0  7G16G18G21G22G27G29G31
  21223050.160   111527894.00109  21223051.600    86904868.61948
  22012413.080   115676031.41908  22012414.600    90137203.98047
  21538983.660   113188208.87108  21538984.740    88198633.33348
  23166847.860   121742627.38707  23166849.020    94864398.58646
  22537025.740   118432886.69608  22537029.620    92285392.60947
  24295313.280   127673036.42405  24295315.220    99485612.00346
  23881474.080   125498010.70006  23881476.700    97790670.49946
 15 02 24 00 38  0.0000000  0  7G16G18G21G22G27G29G31
  21212078.980   111470239.93509  21212080.400    86859943.37848
  22003378.660   115628555.04308  22003380.180    90100209.41247
  21547958.820   113235373.86308  21547959.940    88235385.27548
  23149085.480   121649284.38307  23149086.360    94791663.82346
  22524776.700   118368517.50108  22524780.540    92235234.79947
  24309555.000   127747876.64306  24309556.960    99543928.95844
  23899547.220   125592984.36806  23899549.560    97864675.88545
 15 02 24 00 38 30.0000000  0  7G16G18G21G22G27G29G31
  21201180.780   111412969.30009  21201182.200    86815316.91248
  21994420.100   115581477.26608  21994421.620    90063525.43647
  21556982.500   113282793.63708  21556983.640    88272335.74248
  23131347.380   121556068.91907  23131347.960    94719028.43946
  22512545.920   118304244.43908  22512549.780    92185151.89247
  24323805.260   127822763.40707  24323807.080    99602282.31044
  23917627.500   125687995.42706  23917629.520    97938710.40946
 15 02 24 00 39  0.0000000  0  7G16G18G21G22G27G29G31
  21190355.520   111356082.13509  21190356.940    86770989.24948
  21985537.220   115534797.30408  21985538.680    90027151.45447
  21566053.840   113330463.91308  21566054.980    88309481.41248
  23113633.600   121462981.51507  23113633.960    94646492.83447
  22500333.020   118240065.58208  22500336.920    92135142.40447
  24338063.820   127897694.55905  24338066.040    99660670.19445
  23935713.880   125783038.73706  23935715.620    98012770.05346
 15 02 24 00 39 30.0000000  0  7G16G18G21G22G27G29G31
  21179603.920   111299582.04609  21179605.320    86726963.20948
  21976730.740   115488519.07308  21976732.180    89991090.50347
  21575172.840   113378384.38208  21575173.940    88346822.03148
  23095944.780   121370025.91507  23095945.020    94574059.94746
  22488138.380   118175982.71008  22488142.340    92085207.70847
  24352331.240   127972671.36006  24352333.960    99719093.62445
  23953806.040   125878112.85706  23953807.660    98086853.71846
 15 02 24 00 40  0.0000000  0  7G16G18G21G22G27G29G31
  21168926.080   111243469.69709  21168927.460    86683239.30548
  21968000.720   115442642.69508  21968002.200    89955342.69247
  21584338.980   113426552.48608  21584340.060    88384355.61948
  23078281.280   121277203.75107  23078281.540    94501731.02046
  22475961.800   118111994.60808  22475965.820    92035346.85747
  24366607.060   128047692.53305  24366610.140    99777551.63845
  23971903.100   125973213.59406  23971904.900    98160958.10646
 15 02 24 00 40 30.0000000  0  7G16G18G21G22G27G29G31
  21158323.080   111187750.60309  21158324.420    86639821.83348
  21959348.120   115397173.47708  21959349.680    89919912.14947
  21593552.500   113474969.56708  21593553.560    88422083.20948
  23060644.080   121184520.70407  23060644.500    94429510.49946
  22463804.000   118048104.85108  22463808.040    91985562.63948
  24380892.340   128122761.44505  24380895.020    99836047.04845
  23990005.200   126068341.20506  23990007.260    98235083.44146
 15 02 24 00 41  0.0000000  0  7G16G18G21G22G27G29G31
  21147794.280   111132421.49409  21147795.640    86596708.24348
  21950772.200   115352107.37008  21950773.820    89884795.71847
  21602811.980   113523628.29908  21602813.020    88459999.10748
  23043032.840   121091974.05907  23043033.380    94357396.26746
  22451663.940   117984308.15808  22451667.960    91935850.94447
  24395185.500   128197872.72106  24395188.220    99894575.13445
  24008110.800   126163487.32406  24008113.060    98309223.19746
 15 02 24 00 41 30.0000000  0  7G16G18G21G22G27G29G31
  21137340.860   111077488.47209  21137342.240    86553903.29548
  21942274.180   115307450.17608  21942275.760    89849997.91547
  21612117.840   113572530.88708  21612118.860    88498105.01848
  23025448.940   120999570.56807  23025449.360    94285393.58046
  22439542.400   117920608.84408  22439546.400    91886215.12747
  24409487.560   128273030.08805  24409490.400    99953139.35645
  24026220.140   126258652.94206  24026222.600    98383378.15646
 15 02 24 00 42  0.0000000  0  7G16G18G21G22G27G29G31
  21126963.760   111022956.27009  21126965.140    86511410.67548
  21933854.940   115263206.69808  21933856.420    89815522.49047
  21621470.180   113621677.67608  21621471.160    88536401.21548
  23007893.320   120907315.60407  23007893.660    94213506.61946
  22427439.960   117857009.83008  22427443.860    91836657.47047
  24423798.980   128348236.32806  24423802.000   100011741.52045
  24044333.240   126353837.94906  24044335.820    98457548.21846
 15 02 24 00 42 30.0000000  0  7G16G18G21G22G27G29G31
  21116661.960   110968819.90109  21116663.340    86469226.49348
  21925513.380   115219371.27508  21925514.820    89781365.03047
  21630867.560   113671061.14108  21630868.540    88574881.83548
  22990365.080   120815204.24707  22990365.300    94141731.56446
  22415355.300   117793504.26308  22415359.100    91787172.62847
  24438118.440   128423484.27906  24438121.340   100070376.31844
  24062448.160   126449032.43106  24062450.820    98531725.66446
 15 02 24 00 43  0.0000000  0  7G16G18G21G22G27G29G31
  21106437.780   110915091.50609  21106439.140    86427360.21048
  21917251.620   115175955.29708  21917253.040    89747534.40847
  21640311.340   113720688.30108  21640312.260    88613552.34748
  22972866.720   120723249.67107  22972866.900    94070078.67746
  22403290.220   117730102.10008  22403293.980    91737768.35347
  24452447.460   128498783.99206  24452450.200   100129051.42545
  24080566.180   126544243.07606  24080568.920    98605915.67945
 15 02 24 00 43 30.0000000  0  7G16G18G21G22G27G29G31
  21096290.020   110861764.95409  21096291.420    86385807.06248
  21909068.480   115132952.79508  21909069.960    89714025.97147
  21649799.760   113770550.07508  21649800.640    88652405.67948
  22955397.120   120631446.44207  22955397.380    93998543.72646
  22391243.380   117666795.86508  22391247.160    91688438.83147
  24466784.480   128574126.91804  24466787.560   100187760.13545
  24098685.260   126639459.27206  24098688.100    98680110.02546
 15 02 24 00 44  0.0000000  0  7G16G18G21G22G27G29G31
  21086219.960   110808846.57309  21086221.400    86344571.95848
  21900965.160   115090369.77908  21900966.740    89680844.40847
  21659333.180   113820648.54808  21659334.040    88691443.44948
  22937957.640   120539801.26207  22937958.000    93927131.92247
  22379215.660   117603590.13708  22379219.520    91639187.62547
  24481130.880   128649518.23106  24481134.180   100246506.57846
  24116805.740   126734682.43506  24116808.600    98754309.80146
 15 02 24 00 44 30.0000000  0  7G16G18G21G22G27G29G31
  21076227.020   110756333.55309  21076228.520    86303652.72248
  21892940.940   115048202.57108  21892942.680    89647986.85947
  21668910.360   113870977.02408  21668911.260    88730660.44348
  22920547.680   120448311.54907  22920548.260    93855841.24947
  22367206.120   117540479.73408  22367210.020    91590010.70248
  24495485.320   128724951.75605  24495488.700   100305285.90545
  24134925.900   126829903.88006  24134928.780    98828508.22946
 15 02 24 00 45  0.0000000  0  7G16G18G21G22G27G29G31
  21066312.940   110704234.67409  21066314.420    86263056.20148
  21884997.520   115006460.01308  21884999.420    89615460.19847
  21678532.340   113921540.92508  21678533.280    88770060.88148
  22903169.120   120356987.01507  22903170.020    93784679.30547
  22355216.100   117477472.06908  22355220.080    91540913.81648
  24509849.320   128800434.90406  24509852.560   100364103.94944
  24153046.740   126925128.25206  24153049.460    98902708.93846
 15 02 24 00 45 30.0000000  0  7G16G18G21G22G27G29G31
  21056476.580   110652544.15909  21056478.040    86222777.88148
  21877133.700   114965135.73408  21877135.700    89583259.46847
  21688197.180   113972330.26008  21688198.180    88809636.98448
  22885820.980   120265821.97407  22885822.020    93713641.63347
  22343244.240   117414559.61708  22343248.240    91491891.14047
  24524221.360   128875960.29505  24524224.600   100422954.84145
  24171166.140   127020344.77606  24171168.580    98976903.53846
 15 02 24 00 46  0.0000000  0  7G16G18G21G22G27G29G31
  21046719.800   110601271.75309  21046721.240    86182825.36148
  21869351.200   114924238.43608  21869353.160    89551391.45847
  21697906.100   114023350.90508  21697907.100    88849393.32948
  22868505.320   120174827.42407  22868506.340    93642736.82847
  22331291.980   117351750.21108  22331296.020    91442948.74848
  24538602.840   128951534.94106  24538606.160   100481844.13345
  24189284.820   127115558.15206  24189287.100    99051095.67445
 15 02 24 00 46 30.0000000  0  8G16G18G19G21G22G27G29G31
  21037043.560   110550422.61309  21037045.000    86143202.65348
  21861651.020   114883773.42208  21861652.900    89519860.28747
  24543997.920   128979574.16905  24543997.080   100503562.43845
  21707659.340   114074604.63008  21707660.380    88889331.29048
  22851223.180   120084008.99507  22851224.040    93571969.25447
  22319359.980   117289047.24908  22319364.020    91394089.30148
  24552994.360   129027161.77505  24552997.620   100540774.07845
  24207402.800   127210768.51906  24207405.080    99125285.45246
 15 02 24 00 47  0.0000000  0  7G16G18G19G21G22G27G31
  21027439.280   110499951.74409  21027440.700    86103874.70548
  21854024.440   114843695.31408  21854026.280    89488630.60547
  24528660.700   128898977.04105  24528660.780   100440759.51645
  21717447.520   114126042.18108  21717448.660    88929412.49748
  22833966.120   119993322.32507  22833966.700    93501304.34346
  22307439.340   117226404.06808  22307443.420    91345276.44348
  24225510.640   127305926.01306  24225513.000    99199434.04046
 15 02 24 00 47 30.0000000  0  7G16G18G19G21G22G27G31
  21017923.940   110449948.31409  21017925.320    86064910.99948
  21846488.280   114804092.57808  21846490.080    89457771.33847
  24513341.500   128818474.41105  24513341.860   100378030.21945
  21727286.960   114177749.11508  21727288.160    88969703.60648
  22816751.000   119902856.64207  22816751.360    93430811.62847
  22295546.740   117163907.90408  22295550.800    91296578.14448
  24243624.360   127401114.58206  24243626.880    99273606.82445
 15 02 24 00 48  0.0000000  0  7G16G18G19G21G22G27G31
  21008486.900   110400356.37609  21008488.200    86026267.92948
  21839031.820   114764908.94508  21839033.580    89427238.64747
  24498029.360   128738008.58305  24498029.820   100315329.60545
  21737166.380   114229666.08308  21737167.620    89010158.38048
  22799567.500   119812557.28207  22799567.640    93360448.52846
  22283671.200   117101501.40208  22283675.240    91247949.71148
  24261732.560   127496274.01806  24261735.140    99347756.90345
 15 02 24 00 48 30.0000000  0  7G16G18G19G21G22G27G31
  20999131.120   110351191.45209  20999132.400    85987957.60048
  21831658.080   114726159.69008  21831659.800    89397044.43147
  24482726.700   128657592.60905  24482727.180   100252667.84645
  21747088.020   114281804.89808  21747089.320    89050786.02648
  22782418.560   119722439.87907  22782418.560    93290227.19646
  22271815.320   117039198.26908  22271819.360    91199401.82648
  24279837.240   127591414.70406  24279839.860    99421892.38545
 15 02 24 00 49  0.0000000  0  7G16G18G19G21G22G27G31
  20989857.340   110302457.35609  20989858.620    85949982.98348
  21824367.540   114687847.59408  21824369.280    89367190.85447
  24467433.740   128577228.15105  24467434.320   100190046.20445
  21757051.780   114334164.66008  21757053.040    89091585.83548
  22765305.160   119632509.13607  22765305.160    93220151.32146
  22259979.500   116977000.45008  22259983.520    91150936.01148
  24297938.100   127686535.25706  24297940.800    99496012.16646
 15 02 24 00 49 30.0000000  0  7G16G18G19G21G22G27G31
  20980665.100   110254151.74609  20980666.420    85912342.24948
  21817159.760   114649970.15008  21817161.480    89337675.97447
  24452149.840   128496911.48405  24452150.460   100127461.81745
  21767056.660   114386740.38608  21767057.900    89132553.92948
  22748227.080   119542763.66907  22748227.200    93150219.82347
  22248163.000   116914904.33608  22248167.000    91102549.43748
  24316033.980   127781629.10206  24316036.700    99570111.11545
 15 02 24 00 50  0.0000000  0  7G16G18G19G21G22G27G31
  20971555.320   110206279.44509  20971556.660    85875039.16448
  21810035.520   114612531.60808  21810037.220    89308503.09747
  24436875.500   128416645.08105  24436876.300   100064916.59944
  21777102.700   114439532.40708  21777103.940    89173690.56848
  22731185.300   119453208.30508  22731185.460    93080436.45247
  22236366.320   116852912.58808  22236370.340    91054244.19748
  24334124.680   127876695.62606  24334127.480    99644188.78245
 15 02 24 00 50 30.0000000  0  7G16G18G19G21G22G27G31
  20962528.100   110158840.92609  20962529.400    85838074.09248
  21802994.700   114575531.83108  21802996.440    89279672.11047
  24421610.540   128336427.80806  24421611.460   100002409.67244
  21787189.280   114492537.51108  21787190.480    89214993.24348
  22714180.040   119363844.35408  22714180.220    93010802.22847
  22224589.360   116791024.30008  22224593.360    91006019.57448
  24352209.520   127971730.84306  24352212.280    99718242.05945
 15 02 24 00 51  0.0000000  0  7G16G18G19G21G22G27G31
  20953583.680   110111837.57409  20953584.920    85801448.09948
  21796037.500   114538971.84008  21796039.340    89251183.81147
  24406354.980   128256259.28106  24406355.920    99939940.72744
  21797315.960   114545753.59508  21797317.160    89256460.31548
  22697211.580   119274673.58108  22697211.780    92941318.52947
  22212832.080   116729239.33808  22212836.060    90957875.45948
  24370287.680   128066731.24306  24370290.500    99792268.18546
 15 02 24 00 51 30.0000000  0  7G16G18G19G21G22G27G31
  20944722.680   110065272.73909  20944723.920    85765163.81648
  21789164.400   114502854.11308  21789166.400    89223040.14047
  24391108.880   128176140.30106  24391109.720    99877510.39845
  21807482.780   114599180.70208  21807484.000    89298091.81948
  22680280.680   119185700.65708  22680280.940    92871989.00547
  22201094.780   116667559.20008  22201098.740    90909813.02848
  24388358.960   128161695.39106  24388361.840    99866266.07546
 15 02 24 00 52  0.0000000  0  7G16G18G19G21G22G27G31
  20935945.120   110019146.27109  20935946.360    85729221.11649
  21782375.400   114467178.51808  21782377.560    89195240.98347
  24375872.020   128096069.48106  24375872.660    99815117.61644
  21817689.120   114652815.24708  21817690.320    89339884.97348
  22663387.420   119096925.98408  22663387.820    92802813.96447
  22189377.120   116605982.44408  22189381.100    90861831.14548
  24406422.480   128256618.61806  24406425.380    99940232.06246
 15 02 24 00 52 30.0000000  0  7G16G18G19G21G22G27G31
  20927251.740   109973462.26909  20927253.020    85693623.19549
  21775671.300   114431948.55508  21775673.460    89167789.06647
  24360644.620   128016048.83006  24360645.220    99752763.87945
  21827934.960   114706657.16308  21827936.100    89381839.71348
