     2.11           OBSERVATION DATA    G                   RINEX VERSION / TYPE
SPIDER V4,0,0,3554                      2015 03 24 00:11    PGM / RUN BY / DATE 
CBEJ                                                        MARKER NAME         
CBEJ                                                        MARKER NUMBER       
                                                            OBSERVER / AGENCY   
496519              LEICA GRX1200+GNSS  8.10/4.007          REC # / TYPE / VERS 
                    LEIAR25         NONE                    ANT # / TYPE        
  5095766.4657   453329.2088  3797108.6657                  APPROX POSITION XYZ 
        0.0730        0.0000        0.0000                  ANTENNA: DELTA H/E/N
     1     1                                                WAVELENGTH FACT L1/2
     4    C1    L1    P2    L2                              # / TYPES OF OBSERV 
    30.000                                                  INTERVAL            
  2015    02    24    00    00    0.0000000     GPS         TIME OF FIRST OBS   
  2015    02    24    23    59   30.0000000     GPS         TIME OF LAST OBS    
    16                                                      LEAP SECONDS        
    30                                                      # OF SATELLITES     
   G 1   811   811   811   811                              PRN / # OF OBS      
   G 2   841   839   838   838                              PRN / # OF OBS      
   G 3   834   832   833   832                              PRN / # OF OBS      
   G 4   832   832   832   832                              PRN / # OF OBS      
   G 5   595   595   595   595                              PRN / # OF OBS      
   G 6   684   681   681   680                              PRN / # OF OBS      
   G 7   634   632   632   631                              PRN / # OF OBS      
   G 9   785   785   785   785                              PRN / # OF OBS      
   G10   714   714   714   714                              PRN / # OF OBS      
   G11   776   776   776   776                              PRN / # OF OBS      
   G12   786   786   785   785                              PRN / # OF OBS      
   G13   797   797   797   797                              PRN / # OF OBS      
   G14   859   859   859   859                              PRN / # OF OBS      
   G15   708   708   708   708                              PRN / # OF OBS      
   G16   668   667   668   667                              PRN / # OF OBS      
   G17   858   857   857   857                              PRN / # OF OBS      
   G18   848   848   846   846                              PRN / # OF OBS      
   G19   759   759   759   759                              PRN / # OF OBS      
   G20   746   746   746   746                              PRN / # OF OBS      
   G21   668   668   654   654                              PRN / # OF OBS      
   G22   700   699   699   698                              PRN / # OF OBS      
   G23   715   714   706   705                              PRN / # OF OBS      
   G24   821   821   821   821                              PRN / # OF OBS      
   G25   849   849   849   849                              PRN / # OF OBS      
   G27   809   808   808   808                              PRN / # OF OBS      
   G28   804   804   804   804                              PRN / # OF OBS      
   G29   752   750   750   750                              PRN / # OF OBS      
   G30   664   661   652   650                              PRN / # OF OBS      
   G31   754   749   742   741                              PRN / # OF OBS      
   G32   737   736   734   733                              PRN / # OF OBS      
BIT 2 OF LLI FLAGS DATA COLLECTED UNDER A/S CONDITION       COMMENT             
SNR is mapped to RINEX snr flag value [2-9]                 COMMENT             
Lx:     = 25dBHz -> 1; 26-27dBHz -> 2; 28-31dBHz -> 3       COMMENT             
       32-35dBHz -> 4; 36-38dBHz -> 5; 39-41dBHz -> 6       COMMENT             
       42-44dBHz -> 7; 45-48dBHz -> 8; >=49dBHz -> 9        COMMENT             
                                                            END OF HEADER       
 15 02 24 00 00  0.0000000  0  7G16G18G21G25G27G29G31
  22076105.400   116010713.06209  22076101.440    90397956.72147
  23035118.720   121050380.72908  23035115.540    94324973.51645
  21068823.000   110717416.63408  21068819.260    86273302.73448
  24489111.300   128691127.89908  24489111.620   100278799.77345
  23301005.320   122447621.02408  23301005.520    95413735.91746
  23419617.400   123070906.69706  23419615.740    95899422.16644
  22533698.520   118415376.14809  22533695.860    92271705.21048
 15 02 24 00 00 30.0000000  0  7G16G18G21G25G27G29G31
  22061404.800   115933459.96809  22061400.560    90337759.54647
  23021666.500   120979690.98208  23021664.080    94269890.61746
  21073422.240   110741586.22408  21073418.620    86292136.18548
  24507984.760   128790309.24508  24507985.700   100356083.92645
  23287668.880   122377534.99708  23287668.640    95359123.48046
  23433737.380   123145104.18506  23433734.900    95957238.37045
  22549957.660   118500817.24709  22549955.100    92338282.68248
 15 02 24 00 01  0.0000000  0  7G16G18G21G25G27G29G31
  22046745.800   115856427.33309  22046742.020    90277734.12247
  23008255.400   120909216.13809  23008253.440    94214975.17846
  21078095.500   110766144.29708  21078092.020    86311272.35848
  24526888.300   128889648.06008  24526889.240   100433490.72945
  23274353.120   122307557.10508  23274352.180    95304595.30646
  23447864.480   123219342.74606  23447861.900    96015086.58945
  22566267.040   118586522.65309  22566264.240    92405066.09347
 15 02 24 00 01 30.0000000  0  8G16G18G21G22G25G27G29G31
  22032129.040   115779615.95109  22032125.720    90217881.12647
  22994885.540   120838957.16709  22994883.460    94160227.96946
  21082842.100   110791087.29708  21082838.600    86330708.46648
  24557892.680   129052597.59008  24557887.800   100560440.63344
  24545821.220   128989141.27608  24545822.120   100511017.87045
  23261057.380   122237685.68608  23261055.860    95250150.12446
  23461999.200   123293620.81507  23461995.760    96072965.57145
  22582625.600   118672487.90209  22582622.580    92472051.97447
 15 02 24 00 02  0.0000000  0  8G16G18G21G22G25G27G29G31
  22017552.420   115703015.56409  22017549.060    90158192.52947
  22981554.920   120768904.25008  22981552.580    94105641.31546
  21087659.440   110816401.95308  21087655.740    86350434.18448
  24540016.640   128958659.68708  24540011.680   100487242.42345
  24564781.040   129088775.30908  24564782.500   100588654.76645
  23247778.560   122167908.58907  23247778.440    95195778.37747
  23476139.100   123367926.03906  23476135.020    96130865.69745
  22599030.440   118758697.77308  22599027.760    92539228.48348
 15 02 24 00 02 30.0000000  0  8G16G18G21G22G25G27G29G31
  22003021.780   115626657.56509  22003018.240    90098692.81047
  22968269.460   120699089.14908  22968267.060    94051239.96646
  21092552.700   110842115.64908  21092548.660    86370470.85348
  24522130.300   128864668.35108  24522125.540   100414002.56645
  24583772.900   129188577.99608  24583774.340   100666423.06145
  23234522.780   122098254.99107  23234524.760    95141502.85847
  23490289.020   123442287.09506  23490285.460    96188809.37745
  22615486.980   118845178.75909  22615484.860    92606616.25248
 15 02 24 00 03  0.0000000  0  8G16G18G21G22G25G27G29G31
  21988532.580   115550517.73209  21988529.240    90039363.07847
  22955024.840   120629488.58408  22955022.560    93997005.78346
  21097516.760   110868201.48408  21097512.540    86390797.48248
  24504229.260   128770599.78008  24504224.800   100340702.53245
  24602791.760   129288521.91308  24602792.820   100744301.39945
  23221286.200   122028698.84008  23221288.500    95087303.24946
  23504444.280   123516677.35407  23504441.860    96246775.82445
  22631989.800   118931901.67409  22631987.920    92674192.51347
 15 02 24 00 03 30.0000000  0  8G16G18G21G22G25G27G29G31
  21974084.380   115474593.19809  21974081.300    89980201.11647
  22941820.560   120560100.11908  22941818.360    93942936.85946
  21102550.120   110894652.08808  21102545.980    86411408.35248
  24486313.040   128676451.22908  24486309.260   100267340.16445
  24621836.240   129388600.37207  24621837.240   100822284.55245
  23208068.100   121959234.73808  23208069.860    95033175.45847
  23518604.920   123591092.11407  23518602.880    96304761.32344
  22648537.200   119018858.19909  22648535.280    92741950.83048
 15 02 24 00 04  0.0000000  0  8G16G18G21G22G25G27G29G31
  21959680.680   115398901.87109  21959677.460    89921220.90347
  22928660.140   120490941.62909  22928657.700    93889047.16346
  21107655.620   110921482.47308  21107651.720    86432315.13748
  24468385.060   128582241.00008  24468382.440   100193929.71345
  24640908.680   129488827.83507  24640909.420   100900383.83745
  23194870.980   121889878.70608  23194872.260    94979131.84847
  23532773.380   123665546.72307  23532771.300    96362777.85644
  22665131.600   119106061.49809  22665129.520    92809901.42747
 15 02 24 00 04 30.0000000  0  8G16G18G21G22G25G27G29G31
  21945322.240   115323449.02609  21945319.080    89862426.51347
  22915544.760   120422019.34009  22915542.220    93835341.53746
  21112833.580   110948694.19208  21112830.080    86453519.07248
  24450446.420   128487974.68408  24450444.980   100120475.53145
  24660009.540   129589205.93807  24660010.780   100978600.51346
  23181694.780   121820633.81908  23181695.780    94925174.80747
  23546949.320   123740043.23006  23546948.580    96420827.13444
  22681773.000   119193511.68609  22681770.620    92878044.40547
 15 02 24 00 05  0.0000000  0  8G16G18G21G22G25G27G29G31
  21931007.920   115248226.27009  21931004.540    89803811.40547
  22902472.660   120353324.74908  22902470.020    93781813.30346
  21118081.820   110976275.17508  21118078.620    86475010.73948
  24432495.840   128393643.93808  24432494.980   100046971.14245
  24679136.620   129689722.85607  24679138.600   101056925.41045
  23168537.440   121751489.61008  23168537.800    94871296.24146
  23561131.860   123814572.00107  23561131.820    96478901.49744
  22698458.660   119281195.42408  22698455.980    92946369.37948
 15 02 24 00 05 30.0000000  0  8G16G18G21G22G25G27G29G31
  21916738.000   115173235.58009  21916734.240    89745377.13147
  22889444.520   120284861.06709  22889441.340    93728465.01445
  21123400.080   111004223.61108  21123396.940    86496788.75148
  24414533.760   128299251.70108  24414532.180    99973418.87645
  24698290.460   129790377.33508  24698291.940   101135357.40445
  23155398.820   121682446.21808  23155398.000    94817496.28446
  23575320.860   123889132.80407  23575320.300    96537000.76443
  22715188.100   119369109.76609  22715185.340    93014874.02647
 15 02 24 00 06  0.0000000  0  8G16G18G21G22G25G27G29G31
  21902512.740   115098481.00509  21902508.900    89687126.81147
  22876460.840   120216631.83609  22876457.380    93675299.38545
  21128788.340   111032539.55709  21128785.240    86518853.11948
  24396560.900   128204801.69808  24396557.080    99899821.59244
  24717470.920   129891169.30408  24717472.580   101213896.54845
  23142279.180   121613505.05608  23142277.940    94763775.91746
  23589515.940   123963726.13206  23589513.840    96595125.38743
  22731961.160   119457253.32209  22731958.520    93083557.29047
 15 02 24 00 06 30.0000000  0  8G16G18G21G22G25G27G29G31
  21888333.680   115023970.30409  21888330.080    89629066.51847
  22863523.660   120148645.77609  22863519.780    93622323.28045
  21134247.660   111061228.12308  21134244.540    86541207.86448
  24378578.740   128110302.20308  24378573.380    99826185.78345
  24736678.660   129992103.22808  24736680.220   101292546.31545
  23129179.840   121544672.04808  23129179.560    94710139.82647
  23603718.400   124038358.28006  23603715.660    96653280.21344
  22748778.460   119545628.92709  22748775.840    93152421.38347
 15 02 24 00 07  0.0000000  0  8G16G18G21G22G25G27G29G31
  21874200.800   114949700.99309  21874197.100    89571194.37947
  22850632.340   120080900.39209  22850627.840    93569534.72846
  21139776.620   111090282.34408  21139773.440    86563847.52748
  24360586.340   128015750.86708  24360580.940    99752509.55145
  24755912.040   130093172.84108  24755913.340   101371301.83045
  23116100.440   121475942.34508  23116100.800    94656584.25346
  23617927.020   124113023.78905  23617924.680    96711461.18944
  22765638.500   119634228.91709  22765635.660    93221460.30647
 15 02 24 00 07 30.0000000  0  8G16G18G21G22G25G27G29G31
  21860115.240   114875681.10709  21860111.240    89513516.56847
  22837788.400   120013404.35609  22837784.240    93516940.46446
  21145376.100   111119707.03308  21145372.780    86586775.85448
  24342585.440   127921156.68108  24342581.120    99678799.88645
  24775172.020   130194383.06408  24775173.500   101450166.92045
  23103042.580   121407322.31308  23103043.020    94603114.12946
  23632141.640   124187728.89506  23632140.600    96769673.00944
  22782541.840   119723056.62609  22782538.920    93290676.68847
 15 02 24 00 08  0.0000000  0  8G16G18G21G22G25G27G29G31
  21846074.420   114801897.98609  21846070.900    89456023.21947
  22824989.320   119946145.44408  22824985.960    93464530.93446
  21151042.900   111149485.82908  21151039.600    86609980.11948
  24324573.780   127826507.08408  24324570.940    99605047.05546
  24794455.580   130295717.44508  24794456.900   101529128.74745
  23090002.940   121338796.90808  23090003.560    94549717.76747
  23646361.900   124262458.68707  23646360.360    96827903.92544
  22799485.200   119812094.27109  22799482.520    93360056.66147
 15 02 24 00 08 30.0000000  0  8G16G18G21G22G25G27G29G31
  21832081.280   114728364.40409  21832078.300    89398724.32448
  22812237.680   119879137.09409  22812235.020    93412316.61346
  21156778.800   111179628.12608  21156775.460    86633467.61948
  24306554.140   127731814.99708  24306552.020    99531261.09345
  24813764.180   130397185.13507  24813764.820   101608194.41444
  23076983.160   121270376.92708  23076983.240    94496403.50647
  23660589.380   124337223.61408  23660587.480    96886162.23044
  22816470.120   119901349.37509  22816467.600    93429606.06647
 15 02 24 00 09  0.0000000  0  7G16G18G21G22G27G29G31
  21818136.860   114655086.92509  21818134.300    89341625.00448
  22799535.080   119812385.72308  22799532.720    93360302.56446
  21162584.320   111210136.37408  21162580.880    86657240.28048
  24288527.800   127637087.23108  24288525.740    99457447.36046
  23063984.140   121202066.46308  23063983.920    94443174.63347
  23674824.040   124412027.42807  23674822.560    96944450.91445
  22833496.680   119990823.07209  22833493.880    93499325.80547
 15 02 24 00 09 30.0000000  0  7G16G18G21G22G27G29G31
  21804239.420   114582056.90909  21804237.020    89284718.51047
  22786879.960   119745883.33109  22786877.440    93308482.53846
  21168457.160   111240998.51909  21168453.580    86681288.71748
  24270493.020   127542315.79608  24270490.600    99383599.59545
  23051003.900   121133855.14108  23051004.400    94390022.93947
  23689064.100   124486859.44808  23689063.080    97002761.55545
  22850562.200   120080502.00809  22850558.940    93569205.47547
 15 02 24 00 10  0.0000000  0  7G16G18G21G22G27G29G31
  21790390.460   114509280.50909  21790388.000    89228009.62947
  22774273.840   119679636.32009  22774270.620    93256861.56346
  21174397.760   111272216.53008  21174394.080    86705614.45248
  24252451.140   127447506.90508  24252448.100    99309722.66045
  23038043.400   121065746.55008  23038043.700    94336951.34247
  23703310.440   124561723.14608  23703309.380    97061096.85245
  22867666.680   120170387.00609  22867663.420    93639245.72547
 15 02 24 00 10 30.0000000  0  7G16G18G21G22G27G29G31
  21776591.300   114436765.15009  21776588.900    89171504.17748
  22761717.760   119613652.37909  22761714.420    93205445.55646
  21180406.860   111303794.22808  21180403.100    86730220.45248
  24234403.880   127352668.27608  24234400.380    99235822.54945
  23025103.560   120997746.10408  23025103.000    94283964.03347
  23717563.680   124636623.65508  23717562.880    97119460.88146
  22884810.740   120260480.03809  22884807.480    93709448.06447
 15 02 24 00 11  0.0000000  0  7G16G18G21G22G27G29G31
  21762841.280   114364507.87609  21762838.820    89115199.80247
  22749210.760   119547928.90408  22749207.820    93154232.45246
  21186483.120   111335724.86109  21186479.420    86755101.46148
  24216350.560   127257797.66608  24216346.520    99161897.53345
  23012183.160   120929848.96008  23012182.780    94231057.18346
  23731822.920   124711555.76008  23731822.320    97177849.49646
  22901993.020   120350773.73209  22901989.500    93779806.74947
 15 02 24 00 11 30.0000000  0  7G16G18G21G22G27G29G31
  21749141.360   114292513.14909  21749138.280    89059100.04348
  22736754.300   119482470.90709  22736751.420    93103226.23446
  21192626.820   111368009.81508  21192623.140    86780258.57948
  24198292.040   127162899.97308  24198288.000    99087951.35845
  22999282.740   120862057.53308  22999282.120    94178232.72846
  23746088.720   124786522.46207  23746087.900    97236265.07946
  22919213.500   120441267.41309  22919209.680    93850321.27947
 15 02 24 00 12  0.0000000  0  7G16G18G21G22G27G29G31
  21735491.960   114220785.44409  21735488.620    89003208.34547
  22724349.380   119417282.74209  22724346.380    93052430.31146
  21198837.820   111400649.08009  21198834.320    86805691.76148
  24180229.500   127067979.25808  24180225.640    99013987.29646
  22986402.680   120794373.68808  22986401.220    94125492.11146
  23760360.720   124861524.65607  23760360.080    97294708.37846
  22936472.100   120531959.83509  22936467.800    93920990.64947
 15 02 24 00 12 30.0000000  0  7G16G18G21G22G27G29G31
  21721892.220   114149319.62609  21721888.920    88947520.68147
  22711995.000   119352359.85009  22711992.040    93001841.07647
  21205114.620   111433634.47009  21205111.300    86831394.64848
  24162161.600   126973031.54708  24162158.180    98940002.14946
  22973541.940   120726790.47408  22973540.840    94072829.92346
  23774638.240   124936555.46408  23774638.080    97353173.92846
  22953766.720   120622841.09809  22953762.020    93991807.18447
 15 02 24 00 13  0.0000000  0  7G16G18G21G22G27G29G31
  21708343.600   114078119.72609  21708340.080    88892040.28248
  22699691.680   119287705.71409  22699689.080    92951461.22347
  21211457.260   111466965.48909  21211454.020    86857366.87549
  24144089.120   126878060.54408  24144086.300    98865998.85446
  22960700.680   120659309.47108  22960700.340    94020247.32547
  23788921.940   125011616.17808  23788922.060    97411662.76146
  22971096.860   120713909.52609  22971092.200    94062769.56447
 15 02 24 00 13 30.0000000  0  7G16G18G21G22G27G29G31
  21694847.100   114007193.91809  21694843.420    88836773.42547
  22687441.520   119223330.26809  22687439.140    92901298.55747
  21217866.680   111500647.16009  21217863.360    86883612.33948
  24126013.900   126783075.29508  24126011.340    98791984.46246
  22947880.340   120591937.04208  22947880.260    93967749.37547
  23803212.520   125086712.87908  23803212.540    97470179.65946
  22988463.100   120805168.82409  22988458.820    94133880.67747
 15 02 24 00 14  0.0000000  0  7G16G18G21G22G27G29G31
  21681401.600   113936538.11609  21681397.980    88781716.96647
  22675243.580   119159229.29809  22675241.100    92851349.78646
  21224341.260   111534671.18209  21224337.760    86910124.57248
  24107935.220   126688072.24908  24107932.040    98717956.21545
  22935079.400   120524667.02008  22935079.540    93915331.20347
  23817508.800   125161839.39408  23817507.960    97528719.76645
  23005863.600   120896609.56009  23005859.700    94205133.18847
 15 02 24 00 14 30.0000000  0  7G16G18G21G22G27G29G31
  21668008.380   113866158.02509  21668004.860    88726875.33147
  22663098.840   119095408.40609  22663096.120    92801619.25546
  21230881.340   111569040.04609  21230877.700    86936905.49948
  24089853.920   126593057.09308  24089850.600    98643918.51745
  22922298.520   120457502.88208  22922298.640    93862995.50547
  23831811.520   125236999.00008  23831809.580    97587285.62744
  23023298.440   120988232.50409  23023295.060    94276527.67947
 15 02 24 00 15  0.0000000  0  7G16G18G21G22G27G29G31
  21654667.720   113796053.22709  21654664.360    88672248.24247
  22651007.320   119031867.42108  22651004.500    92752106.82646
  21237486.140   111603748.86209  21237482.420    86963951.33448
  24071770.380   126498029.60608  24071767.340    98569871.20845
  22909537.300   120390441.85308  22909537.140    93810740.19547
  23846119.860   125312188.56307  23846117.560    97645874.86045
  23040766.620   121080031.56709  23040763.940    94348059.39547
 15 02 24 00 15 30.0000000  0  7G16G18G21G22G27G29G31
  21641381.480   113726233.04909  21641378.240    88617842.93347
  22638970.740   118968615.89809  22638968.000    92702819.94246
  21244156.780   111638803.23009  21244153.020    86991266.44948
  24053686.620   126402999.71808  24053683.720    98495822.03545
  22896796.880   120323491.21108  22896796.600    93758570.90146
  23860435.040   125387415.35707  23860432.660    97704493.11844
  23058269.260   121172011.13109  23058266.860    94419731.76047
 15 02 24 00 16  0.0000000  0  7G16G18G21G22G27G29G31
  21628148.760   113656693.69309  21628145.600    88563656.40848
  22626988.880   118905649.91609  22626986.020    92653755.58746
  21250891.880   111674195.88109  21250888.120    87018845.13848
  24035602.060   126307964.05908  24035599.160    98421768.37345
  22884076.300   120256645.04008  22884076.040    93706482.98747
  23874755.980   125462673.18807  23874753.680    97763135.51445
  23075804.640   121264162.23808  23075802.340    94491537.77847
 15 02 24 00 16 30.0000000  0  7G16G18G21G22G27G29G31
  21614970.080   113587437.08209  21614966.660    88509690.21948
  22615061.900   118842972.22809  22615059.040    92604915.86347
  21257690.980   111709924.70709  21257687.260    87046685.78748
  24017516.840   126212924.87708  24017513.740    98347711.93346
  22871375.520   120189903.38808  22871375.740    93654476.50747
  23889082.660   125537961.85007  23889080.540    97821801.96945
  23093372.280   121356481.88409  23093370.300    94563475.14847
 15 02 24 00 17  0.0000000  0  7G16G18G21G22G27G29G31
  21601845.300   113518463.46409  21601841.320    88455944.56547
  22603189.620   118780583.61409  22603187.020    92556301.37946
  21264553.380   111745986.48109  21264549.680    87074785.87348
  23999430.960   126117883.08908  23999427.740    98273653.47945
  22858694.680   120123264.32008  22858694.940    93602549.97347
  23903415.040   125613279.32508  23903413.180    97880490.92545
  23110971.320   121448965.06909  23110969.420    94635539.94147
 15 02 24 00 17 30.0000000  0  7G16G18G21G22G27G29G31
  21588774.120   113449774.42009  21588770.240    88402420.63147
  22591372.360   118718485.05108  22591370.080    92507912.91146
  21271478.500   111782378.57909  21271474.820    87103143.35048
  23981344.780   126022840.26008  23981341.620    98199594.20745
  22846033.560   120056726.99509  22846033.540    93550702.77447
  23917752.960   125688624.70507  23917751.060    97939201.59446
  23128600.980   121541607.93909  23128598.640    94707729.14947
 15 02 24 00 18  0.0000000  0  7G16G18G21G22G27G29G31
  21575758.520   113381378.56209  21575755.360    88349125.14748
  22579611.940   118656685.94208  22579610.280    92459757.76347
  21278467.380   111819105.71008  21278463.780    87131761.89548
  23963259.940   125927805.58708  23963256.760    98125541.27846
  22833392.940   119990298.09708  22833392.920    93498940.01347
  23932097.320   125764004.17607  23932095.620    97997938.85946
  23146261.820   121634414.12509  23146258.940    94780045.62547
 15 02 24 00 18 30.0000000  0  7G16G18G21G22G27G29G31
  21562798.560   113313274.38509  21562796.040    88296056.95948
  22567908.300   118595184.37308  22567906.880    92411834.48947
  21285519.040   111856162.38309  21285515.360    87160637.23148
  23945176.540   125832777.61608  23945173.420    98051493.58346
  22820772.080   119923973.80809  22820771.780    93447258.78047
  23946447.480   125839413.94308  23946446.200    98056699.70846
  23163952.460   121727376.85309  23163949.400    94852484.08047
 15 02 24 00 19  0.0000000  0  7G16G18G21G22G27G29G31
  21549895.580   113245468.73109  21549893.180    88243221.40148
  22556262.720   118533987.90308  22556261.300    92364148.94046
  21292634.140   111893552.12908  21292630.260    87189772.11248
  23927096.220   125737763.93408  23927093.200    97977457.01745
  22808171.960   119857758.92908  22808171.580    93395662.82347
  23960804.060   125914858.55308  23960803.180    98115487.70246
  23181673.120   121820497.65309  23181670.040    94925045.72647
 15 02 24 00 19 30.0000000  0  7G16G18G21G22G27G29G31
  21537050.060   113177965.06509  21537047.480    88190621.15848
  22544676.000   118473099.75909  22544674.380    92316703.64646
  21299812.500   111931274.48108  21299808.560    87219166.15747
  23909019.500   125642768.07708  23909015.880    97903434.35045
  22795592.180   119791654.74508  22795592.460    93344153.05747
  23975167.440   125990339.05608  23975166.200    98174303.67645
  23199423.460   121913774.95309  23199420.340    94997729.32047
 15 02 24 00 20  0.0000000  0  7G16G18G21G22G27G29G31
  21524260.360   113110754.63209  21524257.780    88138249.40148
  22533146.740   118412511.76709  22533144.400    92269492.26746
  21307051.620   111969316.94708  21307047.980    87248809.62548
  23890944.680   125547782.37308  23890940.420    97829419.60146
  22783031.560   119725650.79508  22783031.860    93292721.43347
  23989535.900   126065844.83208  23989533.800    98233139.29945
  23217200.800   122007195.26609  23217197.600    95070524.34647
 15 02 24 00 20 30.0000000  0  7G16G18G21G22G27G29G31
  21511527.660   113043844.16609  21511525.340    88086111.38148
  22521675.940   118352230.58009  22521673.120    92222519.94646
  21314352.160   112007682.10608  21314348.800    87278704.55447
  23872872.840   125452813.45608  23872868.420    97755417.92346
  22770491.400   119659751.36809  22770491.140    93241371.29547
  24003909.740   126141380.06007  24003907.580    98291997.92845
  23235005.420   122100759.75609  23235001.800    95143431.69846
 15 02 24 00 21  0.0000000  0  7G16G18G21G22G27G29G31
  21498852.720   112977238.40409  21498850.780    88034210.80648
  22510264.380   118292260.97509  22510261.800    92175790.39147
  21321714.300   112046370.76708  21321711.020    87308851.56147
  23854804.960   125357866.18208  23854800.340    97681433.08446
  22757971.860   119593959.11808  22757971.040    93190104.68447
  24018289.740   126216947.30507  24018288.140    98350881.53245
  23252837.260   122194467.90908  23252833.060    95216450.99946
 15 02 24 00 21 30.0000000  0  7G16G18G21G22G27G29G31
  21486236.940   112910942.65009  21486234.960    87982551.77548
  22498912.960   118232608.41609  22498910.780    92129307.88846
  21329138.360   112085384.12208  21329135.000    87339251.57747
  23836742.460   125262946.71308  23836737.880    97607469.92446
  22745472.320   119528277.24908  22745472.500    93138923.96047
  24032676.540   126292549.16408  24032675.060    98409792.05444
  23270696.320   122288319.76308  23270691.960    95289582.27546
 15 02 24 00 22  0.0000000  0  7G16G18G21G22G27G29G31
  21473679.660   112844953.99509  21473677.840    87931132.05448
  22487621.180   118173270.05609  22487619.260    92083070.21747
  21336623.240   112124716.39108  21336619.500    87369900.11347
  23818684.780   125168052.58508  23818680.860    97533526.51846
  22732992.860   119462700.57908  22732994.060    93087825.27447
  24047068.860   126368180.58607  24047066.880    98468725.56644
  23288581.380   122382307.41209  23288577.300    95362819.36546
 15 02 24 00 22 30.0000000  0  7G16G18G21G22G27G29G31
  21461181.760   112779277.01909  21461180.100    87879955.19548
  22476390.060   118114250.72609  22476388.300    92037081.13147
  21344168.840   112164367.35708  21344164.620    87400796.98247
  23800632.780   125073188.67708  23800629.320    97459606.62046
  22720534.480   119397231.71508  22720535.780    93036810.62147
  24061467.140   126443844.15808  24061465.080    98527684.15645
  23306492.380   122476430.31309  23306488.780    95436161.84147
 15 02 24 00 23  0.0000000  0  7G16G18G21G22G27G29G31
  21448742.920   112713910.70009  21448741.080    87829020.39748
  22465219.580   118055549.37609  22465217.680    91991339.82147
  21351774.140   112204332.10408  21351769.460    87431938.35647
  23782586.280   124978354.11308  23782582.520    97385709.64146
  22708095.940   119331867.42908  22708097.260    92985877.41348
  24075870.880   126519536.20408  24075869.100    98586664.94344
  23324427.880   122570682.07008  23324424.740    95509604.72747
 15 02 24 00 23 30.0000000  0  7G16G18G21G22G27G29G31
  21436363.960   112648858.83109  21436361.940    87778330.61948
  22454110.440   117997170.17009  22454108.060    91945849.56846
  21359439.060   112244610.71408  21359434.260    87463324.29947
  23764545.920   124883553.64108  23764541.680    97311839.23046
  22695677.860   119266609.59208  22695678.960    92935027.17147
  24090280.400   126595258.64808  24090278.980    98645669.42844
  23342387.520   122665061.46408  23342384.960    95583147.09647
 15 02 24 00 24  0.0000000  0  7G16G18G21G22G27G29G31
  21424045.180   112584122.17509  21424042.700    87727886.47248
  22443062.480   117939113.83609  22443059.880    91900610.88146
  21367162.740   112285199.99508  21367158.340    87494952.29547
  23746512.360   124788787.95208  23746507.640    97237995.89346
  22683280.160   119201456.66909  22683280.460    92884258.71747
  24104695.360   126671009.86908  24104693.340    98704696.29044
  23360370.320   122759564.07308  23360368.880    95656785.46947
 15 02 24 00 24 30.0000000  0  7G16G18G21G22G27G29G31
  21411786.640   112519702.60609  21411783.900    87677689.41748
  22432076.540   117881382.35809  22432073.800    91855625.35847
  21374945.020   112326098.36507  21374941.320    87526821.15447
  23728486.280   124694059.65808  23728481.180    97164181.71445
  22670902.500   119136408.64208  22670901.680    92833572.01847
  24119115.660   126746789.41408  24119113.140    98763745.20044
  23378375.920   122854186.66708  23378375.400    95730517.34947
 15 02 24 00 25  0.0000000  0  7G16G18G21G22G27G29G31
  21399590.000   112455609.76009  21399587.240    87627746.93348
  22421154.320   117823985.31109  22421151.520    91810900.41147
  21382787.220   112367311.14407  21382784.080    87558934.98147
  23710469.320   124599378.93008  23710463.880    97090404.57846
  22658545.600   119071473.10708  22658544.400    92782972.89247
  24133542.640   126822604.54608  24133540.540    98822821.89445
  23396405.600   122948933.76908  23396405.040    95804346.23547
 15 02 24 00 25 30.0000000  0  7G16G18G21G22G27G29G31
  21387455.060   112391839.84409  21387452.160    87578056.09248
  22410295.060   117766919.03609  22410292.180    91766433.20647
  21390688.100   112408831.03408  21390684.980    87591288.12446
  23692460.740   124504742.22608  23692455.760    97016661.75946
  22646208.720   119006643.98908  22646208.220    92732456.72447
  24147975.340   126898449.21508  24147973.660    98881921.60545
  23414457.540   123043796.21909  23414456.300    95878264.96846
 15 02 24 00 26  0.0000000  0  7G16G18G21G22G27G29G31
  21375382.040   112328395.70109  21375379.060    87528619.11848
  22399499.300   117710186.20609  22399496.380    91722225.83747
  21398647.420   112450656.44208  21398643.860    87623879.36446
  23674460.860   124410152.77008  23674456.860    96942955.71847
  22633892.460   118941921.92908  22633892.820    92682023.97548
  24162413.920   126974323.65008  24162412.160    98941044.52346
  23432531.160   123138771.59408  23432528.840    95952271.69446
 15 02 24 00 26 30.0000000  0  7G16G18G21G22G27G29G31
  21363371.540   112265280.07409  21363368.380    87479438.10548
  22388767.340   117653789.69909  22388764.720    91678280.52547
  21406664.920   112492786.72408  21406661.000    87656708.19146
  23656470.540   124315614.01208  23656466.960    96869289.20946
  22621596.840   118877307.93608  22621597.140    92631675.42947
  24176858.460   127050228.90908  24176856.480    99000191.44646
  23450625.920   123233857.97908  23450622.480    96026364.93646
 15 02 24 00 27  0.0000000  0  7G16G18G21G22G27G29G31
  21351424.660   112202497.54209  21351421.240    87430516.65948
  22378100.280   117597734.15209  22378098.120    91634600.87047
  21414740.320   112535221.82408  21414736.240    87689774.50146
  23638490.880   124221130.63408  23638487.520    96795665.83646
  22609321.980   118812804.27008  22609322.000    92581412.86747
  24191308.960   127126166.93608  24191307.080    99059363.90145
  23468741.560   123329054.65508  23468737.480    96100544.11746
 15 02 24 00 27 30.0000000  0  7G16G18G21G22G27G29G31
  21339540.960   112140046.94509  21339537.260    87381853.86248
  22367498.120   117542018.62409  22367495.940    91591186.20947
  21422872.560   112577956.86207  21422868.340    87723074.53946
  23620521.720   124126702.46508  23620518.120    96722085.49546
  22597067.700   118748407.94108  22597067.900    92531233.93447
  24205764.920   127202134.68008  24205763.320    99118559.51946
  23486876.760   123424355.16408  23486873.060    96174804.20746
 15 02 24 00 28  0.0000000  0  7G16G18G21G22G27G29G31
  21327720.480   112077929.59609  21327716.780    87333450.72648
  22356960.720   117486644.51508  22356958.440    91548037.57847
  21431061.200   112620989.99307  21431057.200    87756606.83546
  23602563.260   124032330.85208  23602558.660    96648549.24646
  22584833.640   118684118.04208  22584834.180    92481137.94847
  24220226.320   127278130.87408  24220224.760    99177777.30246
  23505030.900   123519755.48008  23505027.980    96249142.09347
 15 02 24 00 28 30.0000000  0  7G16G18G21G22G27G29G31
  21315964.460   112016151.03109  21315960.920    87285311.57748
  22346489.040   117431617.16208  22346486.860    91505159.12447
  21439306.520   112664322.63507  21439303.260    87790372.47846
  23584616.620   123938021.87308  23584611.720    96575061.78346
  22572620.060   118619938.08608  22572621.080    92431127.58047
  24234693.740   127354159.19007  24234692.740    99237020.13646
  23523204.160   123615256.05209  23523201.800    96323558.06346
 15 02 24 00 29  0.0000000  0  7G16G18G21G22G27G29G31
  21304272.840   111954711.26709  21304269.460    87237436.44248
  22336083.380   117376936.72609  22336081.320    91462551.01246
  21447608.480   112707950.85107  21447605.400    87824368.50546
  23566682.180   123843776.32708  23566677.380    96501623.75946
  22560427.420   118555866.10008  22560428.420    92381201.41947
  24249166.900   127430217.41007  24249166.360    99296286.26346
  23541395.620   123710852.09708  23541393.520    96398048.45546
 15 02 24 00 29 30.0000000  0  7G16G18G21G22G27G29G31
  21292646.540   111893614.52709  21292643.140    87189828.59648
  22325744.720   117322607.16109  22325742.780    91420216.32547
  21455967.240   112751874.93907  21455963.740    87858595.06946
  23548760.780   123749598.62908  23548756.320    96428238.59946
  22548255.900   118491904.28408  22548257.240    92331361.07748
  24263646.240   127506306.88408  24263645.820    99355576.77446
  23559605.000   123806542.51908  23559603.100    96472612.39546
 15 02 24 00 30  0.0000000  0  7G16G18G21G22G27G29G31
  21281085.520   111832860.96209  21281082.100    87142488.15648
  22315473.080   117268628.72209  22315471.440    91378155.22047
  21464381.540   112796090.89907  21464377.720    87893049.05846
  23530852.400   123655489.36008  23530848.620    96354906.74846
  22536104.900   118428050.63408  22536106.840    92281604.99748
  24278131.360   127582426.15208  24278130.800    99414890.47346
  23577831.280   123902322.21008  23577829.440    96547245.87446
 15 02 24 00 30 30.0000000  0  7G16G18G21G22G27G29G31
  21269589.920   111772451.80709  21269586.640    87095416.08948
  22305268.500   117215002.45609  22305267.020    91336368.49948
  21472850.800   112840595.52107  21472846.900    87927727.97846
  23512957.200   123561450.19808  23512953.880    96281629.51846
  22523974.420   118364304.32608  22523976.360    92231932.55848
  24292622.060   127658573.91008  24292621.200    99474226.36646
  23596073.720   123998187.33908  23596071.620    96621945.93446
 15 02 24 00 31  0.0000000  0  7G16G18G21G22G27G29G31
  21258160.740   111712391.56209  21258157.620    87048615.90148
  22295131.960   117161732.78709  22295130.220    91294859.67048
  21481375.140   112885390.00907  21481370.920    87962632.75746
  23495076.260   123467486.17308  23495072.800    96208410.85046
  22511865.000   118300667.73908  22511866.220    92182345.64348
  24307118.620   127734752.45908  24307117.600    99533586.25846
  23614332.260   124094137.28708  23614329.540    96696712.08246
 15 02 24 00 31 30.0000000  0  7G16G18G21G22G27G29G31
  21246798.180   111652681.49009  21246795.140    87002088.57448
  22285063.620   117108821.12809  22285061.120    91253629.84047
  21489953.920   112930471.56307  21489949.880    87997761.23547
  23477210.140   123373599.53308  23477206.600    96135252.47347
  22499776.400   118237140.45808  22499777.360    92132843.89348
  24321620.780   127810960.97108  24321619.700    99592969.51447
  23632606.240   124190168.29308  23632602.880    96771541.38346
 15 02 24 00 32  0.0000000  0  7G16G18G21G22G27G29G31
  21235501.960   111593321.02709  21235499.100    86955833.64148
  22275062.940   117056267.01608  22275060.000    91212678.59847
  21498586.400   112975836.22907  21498582.540    88033110.30146
  23459359.060   123279789.81909  23459355.540    96062154.05447
  22487708.080   118173719.76908  22487709.120    92083425.21548
  24336128.140   127887196.48208  24336126.740    99652373.76146
  23650894.600   124286274.71008  23650891.200    96846429.45946
 15 02 24 00 32 30.0000000  0  7G16G18G21G22G27G29G31
  21224273.580   111534315.81009  21224270.640    86909855.55648
  22265130.880   117004075.63509  22265127.920    91172009.97846
  21507272.940   113021484.99907  21507269.300    88068680.79345
  23441523.840   123186063.10909  23441520.260    95989120.30546
  22475660.440   118110409.07708  22475661.300    92034092.23548
  24350641.320   127963462.63308  24350639.580    99711801.87646
  23669197.560   124382456.75208  23669194.740    96921376.44146
 15 02 24 00 33  0.0000000  0  7G16G18G21G22G27G29G31
  21213114.600   111475673.13509  21213111.240    86864159.98148
  22255269.320   116952254.14909  22255266.180    91131629.63346
  21516014.340   113067421.43907  21516010.840    88104475.43645
  23423705.540   123092426.95808  23423701.740    95916157.12446
  22463634.600   118047213.68608  22463635.080    91984849.10848
  24365160.960   128039764.11908  24365159.440    99771257.57346
  23687515.400   124478716.41608  23687513.100    96996383.91446
 15 02 24 00 33 30.0000000  0  7G16G18G21G22G27G29G31
  21202024.000   111417390.60809  21202020.480    86818745.03048
  22245478.000   116900800.85909  22245474.820    91091536.20046
  21524809.560   113113639.80207  21524805.840    88140489.78244
  23405904.020   122998880.18008  23405899.820    95843263.58746
  22451629.960   117984129.68908  22451630.620    91935692.76948
  24379686.440   128116097.05708  24379685.260    99830737.79046
  23705846.760   124575047.21208  23705844.580    97071446.79846
 15 02 24 00 34  0.0000000  0  7G16G18G21G22G27G29G31
  21191001.960   111359470.17209  21190998.860    86773612.20848
  22235757.160   116849716.69609  22235754.120    91051730.39747
  21533657.920   113160137.84006  21533654.020    88176722.05444
  23388119.860   122905424.54209  23388115.120    95770441.07446
  22439646.440   117921156.59208  22439647.100    91886622.83748
  24394217.860   128192460.55208  24394216.880    99890241.78646
  23724190.740   124671445.17308  23724188.800    97146562.04747
 15 02 24 00 34 30.0000000  0  7G16G18G21G22G27G29G31
  21180048.540   111301909.14709  21180045.500    86728759.44548
  22226106.200   116798999.37909  22226103.380    91012210.43147
  21542557.860   113206909.10906  21542553.740    88213167.20544
  23370352.840   122812058.35608  23370347.920    95697688.28446
  22427683.400   117858289.90109  22427683.760    91837635.84048
  24408754.280   128268850.09108  24408753.400    99949766.07546
  23742545.920   124767902.85408  23742544.760    97221723.83246
 15 02 24 00 35  0.0000000  0  7G16G18G21G22G27G29G31
  21169165.200   111244715.98109  21169161.800    86684193.36048
  22216526.360   116748656.77809  22216523.680    90972982.45447
  21551509.960   113253957.78305  21551506.700    88249828.49344
  23352604.000   122718790.10508  23352599.860    95625011.74546
  22415741.940   117795535.86009  22415742.040    91788736.64548
  24423296.580   128345271.59208  24423296.060   100009315.27845
  23760912.940   124864423.33908  23760912.600    97296934.57946
 15 02 24 00 35 30.0000000  0  7G16G18G21G22G27G29G31
  21158351.380   111187890.02509  21158347.780    86639913.39648
  22207017.520   116698688.61608  22207015.080    90934046.22647
  21560514.440   113301279.50605  21560511.840    88286702.51445
  23334873.980   122625620.34208  23334870.440    95552411.94447
  22403821.300   117732892.18708  22403821.260    91739923.44148
  24437844.680   128421722.80708  24437844.040   100068887.60645
  23779290.940   124961001.32408  23779290.440    97372190.08846
 15 02 24 00 36  0.0000000  0  7G16G18G21G22G27G29G31
  21147607.700   111131434.92609  21147604.500    86595922.41048
  22197580.360   116649098.21308  22197578.320    90895404.33347
  21569571.460   113348873.91806  21569568.900    88323789.04245
  23317164.120   122532553.08009  23317160.340    95479892.03947
  22391921.760   117670360.49709  22391921.740    91691197.45448
  24452398.820   128498204.85609  24452397.760   100128483.95146
  23797679.640   125057635.26508  23797678.240    97447489.22046
 15 02 24 00 36 30.0000000  0  7G16G18G21G22G27G29G31
  21136935.320   111075352.62809  21136932.600    86552221.91848
  22188215.560   116599887.64108  22188213.780    90857058.42347
  21578680.420   113396739.26207  21578677.520    88361086.70846
  23299474.380   122439590.80709  23299469.900    95407453.96546
  22380043.700   117607940.71008  22380043.580    91642558.70248
  24466958.760   128574717.40008  24466957.560   100188104.09246
  23816078.460   125154321.85608  23816076.120    97522829.34546
 15 02 24 00 37  0.0000000  0  7G16G18G21G22G27G29G31
  21126334.460   111019644.01609  21126331.840    86508812.62448
  22178923.320   116551056.92609  22178921.380    90819008.52747
  21587840.400   113444872.43607  21587837.000    88398593.08846
  23281804.340   122346734.68408  23281799.480    95335098.60047
  22368186.780   117545631.79109  22368186.580    91594006.31748
  24481524.360   128651259.42209  24481523.340   100247747.20846
  23834486.620   125251056.93708  23834483.420    97598207.25746
 15 02 24 00 37 30.0000000  0  7G16G18G21G22G27G29G31
  21115805.420   110964313.31409  21115802.680    86465697.78948
  22169704.480   116502610.51809  22169702.240    90781258.11847
  21597051.240   113493273.64907  21597047.340    88436308.30945
  23264155.120   122253989.66408  23264150.440    95262829.78846
  22356351.280   117483436.01108  22356350.980    91545542.11948
  24496095.920   128727832.78008  24496094.540   100307414.72145
  23852904.020   125347839.83708  23852900.040    97673622.42145
 15 02 24 00 38  0.0000000  0  7G16G18G21G22G27G29G31
  21105348.200   110909361.59409  21105345.480    86422878.25348
  22160559.020   116454549.44009  22160556.400    90743807.97147
  21606312.380   113541940.24607  21606307.880    88474230.30846
  23246527.460   122161357.34408  23246523.100    95190648.79646
  22344537.020   117421352.60908  22344537.180    91497165.44548
  24510673.180   128804436.45408  24510671.620   100367105.86346
  23871329.920   125444666.58008  23871325.620    97749071.75646
 15 02 24 00 38 30.0000000  0  7G16G18G21G22G27G29G31
  21094963.540   110854790.24009  21094960.840    86380355.12248
  22151487.080   116406875.05709  22151484.220    90706659.12547
  21615623.540   113590869.94907  21615618.920    88512357.36446
  23228922.020   122068839.96408  23228917.780    95118557.37247
  22332744.220   117359380.99608  22332745.240    91448875.91048
  24525256.140   128881069.81409  24525254.400   100426820.15346
  23889763.540   125541533.58408  23889759.540    97824552.45046
 15 02 24 00 39  0.0000000  0  7G16G18G21G22G27G29G31
  21084652.340   110800603.83709  21084649.600    86338131.94748
  22142489.440   116359591.20109  22142486.340    90669814.56548
  21624984.520   113640063.05107  21624980.100    88550689.63847
  23211339.380   121976442.62808  23211335.600    95046559.46647
  22320972.980   117297523.90508  22320974.500    91400675.55748
  24539845.160   128957735.40808  24539843.320   100486559.55246
  23908204.520   125638440.28208  23908201.380    97900064.09146
 15 02 24 00 39 30.0000000  0  8G16G18G19G21G22G27G29G31
  21074415.380   110746808.26509  21074412.580    86296213.29548
  22133567.240   116312704.14809  22133564.180    90633279.19347
  24542652.060   128972507.65106  24542651.040   100498049.06745
  21634395.900   113689521.51407  21634391.920    88589228.66546
  23193780.900   121884171.40209  23193777.540    94974659.81647
  22309223.960   117235785.28908  22309224.920    91352567.55347
  24554440.820   129034436.68108  24554439.180   100546326.74146
  23926652.820   125735387.52308  23926650.800    97975607.33846
 15 02 24 00 40  0.0000000  0  7G16G18G19G21G22G27G31
  21064246.900   110693372.23509  21064243.980    86254574.82448
  22124714.580   116266182.20509  22124711.580    90597028.34247
  24527219.600   128891407.50406  24527218.280   100434854.15745
  21643851.400   113739210.90307  21643847.540    88627947.67346
  23176240.620   121791996.03308  23176236.760    94902834.89646
  22297491.600   117174132.08808  22297491.880    91304526.12247
  23945101.620   125832339.29408  23945100.760    98051154.10146
 15 02 24 00 40 30.0000000  0  7G16G18G19G21G22G27G31
  21054155.980   110640342.43209  21054152.840    86213252.91548
  22115940.220   116220072.01409  22115937.420    90561098.34248
  24511802.860   128810388.13306  24511800.480   100371722.25045
  21653359.120   113789173.78408  21653355.140    88666879.78147
  23158727.420   121699963.54009  23158722.180    94831121.32547
  22285784.440   117112609.05709  22285784.260    91256586.11548
  23963559.240   125929337.14308  23963559.300    98126736.77346
 15 02 24 00 41  0.0000000  0  7G16G18G19G21G22G27G31
  21044136.540   110587689.01509  21044133.440    86172224.29848
  22107238.280   116174343.13209  22107235.560    90525465.44848
  24496395.680   128729417.58506  24496390.920   100308628.38043
  21662912.660   113839376.28108  21662908.400    88705998.62047
  23141235.900   121608044.67709  23141230.300    94759496.29647
  22274096.120   117051184.35309  22274095.360    91208722.72848
  23982019.120   126026346.19107  23982019.820    98202328.14747
 15 02 24 00 41 30.0000000  0  7G16G18G19G21G22G27G31
  21034191.000   110535425.02309  21034188.120    86131499.09548
  22098611.300   116129008.34009  22098608.540    90490139.62247
  24480999.840   128648506.77906  24480992.840   100245581.11544
  21672513.480   113889827.50608  21672508.760    88745311.25546
  23123768.640   121516253.19409  23123763.600    94687970.47547
  22262428.400   116989869.27209  22262427.720    91160944.75048
  24000482.760   126123374.32707  24000483.700    98277934.42146
 15 02 24 00 42  0.0000000  0  7G16G18G19G21G22G27G31
  21024323.580   110483570.92109  21024320.540    86091093.30348
  22090063.260   116084088.30209  22090060.260    90455137.02447
  24465618.500   128567674.31507  24465609.940   100182594.84144
  21682164.480   113940543.62707  21682159.740    88784830.32346
  23106329.620   121424610.26009  23106325.100    94616560.41947
  22250785.100   116928682.47209  22250784.680    91113266.73048
  24018953.280   126220437.38908  24018953.800    98353567.90445
 15 02 24 00 42 30.0000000  0  7G16G18G19G21G22G27G31
  21014534.460   110432128.12309  21014531.220    86051008.03048
  22081594.280   116039583.92709  22081590.900    90420458.34847
  24450251.180   128486919.62006  24450241.740   100119669.14744
  21691865.420   113991523.50708  21691860.960    88824554.89246
  23088919.020   121333117.47609  23088914.580    94545267.36747
  22239166.040   116867623.52309  22239166.000    91065688.33748
  24037429.960   126317531.88408  24037429.380    98429225.84045
 15 02 24 00 43  0.0000000  0  7G16G18G19G21G22G27G31
  21004823.040   110381094.79009  21004820.000    86011241.79648
  22073203.940   115995492.72909  22073200.520    90386101.60547
  24434897.220   128406238.80006  24434889.260   100056800.98445
  21701615.100   114042760.26807  21701611.100    88864479.64146
  23071536.980   121241774.13109  23071532.160    94474090.78046
  22227570.380   116806688.50709  22227570.720    91018206.50048
  24055911.340   126414650.53608  24055909.420    98504902.59545
 15 02 24 00 43 30.0000000  0  7G16G18G19G21G22G27G31
  20995188.380   110330464.79809  20995185.580    85971789.84548
  22064891.000   115951808.92509  22064887.960    90352062.24447
  24419555.920   128325623.99407  24419551.020    99993984.26344
  21711411.860   114094244.79107  21711408.420    88904597.42946
  23054182.380   121150574.81409  23054177.440    94403026.41046
  22215996.900   116745869.86209  22215997.080    90970815.34648
  24074395.280   126511782.87708  24074392.280    98580590.02145
 15 02 24 00 44  0.0000000  0  7G16G18G19G21G22G27G31
  20985630.780   110280238.99509  20985628.020    85932652.86248
  22056655.700   115908533.17509  22056652.960    90318340.86647
  24404227.300   128245074.17707  24404224.220    99931218.18844
  21721255.340   114145973.71308  21721252.520    88944905.69246
  23036855.300   121059520.88308  23036850.740    94332075.31347
  22204445.540   116685166.76309  22204445.420    90923514.24148
  24092881.040   126608924.87508  24092877.300    98656284.96745
 15 02 24 00 44 30.0000000  0  7G16G18G19G21G22G27G31
  20976151.180   110230422.52309  20976148.180    85893834.84648
  22048499.180   115865669.79209  22048496.080    90284940.88147
  24388911.460   128164592.10805  24388909.060    99868504.90644
  21731145.680   114197948.32907  21731143.260    88985405.40046
  23019556.840   120968617.77909  23019552.860    94261241.74847
  22192916.660   116624582.02409  22192916.400    90876305.34148
  24111368.420   126706075.93208  24111364.800    98731986.99146
 15 02 24 00 45  0.0000000  0  7G16G18G19G21G22G27G31
  20966749.220   110181014.25909  20966746.040    85855334.90648
  22040421.000   115823217.87409  22040417.700    90251861.49847
  24373608.120   128084175.23106  24373606.060    99805842.42945
  21741081.880   114250164.23207  21741079.440    89026093.09946
  23002287.220   120877865.34509  23002283.520    94190525.60347
  22181409.980   116564113.08009  22181409.260    90829186.69948
  24129856.640   126803230.75708  24129853.380    98807691.94145
 15 02 24 00 45 30.0000000  0  7G16G18G19G21G22G27G31
  20957424.360   110132011.67609  20957421.100    85817151.07748
  22032420.480   115781174.53109  22032417.260    90219100.44847
  24358316.540   128003818.46806  24358314.380    99743226.79445
  21751062.540   114302614.73307  21751060.060    89066963.60146
  22985045.860   120787261.27409  22985041.580    94119925.05446
  22169924.700   116503755.75509  22169923.240    90782155.04848
  24148344.420   126900382.02508  24148341.580    98883394.10146
 15 02 24 00 46  0.0000000  0  7G16G18G19G21G22G27G31
  20948178.420   110083423.90709  20948175.160    85779290.49648
  22024499.040   115739547.91109  22024496.200    90186664.11148
  24343037.900   127923529.35606  24343034.260    99680663.93345
  21761089.140   114355304.98207  21761086.200    89108020.93845
  22967834.500   120696816.00709  22967829.780    94049448.26647
  22158461.900   116443517.28609  22158460.380    90735215.99248
  24166832.360   126997533.79908  24166829.860    98959096.68246
 15 02 24 00 46 30.0000000  0  7G16G18G19G21G22G27G31
  20939008.500   110035236.41709  20939005.280    85741741.80348
  22016654.320   115698323.77609  22016651.640    90154541.40448
  24327769.260   127843291.37307  24327764.100    99618140.89545
  21771158.180   114408217.12708  21771154.800    89149251.19745
  22950650.720   120606515.66109  22950646.400    93979084.37247
  22147018.580   116383381.34109  22147016.960    90688356.82648
  24185316.800   127094666.65308  24185314.660    99034784.49746
 15 02 24 00 47  0.0000000  0  7G16G18G19G21G22G27G31
  20929918.600   109987469.64509  20929915.440    85704520.94148
  22008890.160   115657522.25909  22008887.520    90122748.03748
  24312513.800   127763122.84807  24312508.580    99555671.96245
  21781272.580   114461367.38408  21781269.160    89190666.98146
  22933498.800   120516381.23509  22933494.600    93908849.77547
  22135598.180   116323366.76509  22135596.580    90641592.24648
  24203800.560   127191796.15408  24203798.760    99110469.68346
 15 02 24 00 47 30.0000000  0  7G16G18G19G21G22G27G31
  20920908.700   109940122.17509  20920905.500    85667626.80749
  22001205.900   115617141.41109  22001203.140    90091282.45347
  24297270.880   127683020.79507  24297266.200    99493254.79045
  21791431.440   114514750.73008  21791427.880    89232264.40646
  22916378.420   120426411.51709  22916373.860    93838743.54747
  22124199.900   116263470.21009  22124198.620    90594919.60348
  24222282.320   127288915.78108  24222280.740    99186147.17646
 15 02 24 00 48  0.0000000  0  7G16G18G19G21G22G27G31
  20911979.720   109893199.29309  20911976.540    85631063.51849
  21993602.540   115577186.40109  21993599.920    90060148.69447
  24282041.500   127602988.91407  24282037.120    99430892.32046
  21801635.020   114568369.10508  21801631.240    89274044.95046
  22899290.380   120336613.23409  22899285.840    93768770.88347
  22112825.000   116203695.54009  22112824.100    90548341.97148
  24240762.220   127386026.69008  24240760.520    99261817.85846
 15 02 24 00 48 30.0000000  0  7G16G18G19G21G22G27G31
  20903130.280   109846694.43309  20903127.080    85594825.95948
  21986078.980   115537650.43109  21986076.360    90029341.48147
  24266824.020   127523018.11807  24266820.200    99368577.41845
  21811881.420   114622212.20108  21811877.340    89316000.62146
  22882233.500   120246979.91509  22882228.900    93698926.76747
  22101471.840   116144034.38108  22101471.240    90501852.77548
  24259238.060   127483117.09908  24259235.900    99337472.56046
 15 02 24 00 49  0.0000000  0  7G16G18G19G21G22G27G31
  20894362.500   109800618.76109  20894359.180    85558922.81749
  21978637.160   115498543.86509  21978634.680    89998868.85348
  24251620.100   127443117.58207  24251616.600    99306317.24645
  21822171.660   114676286.54007  21822167.180    89358136.47247
  22865210.300   120157523.77509  22865205.920    93629220.71347
  22090142.100   116084496.10909  22090141.500    90455459.33048
  24277710.980   127580193.11408  24277708.460    99413116.04346
 15 02 24 00 49 30.0000000  0  7G16G18G19G21G22G27G31
  20885675.780   109754969.29009  20885672.380    85523351.81548
  21971276.460   115459863.65109  21971274.140    89968728.40847
  24236428.940   127363282.93308  24236424.880    99244108.49445
  21832504.420   114730586.54307  21832500.080    89400448.16246
  22848220.580   120068242.84009  22848216.500    93559651.16947
  22078835.040   116025076.44308  22078834.180    90409158.32748
  24296179.600   127677247.56508  24296177.360    99488742.74345
 15 02 24 00 50  0.0000000  0  7G16G18G19G21G22G27G31
  20877071.260   109709751.94809  20877067.840    85488117.53749
  21963998.000   115421615.28309  21963995.740    89938924.48647
  24221250.820   127283517.95108  24221245.540    99181954.03445
  21842880.140   114785113.59206  21842876.520    89442936.76246
  22831265.520   119979143.09109  22831261.900    93490222.82048
  22067551.020   115965779.19008  22067550.480    90362952.67148
  24314644.240   127774281.14108  24314642.500    99564353.12646
 15 02 24 00 50 30.0000000  0  7G16G18G19G21G22G27G31
  20868550.960   109664977.33009  20868547.560    85453228.21848
  21956803.760   115383808.85809  21956801.240    89909464.95147
  24206086.860   127203831.68807  24206080.620    99119860.86545
  21853299.780   114839874.70306  21853297.560    89485607.68646
  22814347.100   119890236.09709  22814344.120    93420944.64548
  22056291.760   115906613.52308  22056291.800    90316849.55648
  24333106.120   127871299.86108  24333104.640    99639951.95946
 15 02 24 00 51  0.0000000  0  7G16G18G19G21G22G27G31
  20860112.400   109620632.72109  20860109.160    85418673.96748
  21949691.200   115346431.43009  21949688.380    89880339.71346
  24190934.480   127124209.64307  24190927.360    99057817.77044
  21863761.360   114894853.58106  21863759.760    89528448.32946
  22797462.920   119801509.58409  22797459.720    93351807.12347
  22045054.860   115847565.22009  22045055.340    90270837.88948
  24351561.880   127968286.23008  24351560.360    99715525.54145
 15 02 24 00 51 30.0000000  0  7G16G18G19G21G22G27G31
  20851755.780   109576719.05409  20851752.720    85384455.53048
  21942660.200   115309483.26209  21942657.220    89851548.95047
  24175794.000   127044650.37907  24175786.800    98995823.60245
  21874264.600   114950047.87507  21874262.840    89571456.87047
  22780613.600   119712965.94109  22780609.360    93282812.12147
  22033840.480   115788633.38709  22033841.380    90224917.00348
  24370010.840   128065236.49008  24370009.160    99791070.99946
 15 02 24 00 52  0.0000000  0  7G16G18G19G21G22G27G31
  20843482.680   109533243.54109  20843479.500    85350578.51548
  21935712.200   115272971.65709  21935709.260    89823098.36047
  24160667.020   126965159.81708  24160661.260    98933882.92145
  21884809.780   115005461.39907  21884807.620    89614636.24147
  22763800.780   119624612.90909  22763795.920    93213965.66447
  22022649.680   115729823.93609  22022650.360    90179091.48348
  24388453.500   128162153.46708  24388451.780    99866590.52546
 15 02 24 00 52 30.0000000  0  7G16G18G19G21G22G27G31
  20835291.780   109490199.45409  20835288.360    85317037.67848
  21928845.840   115236889.44809  21928843.120    89794982.35647
  24145552.060   126885729.18108  24145547.680    98871988.94545
  21895394.600   115061083.31408  21895392.140    89657977.98946
  22747023.020   119536444.23409  22747018.080    93145262.83747
  22011480.560   115671128.40809  22011480.300    90133354.76048
  24406887.660   128259025.45608  24406885.980    99942074.96245
 15 02 24 00 53  0.0000000  0  7G16G18G19G21G22G27G31
  20827185.100   109447598.01109  20827181.680    85283841.75049
  21922063.300   115201247.26809  21922060.780    89767209.23448
  24130450.380   126806368.17107  24130446.920    98810149.22046
  21906020.540   115116920.69607  21906017.680    89701487.67046
  22730282.520   119448472.15709  22730278.040    93076713.18848
  22000334.700   115612556.47609  22000333.960    90087714.31048
  24425314.600   128355858.99808  24425312.880   100017529.48246
 15 02 24 00 53 30.0000000  0  7G16G18G19G21G22G27G31
  20819164.420   109405449.12709  20819161.120    85250998.46049
  21915366.460   115166054.60809  21915363.760    89739786.38048
