     2.11           OBSERVATION DATA    G                   RINEX VERSION / TYPE
SPIDER V4,0,0,3554                      2015 03 24 00:50    PGM / RUN BY / DATE 
CFKZ                                                        MARKER NAME         
CFKZ                                                        MARKER NUMBER       
                                                            OBSERVER / AGENCY   
496632              LEICA GRX1200+GNSS  8.10/4.007          REC # / TYPE / VERS 
10301036            LEIAR25         NONE                    ANT # / TYPE        
  5212138.8290   540257.5452  3624418.8863                  APPROX POSITION XYZ 
        0.0720        0.0000        0.0000                  ANTENNA: DELTA H/E/N
     1     1                                                WAVELENGTH FACT L1/2
     4    C1    L1    P2    L2                              # / TYPES OF OBSERV 
    30.000                                                  INTERVAL            
  2015    02    24    00    00    0.0000000     GPS         TIME OF FIRST OBS   
  2015    02    24    23    59   30.0000000     GPS         TIME OF LAST OBS    
    16                                                      LEAP SECONDS        
    30                                                      # OF SATELLITES     
   G 1   820   820   820   820                              PRN / # OF OBS      
   G 2   924   924   924   924                              PRN / # OF OBS      
   G 3   855   855   854   854                              PRN / # OF OBS      
   G 4   844   844   844   844                              PRN / # OF OBS      
   G 5   614   614   614   614                              PRN / # OF OBS      
   G 6   781   781   781   781                              PRN / # OF OBS      
   G 7   669   669   669   669                              PRN / # OF OBS      
   G 9   809   809   809   809                              PRN / # OF OBS      
   G10   715   715   714   714                              PRN / # OF OBS      
   G11   783   783   783   783                              PRN / # OF OBS      
   G12   796   796   796   796                              PRN / # OF OBS      
   G13   778   778   778   778                              PRN / # OF OBS      
   G14   937   937   937   937                              PRN / # OF OBS      
   G15   700   700   700   700                              PRN / # OF OBS      
   G16   673   673   673   673                              PRN / # OF OBS      
   G17   934   934   934   934                              PRN / # OF OBS      
   G18   909   908   908   908                              PRN / # OF OBS      
   G19   762   762   762   762                              PRN / # OF OBS      
   G20   748   748   748   748                              PRN / # OF OBS      
   G21   738   738   738   738                              PRN / # OF OBS      
   G22   662   662   662   662                              PRN / # OF OBS      
   G23   752   752   752   752                              PRN / # OF OBS      
   G24   832   832   832   832                              PRN / # OF OBS      
   G25   851   851   851   851                              PRN / # OF OBS      
   G27   815   815   815   815                              PRN / # OF OBS      
   G28   851   850   850   850                              PRN / # OF OBS      
   G29   751   751   751   751                              PRN / # OF OBS      
   G30   716   716   716   716                              PRN / # OF OBS      
   G31   850   850   850   850                              PRN / # OF OBS      
   G32   768   768   768   768                              PRN / # OF OBS      
BIT 2 OF LLI FLAGS DATA COLLECTED UNDER A/S CONDITION       COMMENT             
SNR is mapped to RINEX snr flag value [2-9]                 COMMENT             
Lx:     = 25dBHz -> 1; 26-27dBHz -> 2; 28-31dBHz -> 3       COMMENT             
       32-35dBHz -> 4; 36-38dBHz -> 5; 39-41dBHz -> 6       COMMENT             
       42-44dBHz -> 7; 45-48dBHz -> 8; >=49dBHz -> 9        COMMENT             
                                                            END OF HEADER       
 15 02 24 00 00  0.0000000  0  8G16G18G21G22G25G27G29G31
  22240431.880   116874273.81309  22240428.780    91070851.33447
  22851472.820   120085334.07809  22851470.040    93573001.24046
  21079080.660   110771320.69108  21079076.960    86315302.07948
  24393762.020   128190100.61007  24393758.760    99888377.39045
  24298431.420   127689103.52208  24298432.240    99498000.64245
  23404880.040   122993492.36808  23404879.800    95839091.07246
  23425856.940   123103693.95908  23425854.000    95924943.82447
  22414701.220   117790037.71609  22414698.180    91784430.15048
 15 02 24 00 00 30.0000000  0  8G16G18G21G22G25G27G29G31
  22225311.220   116794814.04509  22225308.020    91008934.65447
  22838546.860   120017407.93109  22838544.060    93520071.80746
  21084329.400   110798903.01908  21084325.740    86336794.80048
  24375987.340   128096695.03008  24375983.900    99815594.06045
  24316918.320   127786251.40208  24316918.960    99573700.24245
  23392020.940   122925917.52508  23392020.860    95786435.38346
  23439356.880   123174635.93908  23439353.980    95980223.26346
  22430310.860   117872066.64909  22430307.800    91848348.78148
 15 02 24 00 01  0.0000000  0  8G16G18G21G22G25G27G29G31
  22210228.260   116715552.41909  22210224.980    90947172.34847
  22825665.140   119949714.42509  22825662.300    93467323.65746
  21089649.240   110826859.18808  21089645.640    86358578.84048
  24358201.680   128003231.03408  24358198.200    99742765.13645
  24335438.820   127883576.16708  24335439.260    99649537.69245
  23379179.980   122858437.97708  23379179.520    95733853.93146
  23452863.300   123245612.52709  23452860.460    96035529.64746
  22445973.540   117954374.36209  22445970.500    91912484.62648
 15 02 24 00 01 30.0000000  0  8G16G18G21G22G25G27G29G31
  22195181.920   116636483.32409  22195178.620    90885560.08347
  22812826.580   119882248.13009  22812823.800    93414752.54146
  21095038.320   110855179.09408  21095034.720    86380646.30748
  24340403.840   127909702.73808  24340400.360    99669886.09645
  24353991.040   127981068.46008  24353991.340    99725505.65545
  23366355.560   122791045.54509  23366355.340    95681340.42746
  23466374.720   123316615.64708  23466372.000    96090856.75246
  22461687.180   118036950.06309  22461684.220    91976829.30848
 15 02 24 00 02  0.0000000  0  8G16G18G21G22G25G27G29G31
  22180173.140   116557611.71309  22180169.860    90824101.72147
  22800032.300   119815014.40009  22800029.560    93362362.64646
  21100496.920   110883864.65108  21100493.400    86402998.68548
  24322594.820   127816115.81608  24322591.540    99596961.37245
  24372575.160   128078729.80508  24372575.580    99801605.36645
  23353548.300   122723743.09208  23353547.920    95628896.98646
  23479891.600   123387648.37108  23479889.080    96146206.91246
  22477451.840   118119793.77209  22477448.920    92041382.82348
 15 02 24 00 02 30.0000000  0  8G16G18G21G22G25G27G29G31
  22165202.440   116478940.16709  22165199.160    90762799.24047
  22787282.880   119748016.03408  22787280.060    93310156.16446
  21106024.840   110912914.21608  21106021.340    86425634.71948
  24304775.060   127722473.01308  24304771.760    99523993.08245
  24391191.280   128176559.24807  24391191.960    99877836.04945
  23340758.260   122656530.88908  23340758.220    95576523.89247
  23493414.060   123458710.75808  23493411.900    96201580.16646
  22493267.000   118202903.05609  22493264.140    92106143.27948
 15 02 24 00 03  0.0000000  0  8G16G18G21G22G25G27G29G31
  22150270.320   116400471.44409  22150267.000    90701654.79347
  22774579.000   119681256.80709  22774576.180    93258136.01446
  21111622.060   110942327.76908  21111618.540    86448554.36848
  24286945.260   127628777.68307  24286941.940    99450983.86945
  24409839.340   128274556.27707  24409840.320    99954197.34445
  23327985.580   122589409.76808  23327985.200    95524221.72247
  23506942.280   123529803.11308  23506940.400    96256976.75946
  22509132.280   118286275.76509  22509129.420    92171109.00448
 15 02 24 00 03 30.0000000  0  8G16G18G21G22G25G27G29G31
  22135376.860   116322205.83109  22135373.540    90640668.62147
  22761920.780   119614737.27009  22761917.920    93206302.63546
  21117287.680   110972100.89008  21117284.220    86471754.20748
  24269105.420   127535030.04908  24269102.420    99377933.95245
  24428518.620   128372717.33608  24428519.820   100030686.43245
  23315229.760   122522377.43208  23315229.420    95471988.80946
  23520475.980   123600923.86008  23520474.440    96312395.53546
  22525046.660   118369906.66709  22525043.760    92236275.91447
 15 02 24 00 04  0.0000000  0  8G16G18G21G22G25G27G29G31
  22120522.520   116244145.87309  22120519.240    90579842.70347
  22749308.580   119548459.96409  22749305.740    93154658.02046
  21123021.660   111002233.19808  21123018.140    86495233.93348
  24251256.400   127441233.33108  24251253.300    99304845.70246
  24447229.080   128471041.63008  24447230.180   100107302.72045
  23302490.780   122455434.30208  23302490.700    95419825.37647
  23534015.280   123672073.30908  23534013.740    96367836.63146
  22541009.780   118453793.62109  22541006.840    92301642.34548
 15 02 24 00 04 30.0000000  0  8G16G18G21G22G25G27G29G31
  22105707.960   116166294.73809  22105704.660    90519179.49747
  22736743.260   119482428.93809  22736740.520    93103205.29546
  21128823.840   111032723.93808  21128820.260    86518992.95048
  24233398.520   127347390.73408  24233395.560    99231721.76245
  24465970.640   128569528.52807  24465971.700   100184045.69145
  23289768.820   122388581.16308  23289768.600    95367732.08047
  23547560.160   123743251.39809  23547558.500    96423300.05346
  22557021.260   118537934.48209  22557018.300    92367206.61347
 15 02 24 00 05  0.0000000  0  8G16G18G21G22G25G27G29G31
  22090933.200   116088652.73409  22090929.900    90458679.26347
  22724224.840   119416644.36809  22724222.160    93051944.61946
  21134693.560   111063569.67209  21134689.960    86543028.58648
  24215532.120   127253502.91208  24215529.220    99158562.54344
  24484742.580   128668175.03108  24484743.520   100260913.07245
  23277063.760   122321816.31508  23277063.960    95315707.57347
  23561110.300   123814457.31208  23561108.900    96478785.16946
  22573080.260   118622324.77309  22573077.220    92432965.26447
 15 02 24 00 05 30.0000000  0  8G16G18G21G22G25G27G29G31
  22076199.000   116011223.78809  22076195.700    90398345.04247
  22711754.340   119351111.23009  22711751.660    93000879.86946
  21140630.900   111094770.35208  21140627.240    86567340.80948
  24197658.100   127159574.56508  24197655.100    99085371.73845
  24503544.920   128766981.57708  24503545.960   100337905.13345
  23264376.080   122255141.56808  23264376.000    95263753.24547
  23574666.040   123885692.80208  23574664.580    96534293.31246
  22589186.460   118706963.26009  22589183.420    92498917.30947
 15 02 24 00 06  0.0000000  0  8G16G18G21G22G25G27G29G31
  22061505.920   115934010.71109  22061502.520    90338179.04147
  22699332.160   119285831.91009  22699329.540    92950012.89546
  21146635.540   111126324.73008  21146631.760    86591928.64248
  24179776.960   127065608.37208  24179773.860    99012151.46345
  24522377.280   128865947.10607  24522378.660   100415021.06644
  23251705.440   122188556.99809  23251705.520    95211869.23547
  23588227.420   123956957.31809  23588225.280    96589824.09846
  22605339.460   118791847.54609  22605336.420    92565060.88348
 15 02 24 00 06 30.0000000  0  8G16G18G21G22G25G27G29G31
  22046854.080   115857014.46809  22046850.560    90278181.97847
  22686958.660   119220808.25609  22686956.020    92899345.15046
  21152707.100   111158231.01208  21152703.340    86616790.68648
  24161888.820   126971605.74108  24161885.600    98938902.76846
  24541239.620   128965069.10908  24541240.900   100492258.96145
  23239051.640   122122061.57609  23239051.880    95160054.68547
  23601794.140   124028250.30308  23601791.780    96645377.06346
  22621538.420   118876973.50509  22621535.440    92631392.76947
 15 02 24 00 07  0.0000000  0  8G16G18G21G22G25G27G29G31
  22032244.000   115780237.68509  22032240.340    90218355.94647
  22674634.260   119156042.72109  22674631.520    92848878.52246
  21158845.200   111190487.09508  21158841.460    86641925.29648
  24143994.320   126877569.41108  24143990.960    98865627.82145
  24560131.600   129064346.37207  24560132.960   100569617.81945
  23226414.780   122055655.44508  23226415.000    95108309.70547
  23615366.200   124099571.64208  23615364.200    96700952.12047
  22637782.880   118962338.44609  22637779.960    92697910.87647
 15 02 24 00 07 30.0000000  0  8G16G18G21G22G25G27G29G31
  22017675.600   115703680.14509  22017671.820    90158700.73747
  22662359.020   119091535.72609  22662356.100    92798613.35346
  21165049.200   111223089.51608  21165045.440    86667329.78448
  24126093.560   126783500.16408  24126090.160    98792327.21146
  24579052.500   129163775.65808  24579053.800   100647095.11545
  23213794.720   121989336.69308  23213795.120    95056632.80047
  23628943.180   124170919.39508  23628941.300    96756547.75346
  22654071.920   119047937.64509  22654069.080    92764611.52447
 15 02 24 00 08  0.0000000  0  8G16G18G21G22G25G27G29G31
  22003149.860   115627346.92909  22003146.020    90099220.31947
  22650133.980   119027292.81209  22650130.920    92748553.97546
  21171319.440   111256039.60009  21171315.620    86693005.18048
  24108187.520   126689403.26508  24108184.060    98719005.07346
  24598002.520   129263358.26808  24598003.540   100724691.90845
  23201191.880   121923107.94308  23201191.980    95005025.97847
  23642525.640   124242296.35608  23642523.620    96812166.13946
  22670405.500   119133771.00809  22670402.740    92831494.64447
 15 02 24 00 08 30.0000000  0  8G16G18G21G22G25G27G29G31
  21988667.520   115551241.79709  21988663.660    90039917.64047
  22637959.920   118963318.16009  22637956.780    92698703.61746
  21177655.860   111289337.44409  21177652.000    86718951.55248
  24090276.920   126595282.52708  24090273.380    98645664.35145
  24616981.640   129363094.14807  24616982.520   100802408.09945
  23188606.460   121856970.63608  23188606.420    94953490.44947
  23656113.900   124313704.06708  23656112.160    96867808.45846
  22686783.280   119219836.87609  22686780.540    92898558.90947
 15 02 24 00 09  0.0000000  0  8G16G18G21G22G25G27G29G31
  21974228.200   115475362.97609  21974224.360    89980791.31247
  22625836.540   118899609.86209  22625833.400    92649060.82046
  21184057.260   111322977.09608  21184053.380    86745164.27848
  24072361.440   126501136.45908  24072357.980    98572303.88945
  24635989.020   129462977.77108  24635989.860   100880239.45944
  23176037.600   121790920.51308  23176037.300    94902022.86647
  23669707.260   124385138.13908  23669705.620    96923471.35146
  22703203.860   119306128.07609  22703201.220    92965798.78947
 15 02 24 00 09 30.0000000  0  8G16G18G21G22G25G27G29G31
  21959832.400   115399712.81809  21959828.620    89921843.14147
  22613764.440   118836170.82209  22613761.360    92599627.82246
  21190523.520   111356957.33809  21190519.560    86771642.38748
  24054441.480   126406968.01008  24054438.160    98498926.01245
  24655024.260   129563008.13908  24655024.980   100958185.13645
  23163485.340   121724957.95509  23163485.080    94850623.51347
  23683305.900   124456598.85208  23683304.020    96979155.01746
  22719666.820   119392642.23809  22719664.320    93033212.39547
 15 02 24 00 10  0.0000000  0  8G16G18G21G22G25G27G29G31
  21945480.800   115324294.97109  21945477.100    89863076.01548
  22601744.440   118773005.00909  22601741.340    92550407.72147
  21197054.480   111391277.62309  21197050.500    86798385.47448
  24036518.020   126312781.03508  24036514.720    98425533.65046
  24674087.440   129663184.88207  24674088.240   101036244.88545
  23150949.900   121659084.08109  23150949.520    94799293.27647
  23696909.880   124528087.31608  23696907.900    97034860.30246
  22736171.960   119479377.66709  22736169.480    93100798.41547
 15 02 24 00 10 30.0000000  0  8G16G18G21G22G25G27G29G31
  21931174.260   115249113.91409  21931170.680    89804493.38947
  22589777.280   118710116.93609  22589774.100    92501404.03546
  21203650.240   111425938.56209  21203646.320    86825393.99248
  24018591.780   126218580.17008  24018588.840    98352130.50346
  24693178.600   129763508.88808  24693179.340   101114419.39845
  23138431.680   121593301.16808  23138431.200    94748033.89947
  23710519.640   124599605.76608  23710517.540    97090588.96246
  22752719.100   119566333.28809  22752716.600    93168556.01547
 15 02 24 00 11  0.0000000  0  8G16G18G21G22G25G27G29G31
  21916913.000   115174170.83909  21916909.520    89746096.20647
  22577863.200   118647508.06509  22577859.940    92452617.92747
  21210310.380   111460937.54809  21210306.480    86852665.94148
  24000663.300   126124367.48208  24000660.560    98278718.11146
  24712297.340   129863977.96708  24712298.080   101192706.90245
  23125930.720   121527608.43208  23125930.440    94696844.77647
  23724134.800   124671153.28208  23724132.740    97146340.22046
  22769307.560   119653505.87909  22769305.020    93236482.68547
 15 02 24 00 11 30.0000000  0  8G16G18G21G22G25G27G29G31
  21902696.900   115099465.08709  21902693.500    89687883.95048
  22566002.200   118585178.20509  22565998.980    92404049.23547
  21217034.020   111496270.58509  21217030.160    86880198.17448
  23982732.740   126030142.62508  23982730.240    98205296.24546
  24731442.860   129964587.76507  24731443.580   101271104.06545
  23113446.340   121462002.89608  23113446.000    94645723.59847
  23737755.040   124742727.71908  23737752.820    97202112.51746
  22785936.200   119740889.54709  22785933.660    93304573.81847
 15 02 24 00 12  0.0000000  0  8G16G18G21G22G25G27G29G31
  21888526.960   115025001.92809  21888523.600    89629860.72648
  22554195.240   118523132.52109  22554192.040    92355701.97447
  21223821.340   111531938.43208  21223817.560    86907991.30748
  23964800.900   125935910.54308  23964798.280    98131868.73746
  24750615.360   130065339.42807  24750616.180   101349611.79945
  23100979.060   121396487.15508  23100978.780    94594672.41647
  23751380.580   124814331.05908  23751378.380    97257907.30046
  22802604.840   119828483.88108  22802602.380    93372829.11247
 15 02 24 00 12 30.0000000  0  8G16G18G21G22G25G27G29G31
  21874403.640   114950783.87409  21874400.320    89572028.49448
  22542442.980   118461374.02009  22542439.800    92307578.49746
  21230672.300   111567940.46709  21230668.500    86936044.84848
  23946868.460   125841674.86708  23946865.780    98058438.44245
  24769814.680   130166232.24907  24769815.880   101428229.49245
  23088528.920   121331061.91908  23088529.000    94543691.76147
  23765011.680   124885963.96308  23765009.800    97313725.15046
  22819313.080   119916286.63408  22819310.680    93441246.80947
 15 02 24 00 13  0.0000000  0  8G16G18G21G22G25G27G29G31
  21860326.880   114876810.34809  21860323.600    89514386.79648
  22530745.060   118399901.29009  22530741.940    92259677.70646
  21237585.820   111604271.30209  21237582.000    86964354.59948
  23928935.240   125747434.60508  23928932.340    97985004.54445
  24789039.780   130267261.22007  24789040.940   101506953.29445
  23076095.380   121265723.74008  23076095.240    94492778.91347
  23778647.900   124957623.12708  23778646.260    97369563.41946
  22836059.800   120004291.27609  22836057.420    93509821.82047
 15 02 24 00 13 30.0000000  0  8G16G18G21G22G25G27G29G31
  21846297.720   114803086.63809  21846294.440    89456939.77048
  22519102.840   118338721.55009  22519099.800    92212005.19547
  21244562.300   111640933.05708  21244558.600    86992922.20348
  23911002.260   125653196.01508  23910999.200    97911571.97646
  24808291.240   130368428.61407  24808292.540   101585784.95244
  23063679.100   121200476.17408  23063679.320    94441936.68947
  23792289.720   125029312.02708  23792288.400    97425424.83946
  22852845.160   120092498.75209  22852842.740    93578554.88547
 15 02 24 00 14  0.0000000  0  7G16G18G21G22G27G29G31
  21832315.640   114729610.27809  21832312.360    89399685.46748
  22507515.840   118277832.02709  22507512.880    92164558.83447
  21251600.420   111677918.95808  21251596.800    87021742.38348
  23893069.260   125558957.14608  23893066.060    97838139.17146
  23051279.260   121135314.52708  23051279.580    94391161.38047
  23805936.440   125101026.04008  23805935.420    97481305.88346
  22869667.640   120180901.18109  22869665.100    93647439.86947
 15 02 24 00 14 30.0000000  0  7G16G18G21G22G27G29G31
  21818381.940   114656387.97509  21818378.620    89342629.15448
  22495985.340   118217239.19809  22495982.460    92117343.67347
  21258700.880   111715232.30809  21258697.260    87050817.73648
  23875137.480   125464724.68808  23875134.100    97764711.38846
  23038896.600   121070243.04408  23038896.620    94340456.35347
  23819588.720   125172769.64208  23819587.740    97537209.94746
  22886527.620   120269500.28809  22886524.920    93716478.10747
 15 02 24 00 15  0.0000000  0  7G16G18G21G22G27G29G31
  21804496.480   114583419.41409  21804493.140    89285770.53948
  22484511.340   118156942.87309  22484508.400    92070359.54347
  21265862.720   111752868.16009  21265859.080    87080144.37148
  23857206.960   125370498.52308  23857203.400    97691288.46246
  23026530.640   121005259.00209  23026530.720    94289819.48247
  23833246.160   125244539.71908  23833244.980    97593134.67046
  22903423.860   120358289.96109  22903421.000    93785664.83347
 15 02 24 00 15 30.0000000  0  7G16G18G21G22G27G29G31
  21790659.820   114510707.31709  21790656.440    89229111.77648
  22473094.460   118096945.91809  22473091.280    92023608.69547
  21273085.720   111790825.46309  21273082.060    87109721.49648
  23839278.240   125276281.90908  23839274.560    97617873.01546
  23014181.380   120940362.86409  23014181.300    94239251.10247
  23846908.880   125316337.12708  23846907.500    97649080.66346
  22920355.900   120447267.97009  22920352.980    93854998.31147
 15 02 24 00 16  0.0000000  0  7G16G18G21G22G27G29G31
  21776872.920   114438256.34509  21776869.440    89172656.48048
  22461735.380   118037252.96109  22461732.080    91977094.72547
  21280370.140   111829105.29309  21280366.420    87139549.93448
  23821352.260   125182080.07508  23821348.440    97544469.08046
  23001849.320   120875557.16008  23001848.960    94188753.18347
  23860577.160   125388164.16608  23860575.420    97705049.80146
  22937323.600   120536433.80609  22937320.780    93924478.14947
 15 02 24 00 16 30.0000000  0  7G16G18G21G22G27G29G31
  21763136.080   114366068.52709  21763132.540    89116406.24048
  22450434.540   117977866.59909  22450431.260    91930819.66247
  21287715.580   111867705.46009  21287711.760    87169627.99648
  23803429.380   125087895.18608  23803425.640    97471078.33746
  22989534.420   120810841.73208  22989534.220    94138325.61847
  23874250.980   125460020.82908  23874249.080    97761041.94946
  22954326.420   120625784.44408  22954323.740    93994101.99647
 15 02 24 00 17  0.0000000  0  7G16G18G21G22G27G29G31
  21749448.780   114294140.98609  21749445.160    89060358.80948
  22439191.540   117918784.35309  22439188.300    91884781.56547
  21295120.740   111906619.54108  21295116.840    87199950.66148
  23785509.300   124993725.09508  23785505.640    97397699.15646
  22977235.680   120746211.53008  22977235.420    94087964.43247
  23887929.600   125531902.02108  23887927.380    97817053.30446
  22971362.860   120715311.78709  22971360.300    94063863.52147
 15 02 24 00 17 30.0000000  0  7G16G18G21G22G27G29G31
  21735813.100   114222485.02209  21735809.460    89004523.01248
  22428008.460   117860016.90809  22428005.300    91838988.77347
  21302586.900   111945854.44609  21302582.940    87230523.31548
  23767594.240   124899581.10008  23767590.420    97324340.27146
  22964954.760   120681675.29808  22964954.260    94037676.46747
  23901614.420   125603816.70308  23901612.300    97873090.65146
  22988434.040   120805021.58608  22988431.460    94133767.23147
 15 02 24 00 18  0.0000000  0  7G16G18G21G22G27G29G31
  21722227.700   114151093.56509  21722224.140    88948893.32248
  22416884.060   117801557.84409  22416880.960    91793436.29947
  21310111.980   111985399.15809  21310108.020    87261337.37548
  23749682.840   124805456.66708  23749679.080    97250996.65646
  22952689.960   120617223.78608  22952689.600    93987454.53447
  23915303.680   125675755.32508  23915301.700    97929146.68546
  23005537.660   120894901.75709  23005535.080    94203803.69047
 15 02 24 00 18 30.0000000  0  7G16G18G21G22G27G29G31
  21708693.880   114079973.19509  21708690.360    88893474.85348
  22405819.460   117743413.24109  22405816.420    91748128.82847
  21317696.480   112025256.08509  21317692.480    87292394.71648
  23731776.440   124711358.40508  23731772.780    97177673.42846
  22940442.120   120552861.18908  22940441.880    93937301.89247
  23928998.460   125747722.23708  23928996.660    97985224.79045
  23022673.960   120984953.48509  23022671.340    94273973.82847
 15 02 24 00 19  0.0000000  0  7G16G18G21G22G27G29G31
  21695212.380   114009127.64409  21695208.900    88838270.53948
  22394815.580   117685587.39309  22394812.540    91703069.75547
  21325340.560   112065425.50709  21325336.480    87323695.56948
  23713875.920   124617290.83408  23713872.220    97104374.07846
  22928211.460   120488589.06008  22928211.180    93887219.74247
  23942699.060   125819719.02608  23942697.580    98041326.15245
  23039842.680   121075175.18409  23039839.920    94344276.42447
 15 02 24 00 19 30.0000000  0  7G16G18G21G22G27G29G31
  21681782.900   113938555.26409  21681779.460    88783279.09248
  22383872.020   117628078.37709  22383868.920    91658257.56347
  21333043.040   112105901.77409  21333038.900    87355235.52448
  23695980.860   124523252.33408  23695977.120    97031097.42946
  22915997.300   120424403.33708  22915997.160    93837204.93047
  23956404.760   125891741.68108  23956403.260    98097447.66446
  23057042.480   121165560.13109  23057039.580    94414706.22747
 15 02 24 00 20  0.0000000  0  7G16G18G21G22G27G29G31
  21668406.240   113868260.51209  21668402.820    88728503.96448
  22372989.680   117570891.08909  22372986.540    91613696.05047
  21340803.960   112146685.45809  21340799.780    87387015.01248
  23678092.440   124429248.41508  23678088.560    96957847.66746
  22903800.180   120360306.75708  22903800.080    93787259.57647
  23970115.860   125963792.78408  23970114.260    98153591.35446
  23074273.300   121256107.97909  23074270.300    94485262.94447
 15 02 24 00 20 30.0000000  0  7G16G18G21G22G27G29G31
  21655082.580   113798244.34009  21655079.160    88673945.90848
  22362168.680   117514026.29509  22362165.480    91569385.85047
  21348622.720   112187773.25409  21348618.520    87419031.46948
  23660210.760   124335279.87308  23660206.800    96884625.53146
  22891619.780   120296297.72709  22891619.440    93737382.43047
  23983832.060   126035871.02108  23983830.380    98209756.18046
  23091534.140   121346813.98509  23091531.160    94555942.92647
 15 02 24 00 21  0.0000000  0  7G16G18G21G22G27G29G31
  21641813.200   113728513.22009  21641809.740    88619609.97548
  22351410.180   117457490.36609  22351406.980    91525331.89447
  21356499.820   112229167.55909  21356495.540    87451286.77748
  23642337.080   124241353.30808  23642333.060    96811436.05746
  22879456.840   120232380.36008  22879456.300    93687576.72447
  23997553.880   126107980.44508  23997552.300    98265945.36946
  23108825.280   121437679.36009  23108822.360    94626747.08247
 15 02 24 00 21 30.0000000  0  7G16G18G21G22G27G29G31
  21628598.360   113659068.78509  21628594.880    88565497.43848
  22340714.560   117401285.00609  22340711.380    91481535.54847
  21364434.760   112270865.79609  21364430.440    87483778.91348
  23624471.820   124147471.21408  23624467.740    96738281.24846
  22867311.140   120168553.97608  22867310.600    93637841.91847
  24011281.300   126180120.29508  24011280.160    98322158.16246
  23126146.120   121528700.40209  23126143.200    94697672.54547
 15 02 24 00 22  0.0000000  0  7G16G18G21G22G27G29G31
  21615437.680   113589909.08209  21615434.240    88511606.76248
  22330081.440   117345408.16609  22330078.340    91437995.17647
  21372426.500   112312862.98309  21372422.220    87516503.99048
  23606614.740   124053632.03308  23606610.560    96665159.89246
  22855181.880   120104814.41909  22855181.340    93588174.75347
  24025013.880   126252286.28808  24025012.760    98378391.43646
  23143495.240   121619870.04209  23143492.360    94768713.77747
 15 02 24 00 22 30.0000000  0  7G16G18G21G22G27G29G31
  21602331.880   113521037.88809  21602328.540    88457940.91548
  22319511.600   117289863.75509  22319508.580    91394713.83747
  21380474.900   112355157.97809  21380470.700    87549461.12148
  23588766.600   123959839.83708  23588762.540    96592075.11746
  22843069.380   120041163.21909  22843068.900    93538576.44947
  24038751.860   126324480.53308  24038750.980    98434646.59246
  23160872.340   121711186.85609  23160869.460    94839869.69647
 15 02 24 00 23  0.0000000  0  7G16G18G21G22G27G29G31
  21589281.400   113452457.32609  21589278.120    88404501.52548
  22309005.480   117234653.83509  22309002.420    91351693.14947
  21388579.620   112397748.91909  21388575.480    87582648.86248
  23570927.840   123866096.78308  23570923.700    96519028.66846
  22830973.620   119977600.21809  22830973.240    93489046.87447
  24052495.360   126396702.34608  24052494.540    98490923.31945
  23178276.800   121802647.63709  23178273.960    94911137.79447
 15 02 24 00 23 30.0000000  0  7G16G18G21G22G27G29G31
  21576286.520   113384168.73909  21576283.260    88351289.63948
  22298563.260   117179779.96909  22298560.120    91308934.30847
  21396740.240   112440633.35809  21396736.100    87616065.31148
  23553098.860   123772405.23408  23553094.620    96446022.33146
  22818894.520   119914124.67108  22818894.080    93439585.43547
  24066244.220   126468951.39808  24066242.780    98547221.28945
  23195707.900   121894248.56008  23195705.080    94982515.09347
 15 02 24 00 24  0.0000000  0  7G16G18G21G22G27G29G31
  21563348.300   113316177.93109  21563345.000    88298309.80348
  22288186.080   117125247.67209  22288182.940    91266441.63047
  21404957.020   112483812.86809  21404952.940    87649711.67848
  23535280.760   123678770.85908  23535276.520    96373060.56346
  22806832.680   119850739.90409  22806832.300    93390194.75147
  24079998.860   126541231.01408  24079997.200    98603543.04145
  23213165.720   121985990.11309  23213162.940    95054001.97047
 15 02 24 00 24 30.0000000  0  7G16G18G21G22G27G29G31
  21550467.060   113248486.52709  21550463.740    88245563.26048
  22277874.260   117071058.65809  22277871.140    91224216.45747
  21413229.660   112527285.59309  21413225.660    87683586.52748
  23517473.920   123585195.99808  23517469.660    96300145.15046
  22794788.060   119787445.54608  22794787.820    93340874.50347
  24093758.980   126613540.70408  24093757.020    98659888.25446
  23230649.640   122077868.82209  23230646.840    95125595.73747
 15 02 24 00 25  0.0000000  0  7G16G18G21G22G27G29G31
  21537642.640   113181093.82109  21537639.280    88193049.46748
  22267627.620   117017212.08609  22267624.460    91182258.09947
  21421557.080   112571046.43009  21421553.100    87717685.86648
  23499678.360   123491680.41708  23499674.200    96227275.90347
  22782760.120   119724238.66508  22782759.880    93291622.39847
  24107524.300   126685877.34708  24107522.740    98716254.46347
  23248158.540   122169878.79109  23248155.740    95197291.77847
 15 02 24 00 25 30.0000000  0  7G16G18G21G22G27G29G31
  21524876.660   113114008.02209  21524873.300    88140774.82348
  22257447.660   116963716.01709  22257444.440    91140572.87747
  21429940.180   112615099.85309  21429936.240    87752013.20248
  23481895.760   123398232.57808  23481891.680    96154459.50346
  22770749.960   119661125.05809  22770749.600    93242442.97847
  24121295.440   126758247.02308  24121294.500    98772646.29246
  23265692.940   122262022.65609  23265690.140    95269092.15747
 15 02 24 00 26  0.0000000  0  7G16G18G21G22G27G29G31
  21512167.820   113047222.58109  21512164.460    88088734.23048
  22247333.140   116910563.68709  22247329.820    91099155.49047
  21438376.920   112659434.82909  21438372.960    87786559.94148
  23464124.900   123304846.24108  23464120.760    96081690.96246
  22758755.860   119598095.81108  22758755.560    93193329.30848
  24135071.600   126830640.46008  24135070.160    98829056.82645
  23283250.560   122354288.67409  23283247.720    95340987.69747
 15 02 24 00 26 30.0000000  0  7G16G18G21G22G27G29G31
  21499518.040   112980747.40909  21499514.640    88036935.40148
  22237285.880   116857764.93809  22237282.460    91058013.62847
  21446868.400   112704057.78409  21446864.460    87821331.06248
  23446367.700   123211531.92708  23446363.640    96008978.58746
  22746779.320   119535158.94408  22746779.140    93144287.64347
  24148853.760   126903066.12608  24148852.380    98885492.40046
  23300832.420   122446681.97508  23300829.580    95412982.44647
 15 02 24 00 27  0.0000000  0  7G16G18G21G22G27G29G31
  21486926.800   112914579.92309  21486923.340    87985376.33948
  22227305.400   116805317.20109  22227301.940    91017145.28447
  21455413.280   112748961.34009  21455409.320    87856320.84648
  23428623.780   123118287.30008  23428619.820    95936320.50846
  22734819.420   119472309.47108  22734819.260    93095314.04248
  24162641.220   126975518.78508  24162639.640    98941949.01346
  23318437.000   122539194.53609  23318434.180    95485070.11447
 15 02 24 00 27 30.0000000  0  7G16G18G21G22G27G29G31
  21474395.140   112848725.60509  21474391.640    87934061.28848
  22217392.780   116753226.02809  22217389.300    90976554.77847
  21464011.880   112794147.11909  21464007.920    87891530.54048
  23410894.280   123025118.61108  23410890.400    95863721.58346
  22722876.820   119409550.82708  22722876.580    93046411.22048
  24176434.200   127048002.12708  24176431.820    98998429.45345
  23336064.320   122631826.50409  23336061.500    95557250.81447
 15 02 24 00 28  0.0000000  0  7G16G18G21G22G27G29G31
  21461922.740   112783182.52209  21461919.160    87882988.76648
  22207547.560   116701489.40309  22207544.180    90936240.53747
  21472663.160   112839609.89709  21472659.200    87926956.07648
  23393178.900   122932024.04208  23393175.020    95791180.41646
  22710950.700   119346878.80108  22710950.540    92997575.92748
  24190232.540   127120511.53809  24190229.900    99054930.26246
  23353713.000   122724570.56509  23353710.140    95629518.86446
 15 02 24 00 28 30.0000000  0  7G16G18G21G22G27G29G31
  21449510.840   112717957.46109  21449507.260    87832164.06148
  22197771.040   116650113.70409  22197767.740    90896207.54947
  21481367.600   112885352.20409  21481363.660    87962599.43348
  23375479.040   122839010.81608  23375475.140    95718702.64046
  22699042.000   119284297.86509  22699041.820    92948811.57647
  24204036.620   127193052.13108  24204033.960    99111455.36945
  23371383.280   122817428.19009  23371380.380    95701875.42047
 15 02 24 00 29  0.0000000  0  7G16G18G21G22G27G29G31
  21437159.720   112653051.52409  21437156.100    87781588.01748
  22188063.400   116599100.07909  22188060.240    90856456.67747
  21490124.620   112931371.12509  21490120.800    87998458.32748
  23357795.060   122746080.73908  23357791.180    95646289.65746
  22687150.460   119221807.08609  22687150.200    92900117.49547
  24217846.260   127265622.74708  24217843.500    99168003.89145
  23389074.400   122910395.65108  23389071.540    95774317.54046
 15 02 24 00 29 30.0000000  0  7G16G18G21G22G27G29G31
  21424869.740   112588466.92809  21424866.120    87731262.36048
  22178425.000   116548450.36509  22178421.940    90816989.39047
  21498933.920   112977664.85309  21498930.200    88034531.35348
  23340127.360   122653236.24408  23340123.440    95573943.33846
  22675276.080   119159406.48508  22675275.700    92851493.67248
  24231661.580   127338222.80408  24231659.380    99224575.38046
  23406785.760   123003469.82308  23406782.900    95846842.80946
 15 02 24 00 30  0.0000000  0  7G16G18G21G22G27G29G31
  21412641.420   112524206.81709  21412637.840    87681189.56148
  22168856.500   116498167.67709  22168853.460    90777808.09347
  21507795.300   113024232.23408  21507791.680    88070817.61648
  23322476.580   122560480.82708  23322472.580    95501666.45346
  22663419.000   119097096.92209  22663418.400    92802940.78147
  24245482.640   127410853.88408  24245481.020    99281171.00045
  23424517.060   123096648.48608  23424514.160    95919449.51747
 15 02 24 00 30 30.0000000  0  7G16G18G21G22G27G29G31
  21400474.720   112460270.60109  21400471.200    87631369.14748
  22159357.680   116448250.98809  22159354.560    90738912.00047
  21516707.720   113071068.04509  21516704.320    88107313.05748
  23304842.700   122467814.28808  23304838.780    95429458.82647
  22651578.640   119034875.53409  22651578.080    92754456.62148
  24259309.180   127483512.77408  24259307.720    99337788.35846
  23442267.160   123189925.87208  23442264.320    95992133.13546
 15 02 24 00 31  0.0000000  0  7G16G18G21G22G27G29G31
  21388371.020   112396665.34309  21388367.500    87581806.61548
  22149929.800   116398707.22109  22149926.600    90700306.47547
  21525672.040   113118175.97209  21525668.600    88144020.52748
  23287227.160   122375244.17708  23287223.320    95357326.32547
  22639755.940   118972747.17109  22639755.400    92706044.95047
  24273141.760   127556204.55808  24273140.800    99394431.23946
  23460036.420   123283303.79008  23460033.600    96064895.09247
 15 02 24 00 31 30.0000000  0  7G16G18G21G22G27G29G31
  21376329.680   112333387.65909  21376326.100    87532499.33848
  22140572.240   116349532.95009  22140568.980    90661988.88347
  21534686.720   113165548.45908  21534683.300    88180934.14948
  23269629.500   122282768.02808  23269625.640    95285267.03446
  22627949.960   118910706.58409  22627949.460    92657701.65147
  24286979.880   127628923.71708  24286978.860    99451095.50546
  23477823.240   123376773.73009  23477820.400    96137728.74746
 15 02 24 00 32  0.0000000  0  7G16G18G21G22G27G29G31
  21364352.280   112270446.07109  21364348.740    87483453.95148
  22131286.620   116300736.64309  22131283.320    90623965.80047
  21543752.700   113213190.56308  21543749.280    88218057.86748
  23252051.380   122190394.50008  23252047.460    95213287.72047
  22616161.860   118848760.03709  22616161.400    92609431.64647
  24300824.120   127701676.44608  24300823.060    99507785.93546
  23495628.320   123470339.11309  23495625.360    96210636.79146
 15 02 24 00 32 30.0000000  0  7G16G18G21G22G27G29G31
  21352437.640   112207834.17009  21352434.100    87434665.45948
  22122071.520   116252311.24209  22122068.220    90586231.73247
  21552867.860   113261091.00509  21552864.420    88255382.87848
  23234491.600   122098117.45408  23234487.700    95141383.55747
  22604389.980   118786898.64209  22604389.560    92561227.99747
  24314673.420   127774454.27608  24314672.380    99564495.90546
  23513449.260   123563987.94409  23513446.260    96283609.83747
 15 02 24 00 33  0.0000000  0  7G16G18G21G22G27G29G31
  21340587.360   112145560.60209  21340583.820    87386140.60948
  22112928.560   116204265.11509  22112925.380    90548793.21147
  21562033.100   113309254.63008  21562029.620    88292912.97548
  23216951.800   122005945.72108  23216947.920    95069561.49847
  22592635.580   118725128.95309  22592635.200    92513095.79647
  24328528.700   127847263.35508  24328527.620    99621230.23246
  23531286.660   123657723.41009  23531283.680    96356650.40646
 15 02 24 00 33 30.0000000  0  7G16G18G21G22G27G29G31
  21328801.780   112083627.12109  21328798.280    87337880.76248
  22103858.260   116156600.57109  22103855.200    90511652.02947
  21571248.040   113357679.73108  21571244.620    88330646.82348
  23199432.560   121913882.28708  23199428.660    94997823.81846
  22580898.680   118663451.03609  22580898.260    92465035.10848
  24342389.960   127920104.02408  24342388.740    99677989.18746
  23549140.060   123751543.15809  23549137.080    96429756.65447
 15 02 24 00 34  0.0000000  0  7G16G18G21G22G27G29G31
  21317080.800   112022033.40009  21317077.360    87289885.66348
  22094860.280   116109316.17209  22094857.320    90474807.04747
  21580511.900   113406361.65709  21580508.460    88368580.78148
  23181933.820   121821926.61508  23181929.940    94926170.08747
  22569178.680   118601862.04909  22569178.240    92417043.72848
  24356256.840   127992973.10208  24356255.400    99734770.30745
  23567008.240   123845440.88309  23567005.340    96502923.64347
 15 02 24 00 34 30.0000000  0  7G16G18G21G22G27G29G31
  21305426.120   111960788.15009  21305422.720    87242162.09648
  22085936.380   116062420.76409  22085933.320    90438265.19147
  21589825.620   113455305.25808  21589822.100    88406718.66248
  23164457.460   121730088.28108  23164453.580    94854607.78147
  22557476.860   118540368.68809  22557476.460    92369126.85048
  24370130.300   128065877.50208  24370128.640    99791578.88345
  23584891.960   123939420.36409  23584889.220    96576154.34647
 15 02 24 00 35  0.0000000  0  7G16G18G21G22G27G29G31
  21293836.960   111899887.23909  21293833.600    87194706.84348
  22077085.620   116015909.42709  22077082.480    90402022.59747
  21599187.420   113504501.82008  21599183.880    88445053.63348
  23147002.680   121638363.05308  23146998.800    94783133.63147
  22545791.960   118478964.40309  22545791.680    92321279.38648
  24384009.060   128138810.56508  24384007.260    99848409.85645
  23602789.320   124033471.98808  23602786.920    96649441.25447
 15 02 24 00 35 30.0000000  0  7G16G18G21G22G27G29G31
  21282314.940   111839339.03609  21282311.580    87147526.42848
  22068309.620   115969790.76109  22068306.320    90366085.98647
  21608598.240   113553956.01009  21608594.660    88483589.35548
  23129571.320   121546760.53508  23129567.320    94711755.07646
  22534125.280   118417655.85609  22534125.160    92273506.49948
  24397894.180   128211779.14207  24397892.840    99905268.44446
  23620701.060   124127599.33408  23620698.940    96722787.16347
 15 02 24 00 36  0.0000000  0  7G16G18G21G22G27G29G31
  21270859.920   111779142.62609  21270856.520    87100620.13148
  22059608.000   115924063.37109  22059604.640    90330454.26447
  21618057.220   113603662.92609  21618053.600    88522322.00648
  23112163.140   121455280.12908  23112159.140    94640471.69847
  22522476.260   118356439.87409  22522476.080    92225805.74448
  24411785.240   128284779.79307  24411784.540    99962152.05646
  23638626.020   124221796.27108  23638624.080    96796187.27946
 15 02 24 00 36 30.0000000  0  7G16G18G21G22G27G29G31
  21259471.100   111719294.02809  21259467.680    87053984.86648
  22050980.060   115878723.20809  22050976.720    90295124.27747
  21627562.900   113653614.62309  21627559.020    88561245.41748
  23094777.540   121363918.32408  23094773.620    94569280.72446
  22510843.700   118295310.32208  22510843.520    92178172.36448
  24425681.640   128357806.27808  24425680.980   100019055.79245
  23656562.440   124316053.37508  23656560.700    96869634.29946
 15 02 24 00 37  0.0000000  0  7G16G18G21G22G27G29G31
  21248149.800   111659799.97409  21248146.300    87007625.86348
  22042426.820   115833775.96009  22042423.560    90260100.47047
  21637115.660   113703813.67609  21637111.600    88600361.55848
  23077415.780   121272681.88808  23077411.980    94498187.44447
  22499228.480   118234271.82409  22499228.200    92130609.94948
  24439584.080   128430863.45808  24439583.580   100075983.41946
  23674510.720   124410372.24908  23674509.040    96943129.44847
 15 02 24 00 37 30.0000000  0  7G16G18G21G22G27G29G31
  21236896.260   111600662.18009  21236892.800    86961544.47548
  22033948.680   115789223.45909  22033945.500    90225384.24847
  21646714.980   113754257.82309  21646710.820    88639668.68548
  23060078.380   121181573.41708  23060074.660    94427193.85947
  22487630.500   118173324.10109  22487630.160    92083118.23348
  24453492.480   128503950.74608  24453491.880   100132934.52846
  23692470.240   124504749.59108  23692468.460    97016670.15846
 15 02 24 00 38  0.0000000  0  7G16G18G21G22G27G29G31
  21225711.360   111541885.04209  21225707.920    86915744.10648
  22025546.500   115745069.87309  22025543.340    90190978.86547
  21656360.980   113804947.45609  21656356.760    88679167.08448
  23042766.240   121090597.67309  23042762.500    94356303.70847
  22476050.260   118112469.45309  22476049.860    92035699.02348
  24467407.080   128577070.39408  24467405.920   100189910.90346
  23710440.840   124599184.72808  23710438.920    97090255.88246
 15 02 24 00 38 30.0000000  0  7G16G18G21G22G27G29G31
  21214596.120   111483474.09809  21214592.700    86870229.09148
  22017221.260   115701320.41309  22017218.060    90156888.39947
  21666053.960   113855884.39909  21666049.740    88718858.20348
  23025480.620   120999760.96909  23025476.700    94285521.90047
  22464488.360   118051711.29008  22464487.860    91988355.02448
  24481328.040   128650226.03207  24481326.560   100246915.26945
  23728422.500   124693678.00308  23728420.460    97163886.92946
 15 02 24 00 39  0.0000000  0  7G16G18G21G22G27G29G31
  21203549.640   111425424.33309  21203546.200    86824995.49948
  22008971.760   115657969.16309  22008968.580    90123108.22047
  21675792.160   113907059.17509  21675788.040    88758734.64748
  23008220.660   120909058.71808  23008216.520    94214844.84147
  22452943.380   117991042.47008  22452942.940    91941080.67248
  24495254.500   128723410.49108  24495252.880   100303942.09846
  23746413.300   124788219.14508  23746411.040    97237555.26246
 15 02 24 00 39 30.0000000  0  7G16G18G21G22G27G29G31
  21192573.320   111367743.17209  21192569.840    86780049.14248
  22000799.480   115615023.84409  22000796.400    90089644.35447
  21685576.260   113958475.24309  21685572.160    88798799.11448
  22990987.800   120818498.47109  22990983.320    94144278.45847
  22441416.520   117930468.59609  22441416.080    91893880.26347
  24509187.240   128796628.97907  24509185.720   100360995.47145
  23764413.620   124882810.50008  23764411.260    97311262.72846
 15 02 24 00 40  0.0000000  0  7G16G18G21G22G27G29G31
  21181667.040   111310430.24709  21181663.600    86735389.72448
  21992704.280   115572483.43109  21992701.300    90056495.97847
  21695405.560   114010128.89909  21695401.540    88839048.71048
  22973782.020   120728080.83009  22973777.380    94073823.19547
  22429907.280   117869987.18709  22429906.840    91846751.87848
  24523126.080   128869879.01308  24523124.480   100418073.35445
  23782422.440   124977446.77908  23782420.060    97385005.18146
 15 02 24 00 40 30.0000000  0  7G16G18G21G22G27G29G31
  21170831.020   111253486.60709  21170827.640    86691018.04848
  21984686.280   115530348.72509  21984683.320    90023663.75647
  21705279.480   114062016.93609  21705275.520    88879480.94448
  22956603.540   120637807.03709  22956598.820    94003480.03547
  22418415.380   117809597.14208  22418414.940    91799694.74548
  24537071.080   128943159.82108  24537069.520   100475175.29445
  23800438.920   125072123.77808  23800436.660    97458779.35146
 15 02 24 00 41  0.0000000  0  7G16G18G21G22G27G29G31
  21160066.160   111196916.82209  21160062.840    86646937.70348
  21976746.200   115488623.48009  21976743.300    89991150.58847
  21715198.100   114114139.79609  21715194.160    88920096.16048
  22939453.300   120547682.20209  22939448.560    93933252.93547
  22406941.380   117749301.02509  22406940.920    91752710.79347
  24551022.280   129016473.68207  24551021.000   100532302.92845
  23818463.020   125166840.91608  23818460.840    97532584.81946
 15 02 24 00 41 30.0000000  0  6G16G18G21G22G27G31
  21149379.600   111140758.43109  21149376.300    86603177.91648
  21968891.140   115447344.80609  21968888.200    89958985.39647
  21725167.800   114166530.97309  21725163.900    88960920.45048
  22922338.580   120457744.48709  22922333.900    93863171.65147
  22395492.040   117689134.41109  22395491.460    91705827.70548
  23836500.840   125261630.53108  23836498.700    97606446.73646
 15 02 24 00 42  0.0000000  0  6G16G18G21G22G27G31
  21138758.160   111084942.23509  21138754.860    86559684.78048
  21961107.900   115406443.53009  21961104.880    89927114.28047
  21735174.560   114219116.81509  21735170.700    89001896.42448
  22905246.480   120367925.30809  22905241.760    93793182.71947
  22384053.760   117629026.07508  22384053.220    91658990.07948
  23854538.380   125356418.54408  23854536.260    97680307.43146
 15 02 24 00 42 30.0000000  0  6G16G18G21G22G27G31
  21128208.820   111029504.93709  21128205.460    86516486.88548
  21953403.280   115365955.60509  21953400.300    89895565.26247
  21745224.860   114271931.37409  21745221.000    89043050.61448
  22888183.900   120278261.47309  22888179.160    93723314.83047
  22372633.180   117569010.77209  22372632.740    91612224.91048
  23872581.600   125451236.71508  23872579.640    97754191.57646
 15 02 24 00 43  0.0000000  0  7G16G18G19G21G22G27G31
  21117732.660   110974452.08709  21117729.220    86473588.56548
  21945778.180   115325885.77809  21945775.280    89864342.02247
  24543019.420   128974438.47508  24543013.780   100499542.76845
  21755318.800   114324975.00409  21755314.900    89084383.31248
  22871152.140   120188759.55609  22871147.500    93653573.13247
  22361230.920   117509091.75609  22361230.460    91565534.79048
  23890630.640   125546084.95708  23890628.780    97828099.19846
 15 02 24 00 43 30.0000000  0  7G16G18G19G21G22G27G31
  21107328.480   110919777.54209  21107324.980    86430985.02548
  21938231.540   115286227.96009  21938228.540    89833439.82847
  24528196.140   128896553.64707  24528193.800   100438853.49046
  21765454.560   114378238.49809  21765450.620    89125887.32848
  22854150.180   120099414.05009  22854145.620    93583953.27747
  22349845.540   117449261.32809  22349845.060    91518913.68348
  23908683.500   125640952.76008  23908681.660    97902022.03646
 15 02 24 00 44  0.0000000  0  7G16G18G19G21G22G27G31
  21096998.200   110865491.52009  21096994.700    86388684.23548
  21930765.260   115246991.98909  21930762.140    89802866.37747
  24513386.080   128818725.62308  24513383.780   100378208.29145
  21775633.240   114431727.73309  21775629.300    89167567.25148
  22837180.000   120010235.54909  22837175.560    93514463.58347
  22338478.600   117389527.84108  22338478.160    91472368.13848
  23926741.060   125735845.21008  23926739.160    97975964.07846
 15 02 24 00 44 30.0000000  0  7G16G18G19G21G22G27G31
  21086740.340   110811585.96009  21086736.860    86346679.90948
  21923377.540   115208168.87709  21923374.320    89772614.59347
  24498584.680   128740943.26007  24498581.560   100317598.59945
  21785852.540   114485430.66209  21785848.680    89209413.68548
  22820240.160   119921216.21809  22820235.820    93445097.91647
  22327128.080   117329880.70309  22327127.720    91425889.87548
  23944800.700   125830748.44208  23944798.640    98049914.51546
 15 02 24 00 45  0.0000000  0  7G16G18G19G21G22G27G31
  21076559.240   110758083.64809  21076555.720    86304989.80148
  21916072.700   115169781.34709  21916069.540    89742702.24347
  24483795.840   128663227.84608  24483793.400   100257041.27746
  21796116.100   114539366.60909  21796112.400    89251441.68448
  22803335.140   119832379.71709  22803330.860    93375874.71647
  22315798.060   117270341.19109  22315797.740    91379495.45848
  23962865.860   125925681.00208  23962863.860    98123887.77146
 15 02 24 00 45 30.0000000  0  7G16G18G19G21G22G27G31
  21066451.980   110704969.40209  21066448.420    86263602.08148
  21908847.720   115131813.58509  21908844.560    89713116.99047
  24469016.640   128585561.54607  24469014.260   100196522.12745
  21806420.340   114593516.10009  21806416.760    89293636.07648
  22786462.120   119743711.02309  22786457.780    93306782.25947
  22304485.280   117210892.21709  22304484.960    91333171.61448
  23980932.780   126020622.63708  23980930.780    98197868.12946
 15 02 24 00 46  0.0000000  0  7G16G18G19G21G22G27G31
  21056421.120   110652256.60609  21056417.480    86222527.18648
  21901704.900   115094277.82009  21901701.720    89683868.35447
  24454248.640   128507955.66108  24454245.560   100136050.02345
  21816767.000   114647888.49308  21816763.500    89336004.18748
  22769623.820   119655224.68109  22769619.300    93237831.89447
  22293191.880   117151545.13109  22293191.560    91286927.14748
  23999003.000   126115581.59908  23999000.880    98271862.00146
 15 02 24 00 46 30.0000000  0  7G16G18G19G21G22G27G31
  21046464.140   110599931.90809  21046460.380    86181754.70048
  21894641.720   115057160.78509  21894638.540    89654945.99947
  24439489.680   128430394.97408  24439486.580   100075613.16246
  21827152.920   114702466.96609  21827149.460    89378532.85948
  22752817.680   119566907.77909  22752813.040    93169013.57247
  22281914.960   117092284.61409  22281914.620    91240750.13548
  24017073.040   126210539.47708  24017070.840    98345854.98446
 15 02 24 00 47  0.0000000  0  7G16G18G19G21G22G27G31
  21036585.460   110548018.69509  21036581.580    86141302.85148
  21887662.600   115020485.38309  21887659.360    89626367.76647
  24424742.820   128352900.23508  24424739.860   100015227.80545
  21837581.740   114757270.55109  21837578.280    89421236.94948
  22736048.340   119478784.34209  22736043.520    93100345.99647
  22270658.640   117033132.27709  22270658.300    91194657.42147
  24035146.480   126305514.67908  24035144.260    98419861.50446
 15 02 24 00 47 30.0000000  0  7G16G18G19G21G22G27G31
  21026780.840   110496495.08509  21026776.920    86101154.58648
  21880763.220   114984228.92209  21880759.920    89598116.00147
  24410004.620   128275448.09308  24410000.640    99954875.37046
  21848048.440   114812273.68109  21848045.020    89464096.51647
  22719311.700   119390832.54009  22719306.700    93031812.14447
  22259418.340   116974064.13309  22259418.040    91148630.30948
  24053218.040   126400480.11708  24053215.760    98493860.38946
 15 02 24 00 48  0.0000000  0  7G16G18G19G21G22G27G31
  21017054.700   110445383.96909  21017050.760    86061327.74848
  21873947.840   114948413.92709  21873944.480    89570208.21047
  24395278.060   128198059.29307  24395274.580    99894572.57146
  21858556.780   114867495.69809  21858553.420    89507126.64548
  22702612.300   119303076.48809  22702607.200    92963430.83147
  22248198.140   116915101.49209  22248197.820    91102685.41048
  24071291.240   126495454.30008  24071289.100    98567866.07746
 15 02 24 00 48 30.0000000  0  7G16G18G19G21G22G27G31
  21007404.980   110394674.71009  21007401.120    86021814.04148
  21867214.340   114913029.38509  21867210.960    89542635.84447
  24380561.300   128120720.86008  24380557.500    99834308.86545
  21869104.020   114922922.15409  21869100.700    89550316.08148
  22685948.140   119215505.64409  22685943.020    92895193.83147
  22236995.620   116856231.78609  22236995.260    91056812.89848
  24089363.040   126590421.37508  24089361.000    98641866.21146
 15 02 24 00 49  0.0000000  0  7G16G18G19G21G22G27G31
  20997833.720   110344377.94609  20997829.980    85982621.76148
  21860564.520   114878084.84709  21860561.300    89515406.34447
  24365855.420   128043440.93907  24365851.140    99774090.74345
  21879691.340   114978558.87009  21879688.000    89593669.36748
  22669321.380   119128131.54609  22669316.360    92827110.15147
  22225812.440   116797463.60309  22225812.080    91011019.54148
  24107434.400   126685386.72108  24107432.600    98715865.01046
 15 02 24 00 49 30.0000000  0  7G16G18G19G21G22G27G31
  20988340.360   110294490.63309  20988336.740    85943748.53848
  21853997.840   114843576.95509  21853994.700    89488517.09647
  24351159.700   127966215.01908  24351156.040    99713914.82046
  21890317.620   115034400.06709  21890314.180    89637181.98848
  22652731.600   119040951.99709  22652726.620    92759178.07247
  22214647.700   116738792.48809  22214647.340    90965301.79148
  24125504.000   126780342.96308  24125502.320    98789856.74346
 15 02 24 00 50  0.0000000  0  7G16G18G19G21G22G27G31
  20978925.320   110245014.87409  20978921.780    85905195.99848
  21847514.560   114809507.18609  21847511.360    89461969.22847
  24336474.260   127889042.77907  24336469.960    99653780.58044
  21900982.360   115090443.23109  21900978.760    89680851.97548
  22636179.240   118953969.14709  22636174.280    92691399.25047
  22203501.400   116680218.17309  22203501.040    90919659.47548
  24143571.260   126875286.73208  24143569.780    98863838.71146
 15 02 24 00 50 30.0000000  0  7G16G18G19G21G22G27G31
  20969589.840   110195957.16809  20969586.440    85866969.22548
  21841115.760   114775881.30109  21841112.500    89435767.26547
  24321799.720   127811928.86908  24321795.560    99593691.88146
  21911686.040   115146691.04209  21911682.340    89724681.43848
  22619665.700   118867190.25309  22619660.780    92623779.37447
  22192374.520   116621745.66109  22192374.040    90874096.47348
  24161636.520   126970219.89608  24161635.080    98937812.41446
 15 02 24 00 51  0.0000000  0  7G16G18G19G21G22G27G31
  20960332.920   110147312.32909  20960329.700    85829064.15848
  21834800.440   114742693.67909  21834797.080    89409906.78847
  24307135.020   127734866.27307  24307131.100    99533643.17045
  21922427.060   115203134.75809  21922423.260    89768663.55348
  22603190.060   118780610.48509  22603185.240    92556314.65047
  22181265.640   116563368.05509  22181265.120    90828607.45048
  24179697.920   127065132.38908  24179696.420    99011770.01346
 15 02 24 00 51 30.0000000  0  7G16G18G19G21G22G27G31
  20951156.260   110099088.96809  20951153.140    85791487.52348
  21828569.980   114709951.93609  21828566.620    89384393.76247
  24292481.280   127657860.82808  24292477.440    99473638.98045
  21933206.240   115259779.53709  21933202.360    89812802.33548
  22586754.220   118694239.73709  22586749.460    92489012.79747
  22170176.020   116505091.98009  22170175.520    90783197.52548
  24197756.100   127160027.89608  24197754.460    99085714.36945
 15 02 24 00 52  0.0000000  0  7G16G18G19G21G22G27G31
  20942059.640   110051286.05509  20942056.560    85754238.49548
  21822424.140   114677654.98209  21822420.780    89359227.30347
  24277838.060   127580910.16908  24277834.120    99413677.42646
  21944022.700   115316620.82209  21944018.860    89857094.22548
  22570358.040   118608077.46309  22570353.340    92421873.39347
  22159105.220   116446914.88809  22159104.780    90737864.74148
  24215809.960   127254900.83808  24215808.080    99159641.12045
 15 02 24 00 52 30.0000000  0  7G16G18G19G21G22G27G31
  20933043.540   110003905.98509  20933040.460    85717318.96048
  21816363.200   114645804.46209  21816359.840    89334408.73847
  24263205.220   127504014.38308  24263201.620    99353758.72046
  21954876.200   115373656.72309  21954872.460    89901537.78647
  22554002.020   118522126.36809  22553997.380    92354898.54347
  22148053.400   116388837.36309  22148053.000    90692609.52748
  24233859.080   127349748.49508  24233857.280    99233548.17046
 15 02 24 00 53  0.0000000  0  7G16G18G19G21G22G27G31
  20924108.120   109956950.03009  20924105.080    85680729.91948
