     2.11           OBSERVATION DATA    G                   RINEX VERSION / TYPE
SPIDER V4,0,0,3554                      2015 03 13 02:56    PGM / RUN BY / DATE 
CKHR                                                        MARKER NAME         
CKHR                                                        MARKER NUMBER       
                                                            OBSERVER / AGENCY   
496547              LEICA GRX1200+GNSS  8.10/4.007          REC # / TYPE / VERS 
10301042            LEIAR25         NONE                    ANT # / TYPE        
  5141838.0877   498328.5776  3730203.3049                  APPROX POSITION XYZ 
        0.0720        0.0000        0.0000                  ANTENNA: DELTA H/E/N
     1     1                                                WAVELENGTH FACT L1/2
     4    C1    L1    P2    L2                              # / TYPES OF OBSERV 
    30.000                                                  INTERVAL            
  2015    02    24    00    00    0.0000000     GPS         TIME OF FIRST OBS   
  2015    02    24    01    43    0.0000000     GPS         TIME OF LAST OBS    
    16                                                      LEAP SECONDS        
    10                                                      # OF SATELLITES     
   G 4    13    13    13    13                              PRN / # OF OBS      
   G16   207   207   207   207                              PRN / # OF OBS      
   G18   207   207   207   207                              PRN / # OF OBS      
   G19   125   124   124   124                              PRN / # OF OBS      
   G21   207   207   207   207                              PRN / # OF OBS      
   G22   207   207   207   207                              PRN / # OF OBS      
   G25    22    22    22    22                              PRN / # OF OBS      
   G27   207   207   207   207                              PRN / # OF OBS      
   G29    82    82    82    82                              PRN / # OF OBS      
   G31   125   125   125   125                              PRN / # OF OBS      
BIT 2 OF LLI FLAGS DATA COLLECTED UNDER A/S CONDITION       COMMENT             
SNR is mapped to RINEX snr flag value [2-9]                 COMMENT             
Lx:     = 25dBHz -> 1; 26-27dBHz -> 2; 28-31dBHz -> 3       COMMENT             
       32-35dBHz -> 4; 36-38dBHz -> 5; 39-41dBHz -> 6       COMMENT             
       42-44dBHz -> 7; 45-48dBHz -> 8; >=49dBHz -> 9        COMMENT             
                                                            END OF HEADER       
 15 02 24 00 00  0.0000000  0  8G16G18G21G22G25G27G29G31
  22145224.460   116373958.32909  22145221.200    90680999.17747
  22955732.380   120633217.63909  22955729.340    93999909.68746
  21068393.060   110715310.01108  21068389.100    86271710.55448
  24523995.040   128874463.22008  24523992.300   100421650.68045
  24405814.500   128253632.56208  24405815.560    99937944.56145
  23350704.820   122708800.84809  23350705.000    95617259.73747
  23411868.520   123030516.18708  23411866.640    95868058.23847
  22490224.620   118186952.17109  22490221.440    92093733.10648
 15 02 24 00 00 30.0000000  0  8G16G18G21G22G25G27G29G31
  22130331.860   116295697.33009  22130328.620    90620016.60647
  22942472.000   120563534.07408  22942468.940    93945610.82346
  21073234.000   110740749.48308  21073230.100    86291533.52348
  24506164.780   128780765.16208  24506161.940   100348639.36044
  24424551.700   128352096.59308  24424552.740   100014669.75145
  23337536.680   122639601.94708  23337536.900    95563338.52247
  23425729.020   123103353.60308  23425727.220    95924814.63447
  22506227.780   118271049.55709  22506224.640    92159263.50748
 15 02 24 00 01  0.0000000  0  8G16G18G21G22G25G27G29G31
  22115478.720   116217643.84909  22115475.520    90559195.73548
  22929253.100   120494068.68208  22929250.080    93891481.96746
  21078146.900   110766567.21208  21078143.060    86311651.23448
  24488320.500   128686993.87308  24488317.640   100275571.01445
  24443319.720   128450721.74508  24443320.400   100091520.50944
  23324387.180   122570500.98408  23324387.280    95509493.67947
  23439596.200   123176226.02108  23439594.500    95981598.30747
  22522281.420   118355412.34709  22522278.300    92225000.71248
 15 02 24 00 01 30.0000000  0  8G16G18G21G22G25G27G29G31
  22100665.640   116139800.87709  22100662.500    90498538.89247
  22916076.300   120424824.50209  22916073.340    93837525.50646
  21083131.460   110792761.71908  21083127.740    86332062.54548
  24470462.980   128593152.26408  24470460.100   100202447.80045
  24462117.920   128549507.31308  24462119.040   100168496.20645
  23311256.460   122501498.49008  23311256.460    95455725.51247
  23453470.040   123249133.97608  23453468.460    96038409.65447
  22538385.160   118440038.29009  22538381.960    92290942.98548
 15 02 24 00 02  0.0000000  0  8G16G18G21G22G25G27G29G31
  22085892.720   116062168.63809  22085889.540    90438046.25647
  22902941.780   120355802.28809  22902938.880    93783741.99446
  21088187.180   110819330.25108  21088183.580    86352765.29748
  24452592.240   128499241.19108  24452589.480   100129270.48645
  24480946.220   128648450.01108  24480947.160   100245594.37845
  23298144.120   122432592.70708  23298144.200    95402032.75647
  23467350.260   123322075.70008  23467348.800    96095247.32247
  22554538.120   118524922.68009  22554534.860    92357086.64648
 15 02 24 00 02 30.0000000  0  8G16G18G21G22G25G27G29G31
  22071160.780   115984751.53909  22071157.520    90377721.25947
  22889850.460   120287006.69309  22889847.660    93730135.07146
  21093314.160   110846273.11208  21093310.600    86373759.74348
  24434709.220   128405265.27308  24434706.460   100056042.61545
  24499804.600   128747550.77408  24499805.180   100322815.70845
  23285050.580   122363785.75608  23285050.560    95348416.97247
  23481237.300   123395052.95508  23481236.100    96152112.69147
  22570740.060   118610064.96209  22570736.820    92423431.26448
 15 02 24 00 03  0.0000000  0  8G16G18G21G22G25G27G29G31
  22056469.520   115907548.04509  22056466.240    90317562.71547
  22876802.200   120218437.10309  22876799.300    93676704.25346
  21098511.660   110873586.01708  21098508.040    86395042.52448
  24416813.600   128311223.41808  24416810.780    99982763.36645
  24518692.040   128846804.75707  24518692.120   100400156.42544
  23271975.200   122295074.20208  23271975.120    95294875.56147
  23495130.460   123468061.74108  23495129.260    96209002.62347
  22586989.780   118695458.62609  22586986.580    92489971.75147
 15 02 24 00 03 30.0000000  0  8G16G18G21G22G25G27G29G31
  22041819.780   115830562.86309  22041816.440    90257574.27147
  22863797.900   120150098.70408  22863794.960    93623453.57946
  21103779.640   110901269.11308  21103775.920    86416613.77948
  24398906.140   128217120.40807  24398903.680    99909436.54046
  24537608.840   128946212.83608  24537608.600   100477617.26045
  23258918.440   122226460.33908  23258918.260    95241410.29347
  23509030.100   123541104.96808  23509028.660    96265919.41846
  22603287.220   118781102.93509  22603284.060    92556707.54947
 15 02 24 00 04  0.0000000  0  8G16G18G21G22G25G27G29G31
  22027212.580   115753801.39909  22027209.120    90197760.16047
  22850838.520   120081996.79509  22850835.620    93570387.16846
  21109118.500   110929324.85908  21109114.700    86438475.40048
  24380988.180   128122962.12508  24380985.880    99836066.58245
  24556555.140   129045777.06307  24556555.320   100555199.69745
  23245880.900   122157947.56909  23245880.640    95188023.71346
  23522936.860   123614185.58008  23522934.980    96322865.34146
  22619632.480   118866998.50209  22619629.400    92623639.13447
 15 02 24 00 04 30.0000000  0  8G16G18G21G22G25G27G29G31
  22012646.940   115677258.21209  22012643.280    90138116.13547
  22837923.220   120014126.87409  22837920.460    93517501.54646
  21114526.480   110957744.02508  21114522.700    86460620.21748
  24363058.820   128028743.40608  24363056.600    99762649.50146
  24575529.480   129145488.24808  24575529.640   100632896.72845
  23232861.080   122089528.05608  23232860.840    95134709.81747
  23536849.260   123687294.95808  23536847.300    96379833.71146
  22636023.540   118953134.70009  22636020.560    92690758.23147
 15 02 24 00 05  0.0000000  0  8G16G18G21G22G25G27G29G31
  21998124.240   115600941.09809  21998120.540    90078648.26847
  22825053.560   119946496.64608  22825050.840    93464802.67546
  21120004.320   110986530.71808  21120000.640    86483051.40248
  24345119.520   127934472.11408  24345117.240    99689191.47645
  24594532.620   129245350.87208  24594533.260   100710711.64545
  23219860.120   122021207.57908  23219859.880    95081473.14947
  23550768.360   123760439.66808  23550766.760    96436829.53647
  22652460.940   119039514.43509  22652458.080    92758067.07448
 15 02 24 00 05 30.0000000  0  8G16G18G21G22G25G27G29G31
  21983644.260   115524849.07809  21983640.760    90019355.81548
  22812229.540   119879106.24408  22812226.720    93412290.71546
  21125551.260   111015680.11309  21125547.580    86505765.22748
  24327170.200   127840148.22908  24327167.900    99615692.46845
  24613564.060   129345360.43408  24613564.400   100788641.23445
  23206877.420   121952983.28208  23206877.200    95028311.40347
  23564693.580   123833616.50208  23564692.120    96493850.38647
  22668943.620   119126131.72109  22668940.780    92825561.05348
 15 02 24 00 06  0.0000000  0  8G16G18G21G22G25G27G29G31
  21969208.400   115448988.60809  21969205.060    89960243.78348
  22799452.320   119811961.68109  22799449.440    93359970.29146
  21131167.740   111045194.59509  21131163.940    86528763.52648
  24309212.080   127745777.91808  24309209.360    99542157.25345
  24632623.720   129445519.53708  24632624.680   100866687.18145
  23193913.720   121884858.85709  23193913.480    94975227.47047
  23578625.420   123906828.52108  23578623.700    96550898.70346
  22685471.740   119212987.64109  22685468.800    92893240.95447
 15 02 24 00 06 30.0000000  0  8G16G18G21G22G25G27G29G31
  21954816.060   115373356.35309  21954812.720    89901309.56548
  22786721.360   119745060.47408  22786718.420    93307839.52746
  21136852.560   111075068.17108  21136848.680    86552041.63748
  24291244.640   127651358.37808  24291241.520    99468583.69645
  24651710.720   129545821.35108  24651711.880   100944844.37144
  23180968.080   121816829.15708  23180967.760    94922217.29847
  23592562.940   123980070.80608  23592561.140    96607970.59146
  22702043.700   119300073.88709  22702040.720    92961100.34147
 15 02 24 00 07  0.0000000  0  8G16G18G21G22G25G27G29G31
  21940468.220   115297957.55609  21940464.780    89842557.27448
  22774037.740   119678407.84809  22774034.820    93255902.46346
  21142605.800   111105301.40408  21142601.840    86575600.01748
  24273268.820   127556894.85408  24273265.300    99394975.85345
  24670825.060   129646267.37008  24670826.240   101023114.01945
  23168041.000   121748896.83308  23168040.580    94869283.10147
  23606506.720   124053345.83008  23606505.020    96665067.95947
  22718659.500   119387390.36809  22718656.580    93029139.14047
 15 02 24 00 07 30.0000000  0  8G16G18G21G22G25G27G29G31
  21926165.100   115222794.10909  21926161.700    89783988.36847
  22761401.900   119612006.39109  22761399.100    93204161.06246
  21148427.220   111135893.09109  21148423.200    86599437.69948
  24255285.200   127462390.32208  24255281.720    99321336.10045
  24689966.480   129746856.38507  24689967.920   101101494.93745
  23155132.520   121681062.24208  23155132.020    94816425.03547
  23620456.840   124126653.55909  23620455.260    96722190.84647
  22735318.580   119474934.44609  22735315.740    93097355.27347
 15 02 24 00 08  0.0000000  0  8G16G18G21G22G25G27G29G31
  21911907.320   115147869.23409  21911903.980    89725605.37048
  22748814.580   119545859.69709  22748811.920    93152618.20346
  21154316.740   111166842.65108  21154312.660    86623554.24648
  24237294.360   127367848.15308  24237290.920    99247666.97445
  24709135.020   129847587.78208  24709136.060   101179986.98545
  23142242.700   121613326.28009  23142242.220    94763643.79947
  23634413.440   124199994.99408  23634411.880    96779340.00647
  22752020.640   119562704.20309  22752017.940    93165747.26947
 15 02 24 00 08 30.0000000  0  8G16G18G21G22G25G27G29G31
  21897695.080   115073183.58509  21897691.820    89667408.77648
  22736276.020   119479968.91109  22736273.440    93101274.77346
  21160273.740   111198147.21308  21160269.720    86647947.42148
  24219296.300   127273268.91308  24219292.840    99173968.96945
  24728330.120   129948458.55808  24728331.380   101258587.47445
  23129371.360   121545687.29708  23129370.900    94710938.10647
  23648375.960   124273368.49308  23648374.340    96836514.13846
  22768764.780   119650694.87409  22768762.120    93234311.41247
 15 02 24 00 09  0.0000000  0  8G16G18G21G22G25G27G29G31
  21883529.440   114998742.56309  21883526.180    89609402.80448
  22723787.160   119414339.38009  22723784.560    93050134.90446
  21166298.500   111229808.06608  21166294.560    86672618.22048
  24201292.340   127178658.45808  24201288.900    99100246.66346
  24747552.000   130049470.29007  24747552.980   101337297.90044
  23116519.020   121478148.24408  23116518.740    94658310.36647
  23662344.860   124346776.79308  23662343.280    96893715.36646
  22785550.900   119738906.48309  22785548.360    93303047.70647
 15 02 24 00 09 30.0000000  0  8G16G18G21G22G25G27G29G31
  21869409.960   114924543.98709  21869406.680    89551585.73848
  22711347.720   119348969.52709  22711344.960    92999197.37246
  21172390.020   111261819.57908  21172386.180    86697562.26048
  24183282.180   127084015.17208  24183278.800    99026498.75846
  24766799.520   130150617.53107  24766800.760   101416113.89546
  23103685.000   121410705.24709  23103684.780    94605757.37847
  23676319.700   124420215.64008  23676317.800    96950940.44046
  22802377.760   119827332.17109  22802375.240    93371950.80347
 15 02 24 00 10  0.0000000  0  8G16G18G21G22G25G27G29G31
  21855336.860   114850589.15009  21855333.500    89493958.61348
  22698957.940   119283860.88809  22698954.940    92948463.41546
  21178547.680   111294178.81908  21178544.020    86722777.25848
  24165266.180   126989340.45808  24165262.920    98952726.37946
  24786072.440   130251897.49908  24786073.880   101495033.25645
  23090868.880   121343356.88108  23090868.760    94553278.17947
  23690300.260   124493683.61308  23690297.880    97008188.25446
  22819244.640   119915967.83209  22819242.060    93441017.53047
 15 02 24 00 10 30.0000000  0  8G16G18G21G22G25G27G29G31
  21841310.960   114776882.19909  21841307.440    89436524.62947
  22686618.700   119219017.80209  22686615.580    92897936.34746
  21184771.600   111326886.22808  21184768.140    86748263.54948
  24147245.080   126894638.72308  24147241.660    98878932.89346
  24805370.920   130353310.76607  24805371.820   101574056.57145
  23078071.200   121276105.31508  23078071.160    94500874.39047
  23704286.820   124567182.68108  23704284.260    97065460.26146
  22836151.340   120004812.11809  22836148.620    93510246.81347
 15 02 24 00 11  0.0000000  0  7G16G18G21G22G27G29G31
  21827333.640   114703431.02109  21827330.080    89379289.96748
  22674331.540   119154448.41909  22674328.400    92847622.59346
  21191062.560   111359945.90308  21191059.220    86774024.33748
  24129220.420   126799918.59008  24129216.940    98805125.10245
  23065293.120   121208956.41909  23065293.080    94448550.63647
  23718280.120   124640718.50508  23718277.980    97122760.86646
  22853098.460   120093868.48709  22853095.480    93579641.37147
 15 02 24 00 11 30.0000000  0  7G16G18G21G22G27G29G31
  21813404.160   114630231.61109  21813400.620    89322251.49048
  22662095.780   119090149.30809  22662092.640    92797519.40646
  21197419.300   111393350.63208  21197415.920    86800054.00648
  24111191.400   126705176.40908  24111187.740    98731300.12045
  23052533.500   121141904.13209  23052533.480    94396302.11347
  23732279.200   124714285.63308  23732277.740    97180085.86247
  22870084.140   120183127.77409  22870081.060    93649194.03847
 15 02 24 00 12  0.0000000  0  7G16G18G21G22G27G29G31
  21799522.880   114557285.31609  21799519.400    89265410.23548
  22649911.680   119026121.66709  22649908.640    92747627.77146
  21203841.140   111427097.26608  21203837.620    86826350.09148
  24093158.360   126610413.23208  24093154.900    98657458.76545
  23039792.040   121074947.05508  23039791.980    94344127.81148
  23746284.120   124787881.88208  23746282.940    97237433.55647
  22887107.600   120272585.59609  22887104.440    93718901.40747
 15 02 24 00 12 30.0000000  0  7G16G18G21G22G27G29G31
  21785690.540   114484596.01509  21785687.120    89208769.22448
  22637780.160   118962369.97109  22637777.160    92697951.14046
  21210328.280   111461186.63909  21210324.560    86852913.23248
  24075122.180   126515634.01208  24075119.140    98583604.94446
  23027069.180   121008087.42809  23027069.000    94292029.42247
  23760295.120   124861509.35308  23760294.040    97294805.56047
  22904168.560   120362241.11209  22904165.440    93788762.81147
 15 02 24 00 13  0.0000000  0  7G16G18G21G22G27G29G31
  21771908.220   114412169.57609  21771904.880    89152333.06548
  22625702.020   118898899.29509  22625699.160    92648493.50446
  21216880.840   111495619.88809  21216877.000    86879744.34048
  24057084.100   126420844.23908  24057081.340    98509742.89046
  23014365.320   120941328.25408  23014365.120    94240009.30547
  23774312.560   124935171.13808  23774311.440    97352204.32746
  22921267.000   120452094.30209  22921263.940    93858778.24947
 15 02 24 00 13 30.0000000  0  7G16G18G21G22G27G29G31
  21758175.640   114340004.51309  21758172.360    89096100.56848
  22613677.440   118835710.10209  22613674.660    92599255.19247
  21223497.920   111530392.42408  21223494.000    86906839.83848
  24039044.140   126326043.45408  24039041.240    98435872.21846
  23001680.020   120874666.44209  23001679.780    94188065.08547
  23788335.860   125008863.84308  23788334.460    97409627.22046
  22938401.900   120542139.25609  22938398.860    93928943.13247
 15 02 24 00 14  0.0000000  0  7G16G18G21G22G27G29G31
  21744492.840   114268100.83709  21744489.560    89040071.74248
  22601706.380   118772802.14609  22601703.640    92550236.03347
  21230178.700   111565500.01509  21230174.740    86934196.40148
  24021002.100   126231232.00708  24020999.080    98361993.26246
  22989012.780   120808099.80108  22989012.480    94136194.99647
  23802364.620   125082585.38508  23802363.060    97467072.56546
  22955572.340   120632370.69009  22955569.320    93999253.31847
 15 02 24 00 14 30.0000000  0  7G16G18G21G22G27G29G31
  21730861.180   114196465.73609  21730857.780    88984252.18948
  22589790.220   118710182.47909  22589787.420    92501441.50347
  21236923.980   111600946.54309  21236919.980    86961817.07448
  24002959.400   126136417.22608  24002956.360    98288111.70546
  22976364.520   120741633.18008  22976364.260    94084402.84247
  23816399.780   125156340.50108  23816398.200    97524544.06647
  22972778.700   120722790.79109  22972775.800    94069710.51047
 15 02 24 00 15  0.0000000  0  7G16G18G21G22G27G29G31
  21717280.680   114125099.93409  21717277.200    88928642.48648
  22577929.140   118647851.99109  22577926.340    92452872.32046
  21243733.040   111636728.17709  21243729.000    86989698.86748
  23984916.280   126041599.94308  23984913.040    98214228.17146
  22963735.000   120675264.97008  22963734.860    94032687.41947
  23830440.900   125230127.25308  23830439.500    97582040.19947
  22990019.980   120813394.57309  22990017.180    94140310.82747
 15 02 24 00 15 30.0000000  0  7G16G18G21G22G27G29G31
  21703751.520   114054004.31809  21703748.020    88873243.32448
  22566123.340   118585811.75709  22566120.500    92404529.29746
  21250605.320   111672842.08109  21250601.240    87017839.57848
  23966873.020   125946781.69008  23966869.840    98140343.90046
  22951124.020   120608993.94609  22951123.840    93981047.68747
  23844487.820   125303944.48108  23844486.520    97639560.11446
  23007295.360   120904177.92009  23007292.640    94211051.06947
 15 02 24 00 16  0.0000000  0  7G16G18G21G22G27G29G31
  21690273.780   113983178.77909  21690270.300    88818054.60948
  22554372.700   118524061.66909  22554369.800    92356412.37847
  21257540.060   111709284.60908  21257536.000    87046236.35948
  23948829.360   125851962.68908  23948826.480    98066459.15545
  22938531.160   120542817.80508  22938530.920    93929481.86548
  23858540.200   125377789.69308  23858538.820    97697101.84346
  23024603.920   120995135.55809  23024601.280    94281927.12447
 15 02 24 00 16 30.0000000  0  7G16G18G21G22G27G29G31
  21676848.280   113912627.28109  21676844.740    88763079.41248
  22542678.060   118462606.31009  22542675.120    92308525.11447
  21264537.200   111746055.61908  21264533.240    87074889.08848
  23930786.600   125757147.34307  23930783.240    97992576.99346
  22925956.640   120476738.51908  22925956.480    93877991.53748
  23872598.300   125451664.82908  23872596.580    97754666.85946
  23041945.460   121086266.50909  23041942.940    94352938.22447
 15 02 24 00 17  0.0000000  0  7G16G18G21G22G27G29G31
  21663476.540   113842357.79609  21663472.860    88708323.96948
  22531041.060   118401454.15309  22531038.240    92260874.08547
  21271597.640   111783159.57208  21271593.840    87103801.25948
  23912746.120   125662344.13309  23912742.520    97918704.49346
  22913401.660   120410761.85609  22913401.540    93826581.19547
  23886663.000   125525575.62608  23886661.360    97812259.61546
  23059320.420   121177573.45708  23059318.120    94424086.46547
 15 02 24 00 17 30.0000000  0  7G16G18G21G22G27G29G31
  21650157.380   113772364.42609  21650153.600    88653783.68748
  22519460.560   118340598.67209  22519457.740    92213454.26647
  21278719.540   111820586.28708  21278715.920    87132964.93548
  23894707.020   125567547.27408  23894703.520    97844836.93346
  22900864.660   120344879.56808  22900864.540    93775244.34748
  23900733.020   125599513.61208  23900731.220    97869873.60746
  23076726.820   121269045.03809  23076724.540    94495362.99947
 15 02 24 00 18  0.0000000  0  7G16G18G21G22G27G29G31
  21636891.880   113702653.65509  21636888.160    88599463.60848
  22507938.000   118280047.14509  22507935.160    92166271.27247
  21285903.460   111858338.32809  21285899.900    87162382.10348
  23876670.380   125472763.74108  23876666.760    97770979.68346
  22888346.400   120279095.92808  22888346.320    93723984.42748
  23914809.080   125673482.87708  23914807.080    97927511.99746
  23094164.960   121360682.74309  23094162.600    94566768.96847
 15 02 24 00 18 30.0000000  0  7G16G18G21G22G27G29G31
  21623680.680   113633228.66209  21623677.140    88545366.23148
  22496473.860   118219802.22809  22496471.020    92119327.21047
  21293149.260   111896414.81409  21293145.620    87192052.09948
  23858636.900   125377996.82008  23858633.040    97697135.40446
  22875847.180   120213411.97309  22875847.080    93672802.12147
  23928891.160   125747484.31808  23928889.280    97985175.45246
  23111634.440   121452484.41109  23111631.840    94638302.70447
 15 02 24 00 19  0.0000000  0  7G16G18G21G22G27G29G31
  21610524.160   113564090.95109  21610520.720    88491492.69648
  22485068.460   118159866.12109  22485065.660    92072623.77247
  21300456.520   111934813.86009  21300452.760    87221973.44048
  23840607.000   125283248.74608  23840602.960    97623305.80246
  22863366.780   120147826.94708  22863366.580    93621696.97747
  23942979.220   125821517.28108  23942977.460    98042863.45046
  23129134.360   121544446.23608  23129131.580    94709961.23447
 15 02 24 00 19 30.0000000  0  7G16G18G21G22G27G29G31
  21597422.700   113495242.17709  21597419.140    88437844.30148
  22473722.000   118100240.18109  22473719.340    92026162.04047
  21307824.720   111973533.16409  21307820.840    87252144.32848
  23822580.760   125188521.13508  23822576.800    97549492.19346
  22850905.040   120082340.22409  22850904.760    93570668.37647
  23957072.980   125895580.94708  23957071.420    98100575.39046
  23146664.040   121636564.79509  23146661.140    94781741.89347
 15 02 24 00 20  0.0000000  0  7G16G18G21G22G27G29G31
  21584376.980   113426686.56609  21584373.400    88384424.35948
  22462435.400   118040929.23409  22462432.840    91979945.72647
  21315253.880   112012573.16709  21315249.960    87282565.11148
  23804559.420   125093819.40008  23804555.780    97475698.71546
  22838462.560   120016954.43008  22838462.160    93519718.41547
  23971172.800   125969677.70408  23971171.520    98158313.09846
  23164223.440   121728839.60009  23164220.400    94853644.30847
 15 02 24 00 20 30.0000000  0  7G16G18G21G22G27G29G31
  21571387.060   113358424.31209  21571383.480    88331232.99048
  22451208.800   117981933.26609  22451206.020    91933974.88446
  21322743.300   112051929.87209  21322739.300    87313232.67448
  23786543.020   124999143.59108  23786539.560    97401925.43546
  22826038.840   119951667.22008  22826038.340    93468845.30547
  23985278.500   126043805.39208  23985277.440    98216074.89446
  23181811.480   121821265.18209  23181808.440    94925664.21547
 15 02 24 00 21  0.0000000  0  7G16G18G21G22G27G29G31
  21558452.700   113290454.04609  21558449.140    88278269.15348
  22440041.920   117923250.93409  22440038.920    91888248.39847
  21330291.920   112091597.88809  21330287.920    87344142.81848
  23768531.360   124904492.37508  23768527.740    97328171.29046
  22813633.120   119886475.00709  22813632.620    93418046.23047
  23999389.660   126117960.19108  23999388.680    98273857.82546
  23199426.940   121913834.87608  23199423.920    94997796.42047
 15 02 24 00 21 30.0000000  0  7G16G18G21G22G27G29G31
  21545574.720   113222779.99109  21545571.240    88225536.14148
  22428935.540   117864886.56809  22428932.500    91842769.69646
  21337899.720   112131577.33109  21337895.800    87375295.62948
  23750525.280   124809870.90508  23750521.660    97254440.35546
  22801245.860   119821379.83709  22801245.360    93367322.71047
  24013506.500   126192143.75008  24013505.340    98331663.20846
  23217069.640   122006547.68008  23217066.620    95070040.13047
 15 02 24 00 22  0.0000000  0  7G16G18G21G22G27G29G31
  21532754.600   113155409.74009  21532751.100    88173039.84648
  22417891.060   117806847.75209  22417888.120    91797544.65547
  21345567.620   112171872.79309  21345563.740    87406694.69848
  23732526.380   124715287.19308  23732523.080    97180738.84946
  22788878.200   119756387.05608  22788877.660    93316679.01248
  24027629.740   126266361.57808  24027628.560    98389495.21846
  23234740.080   122099406.07209  23234737.040    95142397.27447
 15 02 24 00 22 30.0000000  0  7G16G18G21G22G27G29G31
  21519991.740   113088340.55309  21519988.240    88120778.14148
  22406907.980   117749131.91009  22406905.300    91752571.31547
  21353294.200   112212476.73108  21353290.360    87438334.12648
  23714534.320   124620738.80508  23714531.240    97107064.84846
  22776529.040   119691491.86109  22776528.560    93266111.38547
  24041758.520   126340608.98308  24041757.480    98447350.30546
  23252436.760   122192402.17309  23252433.620    95214861.72147
 15 02 24 00 23  0.0000000  0  7G16G18G21G22G27G29G31
  21507286.680   113021575.23509  21507283.260    88068753.22048
  22395986.940   117691741.89409  22395984.500    91707851.81547
  21361079.240   112253388.02309  21361075.560    87470213.05148
  23696549.600   124526228.59708  23696546.060    97033420.57945
  22764198.480   119626694.83609  22764198.040    93215620.20647
  24055893.000   126414886.04008  24055891.640    98505228.50645
  23270159.160   122285533.41409  23270155.840    95287431.49747
 15 02 24 00 23 30.0000000  0  7G16G18G21G22G27G29G31
  21494640.080   112955117.02209  21494636.740    88016967.60048
  22385128.620   117634681.18209  22385126.160    91663388.96846
  21368922.720   112294606.18309  21368919.080    87502331.08948
  23678572.900   124431760.71908  23678569.200    96959809.30346
  22751886.840   119561997.20908  22751886.500    93165206.50247
  24070033.600   126489194.24108  24070032.080    98563130.99946
  23287906.840   122378798.02609  23287903.520    95360105.18547
 15 02 24 00 24  0.0000000  0  7G16G18G21G22G27G29G31
  21482052.120   112888966.99309  21482048.880    87965422.12748
  22374333.160   117577950.67709  22374330.520    91619183.39447
  21376824.100   112336128.07609  21376820.340    87534685.80948
  23660604.620   124337336.28408  23660601.000    96886231.87346
  22739593.900   119497397.63309  22739593.600    93114869.20147
  24084179.920   126563532.17308  24084178.320    98621056.64346
  23305678.920   122472191.71208  23305675.860    95432879.45147
 15 02 24 00 24 30.0000000  0  7G16G18G21G22G27G29G31
  21469523.760   112823129.53109  21469520.440    87914120.20848
  22363601.440   117521554.97109  22363598.580    91575238.70347
  21384783.560   112377954.76109  21384779.720    87567278.03148
  23642645.660   124242960.34808  23642642.020    96812692.26646
  22727320.160   119432898.67109  22727319.800    93064610.28747
  24098332.220   126637901.99408  24098330.720    98679007.14546
  23323475.360   122565713.87808  23323472.700    95505753.81147
 15 02 24 00 25  0.0000000  0  7G16G18G21G22G27G29G31
  21457055.760   112757609.27609  21457052.320    87863065.46848
  22352934.300   117465498.51009  22352931.260    91531558.37647
  21392801.120   112420086.46909  21392797.120    87600107.94048
  23624696.880   124148638.06108  23624692.940    96739194.44346
  22715066.000   119368502.69608  22715065.640    93014431.63048
  24112490.600   126712306.03707  24112489.480    98736984.25647
  23341296.300   122659363.94108  23341293.940    95578727.85447
 15 02 24 00 25 30.0000000  0  7G16G18G21G22G27G29G31
  21444648.020   112692406.16209  21444644.500    87812257.84748
  22342331.780   117409781.31009  22342328.600    91488142.38047
  21400875.940   112462519.55109  21400871.880    87633172.67348
  23606758.240   124054369.54808  23606754.000    96665738.50646
  22702831.060   119304207.41909  22702830.620    92964331.44348
  24126654.760   126786741.95107  24126654.440    98794986.14847
  23359140.700   122753136.38909  23359138.540    95651797.24047
 15 02 24 00 26  0.0000000  0  7G16G18G21G22G27G29G31
  21432300.120   112627517.73809  21432296.640    87761695.43848
  22331793.360   117354400.65709  22331790.080    91444988.66147
  21409006.720   112505247.11709  21409002.720    87666466.87048
  23588829.460   123960152.76608  23588825.220    96592322.88346
  22690614.360   119240008.08808  22690613.880    92914306.00448
  24140824.200   126861204.69008  24140824.220    98853009.00046
  23377007.040   122847023.48909  23377004.800    95724955.97847
 15 02 24 00 26 30.0000000  0  7G16G18G21G22G27G29G31
  21420012.640   112562946.71309  21420009.260    87711380.35448
  22321319.480   117299359.37009  22321316.140    91402099.34147
  21417193.360   112548268.43709  21417189.440    87699989.97248
  23570910.960   123865991.08008  23570906.900    96518950.21746
  22678416.140   119175905.63109  22678415.660    92864356.08348
  24154999.440   126935695.25608  24154999.280    98911053.57346
  23394894.760   122941023.34008  23394892.400    95798202.58147
 15 02 24 00 27  0.0000000  0  7G16G18G21G22G27G29G31
  21407786.660   112498698.99609  21407783.440    87661317.20248
  22310911.160   117244663.38009  22310907.960    91359479.10547
  21425436.140   112591584.69309  21425432.320    87733742.89948
  23553004.080   123771890.55308  23552999.740    96445625.16546
  22666237.020   119111903.59709  22666236.440    92814484.37948
  24169180.780   127010216.92708  24169179.880    98969122.43645
  23412803.880   123035136.39108  23412801.420    95871537.38447
 15 02 24 00 27 30.0000000  0  7G16G18G21G22G27G29G31
  21395622.620   112434777.10209  21395619.540    87611507.94648
  22300568.920   117190315.36409  22300565.880    91317130.04047
  21433734.780   112635194.64609  21433731.040    87767724.68048
  23535109.500   123677854.60708  23535105.220    96372350.45646
  22654077.020   119048002.56009  22654076.440    92764691.38747
  24183368.120   127084770.42508  24183366.500    99027216.07345
  23430733.940   123129359.92008  23430731.480    95944958.27847
 15 02 24 00 28  0.0000000  0  7G16G18G21G22G27G29G31
  21383521.000   112371183.02709  21383517.880    87561954.11648
  22290293.140   117136317.32809  22290290.360    91275053.64747
  21442089.080   112679097.03309  21442085.400    87801934.33148
  23517227.640   123583885.28208  23517223.200    96299127.63246
  22641936.100   118984202.27308  22641935.700    92714976.91348
  24197561.200   127159355.18308  24197559.120    99085334.10345
  23448684.400   123223690.53908  23448682.120    96018462.59547
 15 02 24 00 28 30.0000000  0  7G16G18G21G22G27G29G31
  21371481.800   112307916.48909  21371478.540    87512655.51448
  22280083.940   117082668.64209  22280081.300    91233249.50947
  21450498.100   112723287.38009  21450494.540    87836368.36448
  23499358.460   123489982.79809  23499354.060    96225956.95346
  22629813.900   118920500.29209  22629813.620    92665339.03048
  24211759.720   127233969.02507  24211757.780    99143474.70445
  23466654.300   123318122.68308  23466652.100    96092046.04547
 15 02 24 00 29  0.0000000  0  7G16G18G21G22G27G29G31
  21359505.800   112244981.90309  21359502.480    87463615.57948
  22269942.160   117029373.89109  22269939.640    91191721.15047
  21458962.060   112767766.24209  21458958.520    87871027.20548
  23481503.100   123396152.32709  23481498.680    96152842.35346
  22617710.940   118856899.11808  22617710.660    92615779.70648
  24225964.260   127308614.12908  24225962.580    99201639.67146
  23484643.560   123412656.06008  23484641.280    96165708.36547
 15 02 24 00 29 30.0000000  0  7G16G18G21G22G27G29G31
  21347593.600   112182382.78509  21347590.340    87414837.06248
  22259868.500   116976436.32209  22259865.940    91150471.09447
  21467480.900   112812533.11709  21467477.340    87905910.48648
  23463662.160   123302397.59908  23463657.460    96079786.77546
  22605627.440   118793400.10109  22605627.160    92566299.98648
  24240175.020   127383291.21508  24240173.380    99259829.54646
  23502651.740   123507288.86008  23502649.360    96239448.17647
 15 02 24 00 30  0.0000000  0  7G16G18G21G22G27G29G31
  21335745.500   112120120.43909  21335742.280    87366320.94948
  22249863.140   116923857.16909  22249860.440    91109500.36647
  21476054.060   112857585.04809  21476050.380    87941015.88348
  23445835.800   123208720.24908  23445831.180    96006791.49846
  22593563.220   118730002.32109  22593562.880    92516899.15148
  24254391.860   127457999.91808  24254390.000    99318044.14346
  23520677.900   123602017.00908  23520675.560    96313262.27446
 15 02 24 00 30 30.0000000  0  7G16G18G21G22G27G29G31
  21323961.720   112058195.86109  21323958.460    87318068.02448
  22239926.120   116871637.23309  22239923.320    91068809.50547
  21484680.840   112902918.50009  21484677.000    87976340.64248
  23428024.500   123115121.74808  23428019.960    95933857.63046
  22581518.100   118666704.65409  22581517.680    92467576.31048
  24268614.340   127532738.63808  24268612.340    99376282.08845
  23538721.300   123696836.46508  23538719.140    96387147.50946
 15 02 24 00 31  0.0000000  0  7G16G18G21G22G27G29G31
  21312242.820   111996612.33109  21312239.480    87270080.86748
  22230057.980   116819779.65209  22230055.080    91028401.00747
  21493361.180   112948533.50109  21493357.280    88011884.79848
  23410228.940   123021605.87208  23410224.440    95860988.17646
  22569492.260   118603508.29609  22569491.640    92418332.41548
  24282842.600   127607508.59708  24282840.640    99434544.39546
  23556781.720   123791745.27508  23556779.780    96461102.38747
 15 02 24 00 31 30.0000000  0  7G16G18G21G22G27G29G31
  21300589.060   111935371.13609  21300585.620    87222360.45948
  22220259.060   116768285.76709  22220256.080    90988275.94447
  21502094.500   112994427.17009  21502090.660    88047646.10448
  23392449.580   122928174.84409  23392445.220    95788184.84946
  22557485.600   118540412.68009  22557484.900    92369167.04148
  24297076.640   127682309.01808  24297074.780    99492830.42045
  23574858.580   123886739.66308  23574856.620    96535123.93747
 15 02 24 00 32  0.0000000  0  7G16G18G21G22G27G29G31
  21289001.120   111874475.95309  21288997.520    87174909.66748
  22210530.100   116717159.29309  22210526.980    90948437.12147
  21510880.800   113040599.79609  21510877.100    88083624.76148
  23374687.120   122834832.50808  23374682.900    95715450.60046
  22545498.420   118477419.30409  22545497.700    92320081.31048
  24311316.640   127757141.14908  24311315.020    99551141.17146
  23592951.620   123981818.21609  23592949.400    96609211.06546
 15 02 24 00 32 30.0000000  0  7G16G18G21G22G27G29G31
  21277479.840   111813931.28109  21277476.200    87127732.01148
  22200871.840   116666404.18009  22200868.600    90908887.69647
  21519720.140   113087051.09109  21519716.480    88119820.57548
  23356942.420   122741583.64808  23356938.380    95642789.18346
  22533530.980   118414530.33409  22533530.380    92271076.96548
  24325562.960   127832007.46407  24325561.640    99609478.46745
  23611060.540   124076979.95308  23611058.020    96683363.01946
 15 02 24 00 33  0.0000000  0  7G16G18G21G22G27G29G31
  21266024.900   111753735.41209  21266021.360    87080826.15548
  22191283.840   116616018.62409  22191280.520    90869626.23647
  21528611.500   113133775.64509  21528607.820    88156229.32448
  23339215.200   122648426.89108  23339211.240    95570199.53347
  22521582.620   118351742.07008  22521582.220    92222151.06148
  24339814.980   127906903.69808  24339813.580    99667839.22244
  23629183.840   124172217.77308  23629181.220    96757574.25246
 15 02 24 00 33 30.0000000  0  7G16G18G21G22G27G29G31
  21254636.660   111693890.12209  21254633.180    87034193.46048
  22181766.460   116566004.90909  22181763.300    90830654.53747
  21537554.560   113180771.80509  21537550.840    88192849.69148
  23321506.080   122555365.10508  23321502.240    95497683.90946
  22509653.440   118289054.64409  22509653.260    92173303.76148
  24354072.820   127981830.17808  24354071.580    99726223.42245
  23647321.080   124267529.34208  23647318.400    96831842.92546
 15 02 24 00 34  0.0000000  0  7G16G18G21G22G27G29G31
  21243315.480   111634396.98009  21243312.040    86987835.17348
  22172319.900   116516363.65809  22172316.920    90791973.05547
  21546548.860   113228036.92109  21546545.080    88229679.64948
  23303815.280   122462399.75508  23303811.600    95425243.42146
  22497743.380   118226467.22608  22497743.240    92124534.36348
  24368336.520   128056785.56508  24368335.160    99784630.27745
  23665471.540   124362910.32408  23665468.900    96906165.70946
 15 02 24 00 34 30.0000000  0  7G16G18G21G22G27G29G31
  21232062.060   111575259.64409  21232058.560    86941754.13448
  22162944.920   116467098.73809  22162942.020    90753584.81847
  21555594.320   113275570.80309  21555590.460    88266719.03648
  23286143.740   122369535.39808  23286139.960    95352881.61847
  22485852.700   118163981.55209  22485852.600    92075844.25648
  24382606.260   128131771.74508  24382604.720    99843061.00946
  23683634.980   124458359.50908  23683632.420    96980541.65146
 15 02 24 00 35  0.0000000  0  7G16G18G21G22G27G29G31
  21220877.060   111516482.24809  21220873.600    86895953.56848
  22153642.220   116418213.61809  22153639.380    90715492.55047
  21564690.820   113323373.12809  21564686.960    88303967.59248
  23268492.220   122276776.13109  23268488.360    95280601.72346
  22473981.800   118101599.43809  22473981.620    92027234.85448
  24396882.020   128206790.26408  24396880.100    99901517.00645
  23701811.140   124553875.67508  23701808.820    97054969.78746
 15 02 24 00 35 30.0000000  0  7G16G18G21G22G27G29G31
  21209760.920   111458067.24209  21209757.560    86850435.39648
  22144412.380   116369711.11709  22144409.520    90677698.40047
  21573838.220   113371442.73809  21573834.300    88341424.43348
  23250861.460   122184125.63408  23250857.480    95208406.58547
  22462130.720   118039321.71609  22462130.460    91978706.79348
  24411163.900   128281842.11308  24411162.220    99959998.95846
  23719999.620   124649456.50908  23719997.460    97129448.28346
 15 02 24 00 36  0.0000000  0  7G16G18G21G22G27G29G31
  21198713.740   111400014.35009  21198710.440    86805199.38848
  22135255.340   116321590.55009  22135252.520    90640201.87047
  21583035.660   113419775.38009  21583031.720    88379086.24048
  23233251.380   122091584.10708  23233247.120    95136296.36446
  22450299.040   117977145.97809  22450298.760    91930258.19748
  24425451.520   128356924.32507  24425450.360   100018504.59546
  23738199.340   124745096.50808  23738197.220    97203972.90247
 15 02 24 00 36 30.0000000  0  7G16G18G21G22G27G29G31
  21187737.240   111342332.26709  21187733.920    86760252.30848
  22126172.720   116273860.60009  22126169.900    90603009.70147
  21592284.060   113468375.89709  21592280.120    88416956.76748
  23215663.820   121999160.57709  23215659.220    95064278.08647
  22438488.080   117915078.81509  22438487.740    91881894.21548
  24439745.960   128432043.54108  24439745.380   100077038.98746
  23756410.960   124840799.07508  23756408.600    97278546.25146
 15 02 24 00 37  0.0000000  0  7G16G18G21G22G27G29G31
  21176830.100   111285014.67009  21176826.720    86715589.24648
  22117163.120   116226514.07609  22117160.280    90566116.32447
  21601581.420   113517233.88609  21601577.500    88455027.91948
  23198097.500   121906848.90008  23198092.700    94992346.94447
  22426696.260   117853111.89909  22426695.700    91833608.32548
  24454045.680   128507191.36307  24454045.780   100135595.66646
  23774632.400   124936552.76008  23774629.840    97353159.45946
 15 02 24 00 37 30.0000000  0  7G16G18G21G22G27G29G31
  21165992.940   111228064.92609  21165989.500    86671212.82648
  22108227.160   116179554.50809  22108224.080    90529524.46247
  21610927.680   113566348.75309  21610923.700    88493299.24048
  23180553.200   121814653.28609  23180548.240    94920506.25547
  22414923.720   117791246.68709  22414923.040    91785401.69248
  24468351.400   128582368.84208  24468351.400   100194175.50345
  23792863.320   125032356.00308  23792860.440    97427811.28546
 15 02 24 00 38  0.0000000  0  7G16G18G21G22G27G29G31
  21155226.520   111171486.67609  21155223.020    86627125.87048
  22099365.460   116132985.45609  22099362.140    90493236.89747
  21620322.760   113615720.25809  21620318.680    88531770.53848
  23163031.680   121722577.84209  23163026.780    94848759.19146
  22403170.820   117729484.82509  22403170.140    91737275.58548
  24482663.340   128657577.54608  24482663.060   100252779.68246
  23811103.300   125128207.43808  23811100.260    97502500.62346
 15 02 24 00 38 30.0000000  0  7G16G18G21G22G27G29G31
  21144531.000   111115280.85509  21144527.440    86583329.13348
  22090578.140   116086807.60709  22090574.700    90457254.18247
  21629766.160   113665345.67309  21629762.080    88570439.69348
  23145533.360   121630624.29109  23145528.640    94777107.11646
  22391437.380   117667825.25509  22391436.740    91689229.20148
  24496981.060   128732816.39508  24496980.460   100311407.28946
  23829351.560   125224102.86208  23829348.580    97577224.25246
 15 02 24 00 39  0.0000000  0  7G16G18G21G22G27G29G31
  21133907.240   111059452.24409  21133903.640    86539826.31948
  22081865.980   116041025.03109  22081862.620    90421579.43947
  21639257.920   113715225.42909  21639253.900    88609307.02948
  23128059.320   121538797.93709  23128054.780    94705554.15846
  22379723.900   117606270.76209  22379723.300    91641264.67648
  24511305.000   128808088.07808  24511303.720   100370060.60645
  23847608.080   125320041.91408  23847605.200    97651981.87346
 15 02 24 00 39 30.0000000  0  7G16G18G21G22G27G29G31
  21123356.020   111004005.07709  21123352.420    86496620.73248
  22073229.860   115995642.21109  22073226.660    90386216.22947
  21648798.140   113765359.80809  21648794.180    88648372.77048
  23110610.360   121447103.10709  23110606.020    94634103.68447
  22368030.780   117544823.70609  22368030.340    91593383.85548
  24525635.360   128883394.61008  24525634.160   100428740.95946
  23865872.680   125416023.76508  23865870.140    97726772.85446
 15 02 24 00 40  0.0000000  0  7G16G18G21G22G27G29G31
  21112877.240   110948938.62009  21112873.640    86453711.80648
  22064669.540   115950657.96509  22064666.540    90351163.58447
  21658386.060   113815744.84609  21658382.200    88687633.84148
  23093186.540   121355540.12909  23093182.300    94562755.95446
  22356357.560   117483481.40109  22356357.320    91545584.69348
  24539971.780   128958732.95808  24539970.680   100487446.13546
  23884144.420   125512042.82208  23884142.160    97801592.82146
 15 02 24 00 40 30.0000000  0  7G16G18G21G22G27G29G31
  21102471.060   110894254.10609  21102467.540    86411100.50348
  22056185.260   115906073.41409  22056182.400    90316422.39647
  21668021.140   113866377.60909  21668017.300    88727087.93648
  23075788.180   121264110.49109  23075783.820    94491512.12847
  22344704.200   117422243.16209  22344704.060    91497866.60748
  24554314.100   129034102.80808  24554312.960   100546175.83245
  23902422.520   125608095.13308  23902420.560    97876438.70346
 15 02 24 00 41  0.0000000  0  7G16G18G19G21G22G27G31
  21092144.200   110839986.61809  21092140.820    86368814.14748
  22047783.600   115861922.89709  22047780.700    90282019.38947
  24548036.980                                                  
  21677709.260   113917289.10809  21677705.440    88766759.21948
  23058421.980   121172849.83709  23058417.520    94420399.96547
  22333077.080   117361142.04209  22333076.840    91450255.34748
  23920712.620   125704210.75108  23920711.020    97951333.89446
 15 02 24 00 41 30.0000000  0  7G16G18G19G21G22G27G31
  21081875.480   110786024.75309  21081872.200    86326765.95048
  22039443.320   115818094.72409  22039440.420    90247867.58947
  24532832.860   128920898.75708  24532831.080   100457831.67946
  21687428.520   113968363.95609  21687424.720    88806557.80748
  23041066.780   121081647.44609  23041062.140    94349333.20547
  22321454.560   117300064.73309  22321454.140    91402662.66148
  23938992.680   125800273.08008  23938991.300    98026187.55746
 15 02 24 00 42  0.0000000  0  7G16G18G19G21G22G27G31
  21071692.340   110732512.53009  21071689.060    86285068.10648
  22031191.920   115774733.03009  22031188.920    90214079.27047
  24517649.940   128841111.17008  24517647.260   100395659.51345
  21697205.400   114019741.81809  21697201.600    88846592.49448
  23023750.100   120990648.00409  23023745.400    94278424.56447
  22309863.720   117239153.45609  22309863.080    91355199.33348
  23957289.140   125896421.40908  23957287.700    98101108.22846
 15 02 24 00 42 30.0000000  0  7G16G18G19G21G22G27G31
  21061581.520   110679380.09109  21061578.260    86243666.20948
  22023015.960   115731767.35809  22023012.760    90180599.53047
  24502475.900   128761371.41707  24502472.820   100333524.69945
  21707026.160   114071350.22609  21707022.380    88886806.84048
  23006458.680   120899781.82209  23006453.920    94207619.77747
  22298290.740   117178336.39509  22298290.060    91307809.41748
  23975587.860   125992580.89108  23975586.100    98176037.61046
 15 02 24 00 43  0.0000000  0  7G16G18G19G21G22G27G31
  21051545.780   110626641.84209  21051542.460    86202571.47048
  22014917.900   115689211.37409  22014914.660    90147439.04147
  24487313.420   128681691.95208  24487309.860   100271436.85245
  21716892.520   114123198.47109  21716888.680    88927208.06648
  22989195.520   120809064.33209  22989190.820    94136930.86647
  22286737.920   117117625.76409  22286737.280    91260502.44848
  23993890.420   126088760.51508  23993888.480    98250982.68445
 15 02 24 00 43 30.0000000  0  7G16G18G19G21G22G27G31
  21041584.980   110574297.26209  21041581.660    86161783.48948
  22006897.600   115647064.79409  22006894.480    90114597.55747
  24472161.920   128602070.35307  24472158.020   100209394.01946
  21726803.880   114175283.04309  21726799.980    88967793.44748
  22971960.760   120718495.76109  22971956.120    94066357.96047
  22275204.940   117057019.66809  22275204.320    91213276.93148
  24012195.840   126184955.35608  24012193.880    98325939.59846
 15 02 24 00 44  0.0000000  0  7G16G18G19G21G22G27G31
  21031700.540   110522354.30009  21031697.260    86121308.45248
  21998956.700   115605335.26409  21998953.680    90082081.05647
  24457022.520   128522512.70508  24457018.880   100147401.15544
  21736760.820   114227607.63309  21736757.060    89008565.84048
  22954755.940   120628084.46008  22954751.420    93995907.62647
  22263693.000   116996524.19409  22263692.400    91166137.61148
  24030504.740   126281168.35208  24030502.760    98400910.62746
 15 02 24 00 44 30.0000000  0  7G16G18G19G21G22G27G31
  21021891.800   110470809.07609  21021888.560    86081143.35148
  21991094.380   115564018.11809  21991091.260    90049885.88847
  24441894.260   128443012.65508  24441890.360   100085453.04245
  21746761.980   114280164.47009  21746758.380    89049519.21448
  22937580.460   120537826.84509  22937576.100    93925577.06347
  22252200.920   116936133.14209  22252200.280    91119079.64248
  24048815.260   126377389.87208  24048813.340    98475888.33346
 15 02 24 00 45  0.0000000  0  7G16G18G19G21G22G27G31
  21012160.000   110419667.90109  21012156.740    86041293.08248
  21983311.660   115523119.72209  21983308.540    90018017.02447
  24426777.640   128363574.82208  24426773.180   100023553.51345
  21756807.960   114332956.41209  21756804.480    89090655.79048
  22920435.680   120447730.11909  22920431.380    93855371.87447
  22240729.640   116875851.29609  22240728.960    91072106.79348
  24067127.800   126473622.03408  24067125.980    98550874.31946
 15 02 24 00 45 30.0000000  0  7G16G18G19G21G22G27G31
  21002505.420   110368932.34909  21002502.120    86001758.88848
  21975608.720   115482641.15609  21975605.660    89986475.30147
  24411672.820   128284198.43708  24411668.600    99961701.80545
  21766898.200   114385980.86309  21766894.700    89131973.53548
  22903321.900   120357796.11409  22903317.600    93785293.46447
  22229279.080   116815678.52009  22229278.440    91025218.93048
  24085441.720   126569861.47208  24085439.840    98625865.95346
 15 02 24 00 46  0.0000000  0  7G16G18G19G21G22G27G31
  20992927.900   110318601.73209  20992924.580    85962540.22448
  21967985.360   115442580.69909  21967982.400    89955259.36247
  24396579.180   128204880.85708  24396575.380    99899895.94445
  21777031.860   114439233.18009  21777028.280    89173468.84748
  22886239.160   120268025.36009  22886234.760    93715342.25247
  22217848.780   116755612.15109  22217848.220    90978413.97448
  24103755.860   126666102.43308  24103754.120    98700858.76646
 15 02 24 00 46 30.0000000  0  7G16G18G19G21G22G27G31
  20983428.440   110268681.44309  20983425.060    85923641.29848
  21960442.640   115402943.94709  21960439.760    89924373.59847
  24381497.200   128125625.54008  24381493.360    99838138.59846
  21787209.260   114492715.36309  21787205.600    89215143.26748
  22869188.520   120178423.76309  22869184.160    93645522.85247
  22206439.420   116695655.75609  22206438.940    90931694.71948
  24122070.440   126762345.33108  24122068.780    98775853.09946
 15 02 24 00 47  0.0000000  0  7G16G18G19G21G22G27G31
  20974007.140   110219171.36609  20974003.600    85885062.01048
  21952980.520   115363730.42609  21952977.640    89893817.61647
  24366426.740   128046430.17408  24366422.540    99776427.92445
  21797429.520   114546423.02309  21797425.840    89256993.38048
  22852170.120   120088991.86409  22852165.820    93575835.68147
  22195050.640   116635807.48209  22195050.220    90885059.70048
  24140384.480   126858585.16208  24140382.680    98850845.04246
 15 02 24 00 47 30.0000000  0  7G16G18G19G21G22G27G31
  20964664.600   110170075.40909  20964660.860    85846805.42448
  21945599.640   115324943.38509  21945596.680    89863593.97247
  24351368.000   127967296.94408  24351364.120    99714765.72246
  21807692.720   114600356.42709  21807688.980    89299019.40548
  22835184.740   119999733.68909  22835180.500    93506283.88547
  22183682.820   116576069.27409  22183682.460    90838510.46848
  24158697.640   126954820.63708  24158695.840    98925833.57546
 15 02 24 00 48  0.0000000  0  7G16G18G19G21G22G27G31
  20955400.600   110121392.97609  20955396.820    85808871.06148
  21938299.760   115286581.95509  21938296.740    89833701.95847
  24336320.880   127888223.64508  24336317.560    99653150.20946
  21817998.120   114654511.48309  21817994.280    89341218.15448
  22818232.520   119910649.96509  22818228.320    93436868.01847
  22172335.620   116516439.07009  22172335.140    90792045.38648
  24177008.980   127051046.95808  24177007.100    99000814.98046
 15 02 24 00 48 30.0000000  0  7G16G18G19G21G22G27G31
  20946216.000   110073128.32309  20946212.340    85771262.24748
  21931081.580   115248650.17309  21931078.580    89804144.74547
  24321285.200   127809211.89807  24321281.760    99591582.65346
  21828345.780   114708888.78209  21828341.860    89383590.07348
  22801314.360   119821745.04409  22801310.220    93367591.47547
  22161009.460   116456919.29309  22161008.780    90745666.34548
  24195318.300   127147263.16808  24195316.500    99075788.48946
 15 02 24 00 49  0.0000000  0  7G16G18G19G21G22G27G31
  20937110.920   110025281.55409  20937107.400    85733979.04848
  21923944.900   115211147.21309  21923941.960    89774921.66547
  24306261.100   127730259.76908  24306257.140    99530061.54745
  21838734.760   114763483.65609  21838730.920    89426131.52948
  22784430.540   119733020.02308  22784426.420    93298455.14047
  22149703.880   116397508.07409  22149703.180    90699371.90548
  24213624.760   127243464.23008  24213623.080    99150750.17546
 15 02 24 00 49 30.0000000  0  7G16G18G19G21G22G27G31
  20928086.400   109977857.64409  20928082.940    85697025.36048
  21916890.740   115174077.83009  21916887.860    89746036.45447
  24291249.060   127651370.73508  24291244.880    99468589.64045
  21849165.620   114818298.40509  21849161.800    89468844.32348
  22767582.120   119644480.83909  22767577.940    93229463.62247
  22138419.660   116338209.06409  22138418.920    90653164.89748
  24231928.520   127339650.85508  24231926.860    99225700.63446
 15 02 24 00 50  0.0000000  0  7G16G18G19G21G22G27G31
  20919142.120   109930855.09309  20919138.700    85660399.99048
  21909918.840   115137440.06509  21909915.840    89717487.55247
  24276248.280   127572541.06807  24276244.440    99407163.92346
  21859637.200   114873326.99009  21859633.440    89511723.73248
  22750768.860   119556126.09709  22750764.500    93160615.76047
  22127156.040   116279018.56409  22127155.300    90607042.43648
  24250228.220   127435816.19308  24250226.740    99300634.50646
 15 02 24 00 50 30.0000000  0  7G16G18G19G21G22G27G31
  20910279.820   109884283.61809  20910276.480    85624110.53748
  21903030.900   115101243.04409  21903027.760    89689282.08347
  24261260.000   127493778.71408  24261256.620    99345790.75746
  21870150.660   114928575.42209  21870146.960    89554774.45448
  22733992.640   119467966.27908  22733988.200    93091919.81447
  22115914.600   116219944.85009  22115913.900    90561010.99348
  24268524.800   127531965.41808  24268523.540    99375555.77346
 15 02 24 00 51  0.0000000  0  7G16G18G19G21G22G27G31
  20901497.640   109838133.02409  20901494.280    85588149.04148
  21896224.820   115065476.23709  21896221.680    89661411.86147
  24246282.540   127415071.84107  24246279.180    99284460.71945
  21880703.360   114984029.96109  21880699.660    89597985.77748
  22717251.600   119379991.65709  22717247.180    93023368.21047
  22104693.220   116160976.16609  22104692.460    90515061.36948
  24286815.600   127628083.51108  24286814.280    99450452.81545
 15 02 24 00 51 30.0000000  0  7G16G18G19G21G22G27G31
  20892798.020   109792415.83409  20892794.540    85552525.25948
  21889502.820   115030151.31909  21889499.660    89633885.96547
  24231317.440   127336430.29607  24231314.600    99223181.63046
  21891296.980   115039699.80509  21891293.280    89641364.86448
  22700548.420   119292216.12908  22700544.060    92954971.71147
  22093493.800   116102123.11109  22093493.100    90469201.86448
  24305101.900   127724178.10908  24305100.620    99525331.50746
 15 02 24 00 52  0.0000000  0  7G16G18G19G21G22G27G31
  20884180.400   109747129.37309  20884176.800    85517237.09948
  21882864.360   114995265.64209  21882861.140    89606702.33347
  24216364.240   127257850.16608  24216360.980    99161950.33346
  21901930.360   115095578.76709  21901926.700    89684906.90448
  22683882.700   119204637.54209  22683878.360    92886728.70847
  22082315.620   116043381.59909  22082315.060    90423429.26148
  24323382.460   127820242.13608  24323381.340    99600186.42146
 15 02 24 00 52 30.0000000  0  7G16G18G19G21G22G27G31
  20875644.700   109702273.66709  20875641.120    85482284.60748
  21876309.400   114960818.73809  21876306.100    89579860.60347
  24201422.300   127179329.32608  24201419.320    99100765.36246
  21912602.780   115151662.73109  21912599.140    89728608.69248
  22667254.620   119117256.36609  22667250.240    92818639.47147
  22071158.380   115984749.93909  22071157.880    90377742.27448
  24341656.240   127916270.56008  24341655.120    99675013.58646
 15 02 24 00 53  0.0000000  0  7G16G18G19G21G22G27G31
  20867192.020   109657854.85709  20867188.560    85447672.55248
  21869838.920   114926816.07509  21869835.640    89553365.03547
  24186492.520   127100872.28208  24186489.420    99039630.00946
  21923314.580   115207953.69109  21923310.940    89772471.77248
  22650665.480   119030079.55509  22650661.060    92750709.51347
  22060022.880   115926232.58109  22060022.380    90332144.34548
  24359923.520   128012264.92308  24359922.520    99749814.17646
 15 02 24 00 53 30.0000000  0  7G16G18G19G21G22G27G31
  20858822.620   109613873.41109  20858819.160    85413401.29748
  21863452.860   114893257.54809  21863449.620    89527215.54947
  24171574.620   127022477.62408  24171571.280    98978543.25645
  21934065.160   115264448.80709  21934061.500    89816493.92948
  22634115.600   118943108.67109  22634111.080    92682940.06747
  22048908.960   115867828.46609  22048908.400    90286634.65948
  24378183.460   128108220.62008  24378182.380    99824584.59546
 15 02 24 00 54  0.0000000  0  7G16G18G19G21G22G27G31
  20850537.160   109570332.75909  20850533.620    85379473.51848
  21857151.820   114860145.99709  21857148.620    89501414.35347
  24156668.680   126944146.24908  24156665.280    98917505.90946
  21944854.700   115321148.07209  21944850.980    89860675.17548
  22617605.620   118856347.46209  22617601.020    92615333.91447
  22037817.000   115809539.36609  22037816.320    90241214.57948
  24396435.940   128204136.72108  24396434.620    99899324.21545
 15 02 24 00 54 30.0000000  0  7G16G18G19G21G22G27G31
  20842335.540   109527233.03909  20842332.000    85345889.31748
  21850935.780   114827481.16209  21850932.680    89475961.22947
  24141774.380   126865876.97607  24141770.860    98856516.88346
  21955682.460   115378048.01708  21955678.700    89905012.78448
  22601135.680   118769796.87309  22601130.980    92547891.92947
