     2.11           OBSERVATION DATA    G                   RINEX VERSION / TYPE
SPIDER V4,0,0,3554                      2015 03 18 02:23    PGM / RUN BY / DATE 
CKTS                                                        MARKER NAME         
CKTS                                                        MARKER NUMBER       
                                                            OBSERVER / AGENCY   
496659              LEICA GRX1200+GNSS  8.10/4.007          REC # / TYPE / VERS 
10321004            LEIAR25         NONE                    ANT # / TYPE        
  5190783.6897   517202.7561  3658836.0979                  APPROX POSITION XYZ 
        0.0720        0.0000        0.0000                  ANTENNA: DELTA H/E/N
     1     1                                                WAVELENGTH FACT L1/2
     4    C1    L1    P2    L2                              # / TYPES OF OBSERV 
    30.000                                                  INTERVAL            
  2015    02    24    00    00    0.0000000     GPS         TIME OF FIRST OBS   
  2015    02    24    23    59   30.0000000     GPS         TIME OF LAST OBS    
    16                                                      LEAP SECONDS        
    30                                                      # OF SATELLITES     
   G 1   818   818   818   818                              PRN / # OF OBS      
   G 2   776   776   775   775                              PRN / # OF OBS      
   G 3   852   852   852   852                              PRN / # OF OBS      
   G 4   842   842   842   842                              PRN / # OF OBS      
   G 5   471   471   471   471                              PRN / # OF OBS      
   G 6   627   627   626   626                              PRN / # OF OBS      
   G 7   656   655   655   655                              PRN / # OF OBS      
   G 9   806   805   805   805                              PRN / # OF OBS      
   G10   628   628   628   628                              PRN / # OF OBS      
   G11   778   778   777   777                              PRN / # OF OBS      
   G12   795   795   795   795                              PRN / # OF OBS      
   G13   783   783   783   783                              PRN / # OF OBS      
   G14   774   773   772   772                              PRN / # OF OBS      
   G15   595   595   595   595                              PRN / # OF OBS      
   G16   554   554   554   554                              PRN / # OF OBS      
   G17   773   773   773   773                              PRN / # OF OBS      
   G18   724   724   723   723                              PRN / # OF OBS      
   G19   666   666   666   666                              PRN / # OF OBS      
   G20   753   753   753   753                              PRN / # OF OBS      
   G21   729   729   729   729                              PRN / # OF OBS      
   G22   659   659   659   659                              PRN / # OF OBS      
   G23   750   750   750   750                              PRN / # OF OBS      
   G24   829   829   829   829                              PRN / # OF OBS      
   G25   849   849   849   849                              PRN / # OF OBS      
   G27   814   814   814   814                              PRN / # OF OBS      
   G28   594   593   591   591                              PRN / # OF OBS      
   G29   753   753   752   752                              PRN / # OF OBS      
   G30   702   702   702   702                              PRN / # OF OBS      
   G31   687   687   687   687                              PRN / # OF OBS      
   G32   765   764   764   764                              PRN / # OF OBS      
BIT 2 OF LLI FLAGS DATA COLLECTED UNDER A/S CONDITION       COMMENT             
SNR is mapped to RINEX snr flag value [2-9]                 COMMENT             
Lx:     = 25dBHz -> 1; 26-27dBHz -> 2; 28-31dBHz -> 3       COMMENT             
       32-35dBHz -> 4; 36-38dBHz -> 5; 39-41dBHz -> 6       COMMENT             
       42-44dBHz -> 7; 45-48dBHz -> 8; >=49dBHz -> 9        COMMENT             
                                                            END OF HEADER       
 15 02 24 00 00  0.0000000  0  8G16G18G21G22G25G27G29G31
  22204288.520   116684334.06109  22204285.120    90922855.48647
  22890484.600   120290338.11508  22890481.400    93732730.67746
  21077335.600   110762148.47808  21077331.800    86308154.41148
  24437052.420   128417579.90507  24437049.520   100065634.96445
  24339966.620   127907377.02208  24339967.520    99668083.67745
  23378441.320   122854554.08808  23378441.240    95730830.66346
  23429412.100   123122380.84408  23429410.300    95939501.21146
  22434710.680   117895193.29609  22434707.840    91866367.20248
 15 02 24 00 00 30.0000000  0  8G16G18G21G22G25G27G29G31
  22189258.860   116605352.45709  22189255.360    90861311.40247
  22877458.260   120221884.08108  22877455.020    93679389.91446
  21082467.340   110789115.84608  21082463.420    86329167.93848
  24419273.320   128324150.38808  24419270.420    99992832.93545
  24358527.760   128004915.80108  24358528.620    99744087.87845
  23365496.300   122786525.75708  23365495.780    95677821.56846
  23443047.220   123194034.38308  23443045.160    95995335.10246
  22450455.420   117977931.64809  22450452.360    91930838.61548
 15 02 24 00 01  0.0000000  0  8G16G18G21G22G25G27G29G31
  22174267.180   116526570.21909  22174263.620    90799922.63447
  22864474.820   120153655.87708  22864471.700    93626225.11546
  21087670.200   110816457.14408  21087666.260    86350472.85848
  24401481.860   128230655.60308  24401478.840    99919979.98145
  24377121.300   128102624.33908  24377121.580    99820224.38044
  23352569.240   122718592.55808  23352568.420    95624886.66046
  23456688.780   123265720.30308  23456687.020    96051194.23447
  22466252.160   118060943.08909  22466248.960    91995522.83248
 15 02 24 00 01 30.0000000  0  8G16G18G21G22G25G27G29G31
  22159314.560   116447993.75209  22159310.760    90738694.24947
  22851535.680   120085660.10909  22851532.600    93573241.43046
  21092944.580   110844174.34008  21092940.660    86372070.65548
  24383678.960   128137101.71208  24383675.860    99847081.01745
  24395747.380   128200505.29108  24395747.820    99896495.21245
  23339660.600   122650758.42108  23339659.620    95572028.94146
  23470337.160   123337442.61408  23470335.860    96107081.69847
  22482101.080   118144228.88509  22482097.760    92060420.82948
 15 02 24 00 02  0.0000000  0  8G16G18G21G22G25G27G29G31
  22144399.380   116369614.70109  22144395.840    90677619.69747
  22838639.220   120017888.82509  22838636.120    93520432.66046
  21098288.360   110872256.00709  21098284.420    86393952.49348
  24365863.440   128043481.17908  24365860.280    99774130.09845
  24414403.840   128298546.96407  24414404.580    99972891.26545
  23326768.820   122583012.97408  23326767.860    95519240.31146
  23483990.640   123409191.01609  23483989.080    96162989.54846
  22497999.560   118227775.73009  22497996.240    92125522.24248
 15 02 24 00 02 30.0000000  0  8G16G18G21G22G25G27G29G31
  22129522.920   116291438.47009  22129519.580    90616703.16847
  22825786.400   119950347.63808  22825783.440    93467803.19546
  21103701.660   110900703.43708  21103697.800    86416119.32648
  24348036.300   127949799.50408  24348033.180    99701131.54645
  24433091.220   128396751.11707  24433092.420   100049413.96345
  23313894.680   122515359.29808  23313894.100    95466523.19446
  23497649.500   123480968.30508  23497647.320    96218919.86047
  22513947.700   118311584.01309  22513944.440    92190827.37748
 15 02 24 00 03  0.0000000  0  8G16G18G21G22G25G27G29G31
  22114685.740   116213469.34609  22114682.540    90555948.06847
  22812978.280   119883041.83208  22812975.500    93415357.15146
  21109184.820   110929518.11308  21109181.040    86438572.32948
  24330198.460   127856061.52708  24330195.380    99628089.10545
  24451809.820   128495118.90208  24451811.020   100126064.13244
  23301038.540   122447799.73208  23301038.200    95413879.40847
  23511314.080   123552776.42608  23511312.160    96274874.22547
  22529945.460   118395653.10709  22529942.300    92256335.72448
 15 02 24 00 03 30.0000000  0  8G16G18G21G22G25G27G29G31
  22099887.980   116135706.15409  22099884.580    90495353.31347
  22800214.960   119815970.56609  22800212.200    93363093.84846
  21114736.840   110958694.18808  21114733.020    86461306.94748
  24312349.760   127762266.15908  24312346.480    99555001.91845
  24470558.800   128593645.18608  24470559.960   100202837.82944
  23288199.560   122380330.58608  23288199.440    95361306.12847
  23524984.180   123624612.20108  23524982.380    96330850.13247
  22545991.540   118479976.33109  22545988.580    92322042.11248
 15 02 24 00 04  0.0000000  0  8G16G18G21G22G25G27G29G31
  22085131.460   116058160.33609  22085128.200    90434928.06647
  22787498.580   119749145.29909  22787495.800    93311022.24046
  21120359.260   110988240.16308  21120355.440    86484329.78648
  24294492.320   127668425.30108  24294488.920    99481879.32445
  24489339.580   128692338.10008  24489340.980   100279741.35345
  23275379.240   122312961.22108  23275379.540    95308810.58847
  23538660.840   123696484.87408  23538659.320    96386854.77346
  22562087.280   118564560.43309  22562084.460    92387951.77047
 15 02 24 00 04 30.0000000  0  8G16G18G21G22G25G27G29G31
  22070414.520   115980822.48309  22070411.220    90374664.82547
  22774827.400   119682557.46509  22774824.580    93259135.65146
  21126049.560   111018142.83909  21126045.700    86507630.55248
  24276624.460   127574529.74107  24276621.000    99408714.07546
  24508149.600   128791184.56307  24508150.980   100356764.53644
  23262576.100   122245679.94508  23262576.080    95256383.64347
  23552342.200   123768381.82109  23552340.900    96442878.33146
  22578229.900   118649390.72109  22578227.080    92454053.26847
 15 02 24 00 05  0.0000000  0  8G16G18G21G22G25G27G29G31
  22055738.120   115903698.27909  22055735.040    90314568.05748
  22762202.400   119616212.65609  22762199.680    93207438.43546
  21131808.040   111048404.06309  21131804.220    86531210.73548
  24258747.300   127480585.42808  24258743.860    99335510.87545
  24526989.320   128890186.82708  24526990.580   100433909.08245
  23249790.360   122178490.32808  23249790.440    95204028.15047
  23566029.400   123840307.51809  23566027.560    96498924.33146
  22594419.560   118734468.07609  22594416.740    92520347.27448
 15 02 24 00 05 30.0000000  0  8G16G18G21G22G25G27G29G31
  22041103.580   115826793.91709  22041100.660    90254642.61547
  22749625.000   119550118.13809  22749622.280    93155936.23646
  21137635.240   111079026.14008  21137631.380    86555072.12248
  24240862.300   127386599.37308  24240858.880    99262275.09545
  24545859.100   128989347.66708  24545860.360   100511177.23545
  23237022.720   122111396.49508  23237023.060    95151747.29247
  23579722.640   123912266.11108  23579719.940    96554995.94746
  22610656.480   118819793.59609  22610653.720    92586834.68448
 15 02 24 00 06  0.0000000  0  8G16G18G21G22G25G27G29G31
  22026510.600   115750107.56109  22026507.700    90194887.05947
  22737094.740   119484271.64508  22737091.940    93104627.31146
  21143530.040   111110003.20008  21143526.100    86579210.09748
  24222969.060   127292569.58908  24222965.400    99189005.24045
  24564758.040   129088661.27408  24564759.040   100588564.42245
  23224272.500   122044393.92008  23224273.040    95099537.55547
  23593420.940   123984252.17708  23593418.780    96611088.98646
  22626939.300   118905360.12409  22626936.620    92653509.87347
 15 02 24 00 06 30.0000000  0  8G16G18G21G22G25G27G29G31
  22011959.480   115673640.74609  22011956.380    90135302.51047
  22724612.100   119418675.60709  22724609.220    93053513.54446
  21149492.140   111141334.01808  21149488.200    86603623.72848
  24205067.780   127198498.06108  24205064.120    99115702.87845
  24583685.680   129188125.85308  24583686.460   100666069.22144
  23211539.740   121977482.26808  23211540.200    95047398.62647
  23607124.760   124056265.82508  23607122.800    96667203.48046
  22643267.360   118991164.24609  22643264.660    92720370.18847
 15 02 24 00 07  0.0000000  0  8G16G18G21G22G25G27G29G31
  21997451.260   115597399.41409  21997448.200    90075893.70747
  22712178.340   119353335.82809  22712175.440    93002599.46546
  21155521.780   111173019.84808  21155517.840    86628314.00248
  24187159.660   127104390.78608  24187156.000    99042372.62045
  24602642.380   129287743.51108  24602643.500   100743693.31245
  23198825.060   121910664.88608  23198824.780    94995333.16347
  23620834.360   124128310.28608  23620832.160    96723342.01246
  22659640.780   119077206.52409  22659638.020    92787416.09647
 15 02 24 00 07 30.0000000  0  8G16G18G21G22G25G27G29G31
  21982985.720   115521382.93809  21982982.580    90016660.11147
  22699793.460   119288252.34509  22699790.600    92951885.08846
  21161618.220   111205056.84909  21161614.240    86653277.88848
  24169244.700   127010248.18208  24169241.140    98969014.90345
  24621627.620   129387510.56708  24621628.300   100821433.87344
  23186127.620   121843939.46008  23186127.220    94943339.38747
  23634549.440   124200382.98708  23634547.000    96779502.57746
  22676058.440   119163481.81509  22676055.680    92854643.56547
 15 02 24 00 08  0.0000000  0  8G16G18G21G22G25G27G29G31
  21968564.140   115445596.49809  21968560.940    89957605.74647
  22687458.460   119223430.74709  22687455.480    92901374.77446
  21167781.740   111237446.39909  21167777.720    86678516.49948
  24151324.040   126916075.51807  24151320.580    98895633.70446
  24640641.400   129487428.35007  24640641.700   100899291.80744
  23173448.140   121777308.77309  23173447.660    94891419.41147
  23648270.220   124272486.99508  23648268.580    96835687.45546
  22692520.340   119249990.08509  22692517.660    92922052.57247
 15 02 24 00 08 30.0000000  0  8G16G18G21G22G25G27G29G31
  21954185.800   115370037.27309  21954182.380    89898728.44247
  22675172.800   119158868.70809  22675169.640    92851066.71646
  21174011.060   111270182.12208  21174007.080    86704024.87748
  24133397.200   126821870.18208  24133393.740    98822227.07745
  24659682.580   129587490.32907  24659682.320   100977262.17045
  23160785.900   121710767.77509  23160785.420    94839569.29947
  23661996.320   124344617.23108  23661994.640    96891892.80546
  22709025.080   119336723.21909  22709022.360    92989636.81447
 15 02 24 00 09  0.0000000  0  8G16G18G21G22G25G27G29G31
  21939851.300   115294708.78009  21939847.780    89840030.92847
  22662937.120   119094569.62409  22662933.800    92800963.54846
  21180306.180   111303263.35409  21180302.220    86729802.45248
  24115464.880   126727635.82408  24115461.480    98748797.80545
  24678751.320   129687696.26508  24678751.240   101055344.64144
  23148140.780   121644317.47308  23148140.160    94787789.85947
  23675727.860   124416774.51408  23675725.380    96948119.29946
  22725572.280   119423679.28109  22725569.560    93057394.76047
 15 02 24 00 09 30.0000000  0  8G16G18G21G22G25G27G29G31
  21925562.360   115219620.30409  21925558.860    89781520.46447
  22650753.240   119030543.35109  22650750.120    92751072.97346
  21186668.180   111336695.89208  21186664.160    86755853.78848
  24097529.080   126633382.64308  24097525.720    98675353.86245
  24697848.360   129788052.12708  24697848.240   101133543.96945
  23135514.040   121577965.24608  23135513.600    94736086.87647
  23689465.520   124488966.25208  23689462.940    97004372.53346
  22742162.800   119510862.87109  22742160.060    93125329.99447
 15 02 24 00 10  0.0000000  0  8G16G18G21G22G25G27G29G31
  21911318.220   115144766.47209  21911314.340    89723192.80347
  22638620.200   118966784.77609  22638617.420    92701391.01146
  21193095.180   111370470.02109  21193091.160    86782171.30248
  24079588.500   126539104.98408  24079585.240    98601890.88745
  24716972.140   129888548.43908  24716972.500   101211852.67644
  23122904.800   121511703.16109  23122904.620    94684454.12647
  23703207.840   124561184.21808  23703205.720    97060646.26746
  22758794.580   119598263.21009  22758791.760    93193434.14247
 15 02 24 00 10 30.0000000  0  8G16G18G21G22G25G27G29G31
  21897119.420   115070151.57909  21897115.700    89665051.35947
  22626539.000   118903298.35109  22626536.380    92651921.09046
  21199587.360   111404586.39909  21199583.260    86808755.49348
  24061644.200   126444807.67108  24061640.880    98528412.54545
  24736122.640   129989186.13407  24736123.080   101290271.61745
  23110313.280   121445533.39408  23110313.200    94632893.33047
  23716955.940   124633430.61408  23716953.680    97116942.17646
  22775467.440   119685879.11309  22775464.540    93261706.25347
 15 02 24 00 11  0.0000000  0  8G16G18G21G22G25G27G29G31
  21882966.560   114995778.17409  21882963.020    89607098.08647
  22614510.160   118840086.90309  22614507.480    92602665.42946
  21206144.380   111439043.72508  21206140.260    86835605.36948
  24043696.820   126350494.01208  24043693.560    98454921.48145
  24755299.700   130089964.09807  24755301.040   101368799.82445
  23097739.240   121379456.42308  23097739.060    94581404.84247
  23730709.620   124705705.79708  23730707.560    97173260.48646
  22792180.980   119773708.76209  22792178.140    93330144.88447
 15 02 24 00 11 30.0000000  0  8G16G18G21G22G25G27G29G31
  21868859.920   114921647.86409  21868856.800    89549334.26347
  22602534.020   118777152.47809  22602531.220    92553625.63946
  21212765.920   111473840.24908  21212761.920    86862719.54448
  24025746.700   126256165.85508  24025743.420    98381419.12945
  24774503.360   130190880.47507  24774504.740   101447435.91444
  23085182.660   121313471.70909  23085182.080    94529988.21147
  23744468.640   124778009.99808  23744467.020    97229601.34046
  22808934.480   119861748.41809  22808931.700    93398747.18247
 15 02 24 00 12  0.0000000  0  8G16G18G21G22G25G27G29G31
  21854800.660   114847765.44409  21854797.320    89491763.52848
  22590611.600   118714499.72709  22590608.800    92504805.32846
  21219452.080   111508976.26808  21219448.100    86890098.25248
  24007794.800   126161827.71108  24007791.340    98307908.99346
  24793733.520   130291935.80807  24793735.260   101526180.25645
  23072644.180   121247581.30008  23072643.360    94478645.03947
  23758233.160   124850344.32608  23758231.200    97285965.76046
  22825727.740   119949997.21409  22825725.020    93467512.45347
 15 02 24 00 12 30.0000000  0  8G16G18G21G22G25G27G29G31
  21840787.960   114774127.70409  21840784.540    89434383.47148
  22578742.400   118652126.04009  22578739.620    92456202.47646
  21226201.660   111544445.51308  21226197.680    86917736.64748
  23989840.720   126067477.58208  23989837.060    98234389.48845
  24812989.020   130393123.76307  24812990.660   101605027.96644
  23060122.800   121181780.29508  23060122.000    94427371.55947
  23772002.700   124922704.16008  23772000.300    97342350.03246
  22842559.240   120038447.27509  22842556.580    93536434.55647
 15 02 24 00 13  0.0000000  0  7G16G18G21G22G27G29G31
  21826823.000   114700740.93909  21826819.360    89377198.99647
  22566927.220   118590036.93409  22566924.540    92407821.38546
  21233014.960   111580249.46808  21233010.960    86945635.83948
  23971885.440   125973121.31308  23971881.500    98160865.20245
  23047618.700   121116072.03308  23047618.220    94376170.39446
  23785777.920   124995092.87308  23785775.940    97398756.79846
  22859429.120   120127098.91409  22859426.440    93605513.73147
 15 02 24 00 13 30.0000000  0  7G16G18G21G22G27G29G31
  21812906.440   114627608.26609  21812902.660    89320212.48347
  22555167.000   118528237.36509  22555164.360    92359665.89346
  21239891.920   111616388.11609  21239887.880    86973795.80348
  23953929.640   125878762.87908  23953925.500    98087339.25245
  23035132.720   121050457.99909  23035131.800    94325042.56546
  23799558.600   125067511.68308  23799557.420    97455187.01646
  22876337.120   120215950.89109  22876334.280    93674748.99347
 15 02 24 00 14  0.0000000  0  7G16G18G21G22G27G29G31
  21799038.340   114554730.51709  21799034.320    89263424.62848
  22543462.060   118466727.95309  22543459.400    92311736.51346
  21246831.960   111652858.04908  21246827.880    87002213.95148
  23935973.600   125784403.82208  23935969.480    98013812.81745
  23022664.420   120984936.81608  23022663.460    94273987.09647
  23813344.960   125139959.50208  23813344.020    97511639.83347
  22893282.400   120304998.73309  22893279.400    93744136.91647
 15 02 24 00 14 30.0000000  0  7G16G18G21G22G27G29G31
  21785218.660   114482107.78409  21785214.760    89206835.52548
  22531812.440   118405508.60209  22531809.600    92264033.14046
  21253834.400   111689655.94008  21253830.260    87030887.62348
  23918017.420   125690044.11908  23918013.240    97940285.86545
  23010213.480   120919506.15909  23010212.740    94223002.21147
  23827136.460   125212433.91708  23827135.600    97568113.35846
  22910263.960   120394237.49709  22910260.780    93813673.55347
 15 02 24 00 15  0.0000000  0  7G16G18G21G22G27G29G31
  21771448.060   114409743.46009  21771444.440    89150447.77148
  22520218.640   118344582.77709  22520215.760    92216558.50046
  21260898.840   111726780.52508  21260894.860    87059815.88748
  23900061.800   125595687.29508  23900057.680    97866761.15846
  22997779.940   120854166.98209  22997779.680    94172088.63647
  23840933.020   125284935.68108  23840931.740    97624608.25345
  22927281.380   120483664.74509  22927278.060    93883357.09447
 15 02 24 00 15 30.0000000  0  7G16G18G21G22G27G29G31
  21757727.460   114337642.02009  21757724.000    89094264.86748
  22508681.580   118283955.18409  22508678.760    92169316.24846
  21268025.580   111764232.60808  21268021.760    87088999.34348
  23882107.700   125501338.53308  23882103.660    97793242.71746
  22985364.240   120788921.68308  22985363.680    94121248.12547
  23854735.240   125357467.19908  23854734.000    97681126.30146
  22944334.640   120573280.03709  22944331.220    93953187.17547
 15 02 24 00 16  0.0000000  0  7G16G18G21G22G27G29G31
  21744057.620   114265807.38709  21744054.360    89038289.85548
  22497202.080   118223629.71809  22497199.260    92122309.42247
  21275214.780   111802012.54309  21275211.000    87118438.24948
  23864155.900   125407002.18508  23864152.020    97719733.97246
  22972966.540   120723771.87208  22972965.540    94070482.04647
  23868543.260   125430030.19808  23868542.440    97737668.86046
  22961423.500   120663082.16109  22961420.040    94023162.81947
 15 02 24 00 16 30.0000000  0  7G16G18G21G22G27G29G31
  21730438.160   114194236.63109  21730435.060    88982520.43748
  22485779.700   118163603.94909  22485776.660    92075536.11046
  21282465.100   111840113.14508  21282461.260    87148127.03448
  23846205.860   125312675.41008  23846202.240    97646232.69146
  22960585.900   120658712.50108  22960584.800    94019786.47047
  23882356.520   125502619.60808  23882355.900    97794231.95746
  22978546.360   120753063.09509  22978542.980    94093277.80747
 15 02 24 00 17  0.0000000  0  7G16G18G21G22G27G29G31
  21716868.760   114122928.45409  21716865.240    88926955.60348
  22474414.120   118103877.09209  22474410.840    92028995.72047
  21289775.580   111878529.59509  21289771.700    87178061.92948
  23828257.600   125218357.72408  23828254.060    97572738.48646
  22948222.120   120593740.18609  22948221.140    93969158.72147
  23896174.520   125575231.76208  23896173.240    97850812.92046
  22995702.040   120843216.36009  22995698.680    94163527.06847
 15 02 24 00 17 30.0000000  0  7G16G18G21G22G27G29G31
  21703351.380   114051894.21609  21703347.860    88871604.25748
  22463107.320   118044459.87209  22463104.060    91982696.61446
  21297147.580   111917268.99208  21297143.620    87208248.46948
  23810313.400   125124060.58408  23810309.720    97499260.27945
  22935876.580   120528863.75708  22935876.200    93918605.67947
  23909998.580   125647875.90408  23909996.880    97907418.71046
  23012891.620   120933547.83709  23012888.280    94233915.20147
 15 02 24 00 18  0.0000000  0  7G16G18G21G22G27G29G31
  21689886.720   113981137.33909  21689883.240    88816469.04948
  22451860.220   117985356.45909  22451857.160    91936642.03346
  21304580.860   111956330.70009  21304576.780    87238686.16448
  23792373.940   125029787.81508  23792369.840    97425801.04845
  22923549.360   120464084.48308  22923549.120    93868128.35847
  23923828.360   125720552.90708  23923826.780    97964050.07646
  23030114.740   121024055.87009  23030111.500    94304440.90447
 15 02 24 00 18 30.0000000  0  7G16G18G21G22G27G29G31
  21676473.740   113910651.42009  21676470.060    88761544.94148
  22440671.580   117926559.88009  22440668.560    91890826.55447
  21312073.420   111995704.23009  21312069.420    87269366.83448
  23774437.940   124935533.08908  23774433.660    97352355.87745
  22911238.880   120399393.55608  22911238.560    93817719.86047
  23937663.080   125793254.10308  23937661.500    98020700.32146
  23047369.180   121114728.68809  23047366.160    94375095.01547
 15 02 24 00 19  0.0000000  0  7G16G18G21G22G27G29G31
  21663112.880   113840440.02609  21663109.480    88706834.78148
  22429542.180   117868074.36709  22429539.080    91845253.44647
  21319625.300   112035389.78708  21319621.420    87300290.63748
  23756506.140   124841300.77008  23756501.760    97278928.16546
  22898945.520   120334792.47208  22898945.540    93767381.40447
  23951502.800   125865980.83808  23951501.040    98077370.50446
  23064654.740   121205564.58009  23064651.760    94445876.20147
 15 02 24 00 19 30.0000000  0  7G16G18G21G22G27G29G31
  21649805.500   113770509.87109  21649802.320    88652343.83148
  22418473.180   117809906.36609  22418470.120    91799927.74546
  21327237.080   112075390.02108  21327233.240    87331459.68448
  23738579.840   124747097.68008  23738575.500    97205523.24046
  22886670.100   120270285.51208  22886670.280    93717116.28747
  23965348.300   125938737.61108  23965346.440    98134064.04046
  23081971.640   121296565.22509  23081968.700    94516785.75147
 15 02 24 00 20  0.0000000  0  7G16G18G21G22G27G29G31
  21636552.920   113700866.89609  21636549.640    88598076.51048
  22407465.780   117752062.16309  22407462.840    91754854.36447
  21334909.200   112115706.98509  21334905.340    87362875.46648
  23720660.400   124652930.66608  23720656.100    97132146.42446
  22874413.600   120205876.82808  22874413.420    93666927.73347
  23979199.520   126011528.21308  23979198.100    98190783.94146
  23099320.000   121387731.63209  23099317.100    94587824.48447
 15 02 24 00 20 30.0000000  0  7G16G18G21G22G27G29G31
  21623353.760   113631503.63109  21623350.020    88544027.19647
  22396518.640   117694534.25109  22396515.600    91710027.44346
  21342639.320   112156329.01808  21342635.400    87394528.99748
  23702746.420   124558792.16508  23702742.120    97058791.83846
  22862173.920   120141556.54408  22862173.500    93616808.07047
  23993055.580   126084343.09308  23993053.500    98247522.79845
  23116697.420   121479050.76409  23116694.480    94658982.22047
 15 02 24 00 21  0.0000000  0  7G16G18G21G22G27G29G31
  21610207.640   113562420.19409  21610204.060    88490195.98948
  22385631.640   117637322.69309  22385628.580    91665447.02647
  21350426.700   112197252.27608  21350422.800    87426417.24848
  23684837.900   124464682.53908  23684833.600    96985459.72746
  22849950.740   120077322.49008  22849950.140    93566755.56547
  24006916.400   126157179.96509  24006913.460    98304278.77645
  23134102.940   121570517.55209  23134100.120    94730255.01147
 15 02 24 00 21 30.0000000  0  7G16G18G21G22G27G29G31
  21597117.560   113493630.95209  21597113.920    88436593.97848
  22374807.360   117580441.84309  22374804.560    91621124.32047
  21358273.300   112238486.74208  21358269.480    87458548.02748
  23666937.720   124370616.81808  23666933.580    96912161.84746
  22837746.060   120013186.61708  22837745.600    93516779.60947
  24020783.400   126230050.49608  24020780.340    98361061.02745
  23151538.320   121662140.91409  23151535.620    94801649.78747
 15 02 24 00 22  0.0000000  0  7G16G18G21G22G27G29G31
  21584083.320   113425135.67109  21584079.680    88383221.02648
  22364045.920   117523891.47809  22364043.420    91577059.13447
  21366178.580   112280029.36109  21366174.760    87490918.85848
  23649045.900   124276595.36608  23649041.880    96838898.45146
  22825559.620   119949146.61308  22825559.120    93466878.33247
  24034656.200   126302952.70008  24034653.780    98417867.86746
  23169002.520   121753915.55509  23168999.880    94873162.46247
 15 02 24 00 22 30.0000000  0  7G16G18G21G22G27G29G31
  21571104.860   113356933.69509  21571101.440    88330076.66448
  22353347.520   117467671.08809  22353345.000    91533251.06347
  21374141.480   112321874.45708  21374137.660    87523525.46548
  23631162.440   124182617.73208  23631158.480    96765669.20646
  22813390.960   119885199.60509  22813390.080    93417049.49447
  24048534.020   126375883.67708  24048532.640    98474697.16346
  23186494.380   121845835.64509  23186491.820    94944788.45447
 15 02 24 00 23  0.0000000  0  7G16G18G21G22G27G29G31
  21558182.240   113289025.28409  21558178.700    88277161.00548
  22342712.140   117411780.88009  22342709.320    91489700.26647
  21382161.240   112364018.43008  21382157.400    87556364.89448
  23613287.420   124088684.29708  23613283.420    96692474.36046
  22801239.520   119821343.52809  22801239.000    93367291.53247
  24062417.300   126448841.20808  24062415.780    98531547.15445
  23204012.940   121937896.09908  23204010.420    95016523.83947
 15 02 24 00 23 30.0000000  0  7G16G18G21G22G27G29G31
  21545315.600   113221410.89209  21545312.020    88224474.46148
  22332139.620   117356221.55809  22332136.540    91446407.30646
  21390237.160   112406457.86308  21390233.360    87589434.60448
  23595421.160   123994796.37708  23595417.040    96619315.01246
  22789105.160   119757576.82009  22789104.800    93317603.23248
  24076305.680   126521823.83908  24076303.520    98588416.71445
  23221557.300   122030092.25208  23221554.760    95088364.96847
 15 02 24 00 24  0.0000000  0  7G16G18G21G22G27G29G31
  21532506.640   113154099.99409  21532503.100    88172024.43448
  22321631.800   117301002.33109  22321628.660    91403379.36746
  21398370.280   112449198.14409  21398366.600    87622738.68948
  23577565.380   123900963.44908  23577561.120    96546198.51246
  22776989.160   119693906.50308  22776988.780    93267990.03947
  24090200.060   126594838.68908  24090197.460    98645311.42346
  23239128.280   122122428.27509  23239125.660    95160315.07947
 15 02 24 00 24 30.0000000  0  7G16G18G21G22G27G29G31
  21519754.980   113087089.97009  21519751.620    88119808.83748
  22311188.320   117246120.74009  22311185.100    91360614.49347
  21406559.600   112492233.05308  21406555.840    87656272.39548
  23559719.580   123807183.58708  23559715.360    96473123.35446
  22764890.460   119630327.97309  22764889.880    93218448.33947
  24104099.720   126667880.84208  24104097.820    98702227.35646
  23256724.400   122214896.51009  23256721.720    95232368.17546
 15 02 24 00 25  0.0000000  0  7G16G18G21G22G27G29G31
  21507061.820   113020386.22309  21507058.340    88067831.87948
  22300810.060   117191581.99309  22300806.740    91318116.78947
  21414805.200   112535563.72409  21414801.340    87690036.54448
  23541884.920   123713462.69108  23541880.780    96400094.17046
  22752809.940   119566844.41209  22752809.520    93168980.65648
  24118005.000   126740953.48408  24118003.640    98759167.01846
  23274345.740   122307497.09809  23274342.920    95304524.42247
 15 02 24 00 25 30.0000000  0  7G16G18G21G22G27G29G31
  21494427.320   112953991.27309  21494423.680    88016095.57448
  22290497.280   117137388.58109  22290493.940    91275888.17646
  21423106.940   112579188.97709  21423102.880    87724030.22248
  23524062.040   123619803.48408  23524057.900    96327113.05246
  22740747.500   119503456.05308  22740747.420    93119587.18347
  24131915.920   126814056.85608  24131914.340    98816130.67345
  23291991.700   122400227.07508  23291988.900    95376781.51747
 15 02 24 00 26  0.0000000  0  7G16G18G21G22G27G29G31
  21481851.540   112887904.77209  21481847.880    87964599.56548
  22280250.080   117083539.86209  22280246.720    91233928.16247
  21431463.780   112623103.87109  21431459.500    87758249.62448
  23506250.940   123526205.92108  23506246.700    96254179.93346
  22728702.460   119440160.06308  22728702.300    93070265.65947
  24145832.180   126887187.99208  24145830.160    98873115.95045
  23309661.220   122493080.74108  23309658.500    95449135.02247
 15 02 24 00 26 30.0000000  0  7G16G18G21G22G27G29G31
  21469334.800   112822128.95409  21469331.220    87913345.72148
  22270069.020   117030038.20909  22270065.660    91192238.57947
  21439875.360   112667307.34008  21439871.160    87792693.90648
  23488452.200   123432673.05308  23488447.880    96181297.24046
  22716675.100   119376957.00308  22716674.720    93021016.54547
  24159753.860   126960347.58408  24159752.120    98930123.39745
  23327353.800   122586055.81609  23327351.300    95521583.08647
 15 02 24 00 27  0.0000000  0  7G16G18G21G22G27G29G31
  21456877.740   112756667.05309  21456874.340    87862336.46748
  22259954.620   116976886.75209  22259951.400    91150821.87747
  21448341.540   112711797.73408  21448337.480    87827361.73448
  23470666.380   123339208.19308  23470662.020    96108467.53746
  22704665.780   119313847.60309  22704665.400    92971840.39648
  24173681.080   127033536.27308  24173679.720    98987153.51245
  23345069.000   122679149.98009  23345066.640    95594123.94047
 15 02 24 00 27 30.0000000  0  7G16G18G21G22G27G29G31
  21444480.000   112691516.89109  21444476.540    87811570.10748
  22249906.440   116924083.44909  22249903.280    91109676.47147
  21456861.200   112756569.08308  21456857.200    87862248.51248
  23452893.200   123245809.95308  23452888.920    96035689.73946
  22692673.520   119250827.64908  22692673.380    92922734.00647
  24187613.240   127106749.98408  24187611.800    99044203.14545
  23362805.400   122772355.77508  23362803.160    95666751.79947
 15 02 24 00 28  0.0000000  0  7G16G18G21G22G27G29G31
  21432143.260   112626686.86709  21432139.780    87761053.21748
  22239926.080   116871636.61009  22239922.860    91068808.82747
  21465435.300   112801626.49609  21465431.440    87897358.15148
  23435134.300   123152486.81608  23435130.200    95962970.47546
  22680699.260   119187903.31808  22680699.040    92873702.09047
  24201551.560   127179994.48508  24201549.880    99101276.80845
  23380563.580   122865676.17708  23380561.320    95739468.93647
 15 02 24 00 28 30.0000000  0  7G16G18G21G22G27G29G31
  21419866.940   112562174.29909  21419863.460    87710783.67948
  22230013.040   116819543.21509  22230009.700    91028216.59247
  21474062.580   112846963.04809  21474058.700    87932685.32447
  23417389.360   123059236.64808  23417385.280    95890308.05146
  22668742.560   119125069.64409  22668741.680    92824740.78047
  24215494.880   127253265.43908  24215493.220    99158371.02246
  23398342.080   122959103.23708  23398339.840    95812269.20447
 15 02 24 00 29  0.0000000  0  7G16G18G21G22G27G29G31
  21407653.220   112497990.41009  21407649.640    87660770.27648
  22220169.440   116767814.57409  22220166.040    90987908.57447
  21482744.360   112892586.06209  21482740.300    87968235.72948
  23399660.640   122966071.34608  23399656.440    95817711.76746
  22656804.920   119062335.94509  22656804.200    92775857.40148
  24229444.540   127326571.73908  24229442.540    99215492.77745
  23416142.140   123052643.41208  23416140.040    95885157.59147
 15 02 24 00 29 30.0000000  0  7G16G18G21G22G27G29G31
  21395500.780   112434129.12209  21395497.260    87611008.23548
  22210394.020   116716444.28009  22210390.500    90947879.78847
  21491478.660   112938485.33109  21491474.640    88004001.40848
  23381946.980   122872985.09308  23381942.520    95745177.07146
  22644884.720   118999693.79209  22644884.200    92727045.41348
  24243399.380   127399904.60308  24243397.060    99272635.26645
  23433961.600   123146285.28008  23433959.620    95958125.23947
 15 02 24 00 30  0.0000000  0  7G16G18G21G22G27G29G31
  21383410.500   112370594.04009  21383406.780    87561500.38048
  22200687.360   116665435.86609  22200683.820    90908132.98847
  21500265.420   112984660.25308  21500261.480    88039981.88748
  23364249.040   122779981.78508  23364244.460    95672707.02746
  22632982.140   118937144.62809  22632981.080    92678305.80947
  24257359.560   127473265.90708  24257357.520    99329799.93946
  23451800.100   123240027.00208  23451798.160    96031170.68747
 15 02 24 00 30 30.0000000  0  7G16G18G21G22G27G29G31
  21371383.740   112307392.96909  21371380.080    87512252.81048
  22191051.000   116614796.80909  22191047.580    90868673.99947
  21509105.260   113031114.03908  21509101.320    88076179.61548
  23346568.400   122687069.70208  23346563.800    95600308.05146
  22621097.840   118874694.03908  22621096.800    92629643.01048
  24271326.060   127546660.89308  24271324.360    99386990.79046
  23469658.120   123333871.35208  23469656.140    96104296.09347
 15 02 24 00 31  0.0000000  0  7G16G18G21G22G27G29G31
  21359419.780   112244521.94009  21359416.260    87463262.42748
  22181484.180   116564522.99909  22181480.900    90829499.62647
  21517996.720   113077839.31808  21517992.820    88112588.92248
  23328904.420   122594245.29408  23328899.860    95527977.40746
  22609231.360   118812335.88109  22609230.800    92581052.27248
  24285297.760   127620083.68608  24285296.200    99444203.37145
  23487533.860   123427809.08608  23487531.820    96177494.28947
 15 02 24 00 31 30.0000000  0  7G16G18G21G22G27G29G31
  21347518.840   112181982.58809  21347515.340    87414530.48048
  22171987.160   116514616.05609  22171983.980    90790611.10747
  21526939.340   113124833.63208  21526935.640    88149207.85748
  23311257.660   122501511.17108  23311253.120    95455717.08946
  22597382.580   118750069.90609  22597382.220    92532533.36248
  24299274.800   127693533.75808  24299273.420    99501437.17146
  23505426.720   123521836.70608  23505424.560    96250762.51946
 15 02 24 00 32  0.0000000  0  7G16G18G21G22G27G29G31
  21335682.420   112119782.19609  21335678.760    87366062.64348
  22162561.300   116465083.20109  22162558.140    90752014.09647
  21535933.900   113172100.69508  21535930.260    88186039.33348
  23293629.600   122408874.77509  23293624.960    95383532.93246
  22585552.240   118687901.10009  22585551.700    92484090.16348
  24313257.860   127767015.89908  24313256.760    99558695.92046
  23523337.120   123615956.45108  23523335.000    96324102.51746
 15 02 24 00 32 30.0000000  0  7G16G18G21G22G27G29G31
  21323909.920   112057917.24409  21323906.180    87317856.19048
  22153205.880   116415920.36009  22153202.760    90713705.39747
  21544978.860   113219632.26208  21544975.260    88223076.93048
  23276019.580   122316332.84608  23276014.840    95311422.37946
  22573739.320   118625823.62109  22573738.920    92435718.11148
  24327246.240   127840524.67608  24327244.840    99615975.45646
  23541263.440   123710159.22808  23541261.360    96397507.22146
 15 02 24 00 33  0.0000000  0  7G16G18G21G22G27G29G31
  21312201.980   111996391.90409  21312198.380    87269914.37548
  22143921.620   116367131.50209  22143918.580    90675688.12747
  21554074.240   113267428.73508  21554070.700    88260320.92148
  23258428.220   122223889.82208  23258423.540    95239388.90946
  22561944.360   118563839.55809  22561943.760    92387418.88448
  24341240.160   127914061.70808  24341238.580    99673277.08645
  23559205.340   123804443.74208  23559203.320    96470975.62647
 15 02 24 00 33 30.0000000  0  7G16G18G21G22G27G29G31
  21300560.340   111935214.23909  21300556.740    87222243.46148
  22134710.220   116318725.15009  22134707.220    90637968.91347
  21563220.880   113315494.60608  21563217.380    88297774.82748
  23240857.380   122131554.84008  23240852.800    95167439.63646
  22550168.240   118501955.19309  22550167.280    92339197.34347
  24355240.480   127987633.56608  24355238.840    99730605.83945
  23577163.520   123898813.93208  23577161.400    96544510.75546
 15 02 24 00 34  0.0000000  0  7G16G18G21G22G27G29G31
  21288985.860   111874389.53109  21288982.120    87174847.57548
  22125572.540   116270705.60309  22125569.420    90600551.09247
  21572419.040   113363831.02909  21572415.480    88335439.52848
  23223308.100   122039333.14208  23223303.580    95095578.62046
  22538411.520   118440173.49409  22538410.460    92291055.73448
  24369247.240   128061243.01007  24369246.420    99787963.72146
  23595137.800   123993269.16908  23595135.740    96618112.20247
 15 02 24 00 34 30.0000000  0  7G16G18G21G22G27G29G31
  21277475.280   111813900.93309  21277471.620    87127713.65148
  22116505.240   116223056.21209  22116502.080    90563421.71147
  21581664.740   113412417.21109  21581661.140    88373298.92348
  23205777.420   121947208.73408  23205772.700    95023793.41046
  22526670.740   118378475.52508  22526669.860    92242979.45948
  24383258.260   128134870.96508  24383257.300    99845336.15645
  23613124.020   124087787.74808  23613121.940    96691762.98746
 15 02 24 00 35  0.0000000  0  7G16G18G21G22G27G29G31
  21266031.120   111753761.50909  21266027.340    87080851.76048
  22107510.580   116175789.19709  22107507.520    90526590.29347
  21590959.540   113461261.67808  21590955.980    88411359.55548
  23188267.720   121855194.57609  23188262.740    94952094.08946
  22514947.920   118316871.99509  22514946.920    92194976.72647
  24397275.180   128208528.07308  24397274.060    99902731.32946
  23631123.740   124182377.22508  23631121.700    96765468.99546
 15 02 24 00 35 30.0000000  0  7G16G18G21G22G27G29G31
  21254654.700   111693978.30209  21254651.100    87034267.43548
  22098590.120   116128911.96309  22098587.040    90490062.59047
  21600304.100   113510367.81908  21600300.520    88449624.10148
  23170780.560   121763298.94108  23170775.380    94880487.14546
  22503244.240   118255368.25809  22503242.740    92147051.72847
  24411298.360   128282219.98408  24411296.800    99960153.54044
  23649137.560   124277039.93408  23649135.540    96839232.06746
 15 02 24 00 36  0.0000000  0  7G16G18G21G22G27G29G31
  21243345.680   111634550.14109  21243342.260    86987959.77348
  22089743.560   116082422.82109  22089740.360    90453837.28547
  21609697.480   113559730.48508  21609693.940    88488088.50848
  23153315.680   121671521.08608  23153310.600    94808971.95646
  22491558.640   118193960.88309  22491557.520    92099201.87248
  24425327.420   128355942.93208  24425325.580   100017599.95046
  23667164.160   124371769.39409  23667162.180    96913047.14346
 15 02 24 00 36 30.0000000  0  7G16G18G21G22G27G29G31
  21232104.380   111575477.71209  21232101.320    86941929.35448
  22080970.900   116036322.50009  22080967.700    90417914.97147
  21619139.180   113609346.43308  21619135.580    88526750.28348
  23135873.340   121579862.08308  23135868.540    94737549.42546
  22479891.160   118132648.55009  22479890.780    92051426.08448
  24439362.320   128429695.34208  24439360.400   100075069.39145
  23685202.680   124466560.98308  23685200.660    96986910.66347
 15 02 24 00 37  0.0000000  0  7G16G18G21G22G27G29G31
  21220931.380   111516762.96709  21220928.080    86896177.60248
  22072272.360   115990611.85509  22072269.300    90382296.31147
  21628628.660   113659213.47709  21628624.920    88565607.68848
  23118454.040   121488323.96508  23118449.440    94666221.05747
  22468241.880   118071431.02609  22468241.560    92003724.11548
  24453402.700   128503477.18808  24453400.660   100132561.75945
  23703252.260   124561411.42508  23703250.100    97060820.02146
 15 02 24 00 37 30.0000000  0  7G16G18G21G22G27G29G31
  21209828.560   111458416.65709  21209825.160    86850712.91748
  22063650.100   115945301.85709  22063647.120    90346989.82747
  21638167.160   113709338.33909  21638163.260    88604665.99548
  23101060.060   121396918.32309  23101055.540    94594995.93047
  22456612.220   118010317.05809  22456611.660    91956102.85348
  24467449.820   128577297.09108  24467448.280   100190083.68846
  23721314.080   124656326.57008  23721311.720    97134779.79046
 15 02 24 00 38  0.0000000  0  7G16G18G21G22G27G29G31
  21198793.860   111400428.15009  21198790.340    86805527.07148
  22055102.000   115900381.63509  22055099.000    90311987.07147
  21647751.940   113759706.44309  21647748.000    88643913.88248
  23083689.440   121305634.99608  23083684.880    94523866.09847
  22444999.760   117949293.99609  22444999.000    91908552.43848
  24481502.080   128651142.12908  24481500.580   100247625.28246
  23739385.260   124751290.70708  23739382.640    97208777.74446
 15 02 24 00 38 30.0000000  0  7G16G18G21G22G27G29G31
  21187829.180   111342807.83709  21187825.400    86760628.11248
  22046630.000   115855861.33409  22046626.960    90277295.92847
  21657384.280   113810324.50809  21657380.260    88683356.53948
  23066344.180   121214485.06308  23066339.600    94452840.22747
  22433406.320   117888370.19209  22433405.620    91861079.36248
  24495560.400   128725020.76508  24495559.440   100305192.97545
  23757466.800   124846309.05308  23757464.140    97282817.91546
 15 02 24 00 39  0.0000000  0  7G16G18G21G22G27G29G31
  21176934.040   111285553.16909  21176930.420    86716014.10148
  22038233.500   115811737.57309  22038230.480    90242913.79147
  21667062.800   113861185.62908  21667058.860    88722988.58148
  23049023.920   121123466.56608  23049019.280    94381916.74646
  22421831.000   117827541.00409  22421830.220    91813680.02448
  24509624.380   128798928.37808  24509623.280   100362783.32445
  23775557.120   124941373.80308  23775554.580    97356894.27246
 15 02 24 00 39 30.0000000  0  7G16G18G21G22G27G29G31
  21166109.440   111228669.43409  21166105.760    86671689.09848
  22029913.600   115768015.88809  22029910.540    90208844.95847
  21676787.780   113912291.00909  21676783.940    88762810.92648
  23031729.700   121032584.81609  23031725.080    94311099.84946
  22410274.220   117766809.76509  22410273.420    91766357.01448
  24523694.520   128872868.11408  24523692.880   100420398.68545
  23793656.320   125036485.21808  23793653.620    97431006.97146
 15 02 24 00 40  0.0000000  0  7G16G18G21G22G27G29G31
  21155355.260   111172155.61009  21155351.680    86627652.37548
  22021669.940   115724694.67909  22021666.740    90175088.17847
  21686558.520   113963636.40009  21686554.540    88802820.30848
  23014461.540   120941839.83108  23014456.960    94240389.50646
  22398735.540   117706173.53008  22398735.000    91719108.01148
  24537770.300   128946836.63508  24537768.520   100478036.50145
  23811763.180   125131637.39708  23811760.500    97505151.43546
 15 02 24 00 40 30.0000000  0  7G16G18G21G22G27G29G31
  21144673.300   111116022.01509  21144669.720    86583911.92048
  22013504.420   115681784.10909  22013501.020    90141651.38847
  21696376.120   114015227.92909  21696372.060    88843021.48448
  22997221.340   120851242.13708  22997216.800    94169793.95747
  22387216.200   117645640.54708  22387216.360    91671939.48648
  24551853.120   129020842.69308  24551851.420   100535703.52245
  23829878.800   125226835.45908  23829875.960    97579331.64446
 15 02 24 00 41  0.0000000  0  6G16G18G21G22G27G31
  21134068.660   111060294.70209  21134065.140    86540488.01748
  22005421.740   115639309.35509  22005418.260    90108554.17747
  21706244.760   114067087.36709  21706240.620    88883431.44548
  22980014.140   120760818.27108  22980009.620    94099333.85247
  22375721.280   117585234.69309  22375720.880    91624870.00748
  23848007.160   125322100.23008  23848004.360    97653563.82146
 15 02 24 00 41 30.0000000  0  6G16G18G21G22G27G31
  21123528.740   111004907.43009  21123525.360    86497329.10148
  21997409.280   115597203.82209  21997405.940    90075744.68147
  21716150.900   114119144.55808  21716146.760    88923995.50248
  22962827.580   120670502.70209  22962823.040    94028958.12647
  22364237.840   117524887.89909  22364236.560    91577846.50148
  23866134.620   125417360.24108  23866131.880    97727792.32446
 15 02 24 00 42  0.0000000  0  6G16G18G21G22G27G31
  21113062.420   110949906.55809  21113058.900    86454471.26948
  21989475.940   115555513.99909  21989472.700    90043259.11747
  21726102.580   114171441.46709  21726098.520    88964746.34248
  22945670.620   120580342.48609  22945666.000    93958703.45246
  22352774.000   117464644.52409  22352772.980    91530903.67148
  23884269.120   125512657.24108  23884266.460    97802049.60146
 15 02 24 00 42 30.0000000  0  6G16G18G21G22G27G31
  21102668.560   110895286.41009  21102665.040    86411910.11948
  21981620.500   115514233.45209  21981617.180    90011092.47147
  21736098.380   114223969.81109  21736094.280    89005677.47648
  22928542.140   120490331.94809  22928537.480    93888565.41246
  22341328.400   117404497.01509  22341327.500    91484035.52948
  23902408.620   125607980.37808  23902406.080    97876327.27546
 15 02 24 00 43  0.0000000  0  6G16G18G21G22G27G31
  21092349.180   110841057.92309  21092345.680    86369654.14648
  21973844.820   115473372.31109  21973841.560    89979252.63047
  21746139.340   114276735.14708  21746135.260    89046793.35748
  22911444.320   120400483.10608  22911439.740    93818553.36147
  22329902.420   117344453.94909  22329901.600    91437248.71848
  23920554.140   125703335.12008  23920551.700    97950629.53246
 15 02 24 00 43 30.0000000  0  6G16G18G21G22G27G31
  21082103.380   110787216.16909  21082099.960    86327699.54048
  21966148.040   115432925.87409  21966145.040    89947735.92447
  21756223.920   114329729.81209  21756219.900    89088087.86948
  22894376.460   120310791.72708  22894372.080    93748664.03247
  22318494.900   117284508.97409  22318494.560    91390538.38948
  23938703.980   125798712.22708  23938701.480    98024949.22846
 15 02 24 00 44  0.0000000  0  6G16G18G21G22G27G31
  21071931.520   110733762.27509  21071928.000    86286047.16448
  21958530.280   115392894.82509  21958527.620    89916542.91847
  21766351.420   114382950.35708  21766347.460    89129558.46848
  22877338.940   120221259.30209  22877334.680    93678898.53747
  22307106.260   117224661.36709  22307106.220    91343903.88048
  23956857.320   125894107.63708  23956854.720    98099283.20246
 15 02 24 00 44 30.0000000  0  6G16G18G21G22G27G31
  21061834.340   110680700.76509  21061830.780    86244700.52348
  21950992.280   115353282.83009  21950989.660    89885676.43947
  21776521.920   114436397.53408  21776518.060    89171205.58248
  22860332.700   120131890.65009  22860328.400    93609260.65547
  22295736.660   117164913.10109  22295735.920    91297346.83847
  23975013.780   125989520.08508  23975011.080    98173630.45546
 15 02 24 00 45  0.0000000  0  6G16G18G21G22G27G31
  21051813.020   110628038.62509  21051809.520    86203665.12448
  21943535.480   115314096.85309  21943532.640    89855141.92447
  21786736.220   114490074.69108  21786732.560    89213031.95348
  22843359.100   120042693.56709  22843354.700    93539756.46947
  22284386.720   117105269.67008  22284385.780    91250871.43248
  23993173.960   126084952.34608  23993171.400    98247993.10046
 15 02 24 00 45 30.0000000  0  6G16G18G21G22G27G31
  21041866.760   110575770.72909  21041863.220    86162936.89748
  21936158.720   115275331.19209  21936155.640    89824934.93247
  21796992.660   114543972.59209  21796989.040    89255030.29147
  22826417.220   119953663.15009  22826412.720    93470382.14747
  22273055.340   117045724.11408  22273054.840    91204472.34648
  24011335.860   126180394.31608  24011333.500    98322363.32946
 15 02 24 00 46  0.0000000  0  6G16G18G21G22G27G31
  21031995.600   110523896.89209  21031991.980    86122515.70948
  21928861.680   115236984.48609  21928858.420    89795054.39847
  21807290.340   114598086.94508  21807286.800    89297197.33548
  22809507.200   119864800.35309  22809502.700    93401138.45247
  22261742.360   116986274.18409  22261742.300    91158147.74448
  24029498.620   126275840.60008  24029496.400    98396736.93046
 15 02 24 00 46 30.0000000  0  6G16G18G21G22G27G31
  21022201.360   110472427.73909  21022197.760    86082409.87648
  21921646.440   115199067.58409  21921643.000    89765508.76447
  21817630.500   114652425.06008  21817627.060    89339538.69348
  22792631.220   119776116.39309  22792626.700    93332034.09047
  22250449.280   116926928.69608  22250448.960    91111904.49848
  24047663.400   126371296.90308  24047661.280    98471118.32646
 15 02 24 00 47  0.0000000  0  6G16G18G21G22G27G31
  21012483.040   110421357.86509  21012479.540    86042615.19148
  21914511.880   115161574.65609  21914508.340    89736293.49647
  21828011.440   114706977.15008  21828007.900    89382046.80748
  22775788.360   119687606.42509  22775783.720    93263065.32247
  22239175.020   116867680.44109  22239174.220    91065737.04348
  24065828.160   126466752.87808  24065826.000    98545499.42745
 15 02 24 00 47 30.0000000  0  6G16G18G21G22G27G31
  21002841.980   110370694.14909  21002838.540    86003136.98448
  21907459.160   115124511.74709  21907455.520    89707413.32447
  21838433.660   114761746.32308  21838430.060    89424724.09648
  22758979.900   119599277.37609  22758975.100    93194237.53147
  22227920.000   116808534.17309  22227919.460    91019649.04748
  24083993.100   126562210.04008  24083991.020    98619881.52046
 15 02 24 00 48  0.0000000  0  6G16G18G21G22G27G31
  20993278.820   110320439.67209  20993275.360    85963977.62248
  21900488.760   115087881.59309  21900485.040    89678870.36347
  21848897.140   114816732.16309  21848893.440    89467570.18347
  22742206.720   119511133.62909  22742201.820    93125554.12447
  22216684.600   116749491.50109  22216684.020    90973641.76948
  24102158.000   126657667.32108  24102155.900    98694263.62645
 15 02 24 00 48 30.0000000  0  6G16G18G21G22G27G31
  20983793.240   110270592.96509  20983789.700    85925136.07148
  21893600.320   115051682.50009  21893596.640    89650663.29147
  21859400.820   114871929.57108  21859397.140    89510581.15248
  22725468.560   119423173.83909  22725463.520    93057014.06147
  22205468.240   116690548.99709  22205467.700    90927712.57248
  24120321.700   126753117.96708  24120319.760    98768640.60246
 15 02 24 00 49  0.0000000  0  6G16G18G21G22G27G31
  20974386.480   110221159.95509  20974382.900    85886616.84748
  21886794.720   115015919.25309  21886791.100    89622795.82947
  21869944.940   114927339.50609  21869941.280    89553757.68847
  22708766.740   119335404.79909  22708761.580    92988622.62247
  22194271.560   116631710.57509  22194271.220    90881864.46348
  24138484.340   126848562.65108  24138482.640    98843012.88846
 15 02 24 00 49 30.0000000  0  6G16G18G21G22G27G31
  20965058.080   110172138.49909  20965054.420    85848418.27948
  21880071.580   114980589.51309  21880068.040    89595266.16747
  21880528.660   114982957.20409  21880525.020    89597096.15848
  22692100.980   119247825.30509  22692095.780    92920378.89147
  22183094.200   116572972.75709  22183093.760    90836094.74648
  24156644.640   126943995.05708  24156643.160    98917375.61646
 15 02 24 00 50  0.0000000  0  6G16G18G21G22G27G31
  20955809.000   110123533.92209  20955805.260    85810544.59448
  21873431.780   114945697.98809  21873428.420    89568077.98247
  21891152.060   115038783.35608  21891148.440    89640597.04147
  22675472.240   119160440.71809  22675467.040    92852287.03847
  22171936.320   116514338.47509  22171935.780    90790405.69048
  24174802.560   127039414.89508  24174801.080    98991728.57146
 15 02 24 00 50 30.0000000  0  6G16G18G21G22G27G31
  20946639.260   110075346.52309  20946635.560    85772996.00548
  21866875.380   114911244.32809  21866872.180    89541230.99547
  21901814.560   115094814.55109  21901810.840    89684257.69348
  22658880.760   119073252.15709  22658875.540    92784347.92847
  22160798.140   116455806.63909  22160797.720    90744796.48248
  24192957.260   127134818.03508  24192955.900    99066068.49246
 15 02 24 00 51  0.0000000  0  6G16G18G21G22G27G31
  20937550.220   110027582.96509  20937546.440    85735777.63648
  21860403.500   114877234.70809  21860400.340    89514730.00847
  21912516.620   115151053.71509  21912512.860    89728080.43648
  22642327.900   118986266.55909  22642322.620    92716566.96747
  22149680.340   116397382.10608  22149679.860    90699270.90448
  24211109.080   127230206.04708  24211107.880    99140396.65545
 15 02 24 00 51 30.0000000  0  6G16G18G21G22G27G31
  20928540.520   109980236.67209  20928536.720    85698884.42248
  21854014.760   114843661.73409  21854011.480    89488569.26647
  21923256.340   115207491.04108  21923252.480    89772057.58148
  22625812.660   118899478.79409  22625807.360    92648940.16047
  22138581.360   116339056.47209  22138579.960    90653822.31648
  24229255.880   127325567.74108  24229254.960    99214704.21846
 15 02 24 00 52  0.0000000  0  6G16G18G21G22G27G31
  20919611.220   109933313.16709  20919607.500    85662320.67748
  21847710.160   114810530.81909  21847706.780    89462752.97747
  21934034.120   115264128.45408  21934030.200    89816190.62148
  22609336.200   118812894.82209  22609330.920    92581472.15247
  22127502.140   116280833.73208  22127501.060    90608453.97448
  24247397.920   127420903.81408  24247397.120    99288991.91046
 15 02 24 00 52 30.0000000  0  6G16G18G21G22G27G31
  20910763.860   109886820.35209  20910760.160    85626092.49948
  21841491.020   114777849.22509  21841487.700    89437286.80847
  21944850.580   115320969.60909  21944846.680    89860482.39747
  22592900.140   118726522.88809  22592894.860    92514169.36947
  22116443.020   116222719.86109  22116442.620    90563170.50548
  24265535.680   127516217.33208  24265534.920    99363261.96546
 15 02 24 00 53  0.0000000  0  6G16G18G21G22G27G31
  20901997.220   109840751.20609  20901993.540    85590194.45148
  21835355.900   114745609.20409  21835352.700    89412164.72047
  21955703.680   115378003.30709  21955699.780    89904924.26447
  22576503.300   118640356.87809  22576498.000    92447027.04447
  22105403.520   116164706.32409  22105402.880    90517965.07848
  24283667.000   127611496.45408  24283665.960    99437505.22546
 15 02 24 00 53 30.0000000  0  6G16G18G21G22G27G31
  20893313.180   109795116.22909  20893309.520    85554634.71848
  21829306.760   114713820.60209  21829303.620    89387394.40047
  21966594.740   115435236.73908  21966590.920    89949521.77048
  22560147.800   118554408.22709  22560142.600    92380054.10047
  22094384.520   116106801.79509  22094384.240    90472844.71548
  24301792.880   127706746.64408  24301791.640    99511725.95445
 15 02 24 00 54  0.0000000  0  6G16G18G21G22G27G31
  20884711.220   109749912.63209  20884707.560    85519411.17348
  21823342.940   114682479.95609  21823339.680    89362973.11447
  21977522.700   115492663.63308  21977518.960    89994269.98348
  22543833.120   118468674.41809  22543828.140    92313248.56347
  22083385.480   116049001.89109  22083385.180    90427805.81548
  24319911.800   127801960.71108  24319910.320    99585918.48845
 15 02 24 00 54 30.0000000  0  6G16G18G21G22G27G31
  20876191.360   109705139.99509  20876187.580    85484523.40648
  21817464.080   114651586.26509  21817460.680    89338900.13147
  21988486.740   115550279.79208  21988482.800    90039165.66947
  22527559.420   118383155.81809  22527554.600    92246610.72847
