     2.11           OBSERVATION DATA    M                   RINEX VERSION / TYPE
SPIDER V4,0,0,3554                      2015 03 24 07:49    PGM / RUN BY / DATE 
CNAJ                                                        MARKER NAME         
CNAJ                                                        MARKER NUMBER       
                                                            OBSERVER / AGENCY   
496642              LEICA GRX1200+GNSS  8.10/4.007          REC # / TYPE / VERS 
10321018            LEIAR25         NONE                    ANT # / TYPE        
  5206098.7325   612081.0247  3621806.3029                  APPROX POSITION XYZ 
        0.0720        0.0000        0.0000                  ANTENNA: DELTA H/E/N
     1     1                                                WAVELENGTH FACT L1/2
     4    C1    L1    P2    L2                              # / TYPES OF OBSERV 
    30.000                                                  INTERVAL            
  2015    02    24    00    00    0.0000000     GPS         TIME OF FIRST OBS   
  2015    02    24    23    59   30.0000000     GPS         TIME OF LAST OBS    
    16                                                      LEAP SECONDS        
    39                                                      # OF SATELLITES     
   G 1   816   816   816   816                              PRN / # OF OBS      
   G 2   924   924   918   918                              PRN / # OF OBS      
   G 3   850   850   850   850                              PRN / # OF OBS      
   G 4   843   843   841   841                              PRN / # OF OBS      
   G 5   609   609   609   609                              PRN / # OF OBS      
   G 6   796   796   788   788                              PRN / # OF OBS      
   G 7   671   671   669   669                              PRN / # OF OBS      
   G 9   809   808   805   804                              PRN / # OF OBS      
   G10   706   706   706   706                              PRN / # OF OBS      
   G11   779   779   779   779                              PRN / # OF OBS      
   G12   800   799   799   799                              PRN / # OF OBS      
   G13   779   779   779   779                              PRN / # OF OBS      
   G14   941   941   939   939                              PRN / # OF OBS      
   G15   690   689   690   689                              PRN / # OF OBS      
   G16   669   669   669   669                              PRN / # OF OBS      
   G17   931   931   931   931                              PRN / # OF OBS      
   G18   901   901   900   900                              PRN / # OF OBS      
   G19   757   757   757   757                              PRN / # OF OBS      
   G20   745   744   744   744                              PRN / # OF OBS      
   G21   737   737   735   735                              PRN / # OF OBS      
   G22   662   662   662   662                              PRN / # OF OBS      
   G23   751   751   747   747                              PRN / # OF OBS      
   G24   825   825   825   825                              PRN / # OF OBS      
   G25   848   848   847   847                              PRN / # OF OBS      
   G27   811   811   811   811                              PRN / # OF OBS      
   G28   861   860   856   856                              PRN / # OF OBS      
   G29   751   751   748   748                              PRN / # OF OBS      
   G30   717   717   712   712                              PRN / # OF OBS      
   G31   854   852   845   844                              PRN / # OF OBS      
   G32   768   766   763   762                              PRN / # OF OBS      
   R 2    86    86    80    78                              PRN / # OF OBS      
   R 3    12    12    11    11                              PRN / # OF OBS      
   R 9    24    24     1     1                              PRN / # OF OBS      
   R14    44    44    44    44                              PRN / # OF OBS      
   R15    90    90    90    90                              PRN / # OF OBS      
   R16    90    90    90    90                              PRN / # OF OBS      
   R17    90    90    90    90                              PRN / # OF OBS      
   R18    90    90    90    90                              PRN / # OF OBS      
   R19    53    53    53    52                              PRN / # OF OBS      
BIT 2 OF LLI FLAGS DATA COLLECTED UNDER A/S CONDITION       COMMENT             
SNR is mapped to RINEX snr flag value [2-9]                 COMMENT             
Lx:     = 25dBHz -> 1; 26-27dBHz -> 2; 28-31dBHz -> 3       COMMENT             
       32-35dBHz -> 4; 36-38dBHz -> 5; 39-41dBHz -> 6       COMMENT             
       42-44dBHz -> 7; 45-48dBHz -> 8; >=49dBHz -> 9        COMMENT             
                                                            END OF HEADER       
 15 02 24 00 00  0.0000000  0  8G16G18G21G22G25G27G29G31
  22280666.260   117085692.73909  22280661.640    91235619.69245
  22807848.340   119856055.98208  22807846.980    93394337.79345
  21063362.000   110688732.63207  21063358.340    86250941.46647
  24381185.120   128124001.43707  24381185.260    99836885.78042
  24244160.200   127403906.70108  24244159.140    99275765.96244
  23470881.080   123340331.67408  23470882.420    96109371.70246
  23364668.540   122782138.05808  23364667.660    95674393.06643
  22443560.440   117941694.01409  22443555.880    91902596.74646
 15 02 24 00 00 30.0000000  0  8G16G18G21G22G25G27G29G31
  22265400.680   117005470.46909  22265395.980    91173108.84045
  22794862.160   119787812.90908  22794859.900    93341161.35644
  21068512.340   110715799.55407  21068509.020    86272032.57247
  24363300.920   128030020.24007  24363298.760    99763653.87043
  24262698.700   127501326.50108  24262697.300    99351677.48044
  23457921.380   123272229.31808  23457923.140    96056304.98247
  23378024.360   122852322.00708  23378023.280    95729081.79543
  22459112.120   118023418.18209  22459107.880    91966277.88046
 15 02 24 00 01  0.0000000  0  8G16G18G21G22G25G27G29G31
  22250172.320   116925443.47309  22250167.380    91110750.16745
  22781920.080   119719802.63408  22781917.100    93288166.37544
  21073732.840   110743234.25807  21073729.720    86293410.26347
  24345405.340   127935979.80206  24345402.320    99690375.81843
  24281270.760   127598922.54908  24281269.480    99427726.33144
  23444978.140   123204213.27308  23444980.300    96003305.55147
  23391387.000   122922541.79008  23391385.060    95783798.45642
  22474715.740   118105415.53709  22474711.880    92030171.90146
 15 02 24 00 01 30.0000000  0  8G16G18G21G22G25G27G29G31
  22234981.700   116845614.90209  22234976.360    91048546.11245
  22769023.080   119652028.47108  22769019.300    93235355.34144
  21079023.300   110771035.40307  21079020.180    86315073.48347
  24327499.020   127841883.12106  24327496.140    99617053.90643
  24299876.200   127696694.13708  24299875.140    99503911.95544
  23432051.480   123136284.11008  23432053.820    95950373.77446
  23404756.560   122992798.22208  23404753.400    95838543.70143
  22490370.980   118187684.00609  22490367.420    92094277.16846
 15 02 24 00 02  0.0000000  0  8G16G18G21G22G25G27G29G31
  22219828.720   116765984.30309  22219822.980    90986496.32245
  22756171.140   119584490.34008  22756166.500    93182728.22644
  21084383.060   110799199.35807  21084379.520    86337019.41847
  24309582.200   127747730.40506  24309579.660    99543688.37442
  24318514.360   127794637.36408  24318513.740    99580231.34443
  23419140.940   123068439.22708  23419143.220    95897507.70146
  23418132.520   123063088.77808  23418129.060    95893315.57741
  22506076.700   118270218.07909  22506073.400    92158589.41146
 15 02 24 00 02 30.0000000  0  8G16G18G21G22G25G27G29G31
  22204713.660   116686553.44109  22204707.780    90924602.16845
  22743364.420   119517190.19408  22743359.340    93130286.55844
  21089811.540   110827723.73308  21089807.280    86359246.20947
  24291655.340   127653523.69206  24291652.440    99470280.67942
  24337184.700   127892750.45007  24337184.860    99656683.06744
  23406246.400   123000678.14008  23406248.340    95844706.90346
  23431514.800   123133412.71608  23431511.300    95948113.43841
  22521832.380   118353014.59009  22521829.340    92223106.14846
 15 02 24 00 03  0.0000000  0  8G16G18G21G22G25G27G29G31
  22189637.540   116607327.43609  22189631.680    90862867.65145
  22730603.880   119450134.08308  22730599.120    93078035.06844
  21095309.160   110856610.81508  21095304.160    86381755.63547
  24273719.340   127559268.57706  24273715.300    99396835.29743
  24355887.440   127991035.19207  24355888.440    99733268.48444
  23393368.360   122933003.90907  23393370.080    95791973.78546
  23444903.860   123203772.76508  23444900.540    96002939.43242
  22537638.000   118436073.61509  22537635.180    92287827.44446
 15 02 24 00 03 30.0000000  0  8G16G18G21G22G25G27G29G31
  22174599.760   116528303.18508  22174594.040    90801290.34145
  22717889.180   119383319.28408  22717885.120    93025971.59844
  21100874.300   110885852.85408  21100868.740    86404541.64347
  24255773.540   127464961.97907  24255767.960    99323349.75042
  24374621.540   128089484.52407  24374622.800    99809982.18844
  23380505.700   122865410.91607  23380506.980    95739303.99246
  23458298.780   123274163.99608  23458295.540    96057789.76043
  22553491.860   118519386.63708  22553489.300    92352746.64546
 15 02 24 00 04  0.0000000  0  8G16G18G21G22G25G27G29G31
  22159601.040   116449484.62908  22159595.540    90739873.32645
  22705221.140   119316749.57808  22705217.680    92974099.13044
  21106506.920   110915450.72507  21106501.080    86427604.91547
  24237818.640   127370608.27407  24237811.960    99249827.40543
  24393387.140   128188098.90707  24393388.260    99886824.53344
  23367658.840   122797901.00407  23367659.980    95686698.90346
  23471699.820   123344587.95408  23471697.240    96112665.50643
  22569393.820   118602952.70808  22569391.400    92417863.01946
 15 02 24 00 04 30.0000000  0  8G16G18G21G22G25G27G29G31
  22144642.140   116370876.11408  22144636.820    90678619.97244
  22692600.900   119250430.23908  22692597.920    92922421.74045
  21112207.160   110945404.93908  21112201.280    86450945.87747
  24219855.400   127276212.06707  24219848.560    99176272.03242
  24412184.300   128286879.04107  24412185.320    99963796.00944
  23354828.220   122730476.07408  23354829.060    95634160.08146
  23485107.420   123415045.94008  23485104.560    96167567.84943
  22585343.840   118686771.01508  22585341.240    92483175.94245
 15 02 24 00 05  0.0000000  0  8G16G18G21G22G25G27G29G31
  22129723.560   116292480.08908  22129718.340    90617532.16744
  22680028.780   119184363.48707  22680026.500    92870941.17445
  21117974.800   110975714.09508  21117969.080    86474563.40347
  24201884.300   127181775.92107  24201878.540    99102685.52943
  24431012.820   128385823.87307  24431013.740   100040895.79044
  23342013.920   122663136.48108  23342014.500    95581687.67946
  23498521.660   123485539.15108  23498519.240    96222497.56344
  22601341.520   118770839.00408  22601338.660    92548683.42545
 15 02 24 00 05 30.0000000  0  8G16G18G21G22G25G27G29G31
  22114844.760   116214293.43808  22114839.620    90556607.53744
  22667504.140   119118547.27807  22667502.740    92819655.86445
  21123808.480   111006371.21008  21123803.020    86498452.06247
  24183905.020   127087297.66106  24183900.880    99029066.19243
  24449871.400   128484926.93107  24449872.180   100118118.87944
  23329215.000   122595877.08308  23329215.040    95529277.78846
  23511941.520   123556062.31507  23511939.460    96277450.61644
  22617385.180   118855148.58108  22617381.860    92614379.17545
 15 02 24 00 06  0.0000000  0  8G16G18G21G22G25G27G29G31
  22100007.440   116136324.50008  22100002.600    90495852.53044
  22655028.680   119052989.47108  22655027.880    92768571.90145
  21129709.120   111037380.43608  21129703.960    86522615.09747
  24165919.120   126992785.27606  24165916.760    98955420.32743
  24468760.840   128584192.37807  24468761.120   100195468.53941
  23316432.320   122528703.43608  23316432.260    95476934.73245
  23525368.060   123626620.40807  23525366.220    96332430.89144
  22633475.300   118939702.62708  22633471.400    92680265.42445
 15 02 24 00 06 30.0000000  0  8G16G18G21G22G25G27G29G31
  22085211.900   116058574.51409  22085207.400    90435268.13644
  22642603.000   118987692.20007  22642602.360    92717690.94145
  21135676.480   111068740.29108  21135671.640    86547051.34647
  24147927.200   126898240.60306  24147925.980    98881749.29743
  24487680.940   128683618.12207  24487680.660   100272943.13643
  23303665.780   122461614.84108  23303665.460    95424657.93646
  23538801.180   123697213.15408  23538799.520    96387438.18544
  22649611.120   119024497.42008  22649606.780    92746339.27845
 15 02 24 00 07  0.0000000  0  8G16G18G21G22G25G27G29G31
  22070457.660   115981040.64309  22070453.380    90374852.14345
  22630226.160   118922652.33107  22630225.720    92667010.56345
  21141709.200   111100443.15008  21141704.540    86571754.87947
  24129928.720   126803660.69805  24129928.400    98808050.77244
  24506630.500   128783197.27708  24506630.520   100350537.25244
  23290914.280   122394605.83708  23290913.880    95372443.15645
  23552239.940   123767834.94208  23552238.040    96442468.12944
  22665791.220   119109524.69209  22665786.860    92812594.28245
 15 02 24 00 07 30.0000000  0  8G16G18G21G22G25G27G29G31
  22055746.120   115903730.61109  22055741.940    90314610.58645
  22617899.940   118857878.36207  22617899.620    92616537.37345
  21147808.080   111132493.49008  21147803.600    86596729.17247
  24111925.180   126709054.43906  24111925.600    98734331.78145
  24525610.360   128882934.52608  24525610.960   100428254.55644
  23278179.140   122327682.47208  23278178.680    95320295.11645
  23565685.460   123838491.67908  23565683.380    96497525.30044
  22682016.240   119194787.59809  22682012.000    92879032.90745
 15 02 24 00 08  0.0000000  0  8G16G18G21G22G25G27G29G31
  22041076.700   115826641.54008  22041072.520    90254541.18245
  22605623.900   118793367.67808  22605623.500    92566269.33845
  21153971.820   111164884.64308  21153967.560    86621969.03447
  24093916.480   126614419.11406  24093917.340    98660590.06344
  24544619.040   128982823.16808  24544620.120   100506089.80244
  23265459.420   122260839.42708  23265458.960    95268209.65746
  23579136.700   123909178.31008  23579133.780    96552605.77943
  22698284.640   119280278.09409  22698280.620    92945648.87645
 15 02 24 00 08 30.0000000  0  8G16G18G21G22G25G27G29G31
  22026450.640   115749780.67108  22026446.540    90194649.61845
  22593399.740   118729128.04308  22593398.980    92516212.49445
  21160201.100   111197620.21208  21160197.100    86647477.27947
  24075903.660   126519761.83906  24075904.680    98586831.30244
  24563657.100   129082866.63108  24563658.480   100584045.72043
  23252756.060   122194081.61608  23252755.380    95216190.62946
  23592594.600   123979899.82808  23592590.420    96607713.49143
  22714596.760   119365998.00209  22714592.900    93012443.59546
 15 02 24 00 09  0.0000000  0  8G16G18G21G22G25G27G29G31
  22011867.720   115673146.84908  22011863.660    90134934.97045
  22581226.920   118665158.10508  22581225.880    92466365.83045
  21166494.880   111230694.82408  21166491.100    86673249.70647
  24057886.660   126425081.91306  24057887.500    98513054.84645
  24582723.400   129183059.99107  24582725.000   100662118.40543
  23240068.260   122127405.37208  23240067.080    95164235.16745
  23606058.560   124050652.42008  23606053.480    96662845.41743
  22730951.240   119451940.74108  22730947.420    93079411.96545
 15 02 24 00 09 30.0000000  0  8G16G18G21G22G25G27G29G31
  21997328.800   115596744.68408  21997325.020    90075400.83445
  22569106.540   118601462.98708  22569105.180    92416733.30146
  21172853.460   111264109.56908  21172849.740    86699287.17647
  24039866.460   126330384.47406  24039866.820    98439264.75045
  24601818.200   129283404.46207  24601819.620   100740308.83344
  23227396.440   122060813.41208  23227395.080    95112345.37046
  23619528.960   124121438.73808  23619523.500    96718003.58744
  22747347.940   119538106.18608  22747344.280    93146553.83245
 15 02 24 00 10  0.0000000  0  8G16G18G21G22G25G27G29G31
  21982834.960   115520579.88708  21982831.680    90016051.67446
  22557039.680   118538048.62708  22557037.840    92367319.55145
  21179277.100   111297865.80908  21179273.280    86725590.75047
  24021844.320   126235675.29707  24021844.040    98365465.47845
  24620941.900   129383901.51107  24620943.460   100818618.15243
  23214741.080   121994308.73908  23214739.480    95060523.58946
  23633006.320   124192261.76808  23633001.660    96773190.37044
  22763787.000   119624494.62308  22763783.440    93213869.46845
 15 02 24 00 10 30.0000000  0  8G16G18G21G22G25G27G29G31
  21968385.620   115444649.73008  21968383.020    89956885.34546
  22545025.940   118474912.40209  22545023.360    92318122.48345
  21185764.600   111331957.06108  21185760.460    86752155.36847
  24003819.740   126140951.97208  24003818.720    98291655.16845
  24640093.520   129484544.98607  24640095.300   100897041.52044
  23202101.280   121927886.56508  23202099.680    95008766.06345
  23646489.700   124263116.64908  23646486.360    96828401.95944
  22780266.880   119711097.77908  22780263.580    93281352.39945
 15 02 24 00 11  0.0000000  0  8G16G18G21G22G25G27G29G31
  21953981.960   115368960.49808  21953980.140    89897906.76946
  22533066.300   118412060.81209  22533062.860    92269147.23045
  21192316.300   111366385.75408  21192311.760    86778982.93047
  23985793.840   126046221.48108  23985792.060    98217839.28545
  24659273.760   129585337.59607  24659275.620   100975581.18644
  23189477.880   121861551.02008  23189476.560    94957076.07345
  23659979.780   124334007.53208  23659977.800    96883641.57544
  22796787.860   119797917.49608  22796785.060    93349004.08945
 15 02 24 00 11 30.0000000  0  8G16G18G21G22G25G27G29G31
  21939623.280   115293507.40308  21939622.100    89839112.21146
  22521159.740   118349489.52009  22521155.780    92220390.38745
  21198930.560   111401143.78608  21198925.800    86806067.10447
  23967765.660   125951479.37708  23967763.360    98144014.36945
  24678480.940   129686270.84408  24678483.160   101054230.38644
  23176869.600   121795295.14908  23176868.340    94905448.15945
  23673475.500   124404928.16108  23673474.420    96938904.35245
  22813348.140   119884943.76108  22813345.920    93416816.70145
 15 02 24 00 12  0.0000000  0  8G16G18G21G22G25G27G29G31
  21925311.680   115218300.13108  21925310.680    89780509.17746
  22509308.080   118287208.01408  22509304.020    92171859.36445
  21205608.300   111436236.24808  21205603.660    86833411.86347
  23949736.980   125856734.98408  23949734.200    98070187.65645
  24697716.040   129787350.20908  24697718.060   101132993.48444
  23164277.780   121729125.90508  23164277.020    94853887.70946
  23686978.020   124475884.79308  23686977.580    96994195.18944
  22829948.520   119972180.38208  22829946.700    93484793.24645
 15 02 24 00 12 30.0000000  0  8G16G18G21G22G25G27G29G31
  21911045.780   115143331.59308  21911044.520    89722092.14046
  22497510.040   118225209.65708  22497506.140    92123548.99545
  21212347.640   111471652.91208  21212343.320    86861009.25147
  23931706.620   125761982.32008  23931703.600    97996354.52345
  24716977.000   129888565.30008  24716978.580   101211862.37044
  23151700.660   121663034.28808  23151700.180    94802387.79545
  23700485.780   124546868.61108  23700485.560    97049507.23945
  22846586.760   120059615.60108  22846585.160    93552924.55744
 15 02 24 00 13  0.0000000  0  8G16G18G21G22G25G27G29G31
  21896827.680   115068613.68008  21896825.900    89663870.40545
  22485767.880   118163505.58008  22485764.100    92075467.90645
  21219150.040   111507400.86908  21219146.100    86888864.78647
  23913676.780   125667232.84508  23913673.640    97922523.85245
  24736265.160   129989923.58607  24736266.400   101290842.75643
  23139139.960   121597029.40108  23139139.920    94750955.42545
  23714000.620   124617888.69908  23714000.320    97104847.53745
  22863264.000   120147255.35908  22863262.340    93621215.24744
 15 02 24 00 13 30.0000000  0  8G16G18G21G22G25G27G29G31
  21882656.960   114994144.69108  21882654.460    89605842.61745
  22474081.560   118102095.88708  22474078.060    92027616.24045
  21226014.620   111543475.20508  21226011.020    86916974.66247
  23895647.220   125572485.86408  23895644.060    97848695.14244
  24755579.480   130091420.31906  24755580.660   101369931.04044
  23126595.180   121531107.79708  23126595.700    94699587.98345
  23727521.700   124688941.52408  23727521.140    97160213.34645
  22879979.100   120235093.51408  22879976.860    93689660.57044
 15 02 24 00 14  0.0000000  0  8G16G18G21G22G25G27G29G31
  21868534.520   114919929.38609  21868531.200    89548012.50545
  22462452.100   118040985.02908  22462449.020    91979997.42145
  21232941.460   111579876.37608  21232938.200    86945339.22747
  23877618.780   125477746.54007  23877615.900    97774872.40344
  24774919.820   130193056.43006  24774921.420   101449127.83244
  23114066.820   121465271.98208  23114067.380    94648287.36444
  23741049.480   124760029.77608  23741048.500    97215606.78045
  22896731.960   120323129.46808  22896728.440    93758260.02543
 15 02 24 00 14 30.0000000  0  8G16G18G21G22G25G27G29G31
  21854460.140   114845966.48809  21854456.060    89490379.06145
  22450879.300   117980171.49908  22450876.640    91932610.28645
  21239929.560   111616599.71508  21239926.540    86973954.82247
  23859591.280   125383013.61307  23859588.500    97701054.59743
  24794285.600   130294826.58007  24794287.620   101528429.13643
  23101554.120   121399518.17307  23101554.980    94597050.66045
  23754583.200   124831149.81508  23754581.860    97271024.96244
  22913521.260   120411356.85208  22913516.940    93827008.64044
 15 02 24 00 15  0.0000000  0  8G16G18G21G22G25G27G29G31
  21840434.220   114772258.51409  21840429.480    89432944.26644
  22439363.680   117919657.92108  22439361.300    91885456.88346
  21246978.480   111653643.08808  21246975.760    87002819.79447
  23841565.200   125288289.71507  23841562.000    97627243.79843
  24813676.820   130396729.36107  24813678.780   101607833.77243
  23089057.160   121333846.54607  23089058.060    94545878.00545
  23768122.820   124902301.50807  23768121.200    97326467.83645
  22930346.240   120499772.40908  22930341.680    93895903.86744
 15 02 24 00 15 30.0000000  0  7G16G18G21G22G27G29G31
  21826457.460   114698809.27509  21826452.000    89375711.05444
  22427905.960   117859448.20808  22427903.700    91838540.24245
  21254088.380   111691006.52108  21254085.840    87031934.16047
  23823541.820   125193579.28008  23823538.200    97553443.47044
  23076576.240   121268258.63508  23076576.740    94494770.57044
  23781668.600   124973486.68407  23781666.860    97381936.75644
  22947206.500   120588374.97607  22947202.320    93964944.78844
 15 02 24 00 16  0.0000000  0  7G16G18G21G22G27G29G31
  21812530.400   114625622.07508  21812524.540    89318682.05544
  22416506.620   117799545.56008  22416504.400    91791862.89245
  21261259.280   111728689.68708  21261256.740    87061297.66847
  23805521.840   125098886.04008  23805518.600    97479656.59044
  23064111.460   121202755.51407  23064111.800    94443729.24144
  23795220.860   125044706.31106  23795219.460    97437432.55445
  22964101.680   120677162.60508  22964098.220    94034129.88944
 15 02 24 00 16 30.0000000  0  7G16G18G21G22G27G29G31
  21798653.600   114552700.41508  21798647.960    89261859.96844
  22405166.600   117739954.10608  22405164.520    91745428.01845
  21268490.980   111766691.90408  21268488.320    87090909.80047
  23787505.980   125004213.73008  23787503.500    97405886.04645
  23051663.080   121137338.63608  23051663.220    94392755.10144
  23808779.780   125115961.87606  23808778.860    97492956.31745
  22981031.900   120766133.90007  22981029.240    94103458.11044
 15 02 24 00 17  0.0000000  0  7G16G18G21G22G27G29G31
  21784826.100   114480039.12108  21784821.320    89205240.79645
  22393884.940   117680668.99508  22393883.180    91699231.86546
  21275781.740   111805004.42108  21275778.940    87120763.70747
  23769493.340   124909557.84007  23769491.460    97332128.30545
  23039229.660   121072000.52508  23039229.900    94341842.31745
  23822344.300   125187245.94606  23822343.660    97548502.28045
  22997995.420   120855278.20408  22997993.080    94172921.14945
 15 02 24 00 17 30.0000000  0  7G16G18G21G22G27G29G31
  21771049.600   114407645.57408  21771045.940    89148830.25945
  22382662.880   117621696.93208  22382661.380    91653279.64446
  21283132.120   111843630.23808  21283129.100    87150861.75447
  23751485.200   124814925.68907  23751483.760    97258389.06346
  23026812.240   121006746.07208  23026812.620    94290994.70945
  23835915.400   125258563.50906  23835915.000    97604074.37644
  23014992.640   120944597.42208  23014990.120    94242520.50645
 15 02 24 00 18  0.0000000  0  7G16G18G21G22G27G29G31
  21757324.480   114335520.67708  21757321.820    89092629.06345
  22371500.960   117563039.48509  22371499.160    91607572.56946
  21290541.520   111882566.23008  21290538.260    87181201.48447
  23733482.060   124720318.71608  23733480.640    97184669.45445
  23014410.460   120941573.94808  23014411.000    94240211.26245
  23849492.720   125329912.99606  23849492.020    97659671.34944
  23032022.540   121034087.39908  23032019.780    94312252.91145
 15 02 24 00 18 30.0000000  0  7G16G18G21G22G27G29G31
  21743650.600   114263663.66708  21743648.420    89036636.61846
  22360398.760   117504695.28809  22360396.240    91562109.57746
  21298009.060   111921807.50808  21298005.480    87211779.09547
  23715483.580   124625736.16508  23715481.980    97110968.87245
  23002023.880   120876480.98708  23002024.580    94189489.50345
  23863075.760   125401291.42806  23863074.520    97715290.86944
  23049083.820   121123741.95708  23049080.560    94382113.56845
 15 02 24 00 19  0.0000000  0  7G16G18G21G22G27G29G31
  21730029.600   114192083.16009  21730027.460    88980859.61446
  22349357.980   117446673.57209  22349354.700    91516897.86545
  21305535.740   111961359.19908  21305531.840    87242598.59547
  23697491.680   124531187.39608  23697489.660    97037294.60244
  22989653.640   120811473.63908  22989654.440    94138834.46245
  23876665.580   125472705.21607  23876663.680    97770937.95444
  23066177.000   121213564.36208  23066173.120    94452105.02545
 15 02 24 00 19 30.0000000  0  7G16G18G21G22G27G29G31
  21716461.620   114120780.31409  21716459.120    88925298.96546
  22338378.720   117388975.12509  22338374.500    91471938.05245
  21313120.960   112001218.44908  21313116.740    87273657.76247
  23679506.440   124436673.59708  23679503.640    96963647.57044
  22977299.520   120746550.58708  22977299.900    94088245.11645
  23890261.860   125544153.20406  23890259.060    97826611.69943
  23083301.160   121303550.66508  23083296.780    94522224.19545
 15 02 24 00 20  0.0000000  0  7G16G18G21G22G27G29G31
  21702947.040   114049757.61909  21702943.980    88869956.61146
  22327461.420   117331602.89409  22327456.360    91427232.43045
  21320764.380   112041383.87008  21320759.980    87304955.49147
  23661528.460   124342198.29808  23661523.860    96890030.49543
  22964961.700   120681712.68508  22964961.560    94037722.10445
  23903864.540   125615636.02407  23903861.000    97882312.62443
  23100455.920   121393698.53908  23100451.220    94592469.26545
 15 02 24 00 20 30.0000000  0  7G16G18G21G22G27G29G31
  21689485.740   113979014.87009  21689482.120    88814832.38746
  22316605.980   117274556.41509  22316600.580    91382780.63445
  21328465.080   112081850.96908  21328460.660    87336488.28847
  23643557.700   124247761.07008  23643550.560    96816443.06542
  22952639.520   120616957.08008  22952638.960    93987263.24045
  23917473.200   125687151.05106  23917469.060    97938038.60744
  23117640.200   121484002.09808  23117635.220    94662835.61544
 15 02 24 00 21  0.0000000  0  7G16G18G21G22G27G29G31
  21676078.400   113908556.22909  21676074.420    88759929.55846
  22305813.120   117217839.74509  22305807.880    91338585.85145
  21336223.100   112122619.85508  21336218.780    87368256.25347
  23625595.040   124153366.24508  23625586.740    96742888.64043
  22940333.220   120552285.66508  22940332.340    93936869.95645
  23931088.140   125758700.20007  23931084.120    97993791.20944
  23134853.740   121574460.16408  23134848.480    94733322.39344
 15 02 24 00 21 30.0000000  0  7G16G18G21G22G27G29G31
  21662724.800   113838380.91409  21662720.640    88705247.50746
  22295082.780   117161452.16009  22295077.780    91294647.48846
  21344037.480   112163685.52208  21344033.420    87400255.46547
  23607640.440   124059013.82808  23607633.320    96669367.30644
  22928042.180   120487695.26508  22928041.400    93886539.80545
  23944709.160   125830280.10007  23944706.060    98049567.70544
  23152095.440   121665066.62608  23152089.660    94803924.79243
 15 02 24 00 22  0.0000000  0  7G16G18G21G22G27G29G31
  21649426.200   113768495.65309  21649421.960    88650791.47346
  22284416.220   117105400.22109  22284411.700    91250970.67446
  21351908.960   112205051.63208  21351905.260    87432488.78547
  23589695.320   123964711.01308  23589689.700    96595884.68145
  22915767.200   120423190.41708  22915766.960    93836276.33445
  23958337.140   125901895.34307  23958334.680    98105371.77444
  23169365.660   121755823.03808  23169359.420    94874644.05844
 15 02 24 00 22 30.0000000  0  7G16G18G21G22G27G29G31
  21636182.980   113698902.20909  21636178.720    88596562.83746
  22273813.980   117049685.87209  22273809.800    91207556.90846
  21359837.060   112246715.06608  21359833.660    87464953.79547
  23571759.900   123870459.69508  23571755.320    96522442.19245
  22903508.220   120358770.68708  22903508.440    93786079.16945
  23971971.980   125973545.83307  23971969.560    98161203.28844
  23186663.700   121846726.01608  23186657.200    94945477.51643
 15 02 24 00 23  0.0000000  0  7G16G18G21G22G27G29G31
  21622994.940   113629599.37409  21622990.540    88542560.64445
  22263275.780   116994307.70409  22263271.780    91164405.12046
  21367820.880   112288670.57008  21367817.560    87497646.38847
  23553834.120   123776258.84108  23553829.980    96449039.00545
  22891264.680   120294432.50208  22891265.340    93735945.54346
  23985612.820   126045227.64607  23985610.520    98217059.23644
  23203988.380   121937768.89308  23203982.240    95016419.99243
 15 02 24 00 23 30.0000000  0  7G16G18G21G22G27G29G31
  21609863.460   113560594.22608  21609858.820    88488790.40145
  22252802.880   116939273.07109  22252798.900    91121521.01046
  21375861.020   112330921.47608  21375857.660    87530569.17347
  23535919.400   123682116.36508  23535915.540    96375681.32446
  22879037.720   120230180.91508  22879038.800    93685879.40446
  23999260.480   126116946.22107  23999258.220    98272943.76444
  23221340.220   122028953.61708  23221334.800    95087473.00544
 15 02 24 00 24  0.0000000  0  7G16G18G21G22G27G29G31
  21596788.280   113491885.44708  21596783.560    88435251.11145
  22242395.040   116884580.32509  22242391.040    91078903.29646
  21383956.400   112373462.18608  21383952.820    87563717.77147
  23518015.480   123588030.87208  23518011.780    96302368.02646
  22866826.640   120166012.09508  22866827.800    93635877.72946
  24012914.480   126188697.74207  24012912.100    98328854.00644
  23238717.940   122120273.55008  23238713.340    95158631.34344
 15 02 24 00 24 30.0000000  0  7G16G18G21G22G27G29G31
  21583769.340   113423472.14808  21583764.700    88381942.07145
  22232052.040   116830228.63609  22232048.220    91036551.34546
  21392106.100   112416288.36308  21392102.300    87597088.81347
  23500122.440   123494002.22308  23500118.740    96229099.02346
  22854630.920   120101923.16408  22854631.960    93585938.34245
  24026574.400   126260479.09107  24026571.680    98384787.46344
  23256120.260   122211722.66008  23256116.400    95229890.33945
 15 02 24 00 25  0.0000000  0  7G16G18G21G22G27G29G31
  21570807.860   113355359.68609  21570803.280    88328867.45445
  22221774.780   116776223.12508  22221771.340    90994469.17446
  21400310.200   112459400.89208  21400306.240    87630682.98847
  23482241.080   123400036.15008  23482237.500    96155878.79546
  22842451.060   120037917.21508  22842451.660    93536063.60646
  24040240.720   126332293.26307  24040237.540    98440746.54944
  23273547.180   122303301.06208  23273543.860    95301250.09045
 15 02 24 00 25 30.0000000  0  7G16G18G21G22G27G29G31
  21557904.540   113287551.45109  21557899.940    88276029.88546
  22211564.080   116722567.06909  22211560.920    90952659.27346
  21408568.560   112502799.46608  21408564.600    87664500.04847
  23464372.320   123306136.24208  23464368.760    96082710.10246
  22830287.260   119973995.23508  22830287.260    93486254.31745
  24053913.680   126404141.38707  24053909.740    98496732.04644
  23290998.220   122395006.57608  23290995.280    95372708.87844
 15 02 24 00 26  0.0000000  0  7G16G18G21G22G27G29G31
  21545059.400   113220048.29509  21545054.540    88223430.03346
  22201420.080   116669261.04308  22201417.260    90911122.12046
  21416880.540   112546480.43208  21416876.520    87698537.16547
  23446516.320   123212303.61608  23446512.860    96009593.85946
  22818139.080   119910155.70508  22818138.780    93436509.26045
  24067592.920   126476021.81708  24067588.380    98552742.75044
  23308472.540   122486834.78408  23308469.820    95444263.25844
 15 02 24 00 26 30.0000000  0  7G16G18G21G22G27G29G31
  21532273.220   113152854.95209  21532268.040    88171071.58446
  22191343.520   116616309.70508  22191341.260    90869861.36046
  21425246.500   112590444.99708  21425242.460    87732795.27547
  23428674.220   123118543.76408  23428670.880    95936534.31246
  22806007.140   119846401.50208  22806006.820    93386830.69346
  24081278.820   126547937.59008  24081273.640    98608780.99843
  23325970.120   122578785.67608  23325967.520    95515913.23745
 15 02 24 00 27  0.0000000  0  7G16G18G21G22G27G29G31
  21519546.400   113085974.07909  21519540.940    88118956.62446
  22181335.020   116563715.69708  22181333.040    90828879.02046
  21433666.100   112634691.05808  21433662.080    87767272.73046
  23410846.560   123024859.40408  23410843.180    95863533.57946
  22793891.420   119782732.80308  22793891.160    93337218.75246
  24094971.240   126619888.85508  24094965.200    98664846.91543
  23343490.480   122670856.44908  23343488.060    95587656.64945
 15 02 24 00 27 30.0000000  0  7G16G18G21G22G27G29G31
  21506879.800   113019410.57909  21506874.220    88067088.96446
  22171395.500   116511483.94508  22171393.700    90788178.96946
  21442139.580   112679219.63008  21442135.540    87801970.33946
  23393034.260   122931256.26608  23393030.660    95790596.13445
  22781792.460   119719152.55008  22781792.280    93287675.71845
  24108670.740   126691878.62908  24108663.560    98720942.90642
  23361033.580   122763046.63708  23361031.220    95659493.11444
 15 02 24 00 28  0.0000000  0  7G16G18G21G22G27G29G31
  21494273.080   112953162.17509  21494267.540    88015466.84146
  22161524.640   116459612.04409  22161522.820    90747759.31746
  21450665.920   112724025.17108  21450661.760    87836883.76647
  23375237.240   122837732.14208  23375233.220    95717720.23745
  22769709.420   119655656.14008  22769709.540    93238198.02946
  24122376.280   126763902.09008  24122369.000    98777065.10843
  23378598.060   122855348.54208  23378595.500    95731416.64244
 15 02 24 00 28 30.0000000  0  7G16G18G21G22G27G29G31
  21481727.200   112887233.71109  21481721.820    87964094.02146
  22151723.160   116408104.42209  22151721.140    90707623.53246
  21459245.220   112769108.25508  21459240.920    87872013.45546
  23357456.360   122744292.31908  23357451.740    95644910.01445
  22757642.880   119592246.08108  22757643.080    93188787.62446
  24136088.580   126835962.24508  24136081.980    98833215.85843
  23396183.800   122947761.69408  23396181.000    95803426.86944
 15 02 24 00 29  0.0000000  0  7G16G18G21G22G27G29G31
  21469243.040   112821630.16109  21469237.920    87912974.36746
  22141992.080   116356966.04809  22141989.760    90667775.45746
  21467877.600   112814469.83708  21467873.060    87907360.14346
  23339692.540   122650942.42408  23339687.580    95572169.85644
  22745593.360   119528925.38208  22745593.540    93139446.83446
  24149808.160   126908061.84707  24149802.460    98889397.38643
  23413790.700   123040286.19108  23413787.900    95875523.83545
 15 02 24 00 29 30.0000000  0  7G16G18G21G22G27G29G31
  21456819.680   112756346.92709  21456815.080    87862104.32646
  22132330.320   116306191.98809  22132327.860    90628211.26646
  21476561.320   112860101.29908  21476556.520    87942917.12047
  23321945.000   122557678.09808  23321940.060    95499496.38044
  22733559.580   119465687.17309  22733559.480    93090170.33845
  24163533.760   126980193.57708  24163529.500    98945603.94843
  23431416.800   123132912.16908  23431414.180    95947699.85045
 15 02 24 00 30  0.0000000  0  7G16G18G21G22G27G29G31
  21444458.060   112691389.08609  21444454.120    87811487.84845
  22122738.700   116255787.14808  22122736.240    90588934.79046
  21485296.420   112906003.37408  21485291.340    87978684.96547
  23304214.680   122464504.65908  23304210.160    95426893.74145
  22721542.020   119402534.25908  22721541.500    93040960.31445
  24177266.120   127052360.75908  24177263.580    99001838.08444
  23449062.160   123225639.14308  23449059.840    96019954.57845
 15 02 24 00 30 30.0000000  0  7G16G18G21G22G27G29G31
  21432158.780   112626758.67209  21432155.280    87761126.51345
  22113217.580   116205753.21208  22113215.380    90549947.32046
  21494082.400   112952173.50108  21494077.160    88014661.68947
  23286502.080   122371424.58608  23286498.160    95354363.89045
  22709540.600   119339466.44408  22709539.820    92991816.57746
  24191005.260   127124562.93607  24191004.040    99058099.47645
  23466726.220   123318464.11108  23466724.120    96092285.65245
 15 02 24 00 31  0.0000000  0  7G16G18G21G22G27G29G31
  21419921.780   112562454.30309  21419918.320    87711019.21446
  22103766.540   116156088.51308  22103764.760    90511247.57247
  21502918.340   112998606.89408  21502913.180    88050843.54047
  23268807.160   122278436.90108  23268803.460    95281906.01746
  22697554.720   119276480.09408  22697553.840    92942736.32446
  24204750.540   127196796.63307  24204750.160    99114385.40245
  23484407.780   123411380.29509  23484405.900    96164687.80846
 15 02 24 00 31 30.0000000  0  7G16G18G21G22G27G29G31
  21407747.960   112498480.89609  21407744.420    87661169.80445
  22094386.600   116106797.94308  22094385.160    90472839.35747
  21511804.400   113045304.26408  21511799.500    88087231.09847
  23251131.020   122185547.45208  23251127.220    95209524.69246
  22685584.940   119213578.24408  22685584.000    92893721.94746
  24218502.500   127269064.68807  24218502.540    99170698.13345
  23502106.760   123504387.52308  23502104.860    96237160.91746
 15 02 24 00 32  0.0000000  0  7G16G18G21G22G27G29G31
  21395637.640   112434840.91409  21395634.040    87611580.21646
  22085078.380   116057883.86808  22085077.120    90434724.51046
  21520740.360   113092264.63008  21520735.940    88123823.59347
  23233474.160   122092758.84108  23233470.080    95137221.93846
  22673631.260   119150761.12708  22673630.380    92844773.59146
  24232261.160   127341367.17607  24232261.120    99227037.73444
  23519822.580   123597483.14608  23519820.640    96309702.91446
 15 02 24 00 32 30.0000000  0  7G16G18G21G22G27G29G31
  21383590.860   112371534.87609  21383587.300    87562250.82746
  22075841.820   116009346.15608  22075840.700    90396902.93047
  21529725.380   113139483.63808  21529721.600    88160617.61747
  23215836.560   122000071.79508  23215832.200    95064998.34145
  22661693.360   119088026.79408  22661692.500    92795889.71446
  24246026.340   127413702.60207  24246025.560    99283403.00643
  23537554.200   123690662.08808  23537552.180    96382309.80245
 15 02 24 00 33  0.0000000  0  7G16G18G21G22G27G29G31
  21371608.920   112308568.78909  21371605.180    87513186.34646
  22066678.040   115961190.50908  22066677.040    90359379.06846
  21538760.020   113186963.49608  21538756.960    88197614.90947
  23198219.380   121907492.54008  23198214.600    94992858.72145
  22649771.920   119025379.12509  22649771.260    92747073.38446
  24259798.580   127486074.50107  24259796.360    99339796.65444
  23555301.640   123783924.83908  23555299.700    96454982.01045
 15 02 24 00 33 30.0000000  0  7G16G18G21G22G27G29G31
  21359692.100   112245944.23109  21359688.040    87464387.97346
  22057587.320   115913418.97808  22057586.440    90322154.52147
  21547843.960   113234702.27408  21547841.580    88234813.95347
  23180623.020   121815023.76408  23180617.800    94920805.19345
  22637866.900   118962818.04608  22637866.560    92698324.49946
  24273577.720   127558482.91207  24273574.560    99396218.74844
  23573064.240   123877268.89108  23573062.640    96527717.54145
 15 02 24 00 34  0.0000000  0  7G16G18G21G22G27G29G31
  21347841.200   112183665.60809  21347836.880    87415859.15746
  22048570.380   115866034.83108  22048569.480    90285231.82946
  21556977.320   113282700.10208  21556975.400    88272214.85847
  23163048.440   121722669.70008  23163042.640    94848841.02444
  22625978.700   118900345.37308  22625978.640    92649644.52046
  24287364.000   127630929.42307  24287359.900    99452670.57844
  23590841.820   123970692.60208  23590840.720    96600515.15145
 15 02 24 00 34 30.0000000  0  7G16G18G21G22G27G29G31
  21336056.420   112121734.35009  21336052.040    87367601.03447
  22039627.500   115819039.63208  22039626.580    90248612.22246
  21566159.700   113330954.49408  21566157.960    88309815.68147
  23145496.120   121630432.62108  23145489.260    94776968.01244
  22614107.160   118837960.59008  22614107.460    92601033.03247
  24301157.400   127703413.58207  24301151.760    99509151.79741
  23608634.000   124064192.47108  23608633.260    96673372.11644
 15 02 24 00 35  0.0000000  0  7G16G18G21G22G27G29G31
  21324337.800   112060151.02309  21324333.620    87319614.01647
  22030758.740   115772433.10109  22030757.560    90212295.46346
  21575390.380   113379461.46208  21575388.560    88347613.32047
  23127966.200   121538312.96908  23127958.380    94705186.46144
  22602251.960   118775661.84508  22602252.540    92552488.59646
  24314957.480   127775933.59206  24314951.940    99565660.94941
  23626439.940   124157763.55108  23626439.320    96746284.57544
 15 02 24 00 35 30.0000000  0  7G16G18G21G22G27G29G31
  21312686.720   111998923.01009  21312682.760    87271903.88047
  22021965.560   115726222.88309  22021963.840    90176287.50946
  21584670.020   113428224.75208  21584667.800    88385610.66847
  23110460.440   121446319.37708  23110452.620    94633503.14644
  22590414.320   118713454.78709  22590414.860    92504015.59946
  24328764.780   127848495.23806  24328761.180    99622202.58341
  23644260.140   124251408.46908  23644259.380    96819254.59844
 15 02 24 00 36  0.0000000  0  7G16G18G21G22G27G29G31
  21301102.760   111938047.96709  21301098.860    87224468.78447
  22013247.280   115680406.08409  22013244.940    90140586.11646
  21593997.300   113477237.91608  21593994.520    88423802.73247
  23092978.320   121354449.77708  23092971.340    94561916.46245
  22578593.400   118651334.84709  22578593.580    92455610.46546
  24342578.820   127921093.59205  24342577.940    99678772.71044
  23662092.980   124345119.54608  23662091.840    96892276.17844
 15 02 24 00 36 30.0000000  0  7G16G18G21G22G27G29G31
  21289586.120   111877526.90809  21289582.120    87177309.52547
  22004604.000   115634983.60409  22004601.060    90105191.97846
  21603371.640   113526498.08008  21603368.060    88462187.26347
  23075519.920   121262705.56308  23075514.220    94490427.51745
  22566788.920   118589300.89309  22566788.640    92407272.32546
  24356399.940   127993727.35506  24356401.000    99735370.42744
  23679937.660   124438892.41208  23679936.040    96965345.90244
 15 02 24 00 37  0.0000000  0  7G16G18G21G22G27G29G31
  21278136.420   111817358.23209  21278132.340    87130424.84247
  21996035.220   115589952.81609  21996031.900    90070103.04646
  21612791.860   113575999.44708  21612787.420    88500759.74547
  23058084.860   121171085.23308  23058080.500    94419035.11645
  22555000.080   118527349.19009  22554999.400    92358998.26947
  24370227.460   128066393.17604  24370229.520    99791993.09244
  23697792.800   124532720.35808  23697791.100    97038458.48344
 15 02 24 00 37 30.0000000  0  7G16G18G21G22G27G29G31
  21266756.620   111757557.52309  21266752.600    87083826.90847
  21987543.820   115545329.34109  21987540.340    90035331.52346
  21622260.120   113625753.61608  21622254.800    88539529.23146
  23040676.280   121079605.14808  23040672.880    94347752.00245
  22543229.460   118465493.32909  22543228.520    92310798.91946
  24384063.400   128139104.34805  24384067.220    99848651.08744
  23715660.260   124626613.89208  23715658.800    97111622.18444
 15 02 24 00 38  0.0000000  0  7G16G18G21G22G27G29G31
  21255443.800   111698109.33509  21255439.980    87037503.65147
  21979126.800   115501097.47109  21979123.440    90000865.13546
  21631772.660   113675741.15308  21631766.620    88578480.55446
  23023291.500   120988250.27908  23023288.820    94276566.45945
  22531473.700   118403715.75809  22531472.580    92262660.56847
  24397905.240   128211843.05906  24397909.060    99905330.56945
  23733536.020   124720552.48907  23733535.520    97184820.96344
 15 02 24 00 38 30.0000000  0  7G16G18G21G22G27G29G31
  21244200.000   111639023.92309  21244196.420    86991463.08548
  21970786.020   115457267.11209  21970783.060    89966711.61946
  21641330.780   113725968.55808  21641324.260    88617618.80146
  23005932.840   120897031.60508  23005930.400    94205487.03345
  22519734.340   118342024.64709  22519733.120    92214589.59446
  24411754.460   128284617.65206  24411757.340    99962038.06645
  23751421.300   124814541.13108  23751421.620    97258058.74344
 15 02 24 00 39  0.0000000  0  7G16G18G21G22G27G29G31
  21233025.700   111580303.36609  21233022.240    86945706.83148
  21962521.720   115413839.42809  21962519.240    89932871.88746
  21650934.060   113776433.50708  21650927.280    88656942.15046
  22988600.900   120805951.63508  22988598.160    94134515.67946
  22508011.400   118280420.00009  22508010.040    92166586.00146
  24425610.600   128357428.22005  24425612.700   100018773.55245
  23769315.580   124908576.68308  23769317.280    97331333.06643
 15 02 24 00 39 30.0000000  0  6G16G18G21G22G27G31
  21221928.560   111521988.13809  21221925.120    86900266.39947
  21954341.880   115370855.10909  21954339.760    89899377.62147
  21660589.400   113827172.46408  21660582.680    88696479.00445
  22971303.460   120715050.96409  22971299.960    94063684.01245
  22496312.160   118218940.28209  22496310.560    92118679.76446
  23787225.620   125002694.49408  23787228.140    97404671.61043
 15 02 24 00 40  0.0000000  0  7G16G18G21G22G27G29G31
  21210894.900   111464006.85909  21210891.560    86855086.18848
  21946232.780   115328242.13109  21946230.940    89866172.71547
  21670282.660   113878110.74008  21670276.200    88736171.17246
  22954026.700   120624259.07008  22954022.740    93992937.12645
  22484622.600   118157512.13809  22484620.880    92070813.71946
  24453350.660   128503219.64205  24453351.640   100132386.57645
  23805136.900   125096818.23308  23805138.720    97478014.77343
 15 02 24 00 40 30.0000000  0  7G16G18G21G22G27G29G31
  21199929.380   111406383.77109  21199926.220    86810185.08947
  21938198.980   115286024.45609  21938197.280    89833275.84647
  21680017.580   113929268.32108  21680011.480    88776034.22946
  22936775.340   120533600.44909  22936770.720    93922294.08845
  22472946.980   118096157.73409  22472945.160    92023005.12746
  24467224.840   128576128.04307  24467226.000   100189198.32645
  23823052.940   125190966.92108  23823052.660    97551377.36643
 15 02 24 00 41  0.0000000  0  7G16G18G21G22G27G29G31
  21189038.460   111349152.39409  21189035.460    86765589.22547
  21930246.660   115244234.75009  21930245.060    89800712.45047
  21689799.720   113980674.59408  21689794.280    88816091.06546
  22919555.720   120443109.10308  22919550.560    93851781.39244
  22461291.280   118034908.46909  22461289.620    91975278.45646
  24481109.380   128649090.66107  24481110.600   100246052.34945
  23840978.980   125285168.88108  23840977.660    97624781.40543
 15 02 24 00 41 30.0000000  0  7G16G18G21G22G27G29G31
  21178219.720   111292299.51809  21178216.660    86721288.27747
  21922373.160   115202859.33409  21922371.540    89768471.87547
  21699625.780   114032312.30408  21699621.080    88856328.22746
  22902365.440   120352772.43208  22902359.980    93781389.21744
  22449652.660   117973749.19209  22449651.180    91927621.89746
  24495001.080   128722092.16307  24495002.100   100302936.69745
  23858911.500   125379405.73508  23858909.640    97698212.61144
 15 02 24 00 42  0.0000000  0  7G16G18G21G22G27G29G31
  21167473.600   111235827.43309  21167470.300    86677284.05447
  21914578.940   115161900.48109  21914577.200    89736555.89547
  21709495.400   114084179.27508  21709491.440    88896744.02946
  22885204.960   120262593.27508  22885199.120    93711119.77744
  22438031.240   117912680.23808  22438029.820    91880035.68546
  24508900.140   128795132.83105  24508900.700   100359851.51445
  23876850.080   125473674.81708  23876848.320    97771668.89844
 15 02 24 00 42 30.0000000  0  6G16G18G21G22G27G31
  21156804.180   111179758.28809  21156800.480    86633593.81047
  21906868.040   115121379.58609  21906866.140    89704981.19146
  21719412.320   114136295.02508  21719409.100    88937353.69646
  22868078.640   120172593.96608  22868072.340    93640990.46044
  22426430.920   117851721.74009  22426429.500    91832535.55446
  23894798.220   125567993.31908  23894796.420    97845163.72244
 15 02 24 00 43  0.0000000  0  7G16G18G21G22G27G29G31
  21146203.420   111124049.94409  21146199.260    86590184.70447
  21899232.340   115081253.65109  21899230.160    89673714.23546
  21729367.580   114188612.21208  21729365.020    88978120.30846
  22850978.480   120082733.26708  22850972.180    93570969.16044
  22414843.360   117790829.28209  22414841.940    91785086.89646
  24536725.360   128941370.13206  24536723.520   100473779.13945
  23912746.880   125662313.50708  23912745.120    97918659.85144
 15 02 24 00 43 30.0000000  0  7G16G18G21G22G27G29G31
  21135668.180   111068685.80609  21135663.560    86547043.81647
  21891668.680   115041506.13409  21891666.160    89642742.15246
  21739357.500   114241111.17208  21739355.440    89019028.56047
  22833901.600   119992995.26508  22833895.640    93501043.49645
  22403265.100   117729984.78409  22403263.860    91737675.59446
  24550637.260   129014481.01807  24550636.100   100530748.64046
  23930692.020   125756614.31908  23930690.160    97992140.91044
 15 02 24 00 44  0.0000000  0  6G16G18G21G22G27G31
  21125222.560   111013792.76509  21125217.560    86504270.00947
  21884201.080   115002263.48909  21884198.420    89612163.47646
  21749405.500   114293914.42808  21749403.620    89060173.92847
  22816872.340   119903507.16108  22816866.740    93431312.53444
  22391719.840   117669313.19209  22391718.840    91690399.03846
  23948656.740   125851017.53408  23948654.600    98065701.74844
 15 02 24 00 44 30.0000000  0  6G16G18G21G22G27G31
  21114843.260   110959248.24509  21114838.060    86461767.77547
  21876806.040   114963402.18109  21876803.300    89581881.94846
  21759487.640   114346895.47508  21759485.580    89101457.83447
  22799867.460   119814146.63309  22799862.320    93361680.99145
  22380183.800   117608689.46909  22380182.960    91643159.77147
  23966616.500   125945394.79508  23966614.020    98139242.35444
 15 02 24 00 45  0.0000000  0  6G16G18G21G22G27G31
  21104539.520   110905100.99809  21104534.340    86419575.12447
  21869492.860   114924970.88309  21869490.120    89551935.49647
  21769612.400   114400099.53208  21769609.980    89142915.53347
  22782896.440   119724963.27608  22782891.500    93292187.50545
  22368665.940   117548160.83209  22368665.260    91595994.60847
  23984579.660   126039790.55808  23984577.120    98212797.38544
 15 02 24 00 45 30.0000000  0  6G16G18G21G22G27G31
  21094310.560   110851346.90109  21094305.420    86377688.82547
  21862260.520   114886964.80809  21862257.900    89522320.38947
  21779778.120   114453518.25508  21779775.260    89184540.51047
  22765958.380   119635953.04708  22765953.580    93222828.93445
  22357165.020   117487721.31109  22357164.520    91548898.87547
  24002544.480   126134195.64408  24002541.960    98286359.65944
 15 02 24 00 46  0.0000000  0  7G16G18G19G21G22G27G31
  21084157.640   110797992.39209  21084152.440    86336113.88547
  21855110.080   114849389.21309  21855107.520    89493040.71946
  24524261.460   128875866.30105  24524259.760   100422737.01244
  21789985.120   114507154.04808  21789981.800    89226334.62147
  22749054.740   119547123.59008  22749049.940    93153611.20945
  22345681.780   117427375.23009  22345681.360    91501875.94847
  24020511.200   126228611.33108  24020509.140    98359930.18744
 15 02 24 00 46 30.0000000  0  7G16G18G19G21G22G27G31
  21074079.620   110745031.81909  21074074.340    86294845.91447
  21848040.460   114812238.47209  21848037.920    89464092.11646
  24509436.940   128797960.47406  24509434.460   100362031.24144
  21800231.580   114560997.78808  21800227.920    89268290.77446
  22732184.320   119458469.65008  22732179.520    93084530.26945
  22334214.700   117367115.04909  22334214.420    91454919.97447
  24038477.880   126323026.90108  24038476.260    98433500.60644
 15 02 24 00 47  0.0000000  0  7G16G18G19G21G22G27G31
  21064077.100   110692468.59509  21064071.860    86253887.55547
  21841052.240   114775515.50109  21841049.640    89435476.82447
  24494620.940   128720099.01707  24494617.840   100301360.00943
  21810517.240   114615048.53408  21810513.340    89310408.23346
  22715347.860   119369995.22308  22715343.220    93015589.22145
  22322764.080   117306942.38409  22322763.940    91408032.17847
  24056444.340   126417440.82308  24056442.960    98507069.75244
 15 02 24 00 47 30.0000000  0  7G16G18G19G21G22G27G31
  21054150.380   110640304.26209  21054145.380    86213240.03747
  21834145.560   114739221.02609  21834142.860    89407195.43346
  24479813.220   128642281.43506  24479808.360   100240722.90144
  21820841.760   114669304.14208  21820837.720    89352685.31846
  22698545.880   119281701.91008  22698541.440    92946789.31644
  22311329.860   117246856.67909  22311329.940    91361212.16947
  24074409.880   126511849.26708  24074408.820    98580634.63044
 15 02 24 00 48  0.0000000  0  7G16G18G19G21G22G27G31
  21044301.040   110588546.91309  21044296.400    86172909.63547
  21827321.820   114703362.65009  21827319.100    89379253.83846
  24465015.140   128564514.28907  24465008.000   100180125.05943
  21831206.020   114723769.14808  21831201.900    89395125.57646
  22681780.360   119193599.02008  22681775.520    92878137.75744
  22299913.320   117186864.46609  22299913.660    91314464.99247
  24092375.200   126606256.05308  24092374.020    98654198.20145
 15 02 24 00 48 30.0000000  0  7G16G18G19G21G22G27G31
  21034530.960   110537206.00209  21034526.700    86132903.73747
  21820582.820   114667949.54709  21820580.100    89351659.22246
  24450227.520   128486804.16104  24450219.600   100119571.65443
  21841611.180   114778449.19308  21841606.840    89437733.39946
  22665053.080   119105696.08409  22665047.140    92809641.97743
  22288516.020   117126973.28909  22288516.600    91267796.54747
  24110340.980   126700665.40808  24110340.060    98727763.73444
 15 02 24 00 49  0.0000000  0  7G16G18G19G21G22G27G31
  21024840.700   110486283.97009  21024836.660    86093224.24847
  21813928.800   114632982.96409  21813926.080    89324412.54946
  24435450.420   128409151.29306  24435443.920   100059063.04044
  21852056.800   114833341.97408  21852052.240    89480506.99745
  22648364.720   119017996.39409  22648356.960    92741304.52243
  22277138.040   117067183.53209  22277138.780    91221207.13847
  24128306.700   126795074.46908  24128305.880    98801329.04844
 15 02 24 00 49 30.0000000  0  7G16G18G19G21G22G27G31
  21015238.560   110435824.81209  21015234.680    86053905.43048
  21807368.020   114598506.56009  21807365.380    89297547.82047
  24420693.320   128331595.13906  24420692.580    99998633.97044
  21862550.700   114888488.68208  21862546.080    89523478.44545
  22631723.420   118930544.78709  22631714.360    92673160.36943
  22265787.580   117007537.76308  22265788.240    91174729.91947
  24146279.820   126889522.88808  24146279.040    98874925.02644
 15 02 24 00 50  0.0000000  0  7G16G18G19G21G22G27G31
  21005702.400   110385712.11109  21005698.660    86014856.57848
  21800878.220   114564403.25109  21800875.760    89270973.82747
  24405930.700   128254022.80406  24405929.440    99938188.05045
  21873069.720   114943768.28608  21873065.120    89566553.45745
  22615107.240   118843224.87709  22615098.860    92605118.83944
  22254442.100   116947917.25709  22254442.560    91128272.38846
  24164237.140   126983888.77708  24164236.740    98948456.67744
 15 02 24 00 50 30.0000000  0  7G16G18G19G21G22G27G31
  20996249.080   110336034.77609  20996245.420    85976146.98048
  21794476.320   114530761.19709  21794473.860    89244759.25247
  24391181.840   128176518.32206  24391180.320    99877794.97845
  21883630.220   114999265.92807  21883625.760    89609798.37545
  22598533.080   118756126.27708  22598526.340    92537249.83544
  22243118.220   116888409.38309  22243118.300    91081902.62447
  24182194.780   127078256.39608  24182194.920    99021989.69643
 15 02 24 00 51  0.0000000  0  7G16G18G19G21G22G27G31
  20986874.140   110286769.50709  20986870.600    85937758.47748
  21788157.760   114497556.63009  21788155.240    89218885.58847
  24376441.680   128099056.62707  24376439.760    99817435.31445
  21894227.180   115054954.72107  21894222.760    89653192.23146
  22581996.480   118669226.05408  22581991.260    92469535.42745
  22231811.140   116828989.22009  22231810.660    91035601.20747
  24200147.440   127172597.52808  24200148.140    99095502.05844
 15 02 24 00 51 30.0000000  0  7G16G18G19G21G22G27G31
  20977579.140   110237924.52209  20977575.780    85899697.46748
  21781924.000   114464796.74609  21781921.240    89193358.41347
  24361710.780   128021643.21707  24361708.340    99757113.18346
  21904861.520   115110839.43508  21904857.160    89696738.75445
  22565499.500   118582533.68408  22565495.240    92401982.97045
  22220521.900   116769662.96009  22220520.860    90989372.95447
  24218095.780   127266915.48008  24218097.040    99168996.38842
 15 02 24 00 52  0.0000000  0  7G16G18G19G21G22G27G31
  20968364.180   110189499.95109  20968361.000    85861964.03548
  21775774.840   114432481.54709  21775771.780    89168177.75447
  24346988.820   127944276.67507  24346986.100    99696827.63946
  21915532.760   115166916.68308  21915528.320    89740435.31546
  22549042.020   118496049.73708  22549038.400    92334592.94545
