     2.11           OBSERVATION DATA    G                   RINEX VERSION / TYPE
SPIDER V4,0,0,3554                      2015 03 21 01:00    PGM / RUN BY / DATE 
CNGR                                                        MARKER NAME         
CNGR                                                        MARKER NUMBER       
                                                            OBSERVER / AGENCY   
496521              LEICA GRX1200+GNSS  8.10/4.007          REC # / TYPE / VERS 
10321004            LEIAR25         NONE                    ANT # / TYPE        
  5218738.7445   688113.1521  3590185.5476                  APPROX POSITION XYZ 
        0.0720        0.0000        0.0000                  ANTENNA: DELTA H/E/N
     1     1                                                WAVELENGTH FACT L1/2
     4    C1    L1    P2    L2                              # / TYPES OF OBSERV 
    30.000                                                  INTERVAL            
  2015    02    24    00    00    0.0000000     GPS         TIME OF FIRST OBS   
  2015    02    24    23    59   30.0000000     GPS         TIME OF LAST OBS    
    16                                                      LEAP SECONDS        
    30                                                      # OF SATELLITES     
   G 1   815   815   815   815                              PRN / # OF OBS      
   G 2   917   917   917   917                              PRN / # OF OBS      
   G 3   860   860   860   860                              PRN / # OF OBS      
   G 4   844   844   844   844                              PRN / # OF OBS      
   G 5   575   575   575   575                              PRN / # OF OBS      
   G 6   789   789   789   789                              PRN / # OF OBS      
   G 7   677   677   677   677                              PRN / # OF OBS      
   G 9   818   818   818   818                              PRN / # OF OBS      
   G10   703   703   703   703                              PRN / # OF OBS      
   G11   778   778   776   776                              PRN / # OF OBS      
   G12   786   786   786   786                              PRN / # OF OBS      
   G13   788   788   788   788                              PRN / # OF OBS      
   G14   942   942   942   942                              PRN / # OF OBS      
   G15   706   706   706   706                              PRN / # OF OBS      
   G16   667   667   667   667                              PRN / # OF OBS      
   G17   928   928   928   928                              PRN / # OF OBS      
   G18   902   899   898   898                              PRN / # OF OBS      
   G19   754   754   754   754                              PRN / # OF OBS      
   G20   745   745   744   744                              PRN / # OF OBS      
   G21   747   747   747   747                              PRN / # OF OBS      
   G22   670   670   670   670                              PRN / # OF OBS      
   G23   761   761   761   761                              PRN / # OF OBS      
   G24   828   828   828   828                              PRN / # OF OBS      
   G25   853   853   853   853                              PRN / # OF OBS      
   G27   810   810   810   810                              PRN / # OF OBS      
   G28   842   840   840   840                              PRN / # OF OBS      
   G29   768   768   767   767                              PRN / # OF OBS      
   G30   724   724   724   724                              PRN / # OF OBS      
   G31   863   863   863   863                              PRN / # OF OBS      
   G32   778   777   777   777                              PRN / # OF OBS      
BIT 2 OF LLI FLAGS DATA COLLECTED UNDER A/S CONDITION       COMMENT             
SNR is mapped to RINEX snr flag value [2-9]                 COMMENT             
Lx:     = 25dBHz -> 1; 26-27dBHz -> 2; 28-31dBHz -> 3       COMMENT             
       32-35dBHz -> 4; 36-38dBHz -> 5; 39-41dBHz -> 6       COMMENT             
       42-44dBHz -> 7; 45-48dBHz -> 8; >=49dBHz -> 9        COMMENT             
                                                            END OF HEADER       
 15 02 24 00 00  0.0000000  0  8G16G18G21G22G25G27G29G31
  22343560.820   117416216.76609  22343557.560    91493150.98947
  22740995.340   119504782.22709  22740992.900    93120622.31846
  21053581.280   110637320.89908  21053577.720    86210887.48248
  24335054.800   127881588.11908  24335052.460    99647977.00045
  24166516.640   126995889.60908  24166517.920    98957834.15545
  23545615.900   123733055.15508  23545616.480    96415375.11447
  23313929.660   122515512.21908  23313927.460    95466621.04447
  22450195.620   117976563.98109  22450192.940    91929776.26648
 15 02 24 00 00 30.0000000  0  8G16G18G21G22G25G27G29G31
  22328107.960   117335011.60709  22328104.760    91429874.27347
  22728049.400   119436751.36809  22728046.840    93067611.28646
  21058753.520   110664500.39209  21058749.820    86232066.30148
  24317091.080   127787188.54908  24317088.540    99574419.05545
  24185031.000   127093182.47108  24185032.120    99033646.71945
  23532652.760   123664933.41508  23532653.380    96362293.27847
  23327054.480   122584484.01609  23327052.300    95520365.27047
  22465585.480   118057438.25909  22465582.780    91992795.16248
 15 02 24 00 01  0.0000000  0  8G16G18G21G22G25G27G29G31
  22312691.620   117253998.09309  22312688.340    91366746.88647
  22715148.700   119368958.93009  22715146.260    93014786.04046
  21063994.680   110692042.33809  21063990.820    86253527.56848
  24299117.020   127692734.65108  24299114.540    99500818.77945
  24203579.820   127190656.81808  24203580.740    99109600.73745
  23519704.600   123596890.66408  23519705.220    96309273.00647
  23340186.620   122653494.10608  23340184.500    95574139.35447
  22481027.300   118138585.72609  22481024.640    92056026.92348
 15 02 24 00 01 30.0000000  0  8G16G18G21G22G25G27G29G31
  22297311.740   117173176.28909  22297308.520    91303768.88347
  22702293.420   119301405.04008  22702291.180    92962146.67947
  21069303.920   110719942.26409  21069299.880    86275267.77148
  24281132.720   127598226.33308  24281129.860    99427176.06545
  24222162.440   127288308.66708  24222163.280    99185693.04445
  23506771.000   123528924.34308  23506771.540    96256312.27947
  23353325.540   122722540.18009  23353323.600    95627941.47947
  22496520.120   118220001.10809  22496517.420    92119467.46248
 15 02 24 00 02  0.0000000  0  8G16G18G21G22G25G27G29G31
  22281968.700   117092547.88609  22281965.460    91240941.57547
  22689483.940   119234091.74509  22689481.760    92909694.79146
  21074680.960   110748198.73509  21074676.880    86297285.79148
  24263138.380   127503665.91108  24263135.400    99353492.79545
  24240778.480   127386136.34908  24240779.600    99261922.35445
  23493851.940   123461034.03208  23493852.280    96203410.78147
  23366471.480   122791622.02009  23366469.560    95681771.47446
  22512063.340   118301681.16209  22512060.500    92183114.21748
 15 02 24 00 02 30.0000000  0  8G16G18G21G22G25G27G29G31
  22266663.180   117012116.97509  22266659.940    91178268.16247
  22676721.220   119167023.34609  22676719.080    92857433.73346
  21080125.780   110776811.61409  21080121.700    86319581.54048
  24245134.980   127409057.72108  24245132.120    99279772.26745
  24259428.140   127484140.29608  24259429.300    99338289.03345
  23480947.700   123393221.48608  23480947.840    96150569.88347
  23379624.600   122860741.17809  23379622.660    95735630.54247
  22527656.740   118383624.87909  22527653.800    92246966.44447
 15 02 24 00 03  0.0000000  0  8G16G18G21G22G25G27G29G31
  22251395.240   116931883.52909  22251391.980    91115748.61747
  22664005.380   119100200.66709  22664003.080    92805364.14047
  21085637.820   110805777.99308  21085633.760    86342152.74348
  24227122.560   127314402.17808  24227119.740    99206014.85446
  24278110.640   127582317.08408  24278112.020    99414790.38146
  23468057.840   123325484.59108  23468057.920    96097787.93647
  23392784.340   122929895.23509  23392782.520    95789516.78747
  22543299.380   118465827.25309  22543296.300    92311020.21648
 15 02 24 00 03 30.0000000  0  8G16G18G21G22G25G27G29G31
  22236165.840   116851852.79409  22236162.640    91053387.02747
  22651337.400   119033629.26309  22651334.820    92753490.34146
  21091217.180   110835098.45008  21091213.280    86364999.84948
  24209102.080   127219704.58108  24209099.220    99132224.67945
  24296826.420   127680668.02308  24296827.840    99491427.45846
  23455182.860   123257826.10908  23455182.980    96045067.08647
  23405951.440   122999087.60909  23405949.640    95843432.91947
  22558991.200   118548288.05509  22558988.060    92375275.36748
 15 02 24 00 04  0.0000000  0  8G16G18G21G22G25G27G29G31
  22220975.460   116772027.06609  22220972.280    90991185.19247
  22638717.600   118967311.31209  22638714.880    92701814.05246
  21096863.780   110864772.17708  21096860.020    86388122.24048
  24191074.120   127124967.65008  24191071.040    99058403.81245
  24315574.980   127779191.98008  24315576.720    99568199.28246
  23442322.740   123190246.11908  23442322.880    95992407.40147
  23419125.700   123068318.25309  23419123.840    95897378.86347
  22574731.720   118631004.64209  22574728.480    92439729.81747
 15 02 24 00 04 30.0000000  0  8G16G18G21G22G25G27G29G31
  22205823.740   116692404.54009  22205820.560    90929141.67747
  22626145.860   118901245.87809  22626142.900    92650334.50446
  21102576.560   110894793.49808  21102572.860    86411515.46948
  24173038.420   127030189.80908  24173035.160    98984551.06445
  24334355.420   127877883.26108  24334357.160    99645101.55145
  23429476.760   123122740.38808  23429476.900    95939805.56947
  23432306.160   123137582.27408  23432304.240    95951350.80347
  22590519.580   118713970.04309  22590516.320    92504378.16548
 15 02 24 00 05  0.0000000  0  8G16G18G21G22G25G27G29G31
  22190712.240   116612993.22109  22190708.980    90867262.75247
  22613623.600   118835440.70309  22613620.520    92599057.77046
  21108356.320   110925166.56309  21108352.640    86435182.79448
  24154996.500   126935379.19208  24154993.100    98910672.79646
  24353168.440   127976746.46708  24353170.300    99722137.76446
  23416646.100   123055314.81008  23416646.220    95887266.20947
  23445494.260   123206886.40208  23445492.280    96005354.05247
  22606355.320   118797187.26909  22606352.100    92569222.72447
 15 02 24 00 05 30.0000000  0  8G16G18G21G22G25G27G29G31
  22175640.600   116533791.12109  22175637.280    90805546.84847
  22601150.680   118769894.84309  22601147.660    92547983.10146
  21114201.900   110955885.42408  21114198.300    86459119.57148
  24136948.120   126840534.61708  24136944.560    98836768.05545
  24372013.140   128075775.97408  24372015.160    99799303.57245
  23403829.880   122987965.25008  23403829.920    95834786.06347
  23458688.980   123276226.59509  23458687.360    96059385.27546
  22622237.620   118880649.23709  22622234.500    92634258.00447
 15 02 24 00 06  0.0000000  0  8G16G18G21G22G25G27G29G31
  22160609.080   116454799.79509  22160605.680    90743995.18947
  22588727.320   118704609.35409  22588724.280    92497111.30547
  21120112.800   110986947.47108  21120109.240    86483323.76448
  24118893.420   126745657.45308  24118889.740    98762837.91945
  24390888.980   128174969.34508  24390890.880    99876597.05145
  23391027.880   122920690.54408  23391027.820    95782364.26547
  23471890.380   123345601.04608  23471888.780    96113443.32347
  22638165.740   118964352.14609  22638162.740    92699481.00747
 15 02 24 00 06 30.0000000  0  8G16G18G21G22G25G27G29G31
  22145618.240   116376022.40409  22145614.800    90682610.22547
  22576354.200   118639588.22209  22576351.300    92446445.52547
  21126089.080   111018353.06408  21126085.580    86507795.66248
  24100833.360   126650751.36308  24100829.620    98688885.23646
  24409796.000   128274326.25108  24409797.680    99954017.98845
  23378240.340   122853491.82008  23378240.200    95730001.64147
  23485098.760   123415011.29908  23485097.340    96167529.21047
  22654139.340   119048294.03909  22654136.460    92764890.27647
 15 02 24 00 07  0.0000000  0  8G16G18G21G22G25G27G29G31
  22130668.980   116297463.54709  22130665.460    90621395.55047
  22564032.080   118574835.77509  22564029.300    92395989.10147
  21132130.740   111050102.02008  21132127.260    86532535.10848
  24082768.580   126555820.85508  24082764.880    98614913.53846
  24428734.320   128373847.31608  24428736.020   100031566.80045
  23365467.580   122786371.07808  23365467.560    95677699.79147
  23498314.060   123484459.37809  23498312.600    96221644.58647
  22670158.300   119132474.20009  22670155.500    92830485.17148
 15 02 24 00 07 30.0000000  0  8G16G18G21G22G25G27G29G31
  22115761.240   116219123.23909  22115757.720    90560351.16647
  22551761.200   118510352.67209  22551758.620    92345742.55047
  21138237.200   111082191.09509  21138233.600    86557539.58548
  24064699.500   126460867.08608  24064695.780    98540923.67846
  24447703.140   128473529.46108  24447704.600   100109241.14045
  23352709.400   122719326.61808  23352709.500    95625457.39247
  23511536.280   123553943.41208  23511535.000    96275787.92246
  22686221.720   119216887.97109  22686219.000    92896262.12547
 15 02 24 00 08  0.0000000  0  8G16G18G21G22G25G27G29G31
  22100895.200   116141002.27609  22100891.780    90499477.71147
  22539541.840   118446140.03709  22539539.280    92295706.75846
  21144407.800   111114617.23109  21144404.080    86582806.71048
  24046625.980   126365890.88508  24046622.320    98466916.35845
  24466702.020   128573369.49108  24466703.280   100187038.55145
  23339965.380   122652356.78208  23339965.640    95573273.16247
  23524765.200   123623461.96808  23524763.700    96329958.25047
  22702328.740   119301530.95609  22702326.100    92962217.67447
 15 02 24 00 08 30.0000000  0  8G16G18G21G22G25G27G29G31
  22086072.540   116063109.13109  22086069.200    90438781.76047
  22527375.700   118382206.77709  22527373.240    92245888.65547
  21150643.400   111147385.23109  21150639.620    86608340.21248
  24028549.680   126270900.71708  24028546.300    98392898.16646
  24485731.780   128673372.13308  24485733.220   100264962.60845
  23327236.640   122585467.64008  23327237.120    95521151.81047
  23538001.800   123693021.33608  23538000.560    96384160.30247
  22718480.000   119386406.21309  22718477.400    93028354.21348
 15 02 24 00 09  0.0000000  0  8G16G18G21G22G25G27G29G31
  22071292.660   115985440.71609  22071289.480    90378260.94447
  22515262.140   118318549.56009  22515259.720    92196285.65447
  21156942.640   111180487.75508  21156938.880    86634134.38748
  24010470.320   126175893.85608  24010466.980    98318866.95645
  24504791.120   128773530.28908  24504792.640   100343007.89245
  23314522.220   122518653.55108  23314522.780    95469088.90547
  23551245.080   123762615.78808  23551243.980    96438389.72147
  22734673.860   119471505.13309  22734671.260    93094665.02748
 15 02 24 00 09 30.0000000  0  8G16G18G21G22G25G27G29G31
  22056555.720   115907997.38709  22056552.560    90317915.51548
  22503201.360   118255169.25809  22503198.800    92146898.42247
  21163304.940   111213921.60509  21163301.140    86660186.74748
  23992387.880   126080871.23308  23992384.420    98244823.44645
  24523879.420   128873841.02908  24523881.260   100421172.03345
  23301821.840   122451912.96308  23301822.380    95417083.30247
  23564494.840   123832243.62408  23564494.120    96492645.18347
  22750909.420   119556823.33209  22750906.860    93161146.71048
 15 02 24 00 10  0.0000000  0  8G16G18G21G22G25G27G29G31
  22041863.180   115830787.10109  22041859.980    90257751.66448
  22491194.780   118192073.96309  22491192.160    92097733.27347
  21169731.000   111247690.34709  21169727.100    86686500.05348
  23974304.020   125985840.76608  23974300.620    98170773.84246
  24542997.560   128974307.98208  24542999.380   100499457.91745
  23289136.460   122385251.08908  23289136.980    95365139.02147
  23577751.920   123901910.20708  23577751.540    96546930.80847
  22767187.200   119642363.28409  22767184.620    93227801.19947
 15 02 24 00 10 30.0000000  0  8G16G18G21G22G25G27G29G31
  22027214.940   115753809.43909  22027211.600    90197769.07248
  22479242.300   118129263.36709  22479239.520    92048789.97247
  21176219.980   111281789.81009  21176215.960    86713071.05548
  23956218.760   125890802.40108  23956215.220    98096718.05546
  24562144.720   129074927.25508  24562146.520   100577862.45745
  23276465.560   122318665.41208  23276466.020    95313254.11747
  23591015.780   123971612.98708  23591015.800    96601244.60547
  22783506.060   119728119.06409  22783503.440    93294623.84948
 15 02 24 00 11  0.0000000  0  8G16G18G21G22G25G27G29G31
  22012610.840   115677063.83909  22012607.440    90137967.31048
  22467343.800   118066737.05009  22467341.120    92000068.19147
  21182770.960   111316215.47909  21182766.860    86739896.25848
  23938132.040   125795756.22208  23938128.220    98022656.17745
  24581320.160   129175694.59108  24581322.080   100656382.39045
  23263808.660   122252153.24808  23263809.080    95261426.49747
  23604286.280   124041349.13408  23604286.200    96655584.48047
  22799864.940   119814085.58009  22799862.380    93361610.72448
 15 02 24 00 11 30.0000000  0  8G16G18G21G22G25G27G29G31
  21998051.960   115600556.14309  21998048.560    90078350.93648
  22455500.580   118004501.29709  22455498.100    91951572.81847
  21189384.400   111350969.89209  21189380.340    86766977.62548
  23920045.080   125700708.44308  23920041.140    97948593.05745
  24600524.300   129276612.20308  24600526.060   100735019.39045
  23251166.460   122185718.17708  23251166.900    95209658.95747
  23617563.900   124111123.21108  23617563.740    96709953.84047
  22816264.040   119900263.43209  22816261.500    93428762.27247
 15 02 24 00 12  0.0000000  0  8G16G18G21G22G25G27G29G31
  21983537.740   115524283.49909  21983534.360    90018917.71748
  22443712.100   117942553.03609  22443709.900    91903301.47447
  21196058.980   111386045.58809  21196055.040    86794309.34448
  23901957.160   125605655.82908  23901953.300    97874526.19746
  24619755.840   129377672.98008  24619757.000   100813768.01344
  23238537.900   122119354.61508  23238538.360    95157947.11547
  23630847.800   124180928.86908  23630847.700    96764347.83847
  22832701.680   119986643.98209  22832699.180    93496071.76147
 15 02 24 00 12 30.0000000  0  8G16G18G21G22G25G27G29G31
  21969070.080   115448255.81109  21969066.780    89959675.37748
  22431980.340   117880902.65009  22431978.260    91855262.23947
  21202796.020   111421449.33009  21202792.160    86821896.67548
  23883870.400   125510609.38208  23883866.580    97800464.12546
  24639015.860   129478883.45008  24639016.420   100892633.24645
  23225924.520   122053070.60608  23225924.840    95106297.27747
  23644139.160   124250774.31008  23644138.560    96818772.85747
  22849178.860   120073232.33909  22849176.380    93563543.17947
 15 02 24 00 13  0.0000000  0  8G16G18G21G22G25G27G29G31
  21954648.740   115372471.66009  21954645.520    89900622.80448
  22420304.880   117819547.79109  22420302.820    91807453.27847
  21209594.380   111457174.82909  21209590.520    86849734.72148
  23865784.460   125415567.20008  23865780.500    97726405.39046
  24658303.100   129580237.66008  24658303.380   100971610.50445
  23213325.540   121986861.80208  23213325.640    95054706.03047
  23657437.120   124320655.32808  23657436.660    96873225.56147
  22865694.200   120160021.08309  22865691.720    93631170.73548
 15 02 24 00 13 30.0000000  0  8G16G18G21G22G25G27G29G31
  21940274.480   115296934.61909  21940271.280    89841762.77648
  22408686.720   117758493.88709  22408684.620    91759878.82047
  21216454.080   111493222.43909  21216450.180    86877823.77348
  23847700.220   125320533.86908  23847696.320    97652353.50646
  24677617.740   129681736.09008  24677617.760   101050700.05244
  23200741.180   121920730.00808  23200741.120    95003174.79047
  23670742.300   124390573.61408  23670741.620    96927707.29647
  22882247.500   120247009.32509  22882244.980    93698953.76347
 15 02 24 00 14  0.0000000  0  8G16G18G21G22G25G27G29G31
  21925947.520   115221646.11409  21925944.320    89783096.42848
  22397126.080   117697741.96509  22397123.900    91712539.68647
  21223374.480   111529589.22609  21223370.560    86906161.53348
  23829618.060   125225511.21208  23829614.220    97578309.96846
  24696959.360   129783376.21408  24696959.100   101129900.11445
  23188171.280   121854674.38608  23188171.120    94951702.92447
  23684054.260   124460528.61708  23684053.120    96982217.69046
  22898838.040   120334193.14109  22898835.540    93766889.17147
 15 02 24 00 14 30.0000000  0  8G16G18G21G22G25G27G29G31
  21911668.300   115146608.64909  21911665.140    89724625.68148
  22385623.320   117637294.26609  22385621.080    91665437.60647
  21230355.440   111566274.26609  21230351.480    86934747.27948
  23811538.420   125130501.66508  23811534.420    97504276.63846
  24716327.680   129885156.64008  24716327.380   101209209.45145
  23175615.780   121788694.95108  23175615.620    94900290.41447
  23697373.180   124530520.39008  23697372.120    97036756.69547
  22915465.320   120421569.90009  22915462.760    93834974.92947
 15 02 24 00 15  0.0000000  0  8G16G18G21G22G25G27G29G31
  21897437.020   115071822.95709  21897433.860    89666351.12248
  22374178.580   117577151.59109  22374176.340    91618573.20747
  21237396.180   111603273.63109  21237392.180    86963577.95348
  23793461.400   125035506.12608  23793457.360    97430254.19946
  24735722.160   129987073.99108  24735721.840   101288625.44944
  23163074.420   121722789.96408  23163074.320    94848935.91547
  23710698.900   124600547.04809  23710697.680    97091322.89646
  22932128.340   120509134.53309  22932125.760    93903207.07947
 15 02 24 00 15 30.0000000  0  8G16G18G21G22G25G27G29G31
  21883255.040   114997296.32509  21883251.960    89608278.43648
  22362793.320   117517321.28409  22362790.880    91571952.21047
  21244497.400   111640590.78309  21244493.460    86992656.25348
  23775388.500   124940532.42709  23775384.480    97356248.81646
  24755143.340   130089131.81608  24755142.940   101368150.97545
  23150548.160   121656964.49608  23150548.200    94797643.37647
  23724032.000   124670613.94208  23724030.580    97145920.43446
  22948827.580   120596889.27409  22948824.980    93971587.36647
 15 02 24 00 16  0.0000000  0  8G16G18G21G22G25G27G29G31
  21869121.400   114923023.64509  21869118.340    89550403.63948
  22351466.480   117457798.12209  22351463.940    91525570.53847
  21251657.480   111678216.96309  21251653.580    87021975.35348
  23757318.840   124845575.90508  23757314.660    97282256.78146
  24774589.380   130191321.13907  24774588.960   101447778.93245
  23138035.660   121591211.13608  23138035.740    94746407.02447
  23737371.600   124740713.52409  23737369.900    97200543.51047
  22965561.000   120684823.80609  22965558.340    94040107.75647
 15 02 24 00 16 30.0000000  0  8G16G18G21G22G25G27G29G31
  21855037.980   114849014.83609  21855034.960    89492734.45048
  22340200.080   117398592.52309  22340197.460    91479436.33447
  21258877.420   111716157.86509  21258873.540    87051539.70048
  23739254.300   124750646.65808  23739250.280    97208286.01446
  24794061.480   130293648.24308  24794061.620   101527514.17245
  23125538.360   121525537.68008  23125538.520    94695232.94447
  23750718.620   124810853.78808  23750717.520    97255198.22247
  22982329.540   120772942.97309  22982326.940    94108772.01547
 15 02 24 00 17  0.0000000  0  8G16G18G21G22G25G27G29G31
  21841004.360   114775267.83109  21841001.360    89435269.26548
  22328993.780   117339702.76609  22328991.000    91433548.23647
  21266156.140   111754407.80409  21266152.340    87081344.85048
  23721194.720   124655743.26308  23721190.600    97134335.38646
  24813558.640   130396107.09608  24813559.080   101607352.17245
  23113055.480   121459939.79508  23113055.600    94644117.74547
  23764072.620   124881030.39708  23764071.440    97309881.25745
  22999131.800   120861239.37209  22999129.280    94177574.38147
 15 02 24 00 17 30.0000000  0  7G16G18G21G22G27G29G31
  21827021.600   114701788.20509  21827018.660    89378012.42848
  22317848.560   117281133.72009  22317845.500    91387910.02947
  21273493.880   111792967.97009  21273490.140    87111391.72848
  23703141.020   124560871.25708  23703137.060    97060409.23146
  23100587.540   121394420.52508  23100587.680    94593063.80647
  23777434.100   124951246.56208  23777432.700    97364595.15646
  23015967.780   120949713.02809  23015965.360    94246514.84847
 15 02 24 00 18  0.0000000  0  7G16G18G21G22G27G29G31
  21813088.880   114628571.40909  21813085.940    89320960.39248
  22306763.620   117222881.44909  22306760.400    91342518.67647
  21280889.000   111831829.76109  21280885.260    87141673.64948
  23685092.480   124466026.57708  23685088.660    96986504.35846
  23088133.260   121328973.06008  23088133.420    94542065.81247
  23790801.820   125021495.27408  23790801.000    97419334.37747
  23032835.680   121038354.26709  23032833.340    94315585.91947
 15 02 24 00 18 30.0000000  0  7G16G18G21G22G27G29G31
  21799207.220   114555622.64909  21799204.260    89264117.21648
  22295739.840   117164950.53009  22295736.380    91297377.72247
  21288341.720   111870994.23209  21288337.980    87172191.42148
  23667050.080   124371214.45008  23667046.560    96912624.87046
  23075693.160   121263600.19808  23075693.340    94491125.95647
  23804176.460   125091779.54008  23804175.560    97474101.30546
  23049735.480   121127162.90609  23049733.180    94384787.42347
 15 02 24 00 19  0.0000000  0  7G16G18G21G22G27G29G31
  21785377.180   114482945.06409  21785374.080    89207485.34248
  22284777.880   117107344.64209  22284774.280    91252490.03947
  21295851.960   111910461.02809  21295848.180    87202944.76048
  23649014.580   124276438.73908  23649011.240    96838773.73146
  23063267.460   121198302.87208  23063267.620    94440244.96047
  23817558.260   125162100.25408  23817556.820    97528896.69146
  23066666.720   121216136.70009  23066664.420    94454117.61147
 15 02 24 00 19 30.0000000  0  7G16G18G21G22G27G29G31
  21771599.880   114410544.63009  21771596.660    89151069.43048
  22273878.740   117050069.36909  22273875.240    91207859.98147
  21303420.100   111950232.05609  21303416.280    87233935.16948
  23630987.120   124181705.37408  23630983.980    96764955.60646
  23050856.780   121133084.54808  23050856.920    94389425.52947
  23830947.500   125232461.14608  23830946.000    97583723.32546
  23083629.560   121305276.44009  23083627.220    94523577.12647
 15 02 24 00 20  0.0000000  0  7G16G18G21G22G27G29G31
  21757874.640   114338418.24309  21757871.420    89094867.06348
  22263041.940   116993121.99709  22263038.460    91163485.42447
  21311044.800   111990300.30609  21311040.960    87265157.18248
  23612967.400   124087012.33108  23612964.360    96691168.88446
  23038460.260   121067940.46408  23038460.440    94338663.93847
  23844343.520   125302857.20408  23844342.420    97638577.34346
  23100622.480   121394574.23809  23100620.060    94593159.78047
 15 02 24 00 20 30.0000000  0  7G16G18G21G22G27G29G31
  21744202.180   114266569.18909  21744198.960    89038880.80148
  22252268.080   116936505.56409  22252264.640    91119368.75247
  21318725.860   112030664.79309  21318722.040    87296610.02348
  23594956.080   123992362.65708  23594953.000    96617415.97646
  23026078.020   121002871.25108  23026078.200    94287960.68647
  23857746.400   125373289.32008  23857745.260    97693459.48746
  23117644.980   121484027.60309  23117642.440    94662863.67147
 15 02 24 00 21  0.0000000  0  7G16G18G21G22G27G29G31
  21730582.960   114194999.85409  21730579.760    88983112.50148
  22241557.700   116880222.27409  22241554.220    91075511.66747
  21326462.940   112071323.75109  21326459.180    87328292.32848
  23576953.560   123897758.81808  23576950.360    96543698.77446
  23013710.100   120937876.96208  23013710.160    94237315.81247
  23871156.240   125443757.60408  23871154.920    97748369.83846
  23134696.500   121573633.58609  23134693.900    94732686.45947
 15 02 24 00 21 30.0000000  0  7G16G18G21G22G27G29G31
  21717018.300   114123717.29509  21717015.160    88927567.65448
  22230912.100   116824279.18409  22230908.560    91031919.66447
  21334256.620   112112280.03409  21334252.880    87360206.30548
  23558961.360   123803208.73008  23558957.900    96470023.44146
  23001357.280   120872962.26008  23001357.180    94186732.95647
  23884573.620   125514266.57908  23884572.380    97803311.90546
  23151777.360   121663393.85609  23151774.780    94802629.49647
 15 02 24 00 22  0.0000000  0  7G16G18G21G22G27G29G31
  21703508.080   114052720.72309  21703504.960    88872245.65748
  22220331.120   116768675.31509  22220327.500    90988591.99847
  21342106.200   112153529.74209  21342102.420    87392348.94348
  23540979.380   123708711.95508  23540975.780    96396389.65346
  22989019.000   120808124.14808  22989018.820    94136209.79347
  23897998.200   125584813.27308  23897997.260    97858283.28346
  23168886.400   121753302.46809  23168883.880    94872688.10847
 15 02 24 00 22 30.0000000  0  7G16G18G21G22G27G29G31
  21690052.360   113982010.90709  21690049.300    88817147.11848
  22209814.820   116713411.54909  22209811.200    90945529.34247
  21350010.800   112195068.74309  21350007.020    87424716.99548
  23523007.700   123614269.43208  23523003.960    96322798.15346
  22976695.020   120743361.14308  22976694.840    94085745.15147
  23911429.700   125655396.63408  23911428.680    97913283.30746
  23186022.800   121843354.94709  23186020.300    94942858.84847
 15 02 24 00 23  0.0000000  0  7G16G18G21G22G27G29G31
  21676651.880   113911591.33809  21676648.840    88762274.73948
  22199363.820   116658491.14709  22199360.300    90902734.24647
  21357970.320   112236896.46909  21357966.580    87457310.02648
  23505047.040   123519884.78608  23505043.100    96249251.73846
  22964385.520   120678674.37108  22964385.360    94035339.90847
  23924868.380   125726017.46608  23924867.660    97968312.51246
  23203186.180   121933549.35708  23203183.780    95013140.18247
 15 02 24 00 23 30.0000000  0  7G16G18G21G22G27G29G31
  21663307.320   113841465.62009  21663304.340    88707631.33648
  22188978.840   116603917.92709  22188975.440    90860209.67947
  21365984.760   112279012.70309  21365981.080    87490127.87348
  23487098.160   123425562.42709  23487093.940    96175753.86246
  22952090.780   120614065.33608  22952090.660    93984995.23947
  23938314.640   125796677.65608  23938314.100    98023372.32746
  23220376.220   122023884.14708  23220373.960    95083530.88547
 15 02 24 00 24  0.0000000  0  7G16G18G21G22G27G29G31
  21650018.640   113771633.42109  21650015.720    88653216.64048
  22178659.700   116549691.15309  22178656.400    90817955.07047
  21374053.260   112321412.86209  21374049.620    87523166.94648
  23469160.960   123331301.92609  23469156.680    96102304.17646
  22939810.280   120549531.18108  22939810.180    93934708.91747
  23951767.800   125867374.36608  23951767.100    98078460.69646
  23237591.880   122114353.57709  23237589.720    95154026.48747
 15 02 24 00 24 30.0000000  0  7G16G18G21G22G27G29G31
  21636786.660   113702098.90209  21636783.760    88599033.90448
  22168407.260   116495815.02409  22168404.060    90775973.69347
  21382175.920   112364097.59709  21382172.280    87556427.79148
  23451236.460   123237108.11908  23451232.080    96028906.47247
  22927544.420   120485074.07708  22927544.360    93884482.62947
  23965228.260   125938109.56808  23965227.540    98133578.99746
  23254833.000   122204956.65208  23254830.940    95224626.26347
 15 02 24 00 25  0.0000000  0  7G16G18G21G22G27G29G31
  21623611.660   113632863.54209  21623608.800    88545084.29148
  22158221.760   116442290.74309  22158218.700    90734266.48647
  21390352.180   112407063.90809  21390348.520    87589908.03348
  23433324.940   123142982.97709  23433320.540    95955562.26346
  22915293.000   120420693.15008  22915292.960    93834315.69947
  23978695.920   126008882.42308  23978695.120    98188726.65846
  23272098.900   122295689.62208  23272096.840    95295327.24147
 15 02 24 00 25 30.0000000  0  7G16G18G21G22G27G29G31
  21610494.020   113563929.57909  21610491.140    88491369.52548
  22148103.640   116389120.41209  22148100.740    90692835.08247
  21398581.740   112450310.34009  21398578.060    87623606.55648
  23415426.920   123048928.79308  23415422.480    95882273.35446
  22903056.060   120356388.34008  22903056.100    93784208.08847
  23992170.880   126079692.89608  23992169.800    98243903.65646
  23289388.920   122386549.13809  23289386.840    95366126.81947
 15 02 24 00 26  0.0000000  0  7G16G18G21G22G27G29G31
  21597434.060   113495298.91809  21597431.140    88437891.09248
  22138053.280   116336305.62109  22138050.440    90651680.71647
  21406864.060   112493834.24909  21406860.340    87657521.29448
  23397542.740   122954947.81509  23397538.340    95809041.48946
  22890833.540   120292159.07408  22890833.680    93734159.33347
  24005652.920   126150540.40708  24005651.900    98299109.47647
  23306702.360   122477531.74509  23306700.260    95437022.31647
 15 02 24 00 26 30.0000000  0  7G16G18G21G22G27G29G31
  21584433.000   113426977.60609  21584430.020    88384653.70848
  22128071.700   116283852.23809  22128068.980    90610807.96247
  21415199.660   112537638.15209  21415195.940    87691654.20548
  23379673.880   122861046.71109  23379669.540    95735871.85946
  22878626.280   120228009.53708  22878626.500    93684172.72447
  24019142.660   126221429.28808  24019141.480    98354347.53846
  23324039.540   122568638.73408  23324037.360    95508014.73047
 15 02 24 00 27  0.0000000  0  7G16G18G21G22G27G29G31
  21571490.220   113358962.72509  21571487.220    88331655.10648
  22118158.360   116231757.28509  22118155.760    90570214.51247
  21423587.100   112581714.30709  21423583.380    87725999.25948
  23361819.760   122767222.65408  23361815.360    95662762.25346
  22866433.200   120163934.29308  22866433.340    93634243.99147
  24032639.200   126292354.08908  24032637.800    98409613.62346
  23341398.780   122659861.67508  23341396.540    95579097.49647
 15 02 24 00 27 30.0000000  0  7G16G18G21G22G27G29G31
  21558606.980   113291260.69209  21558603.940    88278900.27948
  22108314.500   116180027.19409  22108311.840    90529905.36347
  21432026.780   112626065.26209  21432023.100    87760558.43848
  23343981.700   122673482.84509  23343977.280    95589718.31346
  22854255.060   120099937.74108  22854255.080    93584376.57947
  24046143.360   126363319.35708  24046142.240    98464911.16946
  23358780.260   122751201.64008  23358777.920    95650271.44447
 15 02 24 00 28  0.0000000  0  7G16G18G21G22G27G29G31
  21545783.240   113223871.44409  21545780.180    88226389.19348
  22098539.980   116128661.67909  22098537.320    90489880.31947
  21440518.060   112670687.61809  21440514.440    87795329.10948
  23326159.620   122579827.26408  23326155.220    95516739.99047
  22842091.460   120036017.48108  22842091.400    93534568.62547
  24059654.720   126434322.52708  24059653.960    98520238.29846
  23376182.960   122842653.07808  23376180.560    95721532.26647
 15 02 24 00 28 30.0000000  0  7G16G18G21G22G27G29G31
  21533019.700   113156798.45709  21533016.620    88174124.53048
  22088835.440   116077663.75609  22088832.640    90450141.68047
  21449060.800   112715580.54508  21449057.320    87830310.61148
  23308354.340   122486259.82308  23308349.800    95443830.34046
  22829942.600   119972174.63608  22829942.580    93484820.98848
  24073173.760   126505365.13108  24073173.040    98575596.16946
  23393606.500   122934214.12508  23393604.060    95792878.48147
 15 02 24 00 29  0.0000000  0  7G16G18G21G22G27G29G31
  21520316.060   113090040.33409  21520312.940    88122105.22948
  22079200.520   116027032.02009  22079197.720    90410688.39847
  21457653.980   112760738.66509  21457650.660    87865498.76148
  23290565.660   122392779.76209  23290561.000    95370988.79646
  22817807.880   119908405.87109  22817807.820    93435131.07847
  24086699.720   126576443.67908  24086698.860    98630982.03146
  23411049.720   123025878.50508  23411047.240    95864305.22047
 15 02 24 00 29 30.0000000  0  7G16G18G21G22G27G29G31
  21507674.100   113023606.17509  21507670.960    88070338.34948
  22069636.900   115976775.09709  22069634.020    90371527.18247
  21466298.640   112806166.97209  21466295.360    87900897.44248
  23272795.340   122299396.31908  23272790.700    95298222.52846
  22805688.520   119844717.90708  22805688.400    93385504.12748
  24100233.700   126647564.38608  24100232.500    98686400.75946
  23428513.320   123117649.90108  23428510.820    95935815.35347
 15 02 24 00 30  0.0000000  0  7G16G18G21G22G27G29G31
  21495093.580   112957494.59209  21495090.360    88018822.83748
  22060144.300   115926891.46509  22060141.420    90332656.83847
  21474993.660   112851859.74208  21474990.400    87936502.20048
  23255043.100   122206108.41709  23255038.460    95225530.71347
  22793583.800   119781107.07208  22793583.580    93335937.29147
  24113774.980   126718724.29808  24113773.740    98741850.01746
  23445996.000   123209521.51608  23445993.500    96007403.56947
 15 02 24 00 30 30.0000000  0  7G16G18G21G22G27G29G31
  21482575.140   112891709.39109  21482571.860    87967561.64648
  22050723.400   115877384.42509  22050720.540    90294079.94447
  21483738.880   112897816.14408  21483735.540    87972312.37148
  23237309.900   122112920.24708  23237305.300    95152916.61346
  22781493.940   119717574.93008  22781493.660    93286431.75747
  24127324.000   126789924.59808  24127322.720    98797330.75346
  23463497.460   123301491.94908  23463494.840    96079068.78247
 15 02 24 00 31  0.0000000  0  7G16G18G21G22G27G29G31
  21470118.360   112826248.36809  21470115.000    87916553.06548
  22041373.740   115828251.56209  22041370.880    90255794.61247
  21492533.260   112944030.58409  21492529.800    88008323.62548
  23219595.380   122019830.02108  23219590.820    95080378.83047
  22769418.260   119654117.03008  22769417.920    93236984.07547
  24140879.980   126861161.01208  24140878.500    98852839.66046
  23481016.300   123393553.63308  23481013.660    96150805.10946
 15 02 24 00 31 30.0000000  0  7G16G18G21G22G27G29G31
  21457724.860   112761120.40909  21457721.560    87865804.02048
  22032096.980   115779501.62509  22032094.140    90217807.66747
  21501377.660   112990507.72809  21501374.080    88044539.58548
  23201901.400   121926847.44709  23201896.840    95007924.92747
  22757358.040   119590740.35108  22757357.640    93187599.68547
  24154444.080   126932440.43208  24154442.380    98908382.04046
  23498553.180   123485710.33108  23498550.540    96222615.46147
 15 02 24 00 32  0.0000000  0  7G16G18G21G22G27G29G31
  21445394.560   112696324.64709  21445391.280    87815313.81448
  22022892.860   115731133.55109  22022890.080    90180118.27547
  21510271.260   113037243.20009  21510267.480    88080956.82148
  23184227.700   121833971.79209  23184223.320    94935554.34046
  22745312.600   119527441.71208  22745312.180    93138276.09247
  24168015.700   127003759.48408  24168014.020    98963955.29746
  23516106.960   123577955.99708  23516104.320    96294495.14146
 15 02 24 00 32 30.0000000  0  7G16G18G21G22G27G29G31
  21433128.040   112631864.05909  21433124.800    87765084.79948
  22013761.880   115683149.69109  22013759.120    90142728.27448
  21519213.580   113084235.11209  21519209.760    88117573.89448
  23166574.960   121741206.25709  23166570.580    94863269.56747
  22733282.040   119464221.64908  22733281.680    93089013.74647
  24181595.080   127075119.21908  24181593.400    99019560.28346
  23533677.120   123670288.00208  23533674.560    96366442.09946
 15 02 24 00 33  0.0000000  0  7G16G18G21G22G27G29G31
  21420925.640   112567740.19609  21420922.380    87715118.16048
  22004704.200   115635551.17709  22004701.500    90105638.54047
  21528204.240   113131481.17009  21528200.480    88154389.00248
  23148943.500   121648552.56108  23148939.140    94791071.92547
  22721266.340   119401079.53108  22721266.060    93039812.12147
  24195181.980   127146518.63208  24195180.460    99075196.15746
  23551262.940   123762702.36508  23551260.420    96438453.23647
 15 02 24 00 33 30.0000000  0  7G16G18G21G22G27G29G31
  21408787.620   112503954.44409  21408784.320    87665414.97748
  21995720.180   115588339.87209  21995717.380    90068850.52248
  21537242.760   113178979.26508  21537239.140    88191400.50548
  23131333.820   121556013.12609  23131329.500    94718963.33747
  22709265.500   119338015.09008  22709265.260    92990671.02748
  24208776.340   127217957.63408  24208774.860    99130862.91346
  23568863.960   123855196.29208  23568861.460    96510526.35647
 15 02 24 00 34  0.0000000  0  7G16G18G21G22G27G29G31
  21396714.240   112440508.18609  21396710.960    87615976.34248
  21986809.840   115541515.93809  21986807.080    90032364.35047
  21546328.660   113226726.46009  21546325.200    88228606.10748
  23113746.100   121463589.24108  23113741.780    94646944.76347
  22697279.340   119275027.13708  22697279.080    92941589.52947
  24222378.060   127289434.82908  24222376.760    99186559.36846
  23586479.300   123947765.14708  23586476.760    96582657.88246
 15 02 24 00 34 30.0000000  0  7G16G18G21G22G27G29G31
  21384706.700   112377408.06909  21384703.420    87566807.42448
  21977974.480   115495086.09109  21977971.840    89996185.25947
  21555462.500   113274725.48609  21555459.140    88266007.94348
  23096181.760   121371288.27209  23096177.500    94575021.98147
  22685308.660   119212120.29008  22685308.340    92892571.23648
  24235988.020   127360954.95208  24235986.720    99242289.32845
  23604109.220   124040410.63208  23604106.680    96654849.09546
 15 02 24 00 35  0.0000000  0  7G16G18G21G22G27G29G31
  21372764.720   112314652.53509  21372761.420    87517907.01748
  21969213.680   115449047.89809  21969211.020    89960311.36047
  21564643.100   113322970.22009  21564639.820    88303601.23248
  23078640.560   121279108.59609  23078636.280    94503193.70347
  22673352.620   119149290.57308  22673352.200    92843613.04047
  24249605.340   127432513.99208  24249603.800    99298049.62746
  23621752.380   124133125.63508  23621749.960    96727094.48746
 15 02 24 00 35 30.0000000  0  7G16G18G21G22G27G29G31
  21360889.540   112252248.12209  21360886.280    87469280.20948
  21960528.700   115403408.05909  21960525.940    89924747.86847
  21573871.060   113371463.45809  21573867.780    88341388.17348
  23061123.820   121187057.81909  23061119.620    94431465.87647
  22661412.120   119086542.72808  22661411.700    92794718.64348
  24263230.940   127504116.87508  24263229.360    99353844.02346
  23639409.040   124225911.88608  23639406.680    96799395.38847
 15 02 24 00 36  0.0000000  0  7G16G18G21G22G27G29G31
  21349080.920   112190193.61809  21349077.680    87420926.05448
  21951919.240   115358164.78109  21951916.360    89889493.38247
  21583145.340   113420199.95309  21583141.960    88379364.65848
  23043631.420   121095135.09609  23043627.180    94359837.82747
  22649486.520   119023873.32408  22649486.160    92745885.36247
  24276864.180   127575759.84808  24276862.700    99409669.70746
  23657078.020   124318762.80809  23657075.640    96871746.69646
 15 02 24 00 36 30.0000000  0  7G16G18G21G22G27G29G31
  21337339.840   112128493.81809  21337336.580    87372848.29448
  21943386.140   115313322.69609  21943383.160    89854551.51047
  21592466.080   113469180.57009  21592462.600    88417531.36948
  23026164.300   121003345.57009  23026160.120    94288313.56247
  22637576.340   118961285.00508  22637575.980    92697115.24847
  24290505.460   127647445.55808  24290504.160    99465528.67945
  23674759.200   124411677.81308  23674756.880    96944147.93146
 15 02 24 00 37  0.0000000  0  7G16G18G21G22G27G29G31
  21325666.500   112067149.97109  21325663.200    87325047.89448
  21934929.420   115268881.95209  21934926.360    89819922.37548
  21601832.720   113518402.34509  21601829.160    88455885.98548
  23008722.780   120911690.56008  23008718.620    94216894.11147
  22625681.440   118898776.82908  22625680.980    92648407.59448
  24304154.660   127719173.17608  24304153.640    99521420.30346
  23692451.780   124504652.94308  23692449.580    97016595.99846
 15 02 24 00 37 30.0000000  0  7G16G18G21G22G27G29G31
  21314060.620   112006160.90909  21314057.340    87277523.96048
  21926548.840   115224841.37009  21926545.600    89785605.05947
  21611244.240   113567860.06409  21611240.620    88494424.46748
  22991306.860   120820169.63009  22991302.740    94145579.15347
  22613801.220   118836345.62809  22613800.680    92599759.92447
  24317811.180   127790939.33508  24317810.120    99577341.98346
  23710154.620   124597681.93708  23710152.520    97089086.06246
 15 02 24 00 38  0.0000000  0  7G16G18G21G22G27G29G31
  21302523.780   111945534.86309  21302520.580    87230282.88748
  21918245.960   115181208.89509  21918242.540    89751605.72647
  21620701.480   113617558.01209  21620697.840    88533150.12848
  22973918.160   120728791.39709  22973914.000    94074375.37947
  22601936.800   118773997.52808  22601936.260    92551176.99048
  24331476.080   127862750.20408  24331475.180    99633298.43946
  23727868.320   124690767.90108  23727866.300    97161620.49646
 15 02 24 00 38 30.0000000  0  7G16G18G21G22G27G29G31
  21291055.980   111885271.58509  21291052.820    87183324.49748
  21910020.580   115137983.82909  21910016.980    89717923.86348
  21630203.680   113667492.13909  21630200.000    88572059.83648
  22956556.700   120637556.29309  22956552.480    94003283.11747
  22590087.680   118711730.13708  22590087.160    92502656.96448
  24345149.080   127934603.39208  24345148.020    99689287.93245
  23745591.860   124783905.35708  23745589.740    97234195.06146
 15 02 24 00 39  0.0000000  0  7G16G18G21G22G27G29G31
  21279656.760   111825368.79709  21279653.700    87136647.01048
  21901872.060   115095162.95209  21901868.380    89684556.95847
  21639749.540   113717655.75209  21639745.880    88611148.35748
  22939222.160   120546462.44809  22939217.780    93932300.94847
  22578253.060   118649539.11008  22578252.600    92454196.42947
  24358829.540   128006494.59208  24358827.940    99745307.08045
  23763323.800   124877086.76008  23763321.600    97306803.87746
 15 02 24 00 39 30.0000000  0  7G16G18G21G22G27G29G31
  21268327.620   111765833.90709  21268324.560    87090256.19548
  21893801.800   115052753.83309  21893798.140    89651510.90547
  21649339.740   113768052.20909  21649336.060    88650418.32848
  22921915.920   120455517.31409  22921911.400    93861434.66347
  22566433.980   118587429.80308  22566433.620    92405799.57548
  24372518.260   128078428.93908  24372516.380    99801359.77245
  23781064.520   124970314.35808  23781062.220    97379448.66646
 15 02 24 00 40  0.0000000  0  7G16G18G21G22G27G29G31
  21257068.880   111706668.59809  21257065.760    87044153.36048
  21885809.980   115010757.42409  21885806.400    89618786.44147
  21658973.940   113818679.90909  21658970.200    88689868.46948
  22904638.440   120364723.49109  22904633.800    93790686.27147
  22554630.440   118525401.96308  22554630.200    92357466.20448
  24386215.100   128150405.98008  24386213.060    99857445.75446
  23798813.380   125063584.86308  23798811.060    97452126.89446
 15 02 24 00 40 30.0000000  0  7G16G18G21G22G27G29G31
  21245880.700   111647874.05709  21245877.500    86998339.43348
  21877896.800   114969174.54409  21877893.420    89586384.22548
  21668651.500   113869535.69109  21668647.760    88729496.35548
  22887389.920   120274082.31909  22887385.320    93720056.81947
  22542842.260   118463454.59908  22542842.080    92309195.54148
  24399919.880   128222425.12908  24399918.040    99913564.53745
  23816569.620   125156894.15308  23816567.300    97524835.33846
 15 02 24 00 41  0.0000000  0  7G16G18G21G22G27G29G31
  21234763.840   111589454.49009  21234760.600    86952817.69848
  21870062.980   114928008.55109  21870059.900    89554306.83647
  21678372.480   113920619.68909  21678368.760    88769302.05148
  22870171.340   120183598.52509  22870166.900    93649550.00247
  22531069.780   118401589.80708  22531069.620    92260989.21348
  24413632.940   128294488.13208  24413631.280    99969717.54246
  23834333.060   125250241.24808  23834330.680    97597573.24146
 15 02 24 00 41 30.0000000  0  7G16G18G21G22G27G29G31
  21223718.620   111531411.40709  21223715.320    86907589.33448
  21862308.740   114887260.39609  21862305.740    89522555.04247
  21688136.380   113971929.28509  21688132.660    88809283.54748
  22852983.060   120093274.10909  22852978.600    93579167.38447
  22519312.940   118339807.13309  22519312.840    92212846.87648
  24427354.260   128366594.44208  24427352.800   100025904.24646
  23852102.940   125343622.44008  23852100.540    97670337.69446
 15 02 24 00 42  0.0000000  0  7G16G18G21G22G27G29G31
  21212744.840   111473744.01709  21212741.580    86862653.70548
  21854633.880   114846929.24209  21854630.940    89491128.18247
  21697942.180   114023459.24009  21697938.460    88849436.76148
  22835825.140   120003108.89109  22835820.640    93508908.79347
  22507571.220   118278103.81509  22507571.100    92164766.37248
  24441083.380   128438741.20808  24441082.000   100082122.48346
  23869878.260   125437031.94908  23869875.920    97743124.25546
 15 02 24 00 42 30.0000000  0  7G16G18G21G22G27G29G31
  21201843.720   111416458.10509  21201840.440    86818015.33548
  21847039.380   114807020.03009  21847036.420    89460030.11247
  21707790.480   114075212.69809  21707786.820    88889764.12248
  22818698.580   119913108.68809  22818694.160    93438778.80547
  22495845.320   118216483.60209  22495845.140    92116750.62548
  24454820.980   128510932.23408  24454819.560   100138375.17146
  23887659.100   125530470.59408  23887656.920    97815933.47646
 15 02 24 00 43  0.0000000  0  7G16G18G21G22G27G29G31
  21191015.540   111359555.44309  21191012.200    86773675.60448
  21839525.380   114767533.61209  21839522.480    89429261.48647
  21717680.660   114127186.16009  21717677.020    88930262.92248
  22801603.960   119823276.27409  22801599.540    93368779.55647
  22484135.100   118154945.96509  22484134.860    92068799.22548
  24468566.900   128583166.92108  24468565.340   100194661.94345
  23905444.760   125623934.48208  23905442.740    97888762.38146
 15 02 24 00 43 30.0000000  0  7G16G18G21G22G27G29G31
  21180260.580   111303037.38209  21180257.200    86729635.56348
  21832092.120   114728471.32009  21832089.180    89398823.35148
  21727612.340   114179377.92909  21727608.800    88970931.83348
  22784541.640   119733613.55609  22784537.220    93298912.54147
  22472440.480   118093490.71609  22472440.200    92020912.02648
  24482321.040   128655444.45308  24482319.260   100250982.08745
  23923234.600   125717420.55408  23923232.740    97961608.57346
 15 02 24 00 44  0.0000000  0  7G16G18G21G22G27G29G31
  21169579.560   111246908.01709  21169576.100    86685898.40348
  21824740.260   114689836.78809  21824737.220    89368718.53748
  21737585.580   114231787.73509  21737582.060    89011770.64348
  22767512.500   119644124.95309  22767508.120    93229181.19747
  22460761.940   118032120.04509  22460761.720    91973090.72248
  24496083.820   128727767.77008  24496081.760   100307337.90645
  23941028.440   125810927.73008  23941026.600    98034471.19946
 15 02 24 00 44 30.0000000  0  7G16G18G21G22G27G29G31
  21158972.420   111191166.95409  21158968.900    86642463.81548
  21817469.540   114651628.56309  21817466.360    89338945.90748
  21747599.500   114284411.22709  21747595.960    89052775.95148
  22750516.420   119554810.23909  22750512.080    93159585.34647
  22449099.020   117970831.03609  22449098.800    91925333.05748
  24509854.580   128800133.18908  24509852.500   100363726.50146
  23958825.180   125904449.66308  23958823.320    98107345.32246
 15 02 24 00 45  0.0000000  0  7G16G18G21G22G27G29G31
  21148439.740   111135817.46309  21148436.180    86599334.34648
  21810280.520   114613849.81609  21810277.240    89309507.92847
  21757654.080   114337248.12609  21757650.460    89093947.55648
  22733554.240   119465673.49709  22733549.980    93090128.18247
  22437452.060   117909625.41809  22437451.840    91877640.36348
  24523633.720   128872542.51508  24523631.760   100420149.33646
  23976624.580   125997985.46608  23976622.880    98180230.23446
 15 02 24 00 45 30.0000000  0  7G16G18G21G22G27G29G31
  21137982.220   111080863.09809  21137978.660    86556512.76048
  21803173.740   114576503.34009  21803170.420    89280406.78348
  21767749.140   114390297.73209  21767745.520    89135284.89348
  22716626.640   119376718.38209  22716622.420    93020812.53947
  22425821.320   117848504.88309  22425821.040    91830013.97248
  24537421.440   128944997.69308  24537419.800   100476607.89446
  23994426.320   126091533.51608  23994424.700    98253124.69746
 15 02 24 00 46  0.0000000  0  7G16G18G21G22G27G29G31
  21127600.100   111026304.87009  21127596.580    86513999.86448
  21796149.160   114539588.91009  21796145.840    89251642.30448
  21777884.080   114443557.01009  21777880.500    89176785.62948
  22699734.020   119287947.04109  22699729.920    92951640.09847
  22414206.500   117787468.29009  22414206.220    91782452.99748
  24551217.560   129017497.24808  24551216.080   100533101.01345
  24012229.580   126185089.67208  24012227.900    98326025.46546
 15 02 24 00 46 30.0000000  0  6G16G18G21G22G27G31
  21117300.520   110972180.25709  21117297.040    86471824.84048
  21789213.900   114503143.94109  21789210.600    89223243.63548
  21788065.340   114497059.94509  21788061.840    89218476.21848
  22682883.620   119199397.33909  22682879.500    92882640.35747
  22402614.380   117726551.21509  22402614.060    91734985.15448
  24030040.580   126278686.28108  24030038.960    98398957.73646
 15 02 24 00 47  0.0000000  0  6G16G18G21G22G27G31
  21107070.060   110918418.74009  21107066.620    86429932.76048
  21782354.440   114467097.41109  21782351.180    89195155.44247
  21798278.700   114550731.64809  21798275.260    89260298.32848
  22666062.060   119110999.31109  22666057.900    92813758.79747
  22391031.200   117665681.35609  22391030.860    91687554.10148
  24047844.880   126372247.85208  24047843.160    98471862.73046
 15 02 24 00 47 30.0000000  0  6G16G18G21G22G27G31
  21096916.940   110865063.70309  21096913.620    86388357.41048
  21775578.860   114431491.77909  21775575.620    89167410.80648
  21808531.760   114604611.79209  21808528.340    89302282.85648
  22649277.620   119022796.30709  22649273.380    92745029.21447
  22379464.760   117604899.93409  22379464.500    91640191.97548
  24065649.680   126465812.40508  24065648.000    98544770.03246
 15 02 24 00 48  0.0000000  0  6G16G18G21G22G27G31
  21086840.640   110812112.19209  21086837.360    86347096.49248
  21768886.500   114396323.57909  21768883.240    89140007.02048
  21818823.240   114658693.87109  21818819.820    89344424.71948
  22632529.960   118934786.60509  22632525.680    92676450.25247
  22367914.320   117544202.46409  22367914.080    91592895.25148
  24083453.680   126559372.65708  24083452.080    98617673.97846
 15 02 24 00 48 30.0000000  0  6G16G18G21G22G27G31
  21076841.420   110759565.86509  21076838.180    86306151.31148
  21762277.600   114361594.05609  21762274.380    89112945.07248
  21829152.760   114712975.73909  21829149.220    89386722.27048
  22615819.360   118846971.84309  22615815.060    92608023.19847
  22356379.760   117483588.61709  22356379.660    91545663.69348
  24101256.180   126652924.98508  24101254.600    98690571.74046
 15 02 24 00 49  0.0000000  0  7G16G18G19G21G22G27G31
  21066920.460   110707430.72109  21066917.180    86265526.53048
  21755753.140   114327308.00809  21755750.000    89086228.68848
  24514673.560   128825473.84805  24514668.120   100383459.25943
  21839520.520   114767458.56709  21839516.880    89429176.40648
  22599147.060   118759358.88009  22599142.900    92539753.40047
  22344862.020   117423062.34809  22344861.960    91498500.39148
  24119057.340   126746470.07308  24119055.880    98763463.85346
 15 02 24 00 49 30.0000000  0  7G16G18G19G21G22G27G31
  21057065.960   110655644.94509  21057062.660    86225173.98748
  21749301.320   114293403.21309  21749298.140    89059809.38148
  24499916.440   128747924.27005  24499910.540   100323031.01543
  21849914.220   114822077.76109  21849910.560    89471736.82148
  22582501.560   118671886.71509  22582497.460    92471593.30247
  22333348.960   117362560.38709  22333348.760    91451356.01348
  24136844.520   126839941.77308  24136843.120    98836298.77946
 15 02 24 00 50  0.0000000  0  7G16G18G19G21G22G27G31
  21047303.720   110604344.08809  21047300.400    86185199.28948
  21742947.700   114260014.49109  21742944.480    89033792.20548
  24485180.780   128670488.31404  24485176.000   100262691.37244
  21860358.740   114876964.24409  21860355.200    89514505.50348
  22565908.620   118584690.87609  22565904.580    92403648.51347
  22321865.900   117302215.99509  22321865.600    91404334.42448
  24154642.520   126933470.06408  24154641.080    98909177.80746
 15 02 24 00 50 30.0000000  0  7G16G18G19G21G22G27G31
  21037621.160   110553462.19709  21037617.800    86145551.06448
  21736679.600   114227075.08009  21736676.420    89008125.14247
  24470453.740   128593098.21105  24470449.400   100202387.42644
  21870840.840   114932048.30909  21870837.400    89557428.14348
  22549355.820   118497706.12409  22549351.980    92335868.22947
  22310399.900   117241961.62909  22310399.560    91357382.98648
  24172437.880   127026984.38408  24172436.340    98982045.93946
 15 02 24 00 51  0.0000000  0  7G16G18G19G21G22G27G31
  21028016.020   110502986.93709  21028012.640    86106219.71048
  21730494.560   114194572.09709  21730491.380    88982798.16148
  24455732.760   128515739.57705  24455728.680   100142108.02144
  21881357.560   114987313.96209  21881354.100    89600492.28848
  22532840.920   118410920.38809  22532837.060    92268243.01547
  22298948.320   117181783.26509  22298947.980    91310490.78748
  24190227.180   127120467.41608  24190225.620    99054889.69646
 15 02 24 00 51 30.0000000  0  7G16G18G19G21G22G27G31
  21018490.420   110452929.64809  21018487.000    86067214.03248
  21724394.580   114162515.79009  21724391.360    88957819.22848
  24441019.580   128438421.05205  24441015.380   100081859.83044
  21891910.420   115042769.10809  21891906.840    89643704.08848
  22516366.280   118324346.21109  22516362.500    92200782.64647
  22287512.980   117121690.26809  22287512.640    91263665.08248
  24208011.820   127213925.53408  24208010.280    99127714.00145
 15 02 24 00 52  0.0000000  0  7G16G18G19G21G22G27G31
  21009045.320   110403295.01309  21009041.900    86028537.68648
  21718380.460   114130910.64809  21718377.200    88933191.84748
  24426314.700   128361145.82205  24426310.480   100021645.40343
  21902499.560   115098414.90009  21902495.840    89687064.43348
  22499933.000   118237988.77109  22499929.140    92133491.16147
  22276094.520   117061685.75109  22276094.140    91216908.32948
  24225791.740   127307358.79308  24225790.280    99200518.94546
 15 02 24 00 52 30.0000000  0  7G16G18G19G21G22G27G31
  20999681.200   110354085.98609  20999677.780    85990192.99448
  21712452.560   114099758.85009  21712449.260    88908917.73548
  24411618.160   128283914.61705  24411613.860    99961465.26744
