     2.11           OBSERVATION DATA    G                   RINEX VERSION / TYPE
SPIDER V4,0,0,3554                      2015 03 31 04:29    PGM / RUN BY / DATE 
EADB                                                        MARKER NAME         
EADB                                                        MARKER NUMBER       
                                                            OBSERVER / AGENCY   
462408              LEICA GRX1200PRO    3.00/2.127          REC # / TYPE / VERS 
103310              LEIAT504                                ANT # / TYPE        
  5238464.6656   142765.3090  3625629.6523                  APPROX POSITION XYZ 
        0.0770        0.0000        0.0000                  ANTENNA: DELTA H/E/N
     1     1                                                WAVELENGTH FACT L1/2
     4    C1    L1    P2    L2                              # / TYPES OF OBSERV 
    30.000                                                  INTERVAL            
  2015    02    24    00    00    0.0000000     GPS         TIME OF FIRST OBS   
  2015    02    24    23    59   30.0000000     GPS         TIME OF LAST OBS    
    16                                                      LEAP SECONDS        
    30                                                      # OF SATELLITES     
   G 1   835   835   835   835                              PRN / # OF OBS      
   G 2   926   926   926   926                              PRN / # OF OBS      
   G 3   844   844   844   844                              PRN / # OF OBS      
   G 4   849   849   849   849                              PRN / # OF OBS      
   G 5   673   673   673   673                              PRN / # OF OBS      
   G 6   725   725   725   725                              PRN / # OF OBS      
   G 7   647   647   647   647                              PRN / # OF OBS      
   G 9   787   787   787   787                              PRN / # OF OBS      
   G10   785   785   785   785                              PRN / # OF OBS      
   G11   799   799   799   799                              PRN / # OF OBS      
   G12   818   818   817   817                              PRN / # OF OBS      
   G13   824   824   824   824                              PRN / # OF OBS      
   G14   933   933   932   932                              PRN / # OF OBS      
   G15   731   731   731   731                              PRN / # OF OBS      
   G16   690   690   690   690                              PRN / # OF OBS      
   G17   929   929   929   929                              PRN / # OF OBS      
   G18   937   937   937   937                              PRN / # OF OBS      
   G19   777   777   777   777                              PRN / # OF OBS      
   G20   809   809   809   809                              PRN / # OF OBS      
   G21   704   704   704   704                              PRN / # OF OBS      
   G22   785   785   785   785                              PRN / # OF OBS      
   G23   731   731   731   731                              PRN / # OF OBS      
   G24   844   844   844   844                              PRN / # OF OBS      
   G25   857   857   857   857                              PRN / # OF OBS      
   G27   832   832   832   832                              PRN / # OF OBS      
   G28   908   908   907   907                              PRN / # OF OBS      
   G29   747   747   747   747                              PRN / # OF OBS      
   G30   695   695   695   695                              PRN / # OF OBS      
   G31   782   782   782   782                              PRN / # OF OBS      
   G32   745   745   745   745                              PRN / # OF OBS      
BIT 2 OF LLI FLAGS DATA COLLECTED UNDER A/S CONDITION       COMMENT             
SNR is mapped to RINEX snr flag value [2-9]                 COMMENT             
Lx:     = 25dBHz -> 1; 26-27dBHz -> 2; 28-31dBHz -> 3       COMMENT             
       32-35dBHz -> 4; 36-38dBHz -> 5; 39-41dBHz -> 6       COMMENT             
       42-44dBHz -> 7; 45-48dBHz -> 8; >=49dBHz -> 9        COMMENT             
                                                            END OF HEADER       
 15 02 24 00 00  0.0000000  0  8G16G18G21G22G25G27G29G31
  22033372.935   115786167.17009  22033371.474    90222978.39547
  23097134.610   121376283.13008  23097134.548    94578935.10445
  21183989.983   111322626.35209  21183988.179    86744900.41649
  24463007.076   128553977.07405  24463005.865   100171928.91245
  24598998.067   129268588.17606  24599000.567   100728774.20544
  23047416.740   121115013.23807  23047418.635    94375346.62947
  23772093.754   124923182.68207  23772093.811    97342734.11245
  22261904.004   116987085.48008  22261903.140    91158759.42647
 15 02 24 00 00 30.0000000  0  8G16G18G21G22G25G27G29G31
  22019095.567   115711139.09509  22019093.958    90164514.97747
  23084592.843   121310374.44808  23084592.123    94527577.69045
  21189787.296   111353091.90609  21189785.452    86768639.81149
  24445884.576   128463998.81806  24445884.127   100101816.29245
  24617145.738   129363954.61306  24617148.445   100803085.66945
  23035172.031   121050667.20208  23035173.852    94325206.88147
  23786329.220   124997990.97007  23786329.334    97401026.29346
  22277773.264   117070479.85008  22277772.477    91223742.02147
 15 02 24 00 01  0.0000000  0  8G16G18G21G22G25G27G29G31
  22004853.968   115636299.64709  22004852.549    90106198.53847
  23072090.430   121244673.57408  23072089.772    94476382.21845
  21195657.458   111383939.03309  21195655.496    86792676.53649
  24428747.801   128373942.49207  24428747.377   100031642.75645
  24635323.138   129459477.93106  24635326.380   100877519.36743
  23022950.471   120986442.18907  23022952.288    94275161.43347
  23800565.341   125072802.81807  23800565.726    97459321.19046
  22293697.293   117154160.06208  22293696.262    91288947.35248
 15 02 24 00 01 30.0000000  0  8G16G18G21G22G25G27G29G31
  21990648.530   115561649.25109  21990647.046    90048029.41247
  23059627.768   121179181.19008  23059626.978    94425349.22046
  21201599.166   111415163.76609  21201597.381    86817007.49749
  24411596.117   128283808.44106  24411595.760    99961408.62844
  24653529.667   129555155.07506  24653533.122   100952072.90144
  23010751.532   120922336.11708  23010753.154    94225208.67447
  23814802.019   125147616.28507  23814802.464    97517617.37746
  22309674.683   117238121.50008  22309673.707    91354371.81748
 15 02 24 00 02  0.0000000  0  8G16G18G21G22G25G27G29G31
  21976480.440   115487195.93609  21976478.935    89990013.86347
  23047206.230   121113905.97408  23047205.679    94374485.45346
  21207613.996   111446771.19109  21207612.051    86841636.66049
  24394430.330   128193605.46406  24394430.409    99891120.79043
  24671766.747   129650990.95207  24671769.629   101026750.19344
  22998576.394   120858355.05107  22998578.112    94175353.32047
  23829040.096   125222437.51007  23829040.553    97575919.59846
  22325706.049   117322367.49108  22325705.239    91420018.01447
 15 02 24 00 02 30.0000000  0  8G16G18G21G22G25G27G29G31
  21962349.805   115412938.57509  21962348.095    89932150.99847
  23034826.062   121048847.15708  23034825.483    94323790.30746
  21213700.594   111478756.10309  21213698.517    86866559.97249
  24377251.024   128103332.78606  24377251.493    99820778.62744
  24690033.455   129746981.21406  24690035.998   101101547.82644
  22986424.269   120794495.64307  22986425.908    94125592.76347
  23843278.826   125297262.85307  23843279.466    97634225.03446
  22341790.816   117406892.07608  22341789.821    91485881.31048
 15 02 24 00 03  0.0000000  0  8G16G18G21G22G25G27G29G31
  21948256.615   115338878.17309  21948254.978    89874441.60447
  23022487.136   120984006.78808  23022486.640    94273265.36846
  21219858.498   111511116.79409  21219856.774    86891776.09749
  24360059.536   128012992.19307  24360060.292    99750383.56545
  24708328.681   129843123.90106  24708331.886   101176464.08544
  22974295.087   120730756.95507  22974296.959    94075926.27447
  23857518.146   125372091.04807  23857518.630    97692532.65346
  22357927.375   117491691.51408  22357926.604    91551958.74247
 15 02 24 00 03 30.0000000  0  8G16G18G21G22G25G27G29G31
  21934201.712   115265019.47209  21934200.223    89816889.38647
  23010191.126   120919390.19308  23010190.218    94222914.79746
  21226088.169   111543853.49909  21226086.324    86917285.22149
  24342856.221   127922588.47106  24342856.798    99679939.32045
  24726653.033   129939420.27006  24726656.479   101251500.13445
  22962189.579   120667141.39007  22962191.287    94026355.73047
  23871758.635   125446924.98007  23871758.823    97750844.83346
  22374116.612   117576765.28108  22374115.402    91618249.97547
 15 02 24 00 04  0.0000000  0  8G16G18G21G22G25G27G29G31
  21920185.421   115191363.14409  21920183.779    89759494.85947
  22997937.621   120854998.06108  22997936.729    94172739.12246
  21232388.785   111576963.95809  21232386.944    86943085.58149
  24325640.965   127832122.81806  24325641.147    99609446.82543
  24745006.396   130035867.78006  24745009.796   101326653.99344
  22950106.986   120603647.49907  22950109.017    93976880.00847
  23885999.840   125521763.11007  23885999.973    97809160.21245
  22390356.900   117662109.44508  22390355.878    91684751.88547
 15 02 24 00 04 30.0000000  0  8G16G18G21G22G25G27G29G31
  21906206.764   115117905.68309  21906205.407    89702255.29747
  22985726.359   120790828.00408  22985725.536    94122736.51346
  21238759.237   111610440.91309  21238757.405    86969171.52249
  24308413.828   127741592.25507  24308412.755    99538903.65944
  24763387.375   130132459.60206  24763390.699   101401920.31544
  22938046.464   120540269.52807  22938048.405    93927494.60046
  23900240.386   125596598.84107  23900240.652    97867473.75546
  22406647.265   117747715.48508  22406646.242    91751457.85747
 15 02 24 00 05  0.0000000  0  8G16G18G21G22G25G27G29G31
  21892267.526   115044654.05709  21892266.144    89645176.12647
  22973558.619   120726886.94608  22973558.094    94072912.34046
  21245200.066   111644287.66309  21245198.213    86995545.61449
  24291175.682   127651003.97107  24291174.374    99468315.52845
  24781796.620   130229199.58705  24781799.741   101477302.17144
  22926009.068   120477012.40107  22926010.929    93878203.36947
  23914481.928   125671437.96207  23914482.191    97925789.91446
  22422987.856   117833585.68008  22422986.950    91818369.66847
 15 02 24 00 05 30.0000000  0  8G16G18G21G22G25G27G29G31
  21878368.098   114971612.69409  21878366.633    89588260.79647
  22961435.807   120663180.60708  22961435.516    94023271.06646
  21251711.345   111678504.82409  21251709.630    87022208.34149
  24273927.723   127560363.39406  24273926.200    99397686.70045
  24800233.832   130326089.26206  24800237.236   101552800.47345
  22913995.042   120413878.61207  22913996.891    93829008.23647
  23928724.539   125746282.79607  23928724.973    97984110.53946
  22439378.663   117919719.61108  22439377.811    91885486.97247
 15 02 24 00 06  0.0000000  0  7G16G18G21G22G27G29G31
  21864506.902   114898771.71209  21864505.529    89531501.60947
  22949355.558   120599698.71908  22949355.070    93973804.68946
  21258290.520   111713078.49909  21258288.674    87049148.86749
  24256667.416   127469660.49406  24256666.306    99327009.38345
  22902002.097   120350855.60408  22902003.959    93779899.43147
  23942965.867   125821120.23107  23942966.104    98042425.40346
  22455816.863   118006102.21808  22455815.929    91952798.06847
 15 02 24 00 06 30.0000000  0  7G16G18G21G22G27G29G31
  21850689.500   114826160.27209  21850688.058    89474921.28348
  22937323.888   120536471.55508  22937323.055    93924536.79046
  21264942.636   111748035.19709  21264940.752    87076387.85749
  24239401.120   127378925.18307  24239399.862    99256306.71244
  22890035.572   120287970.65308  22890037.403    93730898.19947
  23957210.480   125895977.92507  23957210.986    98100756.03045
  22472306.758   118092757.85308  22472305.772    92020321.90947
 15 02 24 00 07  0.0000000  0  7G16G18G21G22G27G29G31
  21836911.313   114753755.32009  21836909.681    89418501.85147
  22925336.285   120473476.02708  22925335.334    93875449.39045
  21271662.296   111783347.25009  21271660.474    87103903.74449
  24222123.719   127288134.58107  24222122.477    99185560.86644
  22878090.379   120225198.23808  22878092.064    93681984.65947
  23971454.576   125970830.12507  23971454.817    98159082.38645
  22488843.546   118179658.32308  22488842.656    92088036.52547
 15 02 24 00 07 30.0000000  0  7G16G18G21G22G27G29G31
  21823174.940   114681570.69309  21823173.575    89362254.10648
  22913395.324   120410726.72508  22913394.308    93826553.85146
  21278451.630   111819025.34409  21278449.806    87131704.86149
  24204838.150   127197303.58505  24204837.993    99114783.60546
  22866168.903   120162550.55108  22866170.592    93633168.31447
  23985699.761   126045688.94907  23985699.509    98217413.92745
  22505428.681   118266813.04908  22505427.787    92155949.27247
 15 02 24 00 08  0.0000000  0  7G16G18G21G22G27G29G31
  21809479.881   114609602.41809  21809478.189    89306174.94648
  22901500.854   120348220.33408  22901499.926    93777847.59646
  21285309.101   111855061.81809  21285307.449    87159785.23349
  24187544.088   127106428.42505  24187545.399    99043972.04146
  22854270.014   120100021.28408  22854271.605    93584444.23647
  23999945.077   126120548.31307  23999945.136    98275745.85546
  22522060.326   118354213.11908  22522059.531    92224053.17247
 15 02 24 00 08 30.0000000  0  7G16G18G21G22G27G29G31
  21795826.111   114537851.43609  21795824.657    89250265.10948
  22889652.924   120285958.35408  22889652.016    93729331.79246
  21292234.446   111891454.06209  21292232.519    87188142.82949
  24170243.407   127015510.45107  24170244.132    98973127.02645
  22842393.389   120037609.07008  22842394.902    93535811.37247
  24014190.125   126195406.82707  24014190.264    98334077.15045
  22538737.953   118441854.26808  22538736.858    92292344.94447
 15 02 24 00 09  0.0000000  0  7G16G18G21G22G27G29G31
  21782214.751   114466323.85309  21782213.384    89194529.34548
  22877852.248   120223946.91308  22877851.954    93681011.22646
  21299227.733   111928204.09909  21299225.964    87216779.22449
  24152936.028   126924556.09406  24152935.531    98902253.60645
  22830539.574   119975317.66808  22830541.098    93487272.64947
  24028435.819   126270268.16907  24028436.197    98392410.61546
  22555461.606   118529737.31308  22555460.470    92360825.21347
 15 02 24 00 09 30.0000000  0  7G16G18G21G22G27G29G31
  21768645.443   114395016.12609  21768643.797    89138964.90348
  22866098.994   120162183.21008  22866098.583    93632883.70246
  21306287.620   111965304.95909  21306285.810    87245688.99049
  24135620.190   126833562.43506  24135619.042    98831349.60444
  22818707.854   119913141.65208  22818709.348    93438823.82947
  24042680.926   126345126.74707  24042681.003    98450741.96246
  22572229.592   118617854.23408  22572228.508    92429487.71347
 15 02 24 00 10  0.0000000  0  7G16G18G21G22G27G29G31
  21755120.476   114323942.53709  21755118.870    89083582.90148
  22854395.475   120100681.89508  22854395.156    93584960.62446
  21313416.370   112002766.73009  21313414.495    87274879.98249
  24118300.147   126742544.12207  24118298.963    98760426.40045
  22806900.354   119851092.75708  22806901.987    93390474.06647
  24056927.673   126419994.37307  24056927.979    98509080.32446
  22589043.938   118706214.06208  22589042.990    92498339.48947
 15 02 24 00 10 30.0000000  0  7G16G18G21G22G27G29G31
  21741638.324   114253093.62909  21741636.736    89028375.97548
  22842740.448   120039433.78608  22842739.759    93537234.84746
  21320611.401   112040576.25009  21320609.386    87304341.94949
  24100973.715   126651492.07207  24100972.365    98689476.93745
  22795114.764   119789159.43808  22795116.254    93342214.36647
  24071174.089   126494859.42107  24071174.074    98567416.69945
  22605901.554   118794802.05708  22605901.001    92567369.03747
 15 02 24 00 11  0.0000000  0  7G16G18G21G22G27G29G31
  21728199.985   114182474.80709  21728198.609    88973348.34148
  22831134.777   119978444.72808  22831133.833    93489710.92646
  21327872.863   112078735.17709  21327870.934    87334076.18349
  24083641.607   126560412.57407  24083640.714    98618506.06845
  22783351.976   119727345.10408  22783353.437    93294047.37847
  24085421.085   126569725.10807  24085420.772    98625753.60746
  22622803.119   118883619.31808  22622802.199    92636577.27447
 15 02 24 00 11 30.0000000  0  7G16G18G21G22G27G29G31
  21714807.287   114112095.36109  21714805.859    88918507.23548
  22819580.154   119917724.62108  22819579.241    93442396.58346
  21335201.843   112117249.56909  21335199.919    87364087.40149
  24066305.995   126469315.34906  24066304.908    98547521.37544
  22771612.865   119665656.93808  22771614.455    93245978.71147
  24099668.605   126644599.58207  24099669.037    98684097.27845
  22639749.017   118972670.11408  22639747.767    92705967.48147
 15 02 24 00 12  0.0000000  0  7G16G18G21G22G27G29G31
  21701458.226   114041945.13309  21701456.565    88863844.73348
  22808074.710   119857263.35108  22808073.721    93395283.93346
  21342595.685   112156104.84909  21342593.888    87394364.24949
  24048965.326   126378190.11407  24048963.281    98476514.78045
  22759895.761   119604082.11008  22759897.170    93197998.35647
  24113916.018   126719469.14907  24113916.017    98742437.18645
  22656735.925   119061938.73408  22656735.318    92775527.38147
 15 02 24 00 12 30.0000000  0  7G16G18G21G22G27G29G31
  21688154.222   113972032.49609  21688152.667    88809367.37248
  22796620.136   119797069.94108  22796619.562    93348380.00546
  21350055.544   112195306.32909  21350053.507    87424910.86049
  24031621.217   126287046.48507  24031619.415    98405493.88845
  22748201.249   119542627.22408  22748202.664    93150111.46747
  24128163.535   126794340.60507  24128163.828    98800778.52845
  22673765.467   119151428.95508  22673764.596    92845259.98947
 15 02 24 00 13  0.0000000  0  7G16G18G21G22G27G29G31
  21674895.671   113902358.71409  21674894.291    88755076.13248
  22785216.983   119737145.03008  22785216.251    93301685.29346
  21357580.448   112234850.55709  21357578.585    87455724.54849
  24014273.978   126195885.35207  24014272.561    98334459.39046
  22736529.242   119481290.75308  22736530.647    93102316.84947
  24142411.337   126869212.43607  24142411.549    98859120.21946
  22690836.361   119241136.32508  22690835.401    92915161.79947
 15 02 24 00 13 30.0000000  0  7G16G18G21G22G27G29G31
  21661684.272   113832932.47309  21661682.761    88700977.77948
  22773866.637   119677499.27808  22773866.074    93255208.12146
  21365171.783   112274743.13509  21365169.838    87486809.67649
  23996925.008   126104716.58706  23996923.821    98263418.95045
  22724881.089   119420079.67408  22724882.534    93054619.93147
  24156660.317   126944091.55107  24156660.851    98917467.54446
  22707949.242   119331065.30808  22707948.587    92985236.28047
 15 02 24 00 14  0.0000000  0  7G16G18G21G22G27G29G31
  21648518.247   113763744.13809  21648516.571    88647064.81048
  22762567.596   119618122.94608  22762566.504    93208940.86446
  21372826.690   112314970.16209  21372824.863    87518155.41348
  23979572.545   126013531.02407  23979571.390    98192365.42945
  22713254.570   119358982.15208  22713256.178    93007011.51047
  24170908.523   127018966.31207  24170909.090    98975811.47945
  22725101.641   119421201.02708  22725100.832    93055471.85747
 15 02 24 00 14 30.0000000  0  7G16G18G21G22G27G29G31
  21635398.263   113694798.62109  21635396.840    88593341.04548
  22751320.807   119559020.95308  22751319.836    93162887.38946
  21380545.560   112355533.31609  21380543.905    87549763.06748
  23962218.572   125922333.93707  23962216.774    98121302.80345
  22701650.082   119298000.78208  22701651.762    92959493.58347
  24185156.546   127093839.37007  24185156.845    99034154.09446
  22742293.205   119511543.58308  22742292.184    93125868.62947
 15 02 24 00 15  0.0000000  0  7G16G18G21G22G27G29G31
  21622326.948   113626108.17909  21622325.479    88539816.04048
  22740128.662   119500205.77408  22740127.669    93117057.39846
  21388329.918   112396440.24009  21388328.150    87581638.59349
  23944864.535   125831137.67207  23944863.175    98050240.90145
  22690069.747   119237145.39608  22690071.352    92912073.83547
  24199405.984   127168720.38907  24199405.897    99092502.89045
  22759525.511   119602099.61808  22759524.534    93196431.72347
 15 02 24 00 15 30.0000000  0  7G16G18G21G22G27G29G31
  21609302.478   113557664.22309  21609300.985    88486483.10348
  22728989.609   119441669.18408  22728988.594    93071444.49746
  21396177.268   112437678.68309  21396175.634    87613772.44848
  23927508.582   125739934.42706  23927508.171    97979173.62646
  22678511.285   119176405.30008  22678512.812    92864743.92247
  24213655.063   127243598.83507  24213654.777    99150849.73446
  22776795.883   119692855.72308  22776795.086    93267150.71647
 15 02 24 00 16  0.0000000  0  7G16G18G21G22G27G29G31
  21596326.538   113489475.13809  21596324.863    88433348.77048
  22717904.974   119383419.60008  22717904.233    93026055.23846
  21404088.763   112479253.46309  21404087.052    87646168.38448
  23910153.493   125648733.16507  23910152.991    97908107.87845
  22666975.937   119115786.63808  22666977.440    92817508.62547
  24227904.292   127318480.88407  24227904.878    99209199.29845
  22794104.856   119783815.27408  22794104.128    93338028.22447
 15 02 24 00 16 30.0000000  0  7G16G18G21G22G27G29G31
  21583398.033   113421535.28909  21583396.358    88380408.64248
  22706874.268   119325452.18908  22706873.325    92980885.85746
  21412062.302   112521154.88409  21412060.476    87678818.84548
  23892798.069   125557528.70208  23892797.056    97837039.50644
  22655462.268   119055281.77708  22655463.845    92770362.00247
  24242153.509   127393358.80407  24242153.429    99267545.76545
  22811450.563   119874967.79908  22811449.718    93409056.14147
 15 02 24 00 17  0.0000000  0  7G16G18G21G22G27G29G31
  21570519.163   113353856.21309  21570517.415    88327671.70948
  22695899.454   119267779.02808  22695898.372    92935945.75746
  21420099.581   112563390.94409  21420097.908    87711730.06548
  23875444.263   125466333.27506  23875443.282    97765978.20245
  22643972.194   118994900.03008  22643973.517    92723311.31347
  24256403.263   127468242.17507  24256403.711    99325896.38046
  22828834.449   119966319.70608  22828833.596    93480239.40247
 15 02 24 00 17 30.0000000  0  7G16G18G21G22G27G29G31
  21557689.350   113286435.46809  21557687.852    88275136.07448
  22684979.996   119210397.20008  22684978.808    92891232.65546
  21428199.255   112605954.92309  21428197.374    87744896.80948
  23858090.733   125375144.45007  23858090.667    97694922.20746
  22632504.138   118934636.48908  22632505.624    92676352.73847
  24270653.171   127543126.07006  24270653.115    99384247.46445
  22846254.584   120057863.19408  22846253.688    93551571.92546
 15 02 24 00 18  0.0000000  0  7G16G18G21G22G27G29G31
  21544908.636   113219272.54709  21544907.108    88222801.34448
  22674116.007   119153307.05408  22674114.884    92846746.85946
  21436360.551   112648842.41709  21436358.601    87778315.63648
  23840739.782   125283962.71407  23840739.321    97623871.59746
  22621058.271   118874488.51708  22621060.013    92629484.22047
  24284902.503   127618007.69207  24284902.839    99442596.70346
  22863710.086   120149592.91208  22863709.519    93623049.57147
 15 02 24 00 18 30.0000000  0  7G16G18G21G22G27G29G31
  21532178.150   113152373.45709  21532176.621    88170672.19448
  22663308.606   119096514.24608  22663307.524    92802492.74746
  21444583.711   112692055.35209  21444581.895    87811988.05948
  23823390.941   125192793.97107  23823390.361    97552831.12745
  22609635.049   118814459.76908  22609636.800    92582708.60547
  24299152.636   127692890.83606  24299152.639    99500947.18745
  22881201.487   120241509.59608  22881200.496    93694672.91646
 15 02 24 00 19  0.0000000  0  7G16G18G21G22G27G29G31
  21519498.356   113085740.72009  21519496.758    88118750.58748
  22652558.489   119040022.03008  22652557.411    92758472.86146
  21452868.498   112735592.86209  21452866.702    87845913.39348
  23806044.767   125101641.58507  23806043.749    97481803.40145
  22598234.809   118754550.63308  22598236.507    92536026.18347
  24313403.180   127767776.03907  24313403.119    99559299.23845
  22898727.652   120333610.65308  22898726.515    93766439.94246
 15 02 24 00 19 30.0000000  0  7G16G18G21G22G27G29G31
  21506870.214   113019379.35409  21506868.637    88067040.44648
  22641866.425   118983835.23408  22641865.456    92714690.96946
  21461215.475   112779456.02109  21461213.523    87880092.48348
  23788703.180   125010510.96108  23788701.879    97410792.59546
  22586857.713   118694763.68708  22586859.170    92489438.98347
  24327653.352   127842665.98007  24327654.316    99617654.94845
  22916288.932   120425896.11608  22916288.220    93838350.62347
 15 02 24 00 20  0.0000000  0  7G16G18G21G22G27G29G31
  21494291.395   112953277.62309  21494289.898    88015532.61448
  22631230.300   118927942.83108  22631229.648    92671138.48946
  21469621.302   112823629.28409  21469619.470    87914513.21048
  23771364.021   124919391.43907  23771362.614    97339790.51746
  22575501.374   118635085.59608  22575502.912    92442936.60047
  24341903.254   127917547.03407  24341903.480    99676003.86246
  22933882.332   120518349.68008  22933881.817    93910392.30647
 15 02 24 00 20 30.0000000  0  7G16G18G21G22G27G29G31
  21481765.826   112887455.40709  21481764.357    87964242.58548
  22620654.182   118872364.64408  22620653.247    92627830.83246
  21478089.179   112868128.37009  21478087.221    87949187.82948
  23754029.827   124828302.79407  23754028.948    97268812.52145
  22564169.047   118575533.69408  22564170.614    92396532.54747
  24356154.021   127992436.91407  24356154.324    99734359.59145
  22951510.377   120610985.65008  22951509.973    93982576.12846
 15 02 24 00 21  0.0000000  0  7G16G18G21G22G27G29G31
  21469291.486   112821902.93309  21469290.054    87913162.74348
  22610135.867   118817090.93108  22610135.014    92584760.42646
  21486616.436   112912939.43709  21486614.561    87984105.54848
  23736700.673   124737235.60007  23736698.416    97197851.07545
  22552858.347   118516095.90808  22552859.971    92350217.41847
  24370404.738   128067323.46706  24370404.945    99792712.72145
  22969170.313   120703789.11508  22969169.721    94054890.46846
 15 02 24 00 21 30.0000000  0  7G16G18G21G22G27G29G31
  21456869.707   112756625.45009  21456868.278    87862297.18148
  22599676.811   118762127.21808  22599675.752    92541931.58946
  21495203.249   112958063.63409  21495201.481    88019267.26848
  23719376.635   124646196.07407  23719374.076    97126911.26946
  22541570.191   118456775.18508  22541571.541    92303993.49747
  24384654.971   128142209.66907  24384655.316    99851065.54445
  22986862.074   120796760.16608  22986861.554    94127335.38147
 15 02 24 00 22  0.0000000  0  7G16G18G21G22G27G29G31
  21444501.611   112691630.32209  21444500.058    87811651.63548
  22589277.755   118707480.90808  22589276.988    92499350.07546
  21503850.517   113003505.33209  21503848.750    88054676.38948
  23702058.629   124555192.05307  23702056.974    97055999.22445
  22530304.955   118397576.71708  22530306.307    92257864.84147
  24398906.208   128217100.70407  24398906.767    99909422.19645
  23004586.385   120889901.14408  23004585.773    94199912.71847
 15 02 24 00 22 30.0000000  0  7G16G18G21G22G27G29G31
  21432186.576   112626914.00309  21432184.976    87761223.34048
  22578938.683   118653148.77808  22578937.827    92457013.37746
  21512556.607   113049256.14709  21512554.864    88090326.37648
  23684747.506   124464220.46007  23684745.392    96985112.34745
  22519061.953   118338494.75308  22519063.321    92211826.97147
  24413157.442   128291991.25707  24413157.976    99967778.42446
  23022341.355   120983203.51508  23022341.078    94272615.78847
 15 02 24 00 23  0.0000000  0  7G16G18G21G22G27G29G31
  21419924.965   112562479.58109  21419923.386    87711014.70948
  22568660.175   118599134.01108  22568659.027    92414923.97346
  21521321.341   113095315.25709  21521319.561    88126216.59848
  23667443.058   124373284.59307  23667440.270    96914253.23145
  22507841.461   118279530.13708  22507842.764    92165880.54247
  24427408.363   128366881.79306  24427409.130   100026134.64245
  23040126.272   121076665.19708  23040126.040    94345442.98446
 15 02 24 00 23 30.0000000  0  7G16G18G21G22G27G29G31
  21407717.642   112498329.75909  21407715.998    87661027.84048
  22558442.292   118545439.70308  22558441.452    92373084.27446
  21530144.537   113141681.58909  21530142.866    88162346.21348
  23650145.550   124282388.07507  23650143.622    96843424.94346
  22496643.255   118220683.51008  22496644.705    92120026.05247
  24441660.152   128441773.32006  24441660.809   100084491.66745
  23057941.400   121170283.82908  23057940.832    94418392.54746
 15 02 24 00 24  0.0000000  0  7G16G18G21G22G27G29G31
  21395564.334   112434463.69709  21395562.860    87611262.08648
  22548285.357   118492064.87008  22548284.473    92331493.52046
  21539025.375   113188350.14709  21539023.583    88198711.32848
  23632855.938   124191530.27007  23632854.404    96772626.76846
  22485466.804   118161951.55308  22485468.193    92074260.91447
  24455911.332   128516662.71807  24455911.829   100142847.05345
  23075785.412   121264053.40108  23075784.659    94491459.69246
 15 02 24 00 24 30.0000000  0  7G16G18G21G22G27G29G31
  21383466.204   112370887.52909  21383464.650    87561722.21948
  22538190.354   118439015.92408  22538189.502    92290156.70447
  21547964.092   113235323.67009  21547962.395    88235314.07948
  23615574.919   124100718.12407  23615573.188    96701864.10946
  22474313.053   118103338.47408  22474314.508    92028588.40847
  24470162.789   128591553.90707  24470163.134   100201203.79646
  23093657.966   121357975.11707  23093657.895    94564645.35747
 15 02 24 00 25  0.0000000  0  7G16G18G21G22G27G29G31
  21371423.859   112307604.76609  21371422.160    87512410.98548
  22528158.257   118386296.37208  22528157.448    92249076.55746
  21556960.773   113282601.27109  21556958.834    88272153.77348
  23598302.729   124009955.65107  23598301.429    96631140.17445
  22463182.216   118044845.49908  22463183.601    91983009.48547
  24484414.529   128666448.27606  24484414.964   100259563.03245
  23111559.305   121452047.44608  23111559.545    94637948.37246
 15 02 24 00 25 30.0000000  0  7G16G18G21G22G27G29G31
  21359437.630   112244616.89909  21359436.115    87463329.54148
  22518188.842   118333907.77408  22518188.283    92208254.30546
  21566014.738   113330180.80009  21566012.888    88309228.73848
  23581041.219   123919244.74107  23581039.953    96560456.43846
  22452073.976   117986471.80308  22452075.408    91937523.51147
  24498666.702   128741345.01306  24498666.863   100317924.08443
  23129488.923   121546266.41108  23129488.293    94711365.72246
 15 02 24 00 26  0.0000000  0  7G16G18G21G22G27G29G31
  21347507.525   112181923.02409  21347505.953    87414477.17648
  22508282.485   118281849.13908  22508281.813    92167689.15446
  21575125.225   113378056.92109  21575123.389    88346534.80848
  23563789.533   123828584.95708  23563788.187    96489812.56046
  22440987.987   117928214.10308  22440989.243    91892127.92647
  24512918.391   128816240.77105  24512920.056   100376284.37046
  23147445.161   121640626.01708  23147444.338    94784892.63246
 15 02 24 00 26 30.0000000  0  7G16G18G21G22G27G29G31
  21335632.850   112119521.31009  21335631.281    87365852.47348
  22498438.361   118230118.76308  22498437.743    92127379.80546
  21584291.346   113426224.34009  21584289.292    88384067.86848
  23546547.405   123737975.27607  23546545.240    96419207.67045
  22429923.156   117870068.74008  22429924.591    91846819.86947
  24527171.012   128891132.01605  24527170.643   100434641.35846
  23165426.532   121735119.88508  23165426.382    94858524.12646
 15 02 24 00 27  0.0000000  0  7G16G18G21G22G27G29G31
  21323816.759   112057427.42609  21323815.187    87317467.63948
  22488659.966   118178732.48208  22488659.257    92087338.57046
  21593514.708   113474693.99209  21593512.861    88421836.43448
  23529316.955   123647431.52307  23529315.068    96348654.18146
  22418882.297   117812048.91708  22418883.876    91801609.64147
  24541423.700   128966032.27507  24541423.791   100493005.11944
  23183435.785   121829758.33508  23183435.599    94932268.29546
 15 02 24 00 27 30.0000000  0  7G16G18G21G22G27G29G31
  21312057.001   111995629.38809  21312055.475    87269313.33348
  22478944.739   118127678.55308  22478943.946    92047556.30946
  21602792.833   113523450.08809  21602790.876    88459828.20248
  23512097.485   123556942.84707  23512095.634    96278143.60346
  22407862.764   117754140.66308  22407864.376    91756486.34847
  24555676.375   129040927.49307  24555677.188   100551364.92846
  23201469.205   121924524.19008  23201468.862    95006111.74346
 15 02 24 00 28  0.0000000  0  6G16G18G21G22G27G31
  21300349.561   111934106.96909  21300348.012    87221373.79448
  22469288.915   118076936.79708  22469288.134    92008017.30946
  21612120.786   113572469.15409  21612118.750    88498024.88048
  23494884.965   123466489.07207  23494882.869    96207660.20946
  22396860.258   117696321.47808  22396861.664    91711432.46047
  23219521.963   122019391.94808  23219521.635    95080034.61346
 15 02 24 00 28 30.0000000  0  6G16G18G21G22G27G31
  21288706.805   111872923.93409  21288705.285    87173698.71048
  22459704.630   118026570.79008  22459703.922    91968771.09646
  21621510.073   113621810.75509  21621508.230    88536472.88648
  23477691.113   123376134.67507  23477688.885    96137254.25146
  22385886.274   117638652.83308  22385887.592    91666495.87348
  23237605.577   122114420.22808  23237605.053    95154082.56146
 15 02 24 00 29  0.0000000  0  6G16G18G21G22G27G31
  21277123.224   111812051.67909  21277121.644    87126265.79248
  22450186.499   117976552.10908  22450185.515    91929795.52647
  21630954.748   113671442.32509  21630952.843    88575146.84048
  23460510.431   123285851.74007  23460508.316    96066904.00646
  22374935.308   117581104.12108  22374936.441    91621652.74047
  23255712.906   122209575.73007  23255712.569    95228229.62346
 15 02 24 00 29 30.0000000  0  6G16G18G21G22G27G31
  21265597.318   111751482.32209  21265595.620    87079068.89948
  22440732.604   117926872.71408  22440731.901    91891084.34147
  21640452.101   113721351.97309  21640450.479    88614037.47748
  23443342.458   123195632.87008  23443339.805    95996603.63645
  22364005.031   117523665.22008  22364006.361    91576895.17148
  23273842.156   122304845.39507  23273841.957    95302465.62346
 15 02 24 00 30  0.0000000  0  6G16G18G21G22G27G31
  21254131.302   111691228.56609  21254129.699    87032117.93248
  22431345.958   117877545.36908  22431345.120    91852647.47747
  21650004.202   113771548.13409  21650002.506    88653151.37248
  23426189.319   123105491.10707  23426186.080    95926363.34045
  22353097.526   117466346.55208  22353098.894    91532231.29648
  23291994.485   122400236.55608  23291994.335    95376796.32946
 15 02 24 00 30 30.0000000  0  6G16G18G21G22G27G31
  21242726.555   111631296.30809  21242725.078    86985417.48048
  22422027.316   117828575.76008  22422026.488    91814489.36246
  21659610.964   113822032.13409  21659609.147    88692489.55548
  23409051.046   123015432.84707  23409048.892    95856188.17146
  22342213.707   117409151.81908  22342214.942    91487663.98848
  23310170.463   122495750.18708  23310170.070    95451222.45846
 15 02 24 00 31  0.0000000  0  6G16G18G21G22G27G31
  21231381.047   111571675.16509  21231379.530    86938959.45248
  22412774.830   117779953.52508  22412773.784    91776601.93046
  21669269.875   113872790.27309  21669268.055    88732041.35248
  23391927.496   122925448.51207  23391925.361    95786070.58045
  22331351.158   117352068.39708  22331352.402    91443183.42047
  23328366.316   122591370.72807  23328366.062    95525731.87546
 15 02 24 00 31 30.0000000  0  6G16G18G21G22G27G31
  21220095.485   111512369.26209  21220094.079    86892747.07048
  22403589.122   117731682.89908  22403588.309    91738988.47646
  21678981.016   113923822.50509  21678979.014    88771806.73148
  23374819.260   122835543.06208  23374816.576    95716014.43345
  22320510.105   117295098.52808  22320511.357    91398791.33947
  23346582.327   122687097.35307  23346582.253    95600323.94546
 15 02 24 00 32  0.0000000  0  6G16G18G21G22G27G31
  21208873.710   111453398.87709  21208872.381    86846796.12548
  22394474.417   117683784.23608  22394473.342    91701664.86846
  21688747.580   113975145.67609  21688745.504    88811798.81548
  23357729.672   122745737.10807  23357726.818    95646035.79645
  22309694.099   117238260.22208  22309695.292    91354501.76948
  23364821.945   122782945.29008  23364821.503    95675010.56246
 15 02 24 00 32 30.0000000  0  6G16G18G21G22G27G31
  21197714.539   111394756.12909  21197712.917    86801100.48748
  22385428.830   117636249.26008  22385427.821    91664624.66046
  21698567.148   114026747.10409  21698564.984    88852007.72448
  23340657.056   122656023.12807  23340655.008    95576128.90246
  22298901.079   117181543.14208  22298902.412    91310306.66848
  23383082.097   122878901.25108  23383081.329    95749781.37546
 15 02 24 00 33  0.0000000  0  7G16G18G19G21G22G27G31
  21186617.156   111336439.67409  21186615.728    86755659.10148
  22376452.150   117589076.49108  22376451.047    91627866.67747
  24450012.757   128485697.74616  24450011.481   100118709.64855
  21708438.400   114078621.66509  21708436.515    88892429.46148
  23323602.719   122566400.20108  23323600.708    95506292.92346
  22288130.386   117124943.82908  22288131.988    91266203.33048
  23401361.363   122974958.50507  23401360.727    95824631.10746
 15 02 24 00 33 30.0000000  0  7G16G18G19G21G22G27G31
  21175578.065   111278428.70309  21175576.402    86710455.75348
  22367540.500   117542245.83008  22367539.628    91591375.27946
  24435256.011   128408149.33206  24435255.514   100058282.36445
  21718357.132   114130745.11009  21718355.451    88933045.12948
  23306561.725   122476848.76807  23306559.721    95436512.64946
  22277378.054   117068439.82208  22277379.639    91222174.25948
  23419654.744   123071092.34207  23419654.556    95899540.43847
 15 02 24 00 34  0.0000000  0  7G16G18G19G21G22G27G31
  21164603.986   111220759.43509  21164602.330    86665518.66848
  22358700.822   117495792.53608  22358699.676    91555177.93446
  24420517.300   128330697.29106  24420516.602    99997930.20445
  21728329.161   114183149.38209  21728327.538    88973879.62648
  23289540.738   122387404.93507  23289538.653    95366816.22145
  22266650.274   117012064.73908  22266651.776    91178245.64248
  23437968.980   123167333.01908  23437968.729    95974533.07046
 15 02 24 00 34 30.0000000  0  7G16G18G19G21G22G27G31
  21153692.747   111163420.58409  21153691.286    86620839.04748
  22349930.716   117449705.63108  22349929.710    91519266.08047
  24405794.603   128253328.68506  24405793.375    99937642.98945
  21738351.913   114235819.33209  21738350.402    89014921.14148
  23272538.596   122298058.42308  23272536.268    95297195.61046
  22255944.573   116955805.33408  22255946.095    91134407.16648
  23456300.372   123263664.44707  23456299.828    96049596.44846
 15 02 24 00 35  0.0000000  0  7G16G18G19G21G22G27G31
  21142845.086   111106415.77109  21142843.396    86576419.72048
  22341230.951   117403988.15208  22341229.984    91483642.09047
  24391087.835   128176044.15906  24391086.591    99877421.32445
  21748425.212   114288754.06209  21748423.362    89056168.98048
  23255556.098   122208812.97808  23255553.830    95227653.73846
  22245260.961   116899662.79608  22245262.346    91090659.75248
  23474648.395   123360084.95807  23474648.257    96124729.19845
 15 02 24 00 35 30.0000000  0  7G16G18G19G21G22G27G31
  21132061.764   111049748.72009  21132060.015    86532263.57748
  22332602.192   117358644.22008  22332601.312    91448309.18747
  24376397.532   128098846.06406  24376396.427    99817267.02545
  21758548.804   114341953.61809  21758547.076    89097623.17548
  23238593.373   122119673.54108  23238591.580    95158194.53546
  22234600.084   116843639.10408  22234601.367    91047004.94748
  23493013.469   123456593.60507  23493013.434    96199930.62246
 15 02 24 00 36  0.0000000  0  7G16G18G19G21G22G27G31
  21121342.729   110993419.55709  21121340.886    86488370.72448
  22324044.498   117313673.63708  22324043.708    91413267.19547
  24361723.430   128021732.07706  24361722.233    99757178.24845
  21768722.212   114395414.14209  21768720.154    89139280.72848
  23221651.120   122030640.83608  23221649.039    95088818.44646
  22223961.368   116787732.15008  22223962.785    91003441.10748
  23511394.347   123553185.33607  23511394.318    96275196.76946
 15 02 24 00 36 30.0000000  0  7G16G18G19G21G22G27G31
  21110689.318   110937435.56909  21110687.474    86444746.84648
  22315559.326   117269083.79108  22315558.187    91378521.87647
  24347065.873   127944707.49806  24347064.639    99697159.13245
  21778945.709   114449139.01109  21778943.756    89181144.26448
  23204730.488   121941722.53708  23204728.089    95019531.51546
  22213345.899   116731947.04408  22213347.122    90959972.21348
  23529791.596   123649862.12307  23529791.399    96350529.24146
 15 02 24 00 37  0.0000000  0  7G16G18G19G21G22G27G31
  21100100.403   110881790.29009  21100098.538    86401386.88948
  22307145.332   117224867.36108  22307144.162    91344067.53547
  24332423.838   127867763.39906  24332422.369    99637202.73445
  21789217.270   114503117.61609  21789215.442    89223205.50848
  23187830.638   121852912.53508  23187828.197    94950328.96946
  22202751.883   116676275.17708  22202752.977    90916591.55348
  23548202.174   123746612.55207  23548202.601    96425919.03546
 15 02 24 00 37 30.0000000  0  7G16G18G19G21G22G27G31
  21089577.536   110826492.59609  21089575.791    86358297.78148
  22298803.981   117181033.48308  22298802.911    91309911.28947
  24317798.494   127790906.66506  24317796.928    99577314.40346
  21799538.123   114557354.84709  21799536.565    89265468.28048
  23170953.163   121764220.55608  23170950.916    94881218.38646
  22192180.535   116620723.39908  22192181.785    90873304.47448
  23566628.053   123843440.54507  23566628.227    96501369.30146
 15 02 24 00 38  0.0000000  0  7G16G18G19G21G22G27G31
  21079121.244   110771544.00309  21079119.484    86315480.70248
  22290535.745   117137583.60908  22290534.740    91276054.26247
  24303189.604   127714136.80406  24303188.133    99517493.80045
  21809907.978   114611848.27109  21809906.263    89307930.68048
  23154098.078   121675648.64008  23154096.191    94812201.38646
  22181632.063   116565291.11608  22181633.369    90830110.50748
  23585068.226   123940342.58607  23585068.100    96576877.30946
 15 02 24 00 38 30.0000000  0  7G16G18G19G21G22G27G31
  21068730.774   110716942.87109  21068729.319    86272934.37048
  22282340.199   117094515.97508  22282339.216    91242495.08647
  24288596.512   127637449.80906  24288595.062    99457737.73645
  21820325.446   114666592.53109  21820323.825    89350588.54348
  23137266.267   121587196.06708  23137264.015    94743277.34746
  22171105.517   116509974.58708  22171106.790    90787006.73748
  23603520.989   124037312.07207  23603520.974    96652437.80646
 15 02 24 00 39  0.0000000  0  7G16G18G19G21G22G27G31
  21058407.693   110662694.33909  21058406.060    86230662.79048
  22274218.267   117051834.99508  22274217.154    91209237.19347
  24274019.765   127560848.73606  24274018.536    99398048.61146
  21830790.945   114721588.34609  21830789.232    89393442.41748
  23120457.843   121498868.54708  23120455.470    94674450.76046
  22160601.581   116454776.81308  22160603.014    90743995.50048
  23621986.134   124134348.90907  23621987.045    96728050.75046
 15 02 24 00 39 30.0000000  0  7G16G18G19G21G22G27G31
  21048152.361   110608802.11009  21048150.680    86188668.84849
  22266170.667   117009544.79309  22266169.449    91176283.81047
  24259459.653   127484335.23706  24259458.190    99338427.74245
  21841304.191   114776835.45209  21841302.468    89436492.11248
  23103674.014   121410669.98908  23103671.839    94605724.65946
  22150120.797   116399699.51708  22150122.195    90701078.14248
  23640464.364   124231451.88407  23640465.255    96803715.27446
 15 02 24 00 40  0.0000000  0  7G16G18G19G21G22G27G31
  21037964.612   110555265.69009  21037963.223    86146952.16148
  22258197.436   116967644.40109  22258196.217    91143634.16447
  24244915.582   127407906.68806  24244914.309    99278873.07544
  21851864.543   114832330.04209  21851862.599    89479734.64348
  23086915.019   121322600.97108  23086912.735    94537099.49246
  22139662.546   116344740.15908  22139663.650    90658252.68148
  23658954.254   124328615.62707  23658954.771    96879427.18846
 15 02 24 00 40 30.0000000  0  7G16G18G19G21G22G27G31
  21027844.957   110502086.29709  21027843.376    86105513.67548
  22250298.364   116926134.99509  22250297.259    91111289.18847
  24230387.727   127331562.23406  24230386.123    99219383.92445
  21862471.236   114888069.09009  21862469.362    89523167.66048
  23070181.117   121234663.07008  23070178.950    94468576.53046
  22129226.226   116289897.86808  22129227.574    90615518.44348
  23677454.881   124425836.23507  23677455.276    96955183.35446
 15 02 24 00 41  0.0000000  0  7G16G18G19G21G22G27G31
  21017794.210   110449269.45309  21017792.627    86064357.69449
  22242474.779   116885021.40109  22242473.638    91079252.64447
  24215876.493   127255305.09006  24215875.413    99159962.83645
  21873124.740   114944054.00609  21873122.975    89566792.26648
  23053473.417   121146862.45108  23053470.632    94400160.48146
  22118812.956   116235175.98108  22118814.417    90572878.02448
  23695966.414   124523114.18707  23695966.898    97030984.19346
 15 02 24 00 41 30.0000000  0  7G16G18G19G21G22G27G31
  21007812.197   110396813.83709  21007810.724    86023483.18949
  22234726.219   116844302.07409  22234725.117    91047523.30947
  24201381.242   127179131.75506  24201380.457    99100607.03945
  21883823.909   115000279.42609  21883822.315    89610604.27648
  23036791.618   121059198.53608  23036788.397    94331850.95846
  22108422.241   116180571.21908  22108423.328    90530328.87848
  23714487.564   124620443.01507  23714488.033    97106824.67646
 15 02 24 00 42  0.0000000  0  7G16G18G19G21G22G27G31
  20997899.787   110344723.80409  20997898.183    85982893.55449
  22227053.365   116803981.54409  22227052.272    91016104.73047
  24186902.558   127103044.56806  24186901.120    99041318.35745
  21894569.001   115056745.26509  21894567.298    89654603.62348
  23020136.458   120971676.38908  23020133.611    94263651.95546
  22098053.894   116126085.93808  22098055.142    90487872.82748
  23733018.454   124717822.34407  23733018.751    97182704.52745
 15 02 24 00 42 30.0000000  0  7G16G18G19G21G22G27G31
  20988056.689   110292997.87809  20988055.082    85942587.63849
  22219456.043   116764057.78309  22219455.106    90984995.32247
  24172439.382   127027039.81606  24172437.628    98982093.90246
  21905359.160   115113447.40209  21905357.484    89698787.10048
  23003508.437   120884294.80108  23003505.537    94195562.42546
  22087707.803   116071716.61308  22087709.198    90445507.13348
  23751557.790   124815245.77507  23751557.784    97258618.76445
 15 02 24 00 43  0.0000000  0  7G16G18G19G21G22G27G31
  20978284.549   110241644.12409  20978282.773    85902571.72949
  22211935.871   116724538.17409  22211934.502    90954200.83147
  24157992.909   126951123.46306  24157991.088    98922938.36146
  21916194.848   115170388.70109  21916192.899    89743156.93848
  22986908.565   120797062.94508  22986906.129    94127589.62446
  22077384.787   116017468.98208  22077386.198    90403236.26948
  23770105.769   124912716.00207  23770106.088    97334569.40546
 15 02 24 00 43 30.0000000  0  7G16G18G19G21G22G27G31
  20968582.786   110190661.39009  20968581.012    85862844.92049
  22204492.114   116685421.84109  22204490.867    90923720.58047
  24143562.595   126875292.46006  24143560.768    98863849.33245
  21927075.165   115227564.96509  21927073.248    89787709.86648
  22970337.347   120709980.45408  22970334.657    94059733.15746
  22067084.581   115963340.35108  22067085.918    90361058.12448
  23788661.585   125010227.44207  23788662.277    97410552.15046
 15 02 24 00 44  0.0000000  0  7G16G18G19G21G22G27G31
  20958952.422   110140053.67509  20958950.798    85823410.33349
  22197126.036   116646712.55509  22197124.770    90893557.51947
  24129149.052   126799548.94006  24129146.977    98804828.45145
  21938000.029   115284975.85709  21937998.282    89832445.61848
  22953794.984   120623051.78008  22953792.377    93991996.56546
  22056807.230   115909332.75208  22056808.578    90318974.29448
  23807225.608   125107779.07107  23807225.767    97486566.25545
 15 02 24 00 44 30.0000000  0  7G16G18G19G21G22G27G31
  20949393.030   110089818.70009  20949391.445    85784266.19649
  22189836.792   116608407.26109  22189835.572    90863709.25147
  24114751.252   126723887.95906  24114749.012    98745871.85145
  21948968.364   115342615.12409  21948966.721    89877359.32248
  22937282.040   120536275.04808  22937279.505    93924378.36447
  22046552.079   115855441.38508  22046553.433    90276981.03448
  23825795.162   125205362.95507  23825795.258    97562605.46645
 15 02 24 00 45  0.0000000  0  7G16G18G19G21G22G27G31
  20939905.565   110039961.42309  20939903.906    85745416.37249
  22182625.351   116570511.03809  22182624.064    90834179.73947
  24100369.924   126648312.94606  24100367.788    98686982.29845
  21959980.339   115400484.22809  21959978.858    89922452.12048
  22920798.946   120449656.14708  22920796.877    93856883.16647
  22036319.588   115801669.59508  22036320.815    90235080.95448
  23844371.241   125302979.81507  23844371.135    97638670.39045
 15 02 24 00 45 30.0000000  0  7G16G18G19G21G22G27G31
  20930490.194   109990483.12609  20930488.393    85706861.85649
  22175491.783   116533024.72609  22175490.705    90804969.63947
  24086004.654   126572822.50106  24086002.363    98628158.62945
  21971035.683   115458580.19909  21971033.992    89967721.70048
  22904345.852   120363196.65208  22904344.214    93789512.19746
  22026109.768   115748016.78608  22026111.074    90193273.58448
  23862952.839   125400626.05607  23862952.945    97714758.17445
 15 02 24 00 46  0.0000000  0  7G16G18G19G21G22G27G31
  20921147.540   109941387.71209  20921145.930    85668605.68849
  22168436.986   116495951.20909  22168435.984    90776081.20147
  24071655.625   126497418.69206  24071653.518    98569402.47545
  21982134.175   115516902.89009  21982132.368    90013167.94648
  22887924.423   120276901.73708  22887922.445    93722269.42646
  22015922.971   115694484.71108  22015924.209    90151560.29248
  23881539.838   125498300.45607  23881539.871    97790867.90145
 15 02 24 00 46 30.0000000  0  7G16G18G19G21G22G27G31
  20911878.750   109892679.32509  20911877.207    85630651.09849
  22161461.371   116459294.88309  22161460.322    90747517.84547
  24057323.510   126422103.60606  24057321.610    98510715.48644
  21993276.020   115575452.99009  21993274.211    90058791.39948
  22871535.468   120190776.16808  22871533.164    93655158.62147
  22005759.503   115641075.54408  22005760.602    90109942.77248
  23900132.129   125596002.19507  23900132.181    97866998.92946
 15 02 24 00 47  0.0000000  0  7G16G18G19G21G22G27G31
  20902682.416   109844352.08009  20902680.747    85592993.50749
  22154564.174   116423049.55909  22154563.000    90719274.74847
  24043007.016   126346869.14007  24043004.941    98452091.27645
  22004459.205   115634220.24309  22004457.368    90104584.05748
  22855177.444   120104814.73508  22855175.412    93588175.73647
  21995617.960   115587781.56208  21995619.234    90068415.00348
  23918727.155   125693720.59206  23918727.631    97943142.90445
 15 02 24 00 47 30.0000000  0  7G16G18G19G21G22G27G31
  20893559.942   109796413.43609  20893558.273    85555638.71949
  22147746.522   116387222.08609  22147745.307    90691357.24847
  24028706.684   126271720.94906  24028704.699    98393534.30145
  22015684.151   115693208.39209  22015682.293    90150548.84148
  22838852.393   120019025.10708  22838850.158    93521326.70647
  21985499.472   115534608.05208  21985500.694    90026981.11648
  23937326.088   125791457.80307  23937326.356    98019301.60945
 15 02 24 00 48  0.0000000  0  7G16G18G19G21G22G27G31
  20884512.247   109748867.50809  20884510.545    85518589.94349
  22141009.040   116351816.31609  22141007.686    90663768.34647
  24014423.248   126196661.33206  24014421.297    98335046.34646
  22026951.324   115752418.00509  22026949.726    90196686.19148
  22822560.658   119933412.67808  22822558.783    93454615.78147
  21975404.120   115481557.52408  21975405.479    89985643.05248
  23955928.797   125889213.76107  23955929.052    98095474.88146
 15 02 24 00 48 30.0000000  0  7G16G18G19G21G22G27G31
  20875539.482   109701715.62209  20875538.024    85481848.21849
  22134352.053   116316833.39209  22134350.506    90636508.93347
  24000156.429   126121689.09607  24000154.488    98276626.46245
  22038260.080   115811846.60609  22038258.588    90242994.18548
  22806303.486   119847979.06808  22806301.428    93388044.15947
  21965332.309   115428629.26708  21965333.493    89944400.26748
  23974534.265   125986984.59507  23974534.595    98171659.74946
 15 02 24 00 49  0.0000000  0  7G16G18G19G21G22G27G31
  20866640.731   109654952.83809  20866639.224    85445409.68549
  22127774.306   116282267.47709  22127772.972    90609574.46747
  23985904.928   126046797.04706  23985903.054    98218269.06345
  22049608.894   115871484.43109  22049607.235    90289465.21648
  22790079.085   119762720.26508  22790076.909    93321608.77747
  21955282.270   115375816.30108  21955283.477    89903247.32148
  23993140.378   126084760.24906  23993140.970    98247848.34044
 15 02 24 00 49 30.0000000  0  7G16G18G19G21G22G27G31
  20857818.165   109608589.50409  20857816.636    85409282.41149
  22121277.864   116248128.75409  22121276.561    90582972.87647
  23971670.271   125971994.04706  23971668.504    98159981.05745
  22060999.042   115931339.06109  22060997.146    90336105.18348
  22773890.373   119677647.67008  22773888.061    93255318.46547
  21945255.851   115323127.42708  21945257.175    89862191.07048
  24011748.120   126182546.84606  24011749.347    98324045.40945
 15 02 24 00 50  0.0000000  0  7G16G18G19G21G22G27G31
  20849071.332   109562624.39709  20849069.744    85373465.44449
  22114862.421   116214415.53209  22114861.191    90556702.85147
  23957451.891   125897276.42507  23957449.927    98101759.58045
  22072429.033   115991404.63109  22072427.175    90382909.52548
  22757736.869   119592760.14908  22757734.397    93189172.38247
  21935252.488   115270559.05408  21935253.619    89821228.71448
  24030357.606   126280337.57507  24030358.233    98400245.80945
 15 02 24 00 50 30.0000000  0  7G16G18G19G21G22G27G31
  20840400.597   109517059.97309  20840399.024    85337960.70049
  22108528.289   116181129.72209  22108527.139    90530765.87347
  23943250.069   125822645.00207  23943248.084    98043605.24945
  22083898.891   116051679.83209  22083897.240    90429877.20948
  22741618.896   119508061.03708  22741616.813    93123173.13047
  21925272.196   115218112.04908  21925273.228    89780360.93048
  24048967.339   126378130.50407  24048967.811    98476447.89145
 15 02 24 00 51  0.0000000  0  7G16G18G19G21G22G27G31
  20831806.361   109471896.64709  20831804.744    85302768.49949
  22102275.634   116148271.45709  22102274.667    90505162.04647
  23929064.264   125748098.25106  23929062.012    97985516.90546
  22095408.058   116112161.41409  22095406.470    90477005.70848
  22725537.287   119423551.26908  22725535.000    93057321.38947
  21915314.688   115165785.05208  21915315.805    89739586.66448
  24067576.484   126475921.22206  24067577.132    98552648.19945
 15 02 24 00 51 30.0000000  0  7G16G18G19G21G22G27G31
  20823289.570   109427140.60609  20823287.899    85267893.66149
  22096105.467   116115846.10109  22096104.146    90479895.54447
  23914895.072   125673639.73606  23914893.070    97927497.33345
  22106957.188   116172852.15509  22106955.738    90524297.18848
  22709493.004   119339238.36708  22709490.504    92991623.04947
  21905380.785   115113582.19508  21905382.033    89698909.12248
  24086185.220   126573711.04207  24086186.125    98628847.79145
 15 02 24 00 52  0.0000000  0  7G16G18G19G21G22G27G31
  20814849.852   109382789.27809  20814848.245    85233334.18949
  22090017.054   116083851.15109  22090015.605    90454964.42247
  23900742.116   125599265.48207  23900739.965    97869543.39145
  22118544.846   116233745.89909  22118543.340    90571746.85448
  22693485.763   119255120.40408  22693483.293    92926076.63147
  21895469.696   115061499.35108  21895471.017    89658325.10648
  24104792.477   126671492.86706  24104793.869    98705041.17246
 15 02 24 00 52 30.0000000  0  7G16G18G19G21G22G27G31
  20806487.359   109338844.79809  20806485.760    85199091.74049
  22084010.769   116052288.22509  22084009.299    90430369.94747
  23886605.140   125524975.42206  23886603.090    97811655.06146
  22130170.945   116294840.49109  22130169.490    90619353.02548
  22677516.249   119171199.91508  22677513.860    92860684.06547
  21885581.463   115009536.68308  21885582.633    89617834.73348
  24123397.860   126769263.81407  24123399.302    98781226.05945
 15 02 24 00 53  0.0000000  0  7G16G18G19G21G22G27G31
  20798203.509   109295312.75009  20798201.925    85165170.66749
  22078087.567   116021162.24409  22078086.165    90406115.95447
  23872484.978   125450773.34507  23872482.747    97753835.30645
  22141835.405   116356137.29609  22141833.669    90667116.76348
  22661585.717   119087483.46708  22661583.005    92795450.50347
  21875716.827   114957697.94908  21875717.968    89577440.92348
  24142001.506   126867024.75807  24142002.849    98857403.16345
 15 02 24 00 53 30.0000000  0  7G16G18G19G21G22G27G31
  20789998.258   109252193.23509  20789996.731    85131571.04849
  22072247.346   115990472.80009  22072246.236    90382202.11047
  23858381.149   125376657.44106  23858379.002    97696082.67246
  22153537.596   116417633.00909  22153535.928    90715035.49748
  22645694.287   119003972.18908  22645691.260    92730376.80847
  21865875.553   114905981.55208  21865876.761    89537142.44948
  24160602.318   126964770.84407  24160603.275    98933568.73444
 15 02 24 00 54  0.0000000  0  7G16G18G19G21G22G27G31
  20781871.754   109209488.17109  20781870.152    85098294.37949
  22066490.671   115960221.23909  22066489.521    90358629.48147
  23844293.474   125302626.99206  23844291.572    97638396.65845
  22165277.312   116479326.03908  22165275.613    90763107.98048
  22629842.012   118920668.32608  22629839.085    92665464.74047
  21856057.566   114854387.52508  21856058.739    89496939.32548
  24179199.544   127062499.51706  24179200.516    99009720.70444
 15 02 24 00 54 30.0000000  0  7G16G18G19G21G22G27G31
  20773824.421   109167199.74509  20773822.948    85065342.36249
