     2.11           OBSERVATION DATA    G                   RINEX VERSION / TYPE
SPIDER V4,0,0,3554                      2015 03 19 00:52    PGM / RUN BY / DATE 
OBHM                                                        MARKER NAME         
OBHM                                                        MARKER NUMBER       
                                                            OBSERVER / AGENCY   
496638              LEICA GRX1200+GNSS  8.20/4.007          REC # / TYPE / VERS 
10321015            LEIAR25         NONE                    ANT # / TYPE        
  5268006.0133   -44062.8765  3585543.8986                  APPROX POSITION XYZ 
        0.1200        0.0000        0.0000                  ANTENNA: DELTA H/E/N
     1     1                                                WAVELENGTH FACT L1/2
     4    C1    L1    P2    L2                              # / TYPES OF OBSERV 
    30.000                                                  INTERVAL            
  2015    02    24    00    00    0.0000000     GPS         TIME OF FIRST OBS   
  2015    02    24    23    59   30.0000000     GPS         TIME OF LAST OBS    
    16                                                      LEAP SECONDS        
    30                                                      # OF SATELLITES     
   G 1   844   844   844   844                              PRN / # OF OBS      
   G 2   918   918   918   918                              PRN / # OF OBS      
   G 3   842   842   842   842                              PRN / # OF OBS      
   G 4   854   854   854   854                              PRN / # OF OBS      
   G 5   683   683   683   683                              PRN / # OF OBS      
   G 6   645   645   645   645                              PRN / # OF OBS      
   G 7   745   744   744   744                              PRN / # OF OBS      
   G 9   780   780   780   780                              PRN / # OF OBS      
   G10   795   795   795   795                              PRN / # OF OBS      
   G11   810   809   809   809                              PRN / # OF OBS      
   G12   812   811   811   811                              PRN / # OF OBS      
   G13   834   834   834   834                              PRN / # OF OBS      
   G14   929   929   929   929                              PRN / # OF OBS      
   G15   743   743   743   743                              PRN / # OF OBS      
   G16   703   702   702   702                              PRN / # OF OBS      
   G17   925   925   925   925                              PRN / # OF OBS      
   G18   944   944   944   944                              PRN / # OF OBS      
   G19   795   795   795   795                              PRN / # OF OBS      
   G20   820   820   820   820                              PRN / # OF OBS      
   G21   707   707   707   707                              PRN / # OF OBS      
   G22   819   818   818   818                              PRN / # OF OBS      
   G23   723   723   723   723                              PRN / # OF OBS      
   G24   853   852   852   852                              PRN / # OF OBS      
   G25   868   868   867   867                              PRN / # OF OBS      
   G27   844   844   844   844                              PRN / # OF OBS      
   G28   917   917   917   917                              PRN / # OF OBS      
   G29   748   748   748   748                              PRN / # OF OBS      
   G30   687   687   686   686                              PRN / # OF OBS      
   G31   745   744   744   744                              PRN / # OF OBS      
   G32   736   735   735   735                              PRN / # OF OBS      
BIT 2 OF LLI FLAGS DATA COLLECTED UNDER A/S CONDITION       COMMENT             
SNR is mapped to RINEX snr flag value [2-9]                 COMMENT             
Lx:     = 25dBHz -> 1; 26-27dBHz -> 2; 28-31dBHz -> 3       COMMENT             
       32-35dBHz -> 4; 36-38dBHz -> 5; 39-41dBHz -> 6       COMMENT             
       42-44dBHz -> 7; 45-48dBHz -> 8; >=49dBHz -> 9        COMMENT             
                                                            END OF HEADER       
 15 02 24 00 00  0.0000000  0  8G16G18G21G22G25G27G29G31
  21968783.240   115446756.50009  21968779.880    89958505.32247
  23192045.760   121875052.05208  23192043.020    94967582.44446
  21251456.780   111677165.64608  21251453.380    87021157.12548
  24458138.640   128528389.74008  24458138.460   100151997.44146
  24717992.160   129893909.67907  24717994.320   101216033.57245
  22889875.660   120287147.44908  22889876.140    93730253.81947
  23954752.340   125883056.02508  23954749.840    98090681.50445
  22166675.800   116486657.55909  22166673.240    90768807.79348
 15 02 24 00 00 30.0000000  0  8G16G18G21G22G25G27G29G31
  21954884.600   115373718.94809  21954881.240    89901592.95647
  23179829.660   121810856.05308  23179826.920    94917559.60646
  21257654.260   111709733.28208  21257650.800    87046534.50448
  24441392.240   128440387.42108  24441391.860   100083424.46446
  24735859.300   129987802.45907  24735861.340   101289196.71645
  22878073.160   120225125.56808  22878073.780    93681925.11147
  23969209.940   125959031.58308  23969207.660    98149883.21546
  22182514.280   116569889.75709  22182511.880    90833664.00848
 15 02 24 00 01  0.0000000  0  8G16G18G21G22G25G27G29G31
  21941021.140   115300866.12409  21941017.820    89844824.53648
  23167652.460   121746864.35108  23167649.740    94867695.96646
  21263925.440   111742688.36308  21263921.940    87072213.78848
  24424630.940   128352306.58408  24424630.240   100014790.27646
  24753756.380   130081851.56907  24753758.020   101362481.71145
  22866296.940   120163241.27708  22866297.500    93633703.61747
  23983666.080   126034999.64708  23983663.960    98209079.09746
  22198409.580   116653419.99609  22198407.240    90898752.47348
 15 02 24 00 01 30.0000000  0  8G16G18G21G22G25G27G29G31
  21927192.420   115228195.41309  21927189.120    89788198.02448
  23155513.660   121683074.62608  23155511.060    94817989.72846
  21270269.000   111776023.90708  21270265.460    87098189.54448
  24407854.200   128264144.67008  24407853.240    99946092.93346
  24771682.160   130176050.99907  24771683.480   101435883.80544
  22854545.940   120101489.46808  22854546.480    93585585.36748
  23998119.900   126110955.33608  23998117.880    98268265.34046
  22214360.200   116737240.75709  22214357.840    90964067.32148
 15 02 24 00 02  0.0000000  0  8G16G18G21G22G25G27G29G31
  21913399.460   115155712.55609  21913396.200    89731717.88848
  23143414.440   121619493.31108  23143412.000    94768445.87746
  21276685.500   111809742.75808  21276681.960    87124463.97848
  24391063.300   128175908.28608  24391062.120    99877337.57946
  24789637.140   130270403.61608  24789638.180   101509405.30644
  22842820.900   120039873.96708  22842821.360    93537573.31747
  24012572.120   126186902.56208  24012570.320    98327444.97846
  22230366.340   116821353.12009  22230363.940    91029609.38848
 15 02 24 00 02 30.0000000  0  8G16G18G21G22G25G27G29G31
  21899642.460   115083418.86009  21899639.240    89675385.15248
  23131355.140   121556122.13408  23131352.940    94719065.77246
  21283174.380   111843842.16509  21283170.920    87151034.94148
  24374258.520   128087599.10708  24374257.160    99808525.47645
  24807620.940   130364907.58608  24807621.820   101583044.73144
  22831121.600   119978393.84709  22831122.020    93489666.75448
  24027022.580   126262840.12608  24027020.800    98386617.06346
  22246427.380   116905753.71709  22246424.920    91095376.05348
 15 02 24 00 03  0.0000000  0  7G16G18G21G22G27G29G31
  21885921.440   115011314.53909  21885918.340    89619199.98248
  23119336.160   121492962.47508  23119334.100    94669850.48446
  21289735.280   111878319.69109  21289731.760    87177900.54548
  24357440.020   127999218.12108  24357438.660    99739657.37345
  22819447.800   119917047.42409  22819448.180    93441864.37848
  24041470.780   126338765.98208  24041469.240    98445780.02846
  22262542.360   116990438.10309  22262539.860    91161363.85348
 15 02 24 00 03 30.0000000  0  7G16G18G21G22G27G29G31
  21872237.640   114939405.73209  21872234.600    89563167.15948
  23107358.800   121430021.07809  23107356.760    94620805.26846
  21296368.460   111913176.99509  21296364.900    87205062.08748
  24340609.040   127910771.70108  24340607.640    99670738.30445
  22807800.180   119855838.49209  22807800.540    93394169.13148
  24055917.560   126414684.56808  24055916.200    98504937.33346
  22278711.520   117075407.27609  22278709.000    91227573.56148
 15 02 24 00 04  0.0000000  0  7G16G18G21G22G27G29G31
  21858590.620   114867690.03409  21858587.580    89507284.80448
  23095422.540   121367295.63008  23095420.440    94571928.31846
  21303072.860   111948408.77408  21303069.280    87232515.41348
  24323765.220   127822258.04908  24323763.840    99601766.88945
  22796177.940   119794762.56509  22796178.200    93346577.52248
  24070362.080   126490591.19008  24070360.820    98564085.30446
  22294933.500   117160654.28309  22294931.000    91293999.75548
 15 02 24 00 04 30.0000000  0  7G16G18G21G22G27G29G31
  21844981.140   114796171.63209  21844978.100    89451556.20748
  23083528.320   121304791.49708  23083526.320    94523223.84246
  21309848.600   111984015.53308  21309844.980    87260260.94848
  24306909.500   127733681.86708  24306908.200    99532746.68845
  22784581.340   119733821.59509  22784581.520    93299091.08648
  24084804.520   126566487.07108  24084803.420    98623224.93946
  22311208.160   117246178.46909  22311205.740    91360641.94748
 15 02 24 00 05  0.0000000  0  7G16G18G21G22G27G29G31
  21831409.540   114724852.42709  21831406.480    89395982.81348
  23071676.500   121242510.64308  23071674.620    94474693.34146
  21316695.280   112019995.50508  21316691.680    87288297.28948
  24290042.240   127645045.36508  24290041.160    99463679.46445
  22773010.360   119673015.46908  22773010.480    93251709.71248
  24099245.060   126642373.01308  24099244.040    98682356.80146
  22327535.100   117331977.11009  22327532.740    91427497.99048
 15 02 24 00 05 30.0000000  0  7G16G18G21G22G27G29G31
  21817876.160   114653733.78009  21817873.000    89340565.69848
  23059867.600   121180455.68408  23059865.940    94426338.86046
  21323612.540   112056346.26408  21323609.020    87316622.56048
  24273164.020   127556350.99708  24273162.960    99394567.19546
  22761464.840   119612343.59408  22761465.000    93204432.96148
  24113683.600   126718248.27108  24113682.640    98741480.34746
  22343913.640   117418046.79809  22343911.320    91494565.24248
 15 02 24 00 06  0.0000000  0  7G16G18G21G22G27G29G31
  21804381.120   114582816.85309  21804377.900    89285305.76348
  23048101.880   121118627.57708  23048100.440    94378161.14646
  21330599.800   112093065.02308  21330596.340    87345234.58048
  24256275.060   127467599.84308  24256273.920    99325410.69446
  22749944.500   119551804.50008  22749944.720    93157259.67848
  24128119.780   126794110.83808  24128118.820    98800594.01146
  22360343.040   117504383.64909  22360340.740    91561840.67048
 15 02 24 00 06 30.0000000  0  7G16G18G21G22G27G29G31
  21790925.260   114512105.67609  21790921.980    89230206.16348
  23036380.420   121057031.47808  23036379.040    94330164.21446
  21337657.360   112130153.18808  21337653.980    87374134.45348
  24239376.300   127378796.71208  24239374.940    99256213.67046
  22738449.760   119491400.33508  22738450.140    93110191.54048
  24142554.040   126869963.30208  24142553.000    98859699.79746
  22376823.160   117590987.00709  22376820.860    91629323.75448
 15 02 24 00 07  0.0000000  0  7G16G18G21G22G27G29G31
  21777508.440   114441599.83809  21777505.120    89175266.56348
  23024703.140   120995666.98608  23024701.720    94282347.75346
  21344784.260   112167605.75408  21344780.980    87403318.26948
  24222467.600   127289941.39108  24222465.920    99186975.95145
  22726980.180   119431128.27008  22726980.640    93063226.32248
  24156985.860   126945802.63608  24156984.700    98918795.35846
  22393352.960   117677851.36109  22393350.620    91697010.21948
 15 02 24 00 07 30.0000000  0  7G16G18G21G22G27G29G31
  21764131.080   114371301.60709  21764127.740    89120488.73348
  23013070.640   120934537.27908  23013069.060    94234714.23646
  21351980.420   112205421.87808  21351977.200    87432785.38048
  24205549.600   127201037.35508  24205547.780    99117700.26346
  22715535.920   119370988.88008  22715536.420    93016364.49447
  24171415.340   127021629.38208  24171413.920    98977881.10546
  22409932.080   117764974.71509  22409929.620    91764898.50648
 15 02 24 00 08  0.0000000  0  7G16G18G21G22G27G29G31
  21750793.980   114301214.70009  21750790.580    89065875.57548
  23001483.660   120873646.70008  23001482.040    94187267.07046
  21359245.800   112243601.63108  21359242.640    87462535.84448
  24188623.140   127112088.66208  24188621.160    99048389.80646
  22704117.260   119310983.61408  22704117.720    92969607.16647
  24185842.720   127097445.18208  24185841.200    99036958.33346
  22426560.280   117852355.93109  22426557.700    91832987.71848
 15 02 24 00 08 30.0000000  0  7G16G18G21G22G27G29G31
  21737497.280   114231340.20109  21737493.840    89011427.93048
  22989942.500   120812996.97908  22989940.740    94140007.57446
  21366579.980   112282142.60008  21366576.740    87492567.77148
  24171688.320   127023096.61508  24171686.240    98979045.55546
  22692723.960   119251111.25808  22692724.380    92922953.40348
  24200267.740   127173248.98508  24200266.160    99096026.21145
  22443236.760   117939990.95709  22443234.100    91901274.71648
 15 02 24 00 09  0.0000000  0  7G16G18G21G22G27G29G31
  21724241.720   114161681.90709  21724238.180    88957148.74648
  22978447.860   120752592.03408  22978446.020    94092938.81446
  21373982.820   112321044.47109  21373979.540    87522880.92248
  24154746.100   126934065.59908  24154743.980    98909670.95046
  22681356.280   119191373.23409  22681356.620    92876404.30948
  24214690.640   127249042.05608  24214689.100    99155085.72945
  22459961.260   118027878.43509  22459958.480    91969758.42348
 15 02 24 00 09 30.0000000  0  7G16G18G21G22G27G29G31
  21711026.740   114092237.03109  21711023.160    88903035.87247
  22966999.440   120692429.86009  22966997.500    94046059.22346
  21381453.140   112360301.15209  21381449.840    87553470.55048
  24137795.960   126844993.59608  24137793.900    98840264.40246
  22670013.300   119131764.93309  22670013.540    92829956.31148
  24229110.560   127324819.73108  24229109.140    99214133.25345
  22476732.380   118116011.18109  22476729.600    92038433.25348
 15 02 24 00 10  0.0000000  0  7G16G18G21G22G27G29G31
  21697853.900   114023013.93109  21697850.360    88849095.80748
  22955598.900   120632519.25309  22955596.840    93999375.65946
  21388991.720   112399916.73909  21388988.420    87584339.84448
  24120839.660   126755889.18108  24120837.600    98770832.57446
  22658696.040   119072292.12009  22658696.320    92783613.88247
  24243528.620   127400587.84908  24243527.360    99273173.32745
  22493550.740   118204392.42009  22493548.020    92107301.70248
 15 02 24 00 10 30.0000000  0  7G16G18G21G22G27G29G31
  21684723.280   113954012.48609  21684719.780    88795328.45748
  22944246.280   120572860.44309  22944243.980    93952888.30646
  21396597.860   112439887.46908  21396594.620    87615485.87648
  24103877.320   126666752.76208  24103875.220    98701375.82345
  22647404.100   119012952.61409  22647404.440    92737375.32748
  24257944.420   127476344.21207  24257943.320    99332204.24345
  22510415.360   118293016.77509  22510412.780    92176359.59548
 15 02 24 00 11  0.0000000  0  7G16G18G21G22G27G29G31
  21671634.600   113885231.22909  21671631.120    88741732.68048
  22932941.340   120513452.45408  22932938.900    93906596.38446
  21404270.600   112480208.16309  21404267.420    87646904.59848
  24086908.840   126577583.79908  24086906.720    98631893.70845
  22636136.860   118953743.00009  22636137.280    92691237.97948
  24272357.360   127552085.30607  24272356.480    99391223.23645
  22527325.220   118381878.62909  22527322.720    92245602.54148
 15 02 24 00 11 30.0000000  0  7G16G18G21G22G27G29G31
  21658589.340   113816677.82209  21658585.880    88688314.46248
  22921685.640   120454303.62108  22921683.160    93860506.41446
  21412010.840   112520883.34109  21412007.620    87678599.55548
  24069935.840   126488390.52608  24069933.600    98562392.63545
  22624895.380   118894668.78409  22624895.820    92645206.14948
  24286768.740   127627817.48008  24286767.920    99450235.31345
  22544280.840   118470980.68709  22544278.360    92315032.68048
 15 02 24 00 12  0.0000000  0  7G16G18G21G22G27G29G31
  21645586.240   113748346.06809  21645582.820    88635068.94148
  22910478.060   120395407.84308  22910475.480    93814613.63046
  21419816.500   112561902.34609  21419813.260    87710562.40748
  24052956.980   126399166.58208  24052954.680    98492867.65046
  22613678.020   118835721.12509  22613678.440    92599272.91348
  24301176.720   127703531.26908  24301175.760    99509233.03646
  22561279.940   118560311.31109  22561277.460    92384640.89748
 15 02 24 00 12 30.0000000  0  7G16G18G21G22G27G29G31
  21632627.140   113680245.54309  21632623.740    88582003.62048
  22899320.520   120336775.46008  22899317.960    93768926.09246
  21427688.880   112603271.72709  21427685.580    87742798.29348
  24035974.360   126309922.87108  24035972.060    98423327.28445
  22602486.240   118776907.87409  22602486.580    92553444.42448
  24315582.780   127779234.56908  24315581.640    99568222.61045
  22578323.540   118649875.56109  22578321.000    92454431.18048
 15 02 24 00 13  0.0000000  0  7G16G18G21G22G27G29G31
  21619711.960   113612375.81409  21619708.560    88529118.12548
  22888212.880   120278405.39809  22888210.340    93723442.94746
  21435626.980   112644986.38209  21435623.580    87775303.22148
  24018987.820   126220658.69408  24018985.480    98353770.94146
  22591319.420   118718225.72609  22591319.640    92507718.09548
  24329986.360   127854924.32708  24329984.940    99627201.61245
  22595410.380   118739667.35609  22595407.900    92524398.75748
 15 02 24 00 13 30.0000000  0  7G16G18G21G22G27G29G31
  21606841.220   113544739.47209  21606837.740    88476414.49448
  22877156.120   120220302.38908  22877153.580    93678167.90246
  21443630.640   112687045.83409  21443627.220    87808076.82248
  24001998.160   126131377.89108  24001995.740    98284201.64345
  22580177.700   118659675.65309  22580177.820    92462094.68848
  24344387.500   127930601.38108  24344385.820    99686170.72446
  22612540.260   118829685.15709  22612537.800    92594542.43948
 15 02 24 00 14  0.0000000  0  7G16G18G21G22G27G29G31
  21594014.900   113477336.50009  21594011.380    88423892.71248
  22866150.240   120162466.34609  22866147.660    93633100.88446
  21451699.100   112729445.84608  21451695.680    87841115.79848
  23985005.480   126042081.02808  23985002.940    98214619.84446
  22569060.640   118601255.41309  22569060.740    92416572.44648
  24358785.760   128006263.81208  24358783.900    99745128.44046
  22629712.200   118919923.83309  22629709.720    92664858.24348
 15 02 24 00 14 30.0000000  0  7G16G18G21G22G27G29G31
  21581233.820   113410171.47709  21581230.320    88371556.34248
  22855196.120   120104901.82809  22855193.320    93588245.44046
  21459832.600   112772187.72709  21459829.180    87874421.16648
  23968010.620   125952772.89308  23968008.120    98145029.26646
  22557968.720   118542967.22909  22557968.760    92371153.10348
  24373181.520   128081913.85508  24373179.640    99804076.48546
  22646926.160   119010383.18509  22646923.620    92735345.99948
 15 02 24 00 15  0.0000000  0  7G16G18G21G22G27G29G31
  21568498.580   113343247.27109  21568495.080    88319407.62248
  22844294.320   120047612.11509  22844291.340    93543604.12646
  21468030.820   112815269.83209  21468027.440    87907991.63948
  23951014.280   125863456.70008  23951011.680    98075432.37746
  22546902.080   118484811.60409  22546902.100    92325837.05648
  24387574.880   128157551.95008  24387573.160    99863015.22646
  22664181.560   119101060.57209  22664179.020    92806003.64248
 15 02 24 00 15 30.0000000  0  7G16G18G21G22G27G29G31
  21555809.560   113276565.71609  21555806.000    88267447.98148
  22833445.200   119990599.33909  22833442.020    93499178.61146
  21476293.400   112858690.31409  21476290.080    87941825.79048
  23934016.900   125774135.09108  23934014.180    98005831.27946
  22535860.620   118426788.21409  22535860.640    92280624.04948
  24401965.800   128233178.03808  24401964.400    99921944.60446
  22681477.860   119191953.10809  22681475.380    92876828.93148
 15 02 24 00 16  0.0000000  0  7G16G18G21G22G27G29G31
  21543166.680   113210126.95609  21543163.120    88215677.53648
  22822648.800   119933863.84509  22822645.580    93454969.17246
  21484619.720   112902445.80209  21484616.420    87975920.98148
  23917018.580   125684808.86808  23917015.800    97936226.59446
  22524843.920   118368895.00209  22524843.880    92235512.48048
  24416353.980   128308790.05308  24416352.980    99980863.02446
  22698814.080   119283055.99809  22698811.720    92947818.13347
 15 02 24 00 16 30.0000000  0  7G16G18G21G22G27G29G31
  21530570.880   113143935.48909  21530567.260    88164099.77948
  22811906.120   119877410.94909  22811902.880    93410979.92446
  21493009.920   112946536.72609  21493006.640    88010277.55048
  23900020.320   125595482.91408  23900017.520    97866622.10146
  22513852.400   118311134.43509  22513852.380    92190504.27448
  24430740.020   128384390.56708  24430739.300   100039772.47146
  22716190.340   119374368.98709  22716188.020    93018971.04148
 15 02 24 00 17  0.0000000  0  7G16G18G21G22G27G29G31
  21518021.760   113077989.58609  21518018.120    88112713.36648
  22801216.980   119821239.54409  22801213.680    93367210.01946
  21501463.060   112990957.87209  21501459.680    88044891.43048
  23883021.860   125506156.37308  23883019.160    97797017.15846
  22502885.240   118253502.56008  22502885.340    92145596.35148
  24445123.260   128459975.77307  24445122.780   100098669.99346
  22733605.300   119465885.30109  22733603.040    93090282.37547
 15 02 24 00 17 30.0000000  0  7G16G18G21G22G27G29G31
  21505520.040   113012292.63309  21505516.420    88061520.94148
  22790581.920   119765352.58608  22790578.540    93323661.75446
  21509978.900   113035708.35109  21509975.480    88079761.93548
  23866023.920   125416832.85908  23866021.320    97727414.55746
  22491942.720   118196000.32508  22491942.940    92100789.43948
  24459503.960   128535546.75407  24459503.440   100157556.41845
  22751058.600   119557603.05909  22751056.380    93161750.68047
 15 02 24 00 18  0.0000000  0  7G16G18G21G22G27G29G31
  21493065.960   112946845.99609  21493062.380    88010523.58048
  22780001.380   119709752.37108  22779998.120    93280336.95546
  21518556.920   113080785.65909  21518553.480    88114887.11248
  23849026.960   125327514.40108  23849024.440    97657815.91446
  22481024.740   118138626.93108  22481025.040    92056082.93148
  24473882.000   128611102.58707  24473881.280   100216431.05345
  22768549.620   119649518.81309  22768547.440    93233373.27847
 15 02 24 00 18 30.0000000  0  7G16G18G21G22G27G29G31
  21480659.520   112881649.67109  21480655.980    87959721.25748
  22769475.380   119654438.58308  22769472.280    93237235.33246
  21527196.320   113126185.73709  21527192.900    88150263.79248
  23832031.060   125238201.22908  23832028.560    97588221.37246
  22470130.980   118081380.01909  22470131.200    92011474.97248
  24488256.960   128686641.11607  24488255.860   100275292.20145
  22786077.400   119741627.45109  22786075.220    93305146.16948
 15 02 24 00 19  0.0000000  0  7G16G18G21G22G27G29G31
  21468302.660   112816713.66609  21468299.140    87909121.77648
  22759005.960   119599422.01908  22759002.940    93194365.31346
  21535898.340   113171915.24209  21535894.960    88185897.17648
  23815038.340   125148904.32408  23815035.820    97518639.50546
  22459262.900   118024267.49509  22459262.960    91966971.72548
  24502630.040   128762170.35807  24502628.560   100334146.12545
  22803642.880   119833933.89109  22803640.640    93377073.19148
 15 02 24 00 19 30.0000000  0  7G16G18G21G22G27G29G31
  21455994.580   112752034.05609  21455991.100    87858722.08948
  22748592.360   119544698.71208  22748589.440    93151723.79646
  21544661.500   113217966.29009  21544658.180    88221781.11048
  23798048.040   125059620.00208  23798045.500    97449067.43646
  22448419.260   117967282.96809  22448419.160    91922568.22248
  24517000.060   128837684.14107  24516998.360   100392987.99944
  22821244.320   119926429.31809  22821242.020    93449147.47447
 15 02 24 00 20  0.0000000  0  7G16G18G21G22G27G29G31
  21443735.740   112687613.53509  21443732.360    87808524.29548
  22738235.180   119490272.03408  22738232.380    93109313.43246
  21553485.600   113264337.81608  21553482.360    88257914.77348
  23781060.920   124970352.16808  23781058.220    97379508.19546
  22437600.180   117910427.50409  22437599.960    91878265.28048
  24531367.200   128913183.43307  24531365.240   100451818.59145
  22838881.300   120019111.92409  22838879.000    93521367.61748
 15 02 24 00 20 30.0000000  0  7G16G18G21G22G27G29G31
  21431527.460   112623458.80609  21431524.140    87758533.60948
  22727935.820   119436148.71309  22727933.100    93067139.45246
  21562371.140   113311032.33708  21562368.040    88294300.11848
  23764078.180   124881107.53808  23764075.420    97309967.05246
  22426806.380   117853705.27109  22426806.140    91834066.15848
  24545732.320   128988672.67408  24545730.240   100510641.38545
  22856554.080   120111982.91809  22856551.880    93593734.54947
 15 02 24 00 21  0.0000000  0  7G16G18G21G22G27G29G31
  21419369.240   112559567.22809  21419365.980    87708747.96848
  22717693.780   119382326.23309  22717691.040    93025199.88046
  21571316.920   113358043.22509  21571313.900    88330931.97748
  23747099.400   124791883.80408  23747096.560    97240442.17946
  22416036.940   117797111.30609  22416036.700    91789966.98248
  24560094.520   129064147.03608  24560092.560   100569452.54745
  22874261.220   120205034.61409  22874259.060    93666242.28347
 15 02 24 00 21 30.0000000  0  6G16G18G21G22G27G31
  21407263.060   112495949.17009  21407259.860    87659175.46748
  22707511.060   119328815.27809  22707508.200    92983503.06946
  21580324.160   113405376.71709  21580321.100    88367815.22548
  23730126.720   124702692.35208  23730123.880    97170942.47146
  22405293.340   117740653.65109  22405293.160    91745974.03348
  22892003.780   120298272.26209  22892001.680    93738894.92447
 15 02 24 00 22  0.0000000  0  6G16G18G21G22G27G31
  21395207.000   112432594.54909  21395203.880    87609808.23648
  22697385.740   119275605.87109  22697382.820    92942041.21846
  21589390.320   113453019.77709  21589387.240    88404939.68248
  23713158.420   124613523.74908  23713155.540    97101460.55946
  22394573.320   117684320.07309  22394573.220    91702077.76348
  22909778.900   120391680.89609  22909776.820    93811680.79447
 15 02 24 00 22 30.0000000  0  6G16G18G21G22G27G31
  21383202.480   112369510.80209  21383199.440    87560652.08048
  22687319.320   119222705.83909  22687316.240    92900820.44246
  21598515.980   113500975.04809  21598512.780    88442307.42748
  23696195.920   124524385.81408  23696192.980    97032002.54146
  22383877.920   117628115.77709  22383877.940    91658282.23048
  22927587.100   120485263.00909  22927584.960    93884601.85047
 15 02 24 00 23  0.0000000  0  6G16G18G21G22G27G31
  21371250.420   112306702.53409  21371247.420    87511710.58048
  22677312.600   119170119.90209  22677309.400    92859844.41646
  21607701.220   113549243.16609  21607697.860    88479918.94648
  23679240.200   124435283.47908  23679237.140    96962572.27146
  22373207.560   117572043.11609  22373207.720    91614589.27248
  22945428.140   120579017.99109  22945426.080    93957657.60347
 15 02 24 00 23 30.0000000  0  7G16G18G19G21G22G27G31
  21359350.120   112244165.87009  21359347.120    87462980.71848
  22667364.940   119117844.67509  22667361.700    92819110.49846
  24549337.160   129007633.15208  24549335.260   100525420.84245
  21616944.580   113597816.56709  21616941.060    88517768.35248
  23662290.760   124346213.94208  23662287.540    96893167.54146
  22362561.140   117516096.12209  22362561.420    91570994.23448
  22963300.400   120672937.15709  22963298.500    94030841.29047
 15 02 24 00 24  0.0000000  0  7G16G18G19G21G22G27G31
  21347498.740   112181886.24009  21347495.760    87414451.14348
  22657473.620   119065865.51109  22657470.300    92778607.27146
  24534499.140   128929659.58208  24534497.200   100464662.32146
  21626242.380   113646676.50809  21626238.840    88555841.02648
  23645344.840   124257162.71708  23645341.440    96823777.08746
  22351935.440   117460257.75509  22351935.800    91527483.83348
  22981200.120   120767000.72309  22981198.320    94104137.48847
 15 02 24 00 24 30.0000000  0  7G16G18G19G21G22G27G31
  21335704.960   112119909.70709  21335701.980    87366157.75148
  22647647.400   119014228.78609  22647644.080    92738370.88946
  24519684.720   128851809.76008  24519682.640   100404000.22046
  21635602.800   113695865.67609  21635599.240    88594170.24448
  23628411.280   124168176.81608  23628407.880    96754437.53446
  22341338.860   117404572.11709  22341339.200    91484092.44948
  22999135.200   120861249.91309  22999133.420    94177578.33347
 15 02 24 00 25  0.0000000  0  7G16G18G19G21G22G27G31
  21323964.120   112058211.19009  21323961.120    87318080.99748
  22637881.620   118962909.48709  22637878.260    92698381.85146
  24504888.700   128774056.68608  24504886.560   100343413.50846
  21645020.200   113745354.59409  21645016.700    88632733.04448
  23611485.460   124079231.81508  23611482.100    96685129.85146
  22330766.100   117349011.84609  22330766.440    91440798.76048
  23017099.940   120955654.64709  23017098.140    94251140.39647
 15 02 24 00 25 30.0000000  0  7G16G18G19G21G22G27G31
  21312276.800   111996793.98709  21312273.760    87270223.43648
  22628176.860   118911911.02009  22628173.540    92658642.81346
  24490111.320   128696401.41908  24490109.160   100282902.99646
  21654494.560   113795142.95009  21654491.160    88671529.16348
  23594568.120   123990331.34408  23594564.820    96615856.85047
  22320217.360   117293577.87009  22320217.600    91397603.47448
  23035093.900   121050212.89909  23035092.060    94324822.06247
 15 02 24 00 26  0.0000000  0  7G16G18G19G21G22G27G31
  21300644.240   111935664.34809  21300641.140    87222589.96248
  22618534.320   118861239.64009  22618531.200    92619158.65646
  24475353.260   128618847.53208  24475350.960   100222471.48645
  21664026.280   113845232.55509  21664022.880    88710560.02648
  23577660.600   123901482.19708  23577657.240    96546623.83846
  22309693.340   117238274.10209  22309693.540    91354509.66348
  23053117.320   121144925.84809  23053115.340    94398624.28447
 15 02 24 00 26 30.0000000  0  7G16G18G19G21G22G27G31
  21289066.400   111874822.27609  21289063.240    87175180.56548
  22608954.080   118810895.49709  22608951.080    92579929.47946
  24460614.200   128541393.61208  24460611.660   100162117.85545
  21673614.660   113895619.97409  21673611.280    88749822.95648
  23560763.000   123812685.23608  23560759.600    96477431.50746
  22299193.720   117183098.63909  22299193.900    91311515.82448
  23071169.280   121239788.96309  23071167.280    94472543.51347
 15 02 24 00 27  0.0000000  0  7G16G18G19G21G22G27G31
  21277543.720   111814269.96509  21277540.440    87127996.95648
  22599436.660   118760881.05409  22599433.780    92540957.21546
  24445894.060   128464039.33208  24445891.300   100101841.88745
  21683259.280   113946302.68909  21683255.940    88789315.98748
  23543875.840   123723942.96308  23543872.240    96408281.76846
  22288718.540   117128051.21309  22288718.640    91268621.75848
  23089249.220   121334799.21809  23089247.180    94546577.40247
 15 02 24 00 27 30.0000000  0  7G16G18G19G21G22G27G31
  21266076.020   111754006.45909  21266072.620    87081038.38048
  22589981.900   118711195.60809  22589979.080    92502241.30446
  24431192.380   128386781.98408  24431189.440   100041641.42246
  21692959.200   113997275.93909  21692955.840    88829035.39748
  23526999.160   123635255.45008  23526995.380    96339174.69946
  22278267.180   117073128.85909  22278267.220    91225825.14348
  23107355.980   121429950.50909  23107353.960    94620721.17347
 15 02 24 00 28  0.0000000  0  7G16G18G19G21G22G27G31
  21254665.020   111694041.11009  21254661.540    87034312.14648
  22580591.500   118661848.66209  22580588.740    92463789.17546
  24416510.460   128309628.49408  24416507.400    99981521.90546
  21702715.600   114048545.83609  21702712.180    88868985.96448
  23510134.700   123546632.29908  23510130.820    96270117.78646
  22267841.020   117018338.66909  22267840.980    91183131.51948
  23125490.400   121525246.99509  23125488.360    94694978.09847
 15 02 24 00 28 30.0000000  0  7G16G18G19G21G22G27G31
  21243310.180   111634370.83409  21243306.640    86987815.83548
  22571264.880   118612836.95709  22571262.120    92425598.26246
  24401847.280   128232573.70908  24401844.240    99921479.30446
  21712527.080   114100105.09909  21712523.560    88909162.01748
  23493282.040   123458071.07808  23493278.020    96201109.12746
  22257438.960   116963675.14109  22257438.840    91140536.58548
  23143650.840   121620680.47309  23143648.800    94769341.75747
 15 02 24 00 29  0.0000000  0  7G16G18G19G21G22G27G31
  21232012.120   111574999.16709  21232008.580    86941552.20748
  22562002.800   118564164.31909  22562000.020    92387671.56046
  24387203.200   128155619.18808  24387200.280    99861514.82646
  21722393.520   114151953.31809  21722389.960    88949563.22248
  23476442.020   123369576.18608  23476438.020    96132152.15246
  22247061.300   116909139.90409  22247061.100    91098041.61848
  23161837.140   121716249.86509  23161835.200    94843811.31647
 15 02 24 00 29 30.0000000  0  7G16G18G19G21G22G27G31
  21220771.100   111515927.41309  21220767.540    86895522.27748
  22552805.480   118515831.88709  22552802.640    92350009.95346
  24372578.060   128078764.00508  24372575.180    99801627.75246
  21732314.400   114204087.79209  21732310.820    88990187.48348
  23459614.940   123281149.33408  23459610.960    96063248.19547
  22236707.820   116854731.91309  22236707.580    91055645.80348
  23180048.580   121811951.26509  23180046.700    94918383.74847
 15 02 24 00 30  0.0000000  0  7G16G18G19G21G22G27G31
  21209587.400   111457156.98309  21209583.900    86849727.14148
  22543673.160   118467841.24809  22543670.420    92312614.67547
  24357971.820   128002007.53308  24357968.880    99741817.58446
  21742289.160   114256505.67809  21742285.580    89031032.58548
  23442801.140   123192792.41808  23442797.280    95994398.73047
  22226378.400   116800450.30709  22226378.060    91013348.46448
  23198284.380   121907780.93909  23198282.500    94993056.12047
 15 02 24 00 30 30.0000000  0  7G16G18G19G21G22G27G31
  21198461.840   111398692.23309  21198458.440    86804170.20548
  22534606.700   118420196.56609  22534604.020    92275488.97346
  24343384.720   127925351.61308  24343381.660    99682085.78846
  21752317.760   114309206.77309  21752314.240    89072098.38048
  23426001.620   123104510.41808  23425997.820    95925607.64146
  22216073.460   116746297.21209  22216073.000    90971151.26748
  23216544.460   122003738.26209  23216542.640    95067827.96647
 15 02 24 00 31  0.0000000  0  7G16G18G19G21G22G27G31
  21187394.980   111340535.89609  21187391.680    86758853.58348
  22525606.640   118372900.63409  22525603.960    92238635.02747
  24328816.760   127848796.85308  24328813.760    99622432.81446
  21762400.100   114362190.46309  21762396.620    89113384.37248
  23409216.940   123016306.67408  23409213.180    95856877.53347
  22205793.020   116692273.04309  22205792.480    90929054.53548
  23234828.420   122099820.88109  23234826.700    95142697.43747
 15 02 24 00 31 30.0000000  0  7G16G18G19G21G22G27G31
  21176386.880   111282688.51809  21176383.700    86713777.72148
  22516673.080   118325954.21509  22516670.460    92202053.42546
  24314267.760   127772342.15408  24314264.840    99562857.82046
  21772535.520   114415453.16709  21772532.120    89154887.77848
  23392447.420   122928182.83708  23392443.820    95788209.70547
  22195536.800   116638376.49509  22195536.300    90887057.24648
  23253135.320   122196024.41608  23253133.720    95217661.12947
 15 02 24 00 32  0.0000000  0  7G16G18G19G21G22G27G31
  21165437.940   111225151.96809  21165434.880    86668944.05348
  22507806.420   118279359.28709  22507803.840    92165745.71147
  24299737.780   127695987.34208  24299735.020    99503360.66746
  21782723.800   114468993.32109  21782720.480    89196607.37848
  23375693.540   122840141.08408  23375690.020    95719605.83847
  22185304.720   116584607.12209  22185304.380    90845159.05348
  23271464.680   122292345.79009  23271463.180    95292716.64247
 15 02 24 00 32 30.0000000  0  7G16G18G19G21G22G27G31
  21154548.520   111167928.11609  21154545.540    86624354.03848
  22499006.980   118233117.37109  22499004.320    92129713.06847
  24285226.580   127619731.15008  24285223.980    99443940.34546
  21792964.340   114522807.98409  21792961.100    89238540.87448
  23358955.800   122752183.78508  23358952.280    95651067.76447
  22175096.680   116530964.31909  22175096.480    90803359.48948
  23289815.880   122388781.47909  23289814.420    95367861.22547
 15 02 24 00 33  0.0000000  0  7G16G18G19G21G22G27G31
  21143719.120   111111019.70009  21143716.240    86580009.82848
  22490275.240   118187231.13209  22490272.460    92093957.58547
  24270734.460   127543574.67608  24270731.820    99384597.72146
  21803257.000   114576896.11709  21803253.800    89280687.47548
  23342234.760   122664314.01408  23342231.140    95582597.89247
  22164912.780   116477448.66409  22164912.740    90761659.00848
  23308188.360   122485328.91909  23308187.000    95443092.88647
 15 02 24 00 33 30.0000000  0  7G16G18G19G21G22G27G31
  21132950.240   111054429.19509  21132947.460    86535913.33348
  22481611.720   118141703.80909  22481608.920    92058481.76647
  24256261.520   127467518.67208  24256258.720    99325333.38746
  21813601.540   114631256.76909  21813598.300    89323046.42048
  23325531.060   122576535.59408  23325527.440    95514199.20347
  22154753.240   116424060.95609  22154753.340    90720058.21548
  23326581.820   122581986.66609  23326580.460    95518410.48947
 15 02 24 00 34  0.0000000  0  7G16G18G19G21G22G27G31
  21122242.260   110998158.51109  21122239.540    86492066.05448
  22473016.720   118096536.40109  22473013.820    92023286.40147
  24241807.480   127391562.35708  24241804.700    99266146.72146
  21823997.460   114685887.57309  21823994.220    89365615.87648
  23308845.100   122488850.44508  23308841.480    95445873.19147
  22144617.980   116370800.48909  22144618.160    90678556.57648
  23344995.520   122678750.81608  23344994.220    95593811.01147
 15 02 24 00 34 30.0000000  0  7G16G18G19G21G22G27G31
  21111595.820   110942210.90509  21111593.100    86448470.52448
  22464490.840   118051732.56009  22464487.900    91988374.34347
  24227372.660   127315707.35008  24227369.900    99207039.00946
  21834444.660   114740787.93009  21834441.400    89408395.37548
  23292177.620   122401262.82408  23292174.020    95377623.18547
  22134507.340   116317668.48109  22134507.480    90637155.03648
  23363429.200   122775619.86708  23363427.920    95669293.27147
 15 02 24 00 35  0.0000000  0  7G16G18G19G21G22G27G31
  21101011.540   110886589.75509  21101008.780    86405129.38148
  22456034.620   118007295.08109  22456031.720    91953747.75947
  24212957.200   127239954.10308  24212954.420    99148010.57446
  21844942.900   114795956.69309  21844939.640    89451384.02348
  23275529.320   122313776.23708  23275525.800    95309451.89447
  22124421.440   116264665.89109  22124421.420    90595854.33548
  23381882.480   122872591.89008  23381881.200    95744855.76847
 15 02 24 00 35 30.0000000  0  7G16G18G19G21G22G27G31
  21090489.080   110831293.34409  21090486.260    86362041.27348
  22447647.820   117963222.71509  22447645.000    91919405.67647
  24198560.460   127164299.49108  24198557.700    99089058.98846
  21855491.200   114851388.45709  21855487.920    89494577.60248
  23258900.160   122226390.32308  23258896.760    95241359.05447
  22114359.520   116211789.17209  22114359.280    90554651.71148
  23400354.060   122969660.53808  23400352.900    95820493.54747
 15 02 24 00 36  0.0000000  0  7G16G18G19G21G22G27G31
  21080028.920   110776324.33309  21080026.000    86319208.28148
  22439330.940   117919517.87009  22439328.240    91885349.97547
  24184182.600   127088743.69508  24184179.800    99030184.40346
  21866089.300   114907081.90908  21866086.020    89537975.09148
  23242290.820   122139108.31208  23242287.420    95173347.16747
  22104321.560   116159038.74009  22104321.240    90513547.49748
  23418843.580   123066823.40008  23418842.480    95896204.74147
 15 02 24 00 36 30.0000000  0  7G16G18G19G21G22G27G31
  21069631.480   110721685.03909  21069628.480    86276632.21248
  22431084.480   117876182.98709  22431081.900    91851582.55647
  24169823.640   127013287.16608  24169820.860    98971387.17946
  21876736.920   114963035.44609  21876733.640    89581575.24748
  23225701.880   122051933.04608  23225698.460    95105418.46647
  22094307.600   116106414.69109  22094307.180    90472541.76148
  23437350.500   123164077.51908  23437349.400    95971987.03547
 15 02 24 00 37  0.0000000  0  7G16G18G19G21G22G27G31
  21059297.680   110667380.35609  21059294.640    86234316.88148
  22422909.200   117833222.18109  22422906.680    91818106.62947
  24155484.020   126937932.27208  24155481.140    98912669.13446
  21887434.180   115019249.81909  21887430.880    89625378.65148
  23209134.280   121964869.73609  23209130.800    95037577.00247
  22084318.100   116053919.74009  22084317.700    90431636.61948
  23455874.820   123261422.81908  23455873.720    96047840.39047
 15 02 24 00 37 30.0000000  0  7G16G18G19G21G22G27G31
  21049027.180   110613408.62009  21049024.140    86192260.98648
  22414804.800   117790634.08609  22414802.340    91784921.11647
  24141163.020   126862675.42708  24141160.120    98854027.48946
  21898180.040   115075719.39709  21898176.720    89669380.91348
  23192587.880   121877917.65709  23192584.320    94969822.19247
  22074352.400   116001550.16909  22074352.100    90390829.17748
  23474415.200   123358852.79208  23474414.080    96123759.70447
 15 02 24 00 38  0.0000000  0  7G16G18G19G21G22G27G31
  21038820.960   110559774.86609  21038817.940    86150468.46148
  22406772.320   117748423.73609  22406769.880    91752029.96547
  24126861.260   126787519.66208  24126858.400    98795464.60546
  21908974.700   115132445.23509  21908971.280    89713582.86748
  23176063.620   121791082.44208  23176059.980    94902158.46647
  22064411.120   115949308.84709  22064410.880    90350121.68048
  23492971.760   123456367.47708  23492970.560    96199745.05647
 15 02 24 00 38 30.0000000  0  7G16G18G19G21G22G27G31
  21028678.980   110506478.68209  21028675.960    86108938.96948
  22398811.680   117706590.61709  22398809.220    91719432.75447
  24112578.200   126712462.14308  24112575.420    98736978.29845
  21919817.340   115189423.18609  21919813.860    89757981.26648
  23159561.620   121704364.55608  23159557.980    94834586.14547
  22054493.780   115897193.20809  22054493.580    90309512.10948
  23511543.440   123553961.48108  23511542.160    96275792.19347
 15 02 24 00 39  0.0000000  0  7G16G18G19G21G22G27G31
  21018602.360   110453526.02909  21018599.380    86067677.16348
  22390923.800   117665140.04209  22390921.380    91687133.63047
  24098314.560   126637506.76808  24098311.820    98678571.56446
  21930708.180   115246654.82009  21930704.700    89802577.33548
  23143083.140   121617770.63708  23143079.620    94767110.43747
  22044601.080   115845207.03609  22044600.960    90269003.41748
  23530130.360   123651635.65108  23530129.060    96351901.79446
 15 02 24 00 39 30.0000000  0  7G16G18G19G21G22G27G31
  21008590.560   110400913.83809  21008587.640    86026680.65948
  22383108.200   117624069.39409  22383105.820    91655130.55247
  24084069.500   126562648.52508  24084066.680    98620240.51246
  21941645.920   115304133.08209  21941642.500    89847365.58648
  23126627.680   121531297.89008  23126624.320    94699729.15247
  22034732.060   115793345.25909  22034732.020    90228591.66148
  23548731.060   123749381.98308  23548729.740    96428067.63447
 15 02 24 00 40  0.0000000  0  7G16G18G19G21G22G27G31
  20998644.660   110348647.74409  20998641.700    85985953.82948
  22375365.940   117583383.90609  22375363.560    91623427.58647
  24069843.580   126487890.81708  24069840.680    98561987.79746
  21952630.940   115361860.28208  21952627.640    89892347.81448
  23110196.600   121444953.03108  23110193.340    94632447.50947
  22024887.440   115741611.41109  22024887.420    90188279.59048
  23567345.620   123847201.29908  23567344.240    96504290.33347
 15 02 24 00 40 30.0000000  0  7G16G18G19G21G22G27G31
  20988764.540   110296727.37909  20988761.500    85945496.40948
  22367696.900   117543083.19109  22367694.540    91592024.45647
  24055636.480   126413231.25108  24055633.340    98503811.55146
  21963662.440   115419831.81108  21963659.260    89937520.42848
  23093790.020   121358736.10509  23093786.660    94565265.54447
  22015066.680   115690002.97409  22015066.620    90148065.23848
  23585973.060   123945088.14308  23585971.580    96580565.65647
 15 02 24 00 41  0.0000000  0  7G16G18G19G21G22G27G31
  20978951.220   110245158.00509  20978948.140    85905312.49048
  22360102.020   117503171.86409  22360099.660    91560924.74847
  24041448.520   126338672.76308  24041445.360    98445714.06546
  21974740.600   115478048.77508  21974737.560    89982884.29648
  23077408.980   121272653.06109  23077405.480    94498187.91347
  22005270.440   115638522.98909  22005270.220    90107950.97848
  23604613.340   124043042.75008  23604611.820    96656893.77847
 15 02 24 00 41 30.0000000  0  7G16G18G19G21G22G27G31
  20969204.600   110193939.12609  20969201.540    85865401.67648
  22352581.200   117463649.30709  22352578.740    91530127.95847
  24027279.260   126264212.72508  24027276.140    98387693.28946
  21985864.620   115536506.67508  21985861.700    90028435.90248
  23061053.540   121186704.20809  23061049.860    94431214.83847
  21995498.160   115587168.97409  21995497.780    90067934.87948
  23623265.420   124141059.56409  23623263.940    96733270.36147
 15 02 24 00 42  0.0000000  0  7G16G18G19G21G22G27G31
  20959525.500   110143075.12309  20959522.480    85825767.39848
  22345135.240   117424520.05809  22345132.640    91499637.66347
  24013129.200   126189853.45808  24013126.100    98329751.04846
  21997034.560   115595205.42708  21997031.640    90074175.19148
  23044724.640   121100894.65709  23044720.760    94364350.30847
  21985750.300   115535943.23809  21985749.760    90028018.73748
  23641929.240   124239138.23508  23641927.800    96809695.14747
 15 02 24 00 42 30.0000000  0  7G16G18G19G21G22G27G31
  20949913.520   110092563.92709  20949910.520    85786408.02848
  22337763.620   117385781.55009  22337760.760    91469451.82947
  23998997.560   126115590.70808  23998994.460    98271884.01746
  22008249.460   115654140.28408  22008246.460    90120098.46147
  23028421.880   121015222.61509  23028417.920    94297592.94147
  21976026.060   115484841.59909  21976025.400    89988199.28548
  23660603.500   124337271.82108  23660602.160    96886162.72146
 15 02 24 00 43  0.0000000  0  7G16G18G19G21G22G27G31
  20940370.140   110042413.25609  20940367.140    85747329.58148
  22330467.680   117347440.89809  22330464.660    91439576.00247
  23984885.360   126041430.08408  23984882.100    98214096.53546
  22019509.820   115713313.79108  22019506.700    90166207.67147
  23012146.980   120929697.01809  23012142.920    94230949.66547
  21966326.380   115433869.41609  21966325.720    89948480.70648
  23679288.680   124435462.60308  23679287.440    96962674.85746
 15 02 24 00 43 30.0000000  0  7G16G18G19G21G22G27G31
  20930894.980   109992621.02709  20930891.980    85708530.44448
  22323247.080   117309496.31009  22323243.940    91410008.81847
  23970791.740   125967367.55608  23970788.400    98156385.51046
  22030814.660   115772720.78209  22030811.460    90212498.82547
  22995899.600   120844316.55209  22995895.480    94164419.49647
  21956650.540   115383023.00409  21956650.040    89908860.14448
  23697983.520   124533704.23508  23697982.340    97039226.61846
 15 02 24 00 44  0.0000000  0  7G16G18G19G21G22G27G31
  20921489.020   109943192.61309  20921486.060    85670014.80548
  22316102.860   117271953.00509  22316099.580    91380754.30447
  23956717.460   125893406.66608  23956713.840    98098753.68346
  22042164.200   115832362.28209  22042160.820    90258972.71847
  22979680.900   120759087.15009  22979676.860    94098007.02947
  21946999.260   115332305.73209  21946998.980    89869340.21048
  23716688.100   124631997.08808  23716687.000    97115818.28446
 15 02 24 00 44 30.0000000  0  7G16G18G19G21G22G27G31
  20912152.100   109894126.95609  20912149.180    85631781.82748
  22309034.620   117234809.16109  22309031.280    91351811.06347
  23942661.720   125819543.63408  23942658.000    98041198.09646
  22053557.420   115892233.24509  22053553.860    90305625.40348
  22963490.780   120674008.09908  22963486.740    94031711.71147
  21937371.840   115281713.93909  21937371.760    89829918.05048
  23735401.140   124730334.36108  23735400.220    97192444.56346
 15 02 24 00 45  0.0000000  0  7G16G18G19G21G22G27G31
  20902885.160   109845428.76609  20902882.260    85593835.18648
  22302043.280   117198069.68409  22302039.980    91323182.91247
  23928625.160   125745781.67308  23928621.380    97983721.28246
  22064994.520   115952334.87309  22064990.780    90352457.83647
  22947330.360   120589085.18409  22947326.340    93965538.06547
  21927768.920   115231250.68509  21927768.920    89790596.04848
  23754122.780   124828716.70208  23754122.040    97269105.96047
 15 02 24 00 45 30.0000000  0  7G16G18G19G21G22G27G31
  20893688.140   109797098.21809  20893685.260    85556175.02048
  22295128.820   117161734.30909  22295125.540    91294869.65147
  23914607.380   125672118.28108  23914603.580    97926321.26746
  22076474.660   116012663.06908  22076470.860    90399466.81447
  22931199.760   120504318.85809  22931195.740    93899486.43247
  21918190.180   115180914.20809  21918190.160    89751372.83848
  23772852.080   124927139.30508  23772851.480    97345798.71847
 15 02 24 00 46  0.0000000  0  7G16G18G19G21G22G27G31
  20884561.940   109749139.65809  20884559.060    85518804.71848
  22288291.920   117125806.44609  22288288.680    91266873.93247
  23900608.860   125598555.96408  23900605.020    97869000.02646
  22087997.940   116073218.11409  22087994.200    90446652.56348
  22915100.060   120419714.79109  22915096.080    93833561.24347
  21908636.020   115130706.64609  21908635.900    89712250.07248
  23791588.920   125025601.48808  23791588.420    97422522.32447
 15 02 24 00 46 30.0000000  0  7G16G18G19G21G22G27G31
  20875506.260   109701551.46009  20875503.340    85481723.00148
  22281532.340   117090284.76309  22281529.080    91239194.70947
  23886628.960   125525091.04608  23886625.040    97811754.67046
  22099563.420   116133994.92208  22099559.740    90494011.10548
  22899031.060   120335271.99709  22899027.100    93767761.70847
  21899105.720   115080624.36309  21899105.500    89673224.92148
  23810332.120   125124096.70208  23810331.680    97499271.65747
 15 02 24 00 47  0.0000000  0  7G16G18G19G21G22G27G31
  20866522.380   109654340.56809  20866519.380    85444935.29548
  22274851.360   117055175.95509  22274848.040    91211837.21447
  23872668.360   125451728.17308  23872664.640    97754588.84346
  22111171.480   116194996.05708  22111167.960    90541544.45647
  22882994.260   120250998.18109  22882990.260    93702093.84447
  21889600.280   115030672.38209  21889599.920    89634301.30848
  23829082.000   125222627.05608  23829081.540    97576048.37647
 15 02 24 00 47 30.0000000  0  7G16G18G19G21G22G27G31
  20857610.040   109607505.71609  20857606.960    85408440.61448
  22268248.580   117020478.13309  22268245.240    91184799.97147
  23858726.580   125378464.33408  23858722.980    97697500.17646
  22122821.260   116256216.50308  22122817.900    90589248.70048
  22866989.460   120166892.25309  22866985.420    93636556.81047
  21880118.940   114980847.23609  21880118.520    89595476.53348
  23847837.300   125321186.05308  23847836.800    97652847.41446
 15 02 24 00 48  0.0000000  0  7G16G18G19G21G22G27G31
  20848769.660   109561049.16909  20848766.540    85372240.70948
  22261724.420   116986193.38509  22261721.040    91158084.59447
  23844803.800   125305299.96008  23844800.200    97640489.01446
  22134512.520   116317654.94408  22134509.260    90637122.80348
  22851017.340   120082957.90909  22851013.280    93571153.46747
  21870661.800   114931149.49109  21870661.300    89556751.02348
  23866597.620   125419771.79808  23866597.260    97729667.27446
 15 02 24 00 48 30.0000000  0  7G16G18G19G21G22G27G31
  20840001.440   109514971.75409  20839998.260    85336336.23848
  22255278.920   116952322.40109  22255275.540    91131691.63747
  23830899.660   125232233.34508  23830896.120    97583554.03246
  22146244.720   116379308.41808  22146241.580    90685164.46947
  22835078.080   119999196.16209  22835073.960    93505884.62047
  21861228.680   114881577.89009  21861228.100    89518123.82048
  23885362.160   125518379.94008  23885361.920    97806504.59346
 15 02 24 00 49  0.0000000  0  7G16G18G19G21G22G27G31
  20831306.220   109469277.98609  20831302.900    85300730.70248
  22248912.840   116918868.82709  22248909.440    91105623.92147
  23817014.600   125159266.73908  23817010.940    97526696.97646
  22158017.760   116441176.57509  22158014.700    90733373.41947
  22819172.760   119915612.60009  22819168.560    93440754.61147
  21851820.000   114832134.81609  21851819.340    89479596.75248
  23904130.960   125617009.82708  23904130.680    97883358.86046
 15 02 24 00 49 30.0000000  0  7G16G18G19G21G22G27G31
  20822684.340   109423969.59809  20822680.900    85265425.47148
  22242626.540   116885834.26809  22242623.120    91079882.71747
  23803148.580   125086400.32808  23803144.880    97469917.99946
  22169831.520   116503258.36909  22169828.460    90781748.83947
  22803301.840   119832209.96909  22803297.580    93375765.59947
  21842435.760   114782820.42909  21842435.100    89441169.96748
  23922903.440   125715658.99808  23922903.120    97960228.13946
 15 02 24 00 50  0.0000000  0  7G16G18G19G21G22G27G31
  20814135.720   109379046.18109  20814132.200    85230420.21948
  22236419.820   116853217.88209  22236416.420    91054467.37347
  23789301.060   125013631.30308  23789297.300    97413214.91646
  22181685.060   116565548.70909  22181681.920    90830286.77447
  22787465.200   119748988.02909  22787461.020    93310917.38947
  21833075.400   114733631.85709  21833074.780    89402841.22848
  23941678.520   125814321.64808  23941678.140    98037107.91346
 15 02 24 00 50 30.0000000  0  7G16G18G19G21G22G27G31
  20805661.440   109334513.30809  20805657.820    85195719.28948
  22230293.680   116821024.75409  22230290.300    91029381.83847
  23775472.820   124940963.50608  23775468.980    97356590.71046
  22193578.660   116628049.38609  22193575.360    90878988.60747
  22771664.120   119665953.28509  22771660.080    93246215.05547
  21823739.660   114684573.02409  21823739.160    89364613.58848
  23960456.400   125912998.78608  23960455.900    98113999.00346
 15 02 24 00 51  0.0000000  0  7G16G18G19G21G22G27G31
  20797261.020   109290368.58209  20797257.300    85161320.78948
  22224247.540   116789252.20009  22224244.160    91004624.00547
  23761662.920   124868392.61708  23761659.140    97300041.99446
  22205511.160   116690754.32409  22205507.660    90927849.58147
  22755898.240   119583103.79609  22755894.340    93181657.04447
  21814427.840   114635639.71309  21814427.440    89326483.74048
  23979235.660   126011683.21808  23979235.060    98190895.74046
 15 02 24 00 51 30.0000000  0  7G16G18G19G21G22G27G31
  20788936.440   109246622.60909  20788932.760    85127233.02248
  22218283.360   116757910.11709  22218279.960    90980201.62047
  23747872.900   124795926.60508  23747869.340    97243575.03346
  22217483.880   116753670.70909  22217480.200    90976875.34447
  22740169.880   119500451.67109  22740166.100    93117252.85247
  21805141.580   114586840.40009  21805141.280    89288458.31548
  23998017.380   126110380.71608  23998016.760    98267802.67746
 15 02 24 00 52  0.0000000  0  7G16G18G19G21G22G27G31
  20780686.080   109203266.92409  20780682.480    85093449.37548
  22212399.540   116726990.08809  22212396.100    90956108.10747
  23734101.020   124723555.57808  23734097.620    97187182.07846
  22229494.420   116816786.45509  22229490.700    91026056.44047
  22724477.600   119417989.03409  22724473.860    93052996.28747
  21795878.980   114538164.97109  21795878.680    89250529.42048
  24016799.120   126209078.34908  24016798.580    98344709.69646
 15 02 24 00 52 30.0000000  0  7G16G18G19G21G22G27G31
  20772511.080   109160307.19809  20772507.580    85059974.26048
  22206597.020   116696497.30809  22206593.460    90932347.50547
  23720348.020   124651282.97808  23720344.500    97130865.79947
  22241543.120   116880102.91109  22241539.460    91075393.93347
  22708822.580   119335721.99009  22708818.860    92988892.14247
  21786640.640   114489617.09109  21786640.360    89212699.90748
  24035581.020   126307776.76208  24035580.540    98421617.30646
 15 02 24 00 53  0.0000000  0  7G16G18G19G21G22G27G31
  20764412.260   109117747.82709  20764408.880    85026811.11448
  22200876.600   116666435.57009  22200872.920    90908922.78747
  23706614.300   124579111.35408  23706610.660    97074628.20946
  22253630.020   116943620.20708  22253626.440    91124887.92947
  22693205.920   119253655.96709  22693202.100    92924944.63047
  21777427.040   114441199.20909  21777426.720    89174971.69848
  24054362.960   126406475.65608  24054362.460    98498525.29447
 15 02 24 00 53 30.0000000  0  7G16G18G19G21G22G27G31
  20756389.240   109075586.66409  20756385.960    84993958.27049
  22195237.720   116636802.26309  22195233.920    90885831.91647
  23692899.100   124507036.64508  23692895.280    97018466.13946
  22265754.040   117007332.81408  22265750.580    91174534.11747
  22677627.320   119171789.87109  22677623.340    92861152.90847
  21768237.360   114392907.45109  21768237.040    89137341.76948
  24073143.600   126505167.92508  24073143.080    98575428.11546
 15 02 24 00 54  0.0000000  0  7G16G18G19G21G22G27G31
  20748443.260   109033830.16809  20748440.040    84961420.74748
  22189681.520   116607603.24909  22189677.560    90863079.45747
  23679203.080   124435062.67108  23679199.080    96962382.57446
  22277915.740   117071243.58808  22277912.480    91224334.72047
  22662088.040   119090130.50909  22662083.940    92797522.28147
  21759072.580   114344746.29709  21759072.200    89099813.61348
  24091923.400   126603855.52908  24091922.900    98652327.30746
 15 02 24 00 54 30.0000000  0  7G16G18G19G21G22G27G31
  20740573.900   108992475.97109  20740570.660    84929196.69848
