     2.11           OBSERVATION DATA    G                   RINEX VERSION / TYPE
SPIDER V4,0,0,3554                      2015 03 24 02:53    PGM / RUN BY / DATE 
OJGS                                                        MARKER NAME         
OJGS                                                        MARKER NUMBER       
                                                            OBSERVER / AGENCY   
496552              LEICA GRX1200+GNSS  8.20/4.007          REC # / TYPE / VERS 
10401003            LEIAR25         NONE                    ANT # / TYPE        
  5198100.9450    88691.2920  3684205.7148                  APPROX POSITION XYZ 
        0.1200        0.0000        0.0000                  ANTENNA: DELTA H/E/N
     1     1                                                WAVELENGTH FACT L1/2
     4    C1    L1    P2    L2                              # / TYPES OF OBSERV 
    30.000                                                  INTERVAL            
  2015    02    24    00    00    0.0000000     GPS         TIME OF FIRST OBS   
  2015    02    24    23    59   30.0000000     GPS         TIME OF LAST OBS    
    16                                                      LEAP SECONDS        
    30                                                      # OF SATELLITES     
   G 1   833   833   833   833                              PRN / # OF OBS      
   G 2   925   925   925   925                              PRN / # OF OBS      
   G 3   839   839   839   839                              PRN / # OF OBS      
   G 4   845   845   845   845                              PRN / # OF OBS      
   G 5   674   674   673   673                              PRN / # OF OBS      
   G 6   730   730   730   730                              PRN / # OF OBS      
   G 7   726   724   724   724                              PRN / # OF OBS      
   G 9   783   783   783   783                              PRN / # OF OBS      
   G10   784   784   784   784                              PRN / # OF OBS      
   G11   798   798   798   798                              PRN / # OF OBS      
   G12   811   811   810   810                              PRN / # OF OBS      
   G13   822   821   821   821                              PRN / # OF OBS      
   G14   933   933   933   933                              PRN / # OF OBS      
   G15   732   732   732   732                              PRN / # OF OBS      
   G16   693   693   693   693                              PRN / # OF OBS      
   G17   930   929   929   929                              PRN / # OF OBS      
   G18   940   940   940   940                              PRN / # OF OBS      
   G19   783   783   783   783                              PRN / # OF OBS      
   G20   809   809   808   808                              PRN / # OF OBS      
   G21   680   680   679   679                              PRN / # OF OBS      
   G22   804   804   803   803                              PRN / # OF OBS      
   G23   727   727   727   727                              PRN / # OF OBS      
   G24   842   841   841   841                              PRN / # OF OBS      
   G25   830   830   829   829                              PRN / # OF OBS      
   G27   832   832   831   831                              PRN / # OF OBS      
   G28   913   912   912   912                              PRN / # OF OBS      
   G29   719   719   719   719                              PRN / # OF OBS      
   G30   691   691   691   691                              PRN / # OF OBS      
   G31   761   761   761   761                              PRN / # OF OBS      
   G32   740   740   740   740                              PRN / # OF OBS      
BIT 2 OF LLI FLAGS DATA COLLECTED UNDER A/S CONDITION       COMMENT             
SNR is mapped to RINEX snr flag value [2-9]                 COMMENT             
Lx:     = 25dBHz -> 1; 26-27dBHz -> 2; 28-31dBHz -> 3       COMMENT             
       32-35dBHz -> 4; 36-38dBHz -> 5; 39-41dBHz -> 6       COMMENT             
       42-44dBHz -> 7; 45-48dBHz -> 8; >=49dBHz -> 9        COMMENT             
                                                            END OF HEADER       
 15 02 24 00 00  0.0000000  0  8G16G18G21G22G25G27G29G31
  21965427.580   115429119.18209  21965423.980    89944767.26447
  23176209.880   121791830.88808  23176207.780    94902728.14646
  21189271.840   111350381.33908  21189268.640    86766520.71348
  24543238.180   128975587.39408  24543236.980   100500450.28845
  24683116.480   129710636.04508  24683117.980   101073221.67245
  22990627.260   120816588.94108  22990626.980    94142810.33847
  23791808.440   125026783.88408  23791806.700    97423456.56646
  22295908.280   117165777.89009  22295905.680    91297994.45748
 15 02 24 00 00 30.0000000  0  8G16G18G21G22G25G27G29G31
  21951355.720   115355171.12409  21951352.160    89887145.42447
  23163514.180   121725114.66308  23163512.120    94850741.50146
  21194876.840   111379835.48408  21194873.520    86789471.99948
  24526140.020   128885735.97507  24526138.520   100430436.41846
  24701371.620   129806567.20308  24701373.120   101147973.15945
  22978258.180   120751590.15108  22978258.120    94092161.95947
  23806293.460   125102902.02708  23806291.840    97482769.37047
  22312012.800   117250407.68209  22312010.220    91363939.72148
 15 02 24 00 01  0.0000000  0  8G16G18G21G22G25G27G29G31
  21937321.880   115281422.49209  21937318.240    89829678.96347
  23150857.300   121658602.46508  23150855.260    94798913.84546
  21200556.200   111409680.27908  21200552.780    86812727.68948
  24509026.120   128795802.91108  24509024.660   100360358.95845
  24719655.840   129902651.07908  24719657.180   101222843.67444
  22965914.100   120686722.25608  22965914.180    94041615.57147
  23820779.740   125179027.80608  23820778.380    97542088.09147
  22328171.520   117335322.25309  22328168.980    91430106.88648
 15 02 24 00 01 30.0000000  0  8G16G18G21G22G25G27G29G31
  21923325.340   115207870.73009  21923321.860    89772365.92847
  23138238.780   121592292.00208  23138236.760    94747243.37346
  21206308.560   111439908.89008  21206305.100    86836282.46048
  24491896.240   128705785.74908  24491894.780   100290215.90945
  24737968.060   129998881.69308  24737969.120   101297828.51945
  22953594.100   120621980.27608  22953594.260    93991167.30747
  23835266.300   125255156.34608  23835265.020    97601408.98046
  22344383.020   117420514.07709  22344380.460    91496490.09847
 15 02 24 00 02  0.0000000  0  8G16G18G21G22G25G27G29G31
  21909367.060   115134520.43509  21909363.660    89715209.87547
  23125659.680   121526188.47209  23125657.660    94695734.15346
  21212134.260   111470522.98509  21212130.780    86860137.59048
  24474751.360   128615689.78108  24474749.880   100220011.47645
  24756308.540   130095260.63808  24756309.380   101372928.92444
  22941298.700   120557366.89808  22941298.960    93940819.23647
  23849754.180   125331290.19908  23849752.160    97660734.10745
  22360647.240   117505982.95109  22360644.600    91563089.18648
 15 02 24 00 02 30.0000000  0  8G16G18G21G22G25G27G29G31
  21895447.160   115061371.24809  21895443.820    89658210.51747
  23113119.980   121460291.95608  23113117.980    94644386.24846
  21218032.460   111501518.19009  21218028.960    86884289.70548
  24457591.520   128525515.09908  24457590.120   100149745.69545
  24774676.520   130191784.24708  24774677.200   101448142.09744
  22929027.240   120492879.54408  22929027.620    93890569.38147
  23864242.700   125407426.51908  23864240.460    97720061.15546
  22376963.180   117591723.79709  22376960.520    91629900.20947
 15 02 24 00 03  0.0000000  0  8G16G18G21G22G25G27G29G31
  21881567.420   114988432.64309  21881564.040    89601375.25447
  23100621.660   121394612.99108  23100619.740    94593207.86246
  21224004.420   111532901.29908  21224000.940    86908744.08948
  24440418.660   128435271.71808  24440417.040   100079426.37945
  24793073.120   130288459.01908  24793073.940   101523473.06444
  22916781.180   120428525.85208  22916781.480    93840423.68547
  23878732.800   125483572.50308  23878731.080    97779395.61846
  22393331.740   117677741.31309  22393329.160    91696926.81147
 15 02 24 00 03 30.0000000  0  8G16G18G21G22G25G27G29G31
  21867726.480   114915698.07009  21867723.220    89544698.96447
  23088163.560   121329145.64109  23088161.640    94542194.36946
  21230048.120   111564661.34108  21230044.620    86933492.17248
  24423231.600   128344953.37808  24423229.940   100009048.64745
  24811496.460   130385275.06508  24811497.620   101598914.05944
  22904558.900   120364296.94308  22904559.080    93790375.20347
  23893222.860   125559719.82008  23893221.860    97838731.06746
  22409750.740   117764023.72909  22409748.200    91764159.83147
 15 02 24 00 04  0.0000000  0  7G16G18G21G22G27G29G31
  21853925.520   114843174.17209  21853922.460    89488186.86847
  23075747.000   121263896.58808  23075745.080    94491350.98046
  21236164.200   111596802.01209  21236160.780    86958536.85548
  24406031.620   128254567.18308  24406029.880    99938618.03045
  22892361.160   120300197.38908  22892361.200    93740427.53047
  23907714.260   125635872.63008  23907713.180    97898070.92746
  22426220.560   117850573.05209  22426218.080    91831600.83347
 15 02 24 00 04 30.0000000  0  7G16G18G21G22G27G29G31
  21840164.620   114770860.45709  21840161.720    89431838.53947
  23063372.180   121198866.46408  23063370.260    94440678.17946
  21242351.980   111629319.20208  21242348.560    86983874.93848
  24388818.580   128164113.03608  24388816.800    99868134.48145
  22880187.420   120236224.51608  22880187.400    93690578.58047
  23922206.200   125712027.44308  23922204.440    97957412.38345
  22442740.140   117937383.86009  22442737.720    91899245.59047
 15 02 24 00 05  0.0000000  0  7G16G18G21G22G27G29G31
  21826444.660   114698761.54909  21826441.580    89375657.57647
  23051039.840   121134059.91408  23051037.940    94390179.58946
  21248611.600   111662213.88308  21248608.200    87009507.15248
  24371593.640   128073595.94308  24371591.640    99797601.87245
  22868038.320   120172380.96608  22868038.220    93640830.37447
  23936699.020   125788187.74408  23936697.180    98016758.07646
  22459309.460   118024456.06209  22459307.060    91967094.03247
 15 02 24 00 05 30.0000000  0  7G16G18G21G22G27G29G31
  21812765.820   114626879.01109  21812762.880    89319645.23247
  23038750.640   121069479.80608  23038748.720    94339857.45946
  21254942.600   111695483.87508  21254939.320    87035431.82348
  24354357.300   127983018.43308  24354355.120    99727022.18545
  22855913.800   120108666.43608  22855913.580    93591182.71947
  23951192.560   125864352.99308  23951191.260    98076107.51146
  22475927.900   118111786.45909  22475925.500    92035143.64947
 15 02 24 00 06  0.0000000  0  7G16G18G21G22G27G29G31
  21799127.300   114555208.26309  21799124.440    89263797.90147
  23026503.560   121005121.21508  23026501.620    94289707.93546
  21261343.400   111729120.60808  21261340.180    87061642.26948
  24337108.620   127892375.79508  24337106.380    99656391.73245
  22843812.440   120045073.65708  22843812.380    93541629.93547
  23965685.820   125940515.19708  23965684.760    98135454.65046
  22492593.580   118199365.24309  22492591.160    92103386.82647
 15 02 24 00 06 30.0000000  0  7G16G18G21G22G27G29G31
  21785531.580   114483762.62109  21785528.720    89208125.99147
  23014301.460   120940998.62608  23014299.440    94239742.29546
  21267816.040   111763134.83908  21267812.840    87088146.86248
  24319850.160   127801682.11808  24319847.840    99585721.51445
  22831736.380   119981614.17208  22831736.460    93492181.02247
  23980180.780   126016686.24008  23980179.480    98194808.68646
  22509308.180   118287200.99009  22509305.720    92171830.22947
 15 02 24 00 07  0.0000000  0  7G16G18G21G22G27G29G31
  21771978.220   114412539.25009  21771975.300    89152627.27047
  23002143.640   120877109.09508  23002141.640    94189958.27846
  21274359.120   111797519.06708  21274355.860    87114939.77748
  24302581.380   127710934.51608  24302578.860    99515009.26145
  22819684.640   119918282.67008  22819684.780    93442831.83747
  23994676.160   126092860.58008  23994674.720    98254165.31145
  22526070.160   118375285.68509  22526067.740    92240467.62747
 15 02 24 00 07 30.0000000  0  7G16G18G21G22G27G29G31
  21758467.020   114341537.14609  21758464.040    89097300.96248
  22990030.160   120813452.54108  22990028.200    94140355.79746
  21280971.780   111832269.31608  21280968.540    87142017.89348
  24285302.400   127620133.33108  24285299.760    99444255.25046
  22807656.860   119855076.60108  22807656.980    93393580.37147
  24009171.760   126169035.38308  24009170.440    98313522.29646
  22542878.500   118463614.02109  22542876.160    92309294.86347
 15 02 24 00 08  0.0000000  0  7G16G18G21G22G27G29G31
  21744998.340   114270758.28209  21744995.360    89042148.61347
  22977961.500   120750031.52508  22977959.620    94090936.85646
  21287653.820   111867383.84908  21287650.620    87169379.86948
  24268013.600   127529280.71208  24268010.780    99373461.18045
  22795652.940   119791995.65508  22795653.060    93344426.41647
  24023667.600   126245210.48808  24023666.280    98372879.51946
  22559732.620   118552183.00409  22559730.360    92378309.62447
 15 02 24 00 08 30.0000000  0  7G16G18G21G22G27G29G31
  21731573.240   114200208.65609  21731570.280    88987174.90347
  22965938.980   120686852.71408  22965937.160    94041706.63246
  21294405.680   111902865.21308  21294402.560    87197027.68948
  24250716.300   127438382.92408  24250713.460    99302631.90245
  22783673.620   119729043.59308  22783673.620    93295372.89447
  24038164.100   126321389.73408  24038163.020    98432239.89746
  22576632.680   118640993.44409  22576630.440    92447512.53647
 15 02 24 00 09  0.0000000  0  7G16G18G21G22G27G29G31
  21718192.640   114129892.87109  21718189.580    88932383.39247
  22953963.440   120623920.71909  22953961.620    93992668.74546
  21301227.540   111938713.92208  21301224.400    87224961.75048
  24233411.300   127347444.93408  24233408.340    99231771.30145
  22771719.100   119666222.64008  22771719.160    93246421.52247
  24052661.600   126397575.09408  24052660.660    98491605.04146
  22593578.600   118730044.68709  22593576.360    92516903.07847
 15 02 24 00 09 30.0000000  0  7G16G18G21G22G27G29G31
  21704855.660   114059806.20809  21704852.520    88877770.41047
  22942034.100   120561231.58308  22942032.220    93943820.09846
  21308117.740   111974921.92308  21308114.600    87253175.77148
  24216097.920   127256462.83408  24216094.700    99160876.31645
  22759788.280   119603526.31208  22759788.560    93197567.26547
  24067159.060   126473759.86308  24067158.060    98550969.77746
  22610568.580   118819327.58209  22610566.340    92586474.13247
 15 02 24 00 10  0.0000000  0  7G16G18G21G22G27G29G31
  21691563.100   113989953.16609  21691559.860    88823339.49448
  22930151.900   120498790.26308  22930150.020    93895164.54946
  21315076.380   112011489.56508  21315073.220    87281670.04048
  24198777.040   127165441.33708  24198773.740    99089950.62646
  22747881.600   119540956.54408  22747881.900    93148811.63247
  24081656.860   126549945.90908  24081655.760    98610335.54446
  22627602.460   118908841.40909  22627600.200    92656225.12747
 15 02 24 00 10 30.0000000  0  7G16G18G21G22G27G29G31
  21678315.400   113920336.01609  21678312.200    88769092.38647
  22918317.380   120436599.33609  22918315.460    93846704.12346
  21322103.180   112048415.47508  21322099.980    87310443.48048
  24181449.160   127074383.13608  24181445.780    99018996.32746
  22735999.120   119478513.70808  22735999.340    93100154.89448
  24096154.900   126626133.45308  24096153.880    98669702.39946
  22644679.760   118998583.12209  22644677.480    92726153.70447
 15 02 24 00 11  0.0000000  0  7G16G18G21G22G27G29G31
  21665113.640   113850960.15209  21665110.380    88715033.28748
  22906531.640   120374664.62809  22906529.680    93798443.32446
  21329198.480   112085701.30209  21329195.200    87339497.36948
  24164115.380   126983294.46608  24164112.140    98948018.29446
  22724141.460   119416201.11908  22724141.680    93051599.67048
  24110653.680   126702325.76008  24110652.780    98729072.99046
  22661800.660   119088553.89809  22661798.420    92796260.76947
 15 02 24 00 11 30.0000000  0  7G16G18G21G22G27G29G31
  21651957.200   113781822.25209  21651953.840    88661159.60348
  22894794.120   120312983.46309  22894792.100    93750380.10946
  21336361.060   112123340.57008  21336357.760    87368826.66948
  24146775.300   126892172.49308  24146771.960    98877014.29846
  22712307.500   119354013.43608  22712307.800    93003141.75648
  24125152.560   126778518.05708  24125151.640    98788443.58046
  22678963.540   119178745.37809  22678961.320    92866539.79847
 15 02 24 00 12  0.0000000  0  7G16G18G21G22G27G29G31
  21638846.880   113712926.72409  21638843.460    88607474.78848
  22883105.720   120251560.34409  22883103.660    93702517.97346
  21343590.940   112161333.34908  21343587.640    87398431.43448
  24129429.720   126801021.48008  24129426.300    98805987.69545
  22700497.580   119291952.41308  22700497.880    92954782.55547
  24139651.800   126854711.38608  24139650.640    98847815.02846
  22696168.240   119269156.45609  22696166.080    92936989.95747
 15 02 24 00 12 30.0000000  0  7G16G18G21G22G27G29G31
  21625782.840   113644275.12209  21625779.460    88553980.05848
  22871466.860   120190397.57709  22871464.740    93654858.70546
  21350887.780   112199678.18708  21350884.480    87428310.53348
  24112079.140   126709844.26808  24112075.720    98734940.65446
  22688711.760   119230018.05208  22688712.100    92906522.03648
  24154151.160   126930905.75907  24154150.000    98907187.22346
  22713414.180   119359784.18809  22713412.020    93007608.92847
 15 02 24 00 13  0.0000000  0  7G16G18G21G22G27G29G31
  21612766.000   113575871.32709  21612762.620    88500678.40948
  22859878.140   120129498.35309  22859876.060    93607404.78846
  21358251.420   112238374.25009  21358248.140    87458463.30148
  24094724.200   126618644.34208  24094720.880    98663875.91546
  22676950.340   119168211.29708  22676950.600    92858360.94448
  24168650.780   127007102.14208  24168649.880    98966560.96046
  22730701.000   119450626.64309  22730698.820    93078395.22547
 15 02 24 00 13 30.0000000  0  7G16G18G21G22G27G29G31
  21599796.140   113507714.28409  21599792.700    88447569.03348
  22848339.780   120068863.73309  22848337.660    93560157.05546
  21365681.100   112277417.42209  21365677.840    87488886.56048
  24077364.940   126527421.86308  24077361.640    98592793.60945
  22665212.820   119106529.48808  22665212.940    92810297.22647
  24183150.420   127083297.68308  24183149.660    99025934.05446
  22748027.680   119541678.65109  22748025.440    93149344.79647
 15 02 24 00 14  0.0000000  0  7G16G18G21G22G27G29G31
  21586873.960   113439807.62509  21586870.500    88394654.76448
  22836852.360   120008497.24909  22836850.220    93513118.26946
  21373176.760   112316807.26309  21373173.520    87519579.94648
  24060002.180   126436181.05708  24059999.000    98521697.00345
  22653499.440   119044974.19908  22653499.460    92762332.08248
  24197650.260   127159494.09208  24197649.380    99085307.86546
  22765393.940   119632938.61909  22765391.640    93220456.42147
 15 02 24 00 14 30.0000000  0  7G16G18G21G22G27G29G31
  21574000.100   113372155.11309  21573996.660    88341938.53548
  22825416.760   119948402.63409  22825414.480    93466291.32147
  21380738.440   112356544.17509  21380735.180    87550543.77448
  24042636.660   126344925.76608  24042633.480    98450589.11546
  22641810.300   118983546.80708  22641810.240    92714466.60248
  24212150.360   127235692.76908  24212149.400    99144683.44346
  22782799.520   119724405.50409  22782797.200    93291729.27947
 15 02 24 00 15  0.0000000  0  7G16G18G21G22G27G29G31
  21561174.780   113304758.19009  21561171.460    88289421.48148
  22814033.200   119888581.70109  22814030.840    93419677.63846
  21388365.540   112396625.14808  21388362.320    87581775.70748
  24025268.720   126253657.74208  24025265.680    98379471.29146
  22630145.340   118922246.49308  22630145.120    92666700.14248
  24226650.540   127311892.61708  24226649.860    99204059.87846
  22800243.720   119816075.20209  22800241.380    93363160.17647
 15 02 24 00 15 30.0000000  0  7G16G18G21G22G27G29G31
  21548398.320   113237617.73409  21548395.120    88237104.25948
  22802701.920   119829035.67009  22802699.600    93373278.16646
  21396057.600   112437047.42208  21396054.380    87613273.59148
  24007898.720   126162378.66708  24007895.740    98308344.87646
  22618504.260   118861071.97608  22618504.040    92619031.71248
  24241150.940   127388092.47308  24241150.300    99263436.36547
  22817725.780   119907943.81109  22817723.460    93434746.06647
 15 02 24 00 16  0.0000000  0  7G16G18G21G22G27G29G31
  21535670.960   113170734.82409  21535667.600    88184987.70648
  22791423.160   119769765.71209  22791420.920    93327093.80746
  21403814.140   112477808.54308  21403810.900    87645035.49848
  23990526.960   126071090.17208  23990524.000    98237211.10846
  22606886.820   118800022.20008  22606886.640    92571460.48948
  24255651.340   127464291.12908  24255650.460    99322811.92946
  22835244.940   120000007.32409  22835242.640    93506483.81547
 15 02 24 00 16 30.0000000  0  7G16G18G21G22G27G29G31
  21522993.600   113104115.02609  21522990.320    88133076.20048
  22780198.160   119710778.23809  22780195.980    93281129.58146
  21411635.460   112518910.08309  21411632.260    87677062.68248
  23973154.540   125979798.22208  23973151.580    98166074.64546
  22595293.740   118739100.80808  22595293.580    92523989.29448
  24270152.040   127540492.30908  24270150.840    99382189.45345
  22852801.340   120092266.63409  22852799.080    93578374.14347
 15 02 24 00 17  0.0000000  0  7G16G18G21G22G27G29G31
  21510366.620   113037759.86409  21510363.300    88081370.88748
  22769027.360   119652075.39809  22769025.120    93235387.12946
  21419521.200   112560350.07909  21419518.020    87709353.58248
  23955781.900   125888505.12908  23955778.920    98094937.27246
  22583724.980   118678307.10508  22583724.800    92476617.60048
  24284652.920   127616695.29708  24284651.400    99441568.38345
  22870394.300   120184718.12409  22870392.060    93650414.22047
 15 02 24 00 17 30.0000000  0  7G16G18G21G22G27G29G31
  21497789.740   112971668.14309  21497786.460    88029870.86248
  22757910.420   119593655.50009  22757908.080    93189865.16546
  21427470.320   112602123.08908  21427467.180    87741903.98348
  23938408.800   125797209.84708  23938406.000    98023798.22046
  22572179.920   118617637.52608  22572179.700    92429342.62048
  24299153.480   127692896.44108  24299152.000    99500945.88746
  22888022.640   120277355.25509  22888020.320    93722598.94747
 15 02 24 00 18  0.0000000  0  7G16G18G21G22G27G29G31
  21485263.540   112905842.94009  21485260.340    87978578.51348
  22746848.040   119535522.56109  22746845.660    93144566.81046
  21435482.660   112644228.34308  21435479.480    87774713.27048
  23921036.060   125705916.10208  23921033.200    97952660.34446
  22560658.720   118557093.02508  22560658.420    92382165.11648
  24313653.980   127769096.59408  24313652.640    99560322.59346
  22905685.960   120370176.27609  22905683.520    93794926.97247
 15 02 24 00 18 30.0000000  0  7G16G18G21G22G27G29G31
  21472788.960   112840288.86909  21472785.840    87927497.42948
  22735841.080   119477680.87209  22735838.720    93099495.38646
  21443558.340   112686666.43308  21443555.120    87807781.91448
  23903664.500   125614628.69508  23903661.780    97881527.41046
  22549161.680   118496675.92708  22549161.440    92335086.87848
  24328154.740   127845298.13708  24328153.620    99619700.36946
  22923384.140   120463180.61909  22923381.640    93867397.82947
 15 02 24 00 19  0.0000000  0  7G16G18G21G22G27G29G31
  21460366.360   112775007.93909  21460363.320    87876629.17648
  22724890.100   119420133.25209  22724887.740    93054653.12246
  21451697.100   112729436.05008  21451693.880    87841108.88848
  23886294.740   125523350.57608  23886292.060    97810401.70946
  22537688.880   118436386.21108  22537688.680    92288107.89948
  24342655.720   127921501.00208  24342654.620    99679079.15545
  22941116.600   120556365.15209  22941114.120    93940009.10647
 15 02 24 00 19 30.0000000  0  7G16G18G21G22G27G29G31
  21447995.660   112709999.57109  21447992.660    87825973.32148
  22713994.940   119362878.94909  22713992.560    93010039.40646
  21459898.100   112772532.66709  21459894.840    87874690.67448
  23868926.720   125432081.30108  23868924.000    97739282.89446
  22526239.760   118376220.85508  22526239.680    92241225.85148
  24357156.440   127997702.25808  24357155.300    99738456.76245
  22958882.260   120649724.41709  22958879.880    94012756.53547
 15 02 24 00 20  0.0000000  0  7G16G18G21G22G27G29G31
  21435677.760   112645268.94009  21435674.860    87775533.87548
  22703156.740   119305923.91009  22703154.340    92965658.87746
  21468161.660   112815957.75309  21468158.340    87908528.40248
  23851561.640   125340827.27608  23851558.880    97668175.96046
  22514814.940   118316183.55708  22514814.880    92194443.55748
  24371657.440   128073905.20208  24371656.100    99797835.66945
  22976681.340   120743258.98609  22976678.960    94085640.56147
 15 02 24 00 20 30.0000000  0  7G16G18G21G22G27G29G31
  21423412.980   112580817.51509  21423410.080    87725311.99548
  22692375.800   119249269.62009  22692373.380    92921512.71446
  21476487.240   112859708.64009  21476483.800    87942620.00348
  23834199.640   125249589.89708  23834196.940    97597082.00746
  22503414.220   118256273.20408  22503414.200    92147760.18848
  24386158.520   128150109.13308  24386157.300    99857215.32545
  22994513.000   120836964.82809  22994510.640    94158658.04947
 15 02 24 00 21  0.0000000  0  7G16G18G21G22G27G29G31
  21411201.760   112516647.68809  21411198.960    87675309.54948
  22681652.560   119192918.47909  22681650.140    92877602.75646
  21484874.500   112903783.68409  21484870.960    87976964.19748
  23816841.340   125158371.87508  23816838.700    97526003.12946
  22492037.760   118196489.94008  22492037.760    92101175.83448
  24400659.780   128226314.16308  24400658.660    99916595.78446
  23012376.800   120930839.18209  23012374.320    94231806.83947
 15 02 24 00 21 30.0000000  0  7G16G18G21G22G27G29G31
  21399043.600   112452756.28109  21399040.880    87625524.04548
  22670986.460   119136867.68309  22670983.980    92833926.85046
  21493322.060   112948175.68509  21493318.380    88011555.37548
  23799486.380   125067171.03408  23799483.700    97454937.63246
  22480684.440   118136828.38408  22480684.380    92054686.35148
  24415160.300   128302514.61308  24415159.160    99975972.72146
  23030271.080   121024873.80109  23030268.480    94305080.52147
 15 02 24 00 22  0.0000000  0  7G16G18G21G22G27G29G31
  21386939.860   112389150.68209  21386937.120    87575961.24948
  22660378.920   119081124.77809  22660376.420    92790490.84546
  21501830.740   112992889.10808  21501826.980    88046397.00648
  23782136.180   124975995.28308  23782133.380    97383891.68546
  22469355.400   118077293.85908  22469355.140    92008295.82448
  24429661.080   128378715.83808  24429659.660   100035350.27846
  23048196.280   121119071.13709  23048193.680    94378480.98547
 15 02 24 00 22 30.0000000  0  7G16G18G21G22G27G29G31
  21374891.020   112325833.79509  21374888.280    87526623.42548
  22649830.620   119025692.94309  22649828.000    92747297.23846
  21510400.260   113037921.95609  21510396.400    88081487.54248
  23764791.360   124884847.89308  23764788.480    97312867.84846
  22458050.660   118017887.02008  22458050.320    91962004.80148
  24444162.040   128454918.72708  24444160.380   100094729.15045
  23066152.020   121213429.02909  23066149.400    94452006.56047
 15 02 24 00 23  0.0000000  0  7G16G18G21G22G27G29G31
  21362896.840   112262803.98009  21362894.100    87477509.28448
  22639341.180   118970570.67209  22639338.620    92704344.84346
  21519029.500   113083268.80809  21519025.620    88116822.75448
  23747451.660   124793727.56208  23747448.660    97241865.06446
  22446769.520   117958604.03208  22446769.200    91915810.29448
  24458662.540   128531119.26608  24458660.960   100154106.16945
  23084137.020   121307940.68509  23084134.360    94525651.95147
 15 02 24 00 23 30.0000000  0  7G16G18G21G22G27G29G31
  21350958.180   112200066.03809  21350955.420    87428622.59248
  22628911.660   118915763.31909  22628909.120    92661637.84746
  21527718.720   113128930.81209  21527714.840    88152403.54248
  23730118.260   124702640.07708  23730115.260    97170887.89346
  22435512.560   117899447.82009  22435512.160    91869714.55848
  24473163.180   128607320.57808  24473161.660   100213483.77645
  23102151.240   121402606.04209  23102148.620    94599417.10947
 15 02 24 00 24  0.0000000  0  7G16G18G21G22G27G29G31
  21339075.240   112137620.92909  21339072.540    87379964.07448
  22618542.200   118861271.64109  22618539.620    92619176.82946
  21536467.300   113174904.66609  21536463.420    88188227.32948
  23712791.280   124611586.47508  23712788.240    97099937.10946
  22424279.440   117840416.73709  22424278.980    91823716.34348
  24487663.660   128683521.17508  24487662.380   100272860.81045
  23120193.900   121497420.80809  23120191.340    94673298.68347
 15 02 24 00 24 30.0000000  0  7G16G18G21G22G27G29G31
  21327248.740   112075472.26309  21327246.040    87331536.55648
  22608233.620   118807099.70009  22608231.000    92576964.95146
  21545275.260   113221190.76909  21545271.460    88224294.43048
  23695471.560   124520571.25208  23695468.580    97029016.25346
  22413070.520   117781512.65609  22413069.940    91777817.08548
  24502164.300   128759722.48908  24502163.140   100332238.44345
  23138264.780   121592383.74409  23138262.240    94747295.71747
 15 02 24 00 25  0.0000000  0  7G16G18G21G22G27G29G31
  21315479.060   112013621.77009  21315476.320    87283341.36848
  22597986.200   118753249.14709  22597983.580    92535003.51446
  21554142.140   113267786.38509  21554138.380    88260602.70948
  23678159.640   124429596.78508  23678156.660    96958127.13146
  22401885.600   117722735.02609  22401884.900    91732016.35748
  24516664.960   128835923.93008  24516663.820   100391616.17245
  23156363.240   121687491.46209  23156360.740    94821405.56847
 15 02 24 00 25 30.0000000  0  7G16G18G21G22G27G29G31
  21303765.940   111952068.76909  21303763.160    87235378.01048
  22587799.800   118699719.56709  22587797.260    92493292.17746
  21563067.120   113314687.35909  21563063.420    88297148.92048
  23660855.420   124338662.68908  23660852.400    96887269.46846
  22390724.160   117664080.89809  22390723.360    91686311.86048
  24531165.060   128912122.82408  24531164.080   100450991.87345
  23174488.100   121782738.04009  23174485.660    94895623.61747
 15 02 24 00 26  0.0000000  0  7G16G18G21G22G27G29G31
  21292110.880   111890820.68509  21292108.000    87187652.22848
  22577675.860   118646518.24509  22577673.340    92451836.63046
  21572050.740   113361896.63509  21572047.060    88333935.37548
  23643560.340   124247776.87508  23643557.300    96816449.43746
  22379587.160   117605555.38109  22379586.260    91640707.58648
  24545665.680   128988324.00808  24545664.800   100510369.39446
  23192639.820   121878125.78009  23192637.520    94969951.66147
 15 02 24 00 26 30.0000000  0  7G16G18G21G22G27G29G31
  21280513.640   111829876.57509  21280510.660    87140163.32148
  22567614.280   118593644.44509  22567611.700    92410636.29446
  21581092.220   113409409.87009  21581088.580    88370958.68548
  23626274.440   124156939.20408  23626271.280    96745666.90846
  22368474.100   117547155.75209  22368473.120    91595201.39648
  24560166.240   129064524.89108  24560165.380   100569746.67345
  23210817.380   121973649.16909  23210815.120    95044385.39747
 15 02 24 00 27  0.0000000  0  6G16G18G21G22G27G31
  21268969.200   111769210.17309  21268966.200    87092890.80248
  22557610.040   118541072.16409  22557607.460    92369670.91046
  21590185.600   113457196.14309  21590182.040    88408194.74448
  23608992.700   124066123.78308  23608989.580    96674901.72546
  22357379.500   117488853.34009  22357378.500    91549770.97648
  23229014.740   122069276.65009  23229012.540    95118900.24947
 15 02 24 00 27 30.0000000  0  6G16G18G21G22G27G31
  21257488.620   111708879.26509  21257485.580    87045879.71548
  22547674.260   118488859.44809  22547671.660    92328985.70246
  21599341.240   113505309.48209  21599337.780    88445685.66448
  23591726.440   123975389.28208  23591723.300    96604199.58146
  22346314.060   117430703.98209  22346313.080    91504459.81048
  23247241.960   122165060.91709  23247239.740    95193537.27547
 15 02 24 00 28  0.0000000  0  7G16G18G19G21G22G27G31
  21246066.540   111648855.71409  21246063.500    86999108.12948
  22537801.580   118436978.29609  22537798.940    92288558.86546
  24543113.900   128974933.35708  24543111.160   100499940.93145
  21608553.140   113553718.52509  21608549.780    88483406.99648
  23574470.300   123884707.81108  23574467.080    96533538.75946
  22335271.980   117372677.34409  22335271.000    91459244.27148
  23265492.660   122260968.54909  23265490.380    95268270.41947
 15 02 24 00 28 30.0000000  0  7G16G18G19G21G22G27G31
  21234703.040   111589140.04709  21234700.080    86952576.44748
  22527992.100   118385429.11209  22527989.420    92248390.69046
  24528012.120   128895569.03208  24528008.140   100438098.65745
  21617820.540   113602419.65509  21617817.300    88521355.92548
  23557224.440   123794080.55008  23557221.180    96462920.18746
  22324252.900   117314771.71209  22324252.000    91414123.02148
  23283765.980   122356995.03109  23283763.660    95343096.17147
 15 02 24 00 29  0.0000000  0  7G16G18G19G21G22G27G31
  21223401.320   111529749.23709  21223398.380    86906297.89848
  22518249.040   118334229.05709  22518246.340    92208494.57846
  24512928.520   128816304.53108  24512924.640   100376334.22445
  21627146.020   113651425.93008  21627142.840    88559542.64048
  23539992.320   123703525.27108  23539988.980    96392357.70046
  22313259.700   117257002.06909  22313258.800    91369107.73848
  23302064.220   122453152.60808  23302061.880    95418024.08647
 15 02 24 00 29 30.0000000  0  7G16G18G19G21G22G27G31
  21212160.460   111470678.55709  21212157.620    86860268.81348
  22508571.480   118283373.35409  22508568.760    92168866.78446
  24497862.600   128737133.05508  24497858.960   100314642.21945
  21636527.920   113700728.67808  21636524.780    88597960.36648
  23522773.080   123613037.66008  23522769.540    96321847.93046
  22302291.020   117199361.55009  22302290.060    91324193.06848
  23320385.500   122549431.40509  23320383.160    95493046.45047
 15 02 24 00 30  0.0000000  0  7G16G18G19G21G22G27G31
  21200979.700   111411923.49309  21200976.800    86814485.65048
  22498958.640   118232857.61009  22498955.940    92129503.89146
  24482813.100   128658048.08208  24482809.500   100253017.63345
  21645964.600   113750319.13408  21645961.540    88636602.28048
  23505566.000   123522613.63108  23505562.360    96251387.71446
  22291345.640   117141843.39509  22291344.620    91279373.74748
  23338727.980   122645821.67309  23338725.800    95568155.65946
 15 02 24 00 30 30.0000000  0  7G16G18G19G21G22G27G31
  21189860.220   111353490.07609  21189857.180    86768953.11648
  22489411.600   118182687.69209  22489408.940    92090410.47146
  24467780.680   128579053.15608  24467777.040   100191463.22745
  21655456.360   113800198.80908  21655453.360    88675469.56348
  23488372.240   123432259.80408  23488368.580    96180982.19246
  22280424.360   117084451.48709  22280423.240    91234652.79048
  23357091.920   122742324.49809  23357089.820    95643352.58147
 15 02 24 00 31  0.0000000  0  7G16G18G19G21G22G27G31
  21178802.920   111295383.36209  21178799.740    86723675.16548
  22479931.360   118132868.73309  22479928.740    92051590.53946
  24452765.900   128500151.29508  24452762.360   100129981.29445
  21665003.520   113850369.49709  21665000.540    88714563.61047
  23471192.980   123341981.84508  23471189.160    96110635.79846
  22269527.660   117027188.67409  22269526.360    91190032.44148
  23375477.260   122838939.81509  23375475.140    95718637.16846
 15 02 24 00 31 30.0000000  0  7G16G18G19G21G22G27G31
  21167806.320   111237596.17009  21167803.240    86678646.20148
  22470516.560   118083393.76009  22470513.940    92013038.63546
  24437767.400   128421333.69208  24437763.980   100068565.05645
  21674603.940   113900819.91808  21674600.880    88753875.63348
  23454026.940   123251773.64908  23454023.060    96040343.76246
  22258653.780   116970045.99909  22258652.380    91145505.70148
  23393881.760   122935655.54008  23393879.580    95793999.97846
 15 02 24 00 32  0.0000000  0  7G16G18G19G21G22G27G31
  21156872.980   111180141.01009  21156869.940    86633875.95848
  22461169.640   118034275.37109  22461166.940    91974764.58746
  24422786.740   128342610.87008  24422783.320   100007222.67745
  21684259.340   113951559.15709  21684256.120    88793412.70848
  23436876.620   123161647.98008  23436872.620    95970116.03446
  22247804.640   116913033.74109  22247803.280    91101080.57948
  23412306.780   123032479.15609  23412304.620    95869446.86847
 15 02 24 00 32 30.0000000  0  7G16G18G19G21G22G27G31
  21146001.920   111123013.02809  21145998.860    86589360.64748
  22451889.600   117985508.42109  22451886.860    91936764.38947
  24407822.740   128263974.83708  24407819.360    99945947.88746
  21693967.920   114002577.60009  21693964.540    88833167.34347
  23419741.160   123071600.48008  23419737.060    95899949.21246
  22236978.900   116856144.58409  22236977.740    91056751.38548
  23430750.400   123129400.48908  23430748.160    95944969.89147
 15 02 24 00 33  0.0000000  0  7G16G18G19G21G22G27G31
  21135193.700   111066215.21209  21135190.560    86545102.61748
  22442677.000   117937095.90009  22442674.240    91899040.37346
  24392875.660   128185427.06508  24392872.320    99884741.92845
  21703729.500   114053874.56309  21703726.040    88873139.01147
  23402621.220   122981634.45408  23402616.980    95829845.87146
  22226176.840   116799379.57309  22226175.640    91012518.92948
  23449212.120   123226417.22008  23449209.900    96020567.25547
 15 02 24 00 33 30.0000000  0  7G16G18G19G21G22G27G31
  21124449.840   111009755.72609  21124446.520    86501108.21448
  22433533.520   117889046.68609  22433530.740    91861599.45146
  24377946.500   128106973.94708  24377943.240    99823609.69745
  21713544.940   114105454.75409  21713541.340    88913331.37347
  23385518.580   122891759.38508  23385514.220    95759813.40746
  22215399.680   116742745.23609  22215398.440    90968388.29548
  23467692.800   123323533.50409  23467690.640    96096242.19046
 15 02 24 00 34  0.0000000  0  7G16G18G19G21G22G27G31
  21113769.560   110953630.07109  21113766.100    86457373.93848
  22424458.160   117841355.31009  22424455.340    91824437.36146
  24363034.060   128028608.48008  24363030.920    99762545.74846
  21723412.560   114157309.44209  21723408.880    88953737.62048
  23368432.420   122801970.79508  23368427.980    95689848.33746
  22204646.000   116686234.46309  22204644.820    90924353.95448
  23486190.440   123420739.07508  23486188.360    96171986.68847
 15 02 24 00 34 30.0000000  0  7G16G18G19G21G22G27G31
  21103153.940   110897844.50909  21103150.500    86413904.66948
  22415452.140   117794028.50009  22415449.360    91787559.34146
  24348139.080   127950335.22908  24348135.800    99701553.64745
  21733332.880   114209441.10209  21733329.140    88994359.69447
  23351364.060   122712275.87409  23351359.460    95619956.24846
  22193916.660   116629851.62909  22193915.540    90880419.29248
  23504705.360   123518035.41308  23504703.380    96247801.91847
 15 02 24 00 35  0.0000000  0  7G16G18G19G21G22G27G31
  21092603.440   110842401.08909  21092600.000    86370702.01248
  22406515.800   117747067.75609  22406513.040    91750966.58046
  24333261.440   127872153.40708  24333257.980    99640632.78845
  21743305.420   114261847.35808  21743301.680    89035195.74647
  23334313.960   122622676.82309  23334309.180    95550138.86546
  22183211.620   116573596.47009  22183210.620    90836584.12948
  23523236.940   123615419.29908  23523235.100    96323685.36647
 15 02 24 00 35 30.0000000  0  7G16G18G19G21G22G27G31
  21082117.200   110787295.30009  21082113.760    86327762.43248
  22397648.340   117700469.05209  22397645.580    91714655.92346
  24318400.280   127794057.24008  24318396.200    99579778.61444
  21753328.660   114314519.95508  21753324.980    89076239.32947
  23317281.460   122533170.42309  23317276.580    95480393.68446
  22172529.660   116517462.70609  22172528.720    90792843.55548
  23541783.440   123712881.56008  23541781.680    96399629.88646
 15 02 24 00 36  0.0000000  0  7G16G18G19G21G22G27G31
  21071697.700   110732540.22709  21071694.240    86285096.14148
  22388852.220   117654245.24209  22388849.480    91678637.37846
  24303557.160   127716057.20307  24303553.420    99518999.41545
  21763404.320   114367468.08508  21763400.720    89117497.60948
  23300269.160   122443770.29409  23300264.240    95410731.30147
  22161872.840   116461461.26709  22161872.120    90749206.08748
  23560346.380   123810430.18908  23560344.640    96475641.70146
 15 02 24 00 36 30.0000000  0  7G16G18G19G21G22G27G31
  21061344.000   110678131.19209  21061340.560    86242699.49348
  22380126.580   117608391.78909  22380123.840    91642907.43946
  24288731.160   127638146.99308  24288727.640    99458290.22445
  21773530.760   114420683.28308  21773527.300    89158963.99347
  23283276.300   122354472.39309  23283271.420    95341148.57946
  22151239.960   116405585.42109  22151239.300    90705666.47448
  23578923.900   123908055.28808  23578922.180    96551713.09147
 15 02 24 00 37  0.0000000  0  7G16G18G19G21G22G27G31
  21051056.300   110624068.57009  21051052.780    86200572.77848
  22371471.340   117562908.29109  22371468.620    91607465.77446
  24273921.960   127560324.53208  24273918.220    99397649.38245
  21783707.340   114474161.71908  21783703.920    89200635.50248
  23266303.000   122265277.28609  23266298.060    95271645.95947
  22140630.620   116349833.36509  22140630.120    90662223.33648
  23597515.060   124005752.23808  23597513.480    96627840.47847
 15 02 24 00 37 30.0000000  0  7G16G18G19G21G22G27G31
  21040836.660   110570363.57109  21040832.980    86158724.73348
  22362888.720   117517806.29509  22362885.960    91572321.38247
  24259131.040   127482599.07808  24259127.780    99337084.16345
  21793935.440   114527910.71008  21793932.020    89242517.83748
  23249351.580   122176197.14609  23249346.640    95202232.92547
  22130046.600   116294214.39009  22130046.240    90618883.89648
  23616121.140   124103527.38308  23616119.580    96704028.80147
 15 02 24 00 38  0.0000000  0  7G16G18G19G21G22G27G31
  21030682.520   110517003.26309  21030678.860    86117145.27748
  22354376.260   117473072.86309  22354373.460    91537464.17746
  24244355.920   127404955.76408  24244352.880    99276582.91245
  21804211.820   114581913.39708  21804208.460    89284597.85047
  23232419.660   122087219.56409  23232414.760    95132899.80546
  22119484.980   116238713.45909  22119484.700    90575636.44048
  23634738.660   124201362.87508  23634737.160    96780264.12646
 15 02 24 00 38 30.0000000  0  7G16G18G19G21G22G27G31
  21020596.800   110464002.47809  21020593.120    86075845.96048
  22345936.780   117428722.80209  22345933.980    91502905.69446
  24229598.800   127327407.10608  24229595.600    99216155.43145
  21814538.600   114636180.98908  21814535.320    89326884.27647
  23215510.260   121998360.36609  23215505.340    95063658.92746
  22108948.180   116183343.40209  22108948.160    90532490.95348
  23653369.500   124299268.56008  23653368.100    96856554.14646
 15 02 24 00 39  0.0000000  0  7G16G18G19G21G22G27G31
  21010578.460   110411355.91409  21010574.800    86034822.66548
  22337569.100   117384750.16809  22337566.240    91468641.32047
  24214858.480   127249945.89608  24214855.140    99155796.10546
  21824913.940   114690703.78208  21824910.720    89369369.56148
  23198622.520   121909614.79909  23198617.540    94994506.58447
  22098434.880   116128096.82809  22098435.100    90489441.68948
  23672011.760   124397233.99608  23672010.420    96932890.72847
 15 02 24 00 39 30.0000000  0  7G16G18G19G21G22G27G31
  21000629.080   110359071.48209  21000625.420    85994081.55848
  22329274.780   117341163.31209  22329271.860    91434677.55747
  24200135.900   127172577.96908  24200132.520    99095509.44945
  21835338.620   114745485.73209  21835335.440    89412056.79047
  23181757.920   121820991.07409  23181752.940    94925449.19447
  22087946.300   116072979.69309  22087946.660    90446493.28948
  23690665.940   124495262.14708  23690664.640    97009276.17646
 15 02 24 00 40  0.0000000  0  7G16G18G19G21G22G27G31
  20990748.400   110307148.06909  20990744.760    85953621.75548
  22321053.540   117297960.76909  22321050.660    91401013.24646
  24185430.540   127095300.16608  24185427.240    99035292.98545
  21845811.820   114800522.48808  21845808.620    89454942.57047
  23164916.520   121732489.17809  23164911.500    94856486.72246
  22077481.760   116017988.94509  22077482.300    90403643.36748
  23709331.020   124593347.14308  23709329.760    97085705.91946
 15 02 24 00 40 30.0000000  0  7G16G18G19G21G22G27G31
  20980937.800   110255592.82909  20980934.100    85913448.84948
  22312906.820   117255149.71309  22312903.980    91367653.99846
  24170743.100   127018117.65008  24170740.020    98975150.82045
  21856334.060   114855817.02008  21856330.860    89498029.21648
  23148099.680   121644116.61809  23148094.720    94787625.04847
  22067042.220   115963129.66409  22067042.980    90360895.89248
  23728007.340   124691491.03408  23728006.080    97162181.55846
 15 02 24 00 41  0.0000000  0  7G16G18G19G21G22G27G31
  20971196.380   110204401.10609  20971192.600    85873559.19548
  22304833.560   117212724.87109  22304830.780    91334595.70046
  24156072.480   126941023.56808  24156069.140    98915077.55745
  21866903.680   114911360.57508  21866900.500    89541309.90647
  23131306.720   121555869.46709  23131301.880    94718861.07946
  22056626.400   115908395.05109  22056627.320    90318245.56548
  23746693.000   124789684.25408  23746691.720    97238695.61246
 15 02 24 00 41 30.0000000  0  7G16G18G19G21G22G27G31
  20961524.980   110153577.58209  20961521.140    85833956.44748
  22296834.640   117170690.78609  22296832.000    91301841.88647
  24141419.180   126864020.48208  24141416.040    98855075.21145
  21877520.820   114967153.86208  21877517.600    89584785.18048
  23114538.660   121467753.14009  23114533.860    94650199.05547
  22046234.840   115853787.91009  22046235.900    90275694.56048
  23765387.960   124887926.27708  23765386.740    97315247.69946
 15 02 24 00 42  0.0000000  0  7G16G18G19G21G22G27G31
  20951924.200   110103125.76809  20951920.540    85794643.34948
  22288910.860   117129051.24109  22288908.220    91269395.49546
  24126783.480   126787109.99808  24126780.460    98795144.99945
  21888185.320   115023195.98208  21888182.040    89628454.35347
  23097796.320   121379771.98509  23097791.480    94581642.35147
  22035868.000   115799309.81909  22035869.100    90233244.10148
  23784091.960   124986216.00608  23784090.720    97391836.94846
 15 02 24 00 42 30.0000000  0  7G16G18G19G21G22G27G31
  20942394.000   110053044.50509  20942390.400    85755618.99448
  22281061.820   117087804.57809  22281059.180    91237255.24847
  24112164.860   126710288.70208  24112162.100    98735284.30246
  21898896.480   115079483.19308  21898893.080    89672314.52547
  23081079.480   121291925.07609  23081074.740    94513190.25547
  22025525.200   115744957.60709  22025526.220    90190891.74548
  23802803.900   125084547.40808  23802802.680    97468458.68046
 15 02 24 00 43  0.0000000  0  7G16G18G19G21G22G27G31
  20932935.500   110003339.77609  20932931.880    85716888.03048
  22273288.600   117046956.18909  22273285.900    91205425.34746
  24097563.980   126633560.70508  24097561.140    98675496.32245
  21909654.360   115136016.31008  21909650.900    89716366.29147
  23064389.580   121204219.53309  23064385.000    94444848.33047
  22015207.080   115690735.00309  22015207.960    90148640.37148
  23821523.940   125182921.04408  23821522.620    97545113.30846
 15 02 24 00 43 30.0000000  0  7G16G18G19G21G22G27G31
  20923548.260   109954009.70109  20923544.700    85678449.01848
  22265590.920   117006504.52609  22265588.260    91173904.58346
  24082980.180   126556922.18708  24082977.460    98615778.02945
  21920458.100   115192790.46008  21920454.640    89760605.87647
  23047726.360   121116654.29309  23047721.960    94376615.71947
  22004912.960   115636638.59609  22004913.680    90106487.33548
  23840250.820   125281330.76808  23840249.480    97621796.05946
 15 02 24 00 44  0.0000000  0  7G16G18G19G21G22G27G31
  20914233.040   109905058.09509  20914229.540    85640304.91548
  22257969.440   116966453.31009  22257966.780    91142695.85446
  24068413.820   126480375.17308  24068411.200    98556131.07245
  21931307.600   115249805.14109  21931304.220    89805032.89847
  23031090.720   121029233.77009  23031086.380    94308495.87146
  21994643.200   115582670.35709  21994643.800    90064434.17448
  23858984.360   125379775.47408  23858982.940    97698506.06546
 15 02 24 00 44 30.0000000  0  7G16G18G19G21G22G27G31
  20904990.480   109856488.12209  20904987.020    85602458.18348
  22250424.640   116926804.92409  22250421.940    91111801.02446
  24053865.000   126403920.28708  24053862.300    98496555.87245
  21942202.740   115307059.59808  21942199.420    89849646.75447
  23014483.280   120941961.44609  23014478.940    94240491.50447
  21984398.000   115528830.91809  21984398.520    90022481.38348
  23877724.080   125478252.58908  23877722.640    97775241.30846
 15 02 24 00 45  0.0000000  0  7G16G18G19G21G22G27G31
  20895820.600   109808300.23809  20895817.160    85564909.19448
  22242956.640   116887560.12709  22242953.920    91081220.67746
  24039333.460   126327556.48908  24039330.520    98437051.69445
  21953142.960   115364550.86609  21953139.580    89894445.14347
  22997904.320   120854838.83609  22997899.980    94172603.80147
  21974177.140   115475119.19509  21974177.420    89980628.11148
  23896469.220   125576758.46508  23896467.900    97851998.96446
 15 02 24 00 45 30.0000000  0  7G16G18G19G21G22G27G31
  20886723.660   109760495.78209  20886720.300    85527658.97148
  22235565.580   116848719.85809  22235562.840    91050955.53846
  24024819.060   126251282.57708  24024815.780    98377617.51945
  21964127.720   115422276.06208  21964124.380    89939425.80247
  22981354.120   120767867.54209  22981349.840    94104834.00247
  21963980.560   115421534.74409  21963980.580    89938874.00748
  23915219.220   125675289.54808  23915217.980    97928776.25446
 15 02 24 00 46  0.0000000  0  7G16G18G19G21G22G27G31
  20877700.640   109713079.91509  20877697.360    85490711.54448
  22228252.300   116810288.31409  22228249.520    91021008.89847
  24010322.420   126175101.95408  24010319.020    98318256.05645
  21975157.180   115480236.31808  21975153.780    89984589.62647
  22964834.000   120681054.11409  22964829.740    94037187.21247
  21953808.800   115368080.59709  21953808.580    89897221.43148
  23933974.080   125773846.02708  23933972.880    98005573.34346
 15 02 24 00 46 30.0000000  0  7G16G18G19G21G22G27G31
  20868751.740   109666053.53209  20868748.540    85454067.61448
  22221017.020   116772266.77709  22221014.200    90991381.73847
  23995843.240   126099013.49408  23995839.520    98258966.38045
  21986230.860   115538429.13008  21986227.400    90029934.67547
  22948344.220   120594400.03508  22948339.920    93969664.59447
  21943661.620   115314755.70009  21943661.200    89855669.58448
  23952733.000   125872423.87108  23952731.860    98082387.05546
 15 02 24 00 47  0.0000000  0  7G16G18G19G21G22G27G31
  20859877.420   109619419.02609  20859874.220    85417729.04048
  22213860.100   116734657.43409  22213857.380    90962075.77346
  23981381.680   126023017.43808  23981378.060    98199748.75245
  21997348.460   115596852.57808  21997344.900    90075459.43747
  22931885.340   120507908.52508  22931881.120    93902268.64847
  21933539.160   115261560.77309  21933538.460    89814219.00648
  23971495.520   125971020.67808  23971494.420    98159215.55446
 15 02 24 00 47 30.0000000  0  7G16G18G19G21G22G27G31
  20851077.800   109573176.89209  20851074.640    85381696.21048
  22206781.680   116697460.16009  22206779.000    90933090.89447
  23966937.360   125947112.52108  23966933.940    98140602.12745
  22008509.340   115655503.44008  22008505.840    90121161.40247
  22915457.500   120421580.19208  22915453.340    93834999.85447
  21923441.040   115208494.08509  21923440.180    89772868.35248
  23990260.700   126069631.67108  23990259.620    98236055.09846
 15 02 24 00 48  0.0000000  0  7G16G18G19G21G22G27G31
  20842353.080   109527328.38709  20842349.960    85345970.10648
  22199781.960   116660676.12809  22199779.200    90904428.02847
  23952510.380   125871298.40608  23952506.780    98081526.21945
  22019713.040   115714379.56808  22019709.620    90167038.89747
  22899061.220   120335417.76608  22899057.140    93767860.34047
  21913367.240   115155555.39609  21913366.240    89731617.43848
  24009028.040   126168254.10708  24009026.980    98312903.55546
 15 02 24 00 48 30.0000000  0  7G16G18G19G21G22G27G31
  20833704.260   109481878.59709  20833701.160    85310554.68148
  22192861.780   116624310.29209  22192859.020    90876091.01547
  23938101.120   125795577.59808  23938097.440    98022523.03645
  22030959.780   115773482.20508  22030956.520    90213092.88447
  22882697.500   120249426.57108  22882693.600    93700854.25047
  21903318.340   115102747.81609  21903317.260    89690468.68048
  24027797.520   126266887.89008  24027796.580    98389760.84046
 15 02 24 00 49  0.0000000  0  7G16G18G19G21G22G27G31
  20825130.920   109436825.55109  20825127.920    85275448.40848
  22186020.660   116588359.89509  22186017.920    90848077.72747
  23923708.920   125719946.08008  23923705.040    97963589.42045
  22042248.360   115832804.65108  22042245.280    90259318.14847
  22866366.160   120163605.65608  22866362.480    93633980.84947
  21893293.560   115050067.33609  21893292.460    89649418.97448
  24046567.780   126365525.88408  24046566.960    98466621.39946
 15 02 24 00 49 30.0000000  0  7G16G18G19G21G22G27G31
  20816634.120   109392174.65209  20816631.180    85240655.50048
  22179259.620   116552830.24009  22179256.820    90820392.29447
  23909334.380   125644407.73008  23909330.520    97904728.39245
  22053579.380   115892349.54708  22053576.240    90305716.75847
  22850068.500   120077961.49508  22850064.900    93567245.16447
  21883293.640   114997517.91409  21883292.620    89608471.38548
  24065339.180   126464169.33908  24065338.320    98543486.21246
 15 02 24 00 50  0.0000000  0  7G16G18G19G21G22G27G31
  20808213.620   109347924.79209  20808210.780    85206175.09948
  22172578.300   116517719.87209  22172575.440    90793033.57047
  23894976.980   125568959.25408  23894973.220    97845937.40545
  22064951.740   115952111.19508  22064948.520    90352284.27847
  22833804.320   119992493.15408  22833800.840    93500646.49847
  21873317.960   114945096.12909  21873317.060    89567623.26348
  24084110.420   126562811.80208  24084109.600    98620350.26646
 15 02 24 00 50 30.0000000  0  7G16G18G19G21G22G27G31
  20799870.200   109304079.77909  20799867.300    85172010.16048
  22165977.440   116483032.08709  22165974.520    90766004.15147
  23880637.140   125493602.69008  23880633.300    97787218.03746
  22076365.400   116012089.68108  22076362.100    90399020.75747
  22817574.500   119907205.34208  22817571.140    93434188.49547
  21863366.980   114892804.24809  21863366.180    89526876.36448
  24102881.280   126661452.63808  24102880.440    98697213.03846
 15 02 24 00 51  0.0000000  0  7G16G18G19G21G22G27G31
  20791604.700   109260644.23309  20791601.740    85138164.27648
  22159457.860   116448771.37609  22159454.880    90739307.49847
  23866315.340   125418340.84408  23866311.800    97728572.49246
  22087820.460   116072286.02608  22087817.080    90445926.98547
  22801379.980   119822103.21908  22801376.800    93367875.18547
  21853441.260   114840645.16209  21853440.620    89486232.93948
  24121651.800   126760091.56408  24121650.960    98774074.31246
 15 02 24 00 51 30.0000000  0  7G16G18G19G21G22G27G31
  20783416.900   109217617.13009  20783413.920    85104636.66148
  22153019.200   116414935.92609  22153016.160    90712942.22447
  23852010.860   125343170.24208  23852007.540    97669998.02445
  22099316.140   116132695.82208  22099312.880    90492999.53847
  22785220.920   119737187.23208  22785217.740    93301706.90647
  21843540.300   114788615.87309  21843539.680    89445690.64648
  24140420.860   126858722.88908  24140420.040    98850929.65846
 15 02 24 00 52  0.0000000  0  7G16G18G19G21G22G27G31
  20775307.840   109175003.72209  20775304.840    85071431.41848
  22146662.460   116381531.20809  22146659.460    90686912.58847
  23837724.360   125268094.75308  23837721.100    97611497.69846
  22110852.800   116193320.78608  22110849.500    90540239.77147
  22769098.460   119652463.25408  22769095.280    93235688.27147
  21833664.760   114736720.09609  21833664.160    89405252.40048
  24159188.620   126957347.40308  24159187.920    98927779.71046
 15 02 24 00 52 30.0000000  0  7G16G18G19G21G22G27G31
  20767277.120   109132801.73809  20767274.040    85038546.74748
  22140387.060   116348554.47309  22140384.200    90661216.43947
  23823455.160   125193110.02108  23823451.880    97553068.05946
  22122429.140   116254154.41408  22122425.680    90587642.58447
  22753012.240   119567929.49208  22753009.040    93169817.83047
  21823813.840   114684953.67209  21823813.300    89364914.93748
  24177953.760   127055957.91508  24177953.100    99004618.84046
 15 02 24 00 53  0.0000000  0  7G16G18G19G21G22G27G31
  20759325.460   109091015.35109  20759322.380    85005985.92748
  22134193.820   116316009.37109  22134191.100    90635856.63847
  23809203.640   125118218.42508  23809200.460    97494711.01446
  22134045.160   116315196.67208  22134041.640    90635207.97847
  22736963.200   119483591.15808  22736959.940    93104099.67647
  21813987.940   114633318.98909  21813987.560    89324680.12748
  24196716.100   127154553.75708  24196715.500    99081446.51246
 15 02 24 00 53 30.0000000  0  7G16G18G19G21G22G27G31
  20751453.380   109049647.06609  20751450.320    84973750.90148
  22128083.140   116283897.98009  22128080.520    90610834.78147
  23794970.000   125043420.67208  23794966.900    97436427.08446
  22145700.640   116376446.74308  22145697.080    90682935.29847
  22720952.040   119399451.78408  22720948.720    93038536.56447
  21804187.320   114581816.92709  21804187.040    89284548.66748
  24215475.260   127253132.72608  24215474.680    99158261.04046
 15 02 24 00 54  0.0000000  0  7G16G18G19G21G22G27G31
  20743660.580   109008695.47609  20743657.540    84941840.57348
  22122054.720   116252218.38809  22122052.160    90586149.39347
  23780753.640   124968712.82308  23780750.560    97378213.21046
  22157394.720   116437899.71408  22157391.200    90730820.71747
  22704978.540   119315510.40108  22704975.160    92973127.71747
