     2.11           OBSERVATION DATA    M                   RINEX VERSION / TYPE
SPIDER V4,0,0,3554                      2015 03 16 00:23    PGM / RUN BY / DATE 
ABKD                                                        MARKER NAME         
ABKD                                                        MARKER NUMBER       
                                                            OBSERVER / AGENCY   
496503              LEICA GRX1200+GNSS  8.20/4.007          REC # / TYPE / VERS 
10301028            LEIAR25         NONE                    ANT # / TYPE        
  5126847.8297   206786.8373  3776118.0908                  APPROX POSITION XYZ 
        0.0000        0.0000        0.0000                  ANTENNA: DELTA H/E/N
     1     1                                                WAVELENGTH FACT L1/2
     4    C1    L1    P2    L2                              # / TYPES OF OBSERV 
    30.000                                                  INTERVAL            
  2015    02    11    00    00    0.0000000     GPS         TIME OF FIRST OBS   
  2015    02    11    23    59   30.0000000     GPS         TIME OF LAST OBS    
    16                                                      LEAP SECONDS        
    54                                                      # OF SATELLITES     
   G 1   739   738   738   738                              PRN / # OF OBS      
   G 2   856   856   856   856                              PRN / # OF OBS      
   G 3   748   748   748   748                              PRN / # OF OBS      
   G 4   719   719   719   719                              PRN / # OF OBS      
   G 5   587   587   587   587                              PRN / # OF OBS      
   G 6   614   614   614   614                              PRN / # OF OBS      
   G 7   644   644   644   644                              PRN / # OF OBS      
   G 9   710   710   710   710                              PRN / # OF OBS      
   G10   653   653   653   653                              PRN / # OF OBS      
   G11   678   678   678   678                              PRN / # OF OBS      
   G12   730   730   730   730                              PRN / # OF OBS      
   G13   731   730   730   730                              PRN / # OF OBS      
   G14   859   859   859   859                              PRN / # OF OBS      
   G15   636   636   636   636                              PRN / # OF OBS      
   G16   612   612   612   612                              PRN / # OF OBS      
   G17   858   858   858   858                              PRN / # OF OBS      
   G18   816   816   816   816                              PRN / # OF OBS      
   G19   688   688   688   688                              PRN / # OF OBS      
   G20   732   731   731   731                              PRN / # OF OBS      
   G21   588   587   587   587                              PRN / # OF OBS      
   G22   727   726   725   725                              PRN / # OF OBS      
   G23   641   641   641   641                              PRN / # OF OBS      
   G24   754   754   754   754                              PRN / # OF OBS      
   G25   752   751   751   751                              PRN / # OF OBS      
   G27   706   706   705   705                              PRN / # OF OBS      
   G28   831   831   831   831                              PRN / # OF OBS      
   G29   635   634   633   633                              PRN / # OF OBS      
   G30   614   614   613   613                              PRN / # OF OBS      
   G31   688   686   686   686                              PRN / # OF OBS      
   G32   638   638   637   637                              PRN / # OF OBS      
   R 1   736   736   734   734                              PRN / # OF OBS      
   R 2   759   759   759   758                              PRN / # OF OBS      
   R 3   678   678   677   677                              PRN / # OF OBS      
   R 4   838   838   838   838                              PRN / # OF OBS      
   R 5   908   908   908   905                              PRN / # OF OBS      
   R 6   909   909   909   909                              PRN / # OF OBS      
   R 7   855   855   855   855                              PRN / # OF OBS      
   R 8   658   658   657   657                              PRN / # OF OBS      
   R 9   821   821   821   821                              PRN / # OF OBS      
   R10   964   964   964   964                              PRN / # OF OBS      
   R11   953   953   952   952                              PRN / # OF OBS      
   R12   787   787   787   787                              PRN / # OF OBS      
   R13   615   615   614   614                              PRN / # OF OBS      
   R14   637   637   636   636                              PRN / # OF OBS      
   R15   736   736   736   735                              PRN / # OF OBS      
   R16   779   779   778   778                              PRN / # OF OBS      
   R17   815   815   814   814                              PRN / # OF OBS      
   R18   791   791   791   790                              PRN / # OF OBS      
   R19   840   840   829   822                              PRN / # OF OBS      
   R20   887   887   886   886                              PRN / # OF OBS      
   R21   605   605   602   601                              PRN / # OF OBS      
   R22   683   683   683   682                              PRN / # OF OBS      
   R23   584   584   584   584                              PRN / # OF OBS      
   R24   760   760   755   755                              PRN / # OF OBS      
BIT 2 OF LLI FLAGS DATA COLLECTED UNDER A/S CONDITION       COMMENT             
SNR is mapped to RINEX snr flag value [2-9]                 COMMENT             
Lx:     = 25dBHz -> 1; 26-27dBHz -> 2; 28-31dBHz -> 3       COMMENT             
       32-35dBHz -> 4; 36-38dBHz -> 5; 39-41dBHz -> 6       COMMENT             
       42-44dBHz -> 7; 45-48dBHz -> 8; >=49dBHz -> 9        COMMENT             
                                                            END OF HEADER       
 15 02 11 00 00  0.0000000  0  6G16G21G25G27G29G31
 -34781181.980  -182776335.46108 -34781185.600  -142423133.56746
 -37295814.320  -195990742.78208 -37295818.040  -152720073.41748
 -35462477.020  -186356588.29908 -35462476.860  -145212932.07547
 -33787269.940  -177553306.67708 -33787270.820  -138353224.66545
 -36280090.140  -190653163.21109 -36280093.280  -148560918.87548
 -37285011.780  -195934059.12109 -37285015.100  -152675909.20648
 15 02 11 00 00 30.0000000  0  6G16G21G25G27G29G31
 -35015447.200  -184007406.96008 -35015450.780  -143382410.04945
 -37517696.180  -197156739.87608 -37517699.880  -153628642.56548
 -35665650.020  -187424269.53808 -35665649.900  -146044891.51347
 -34020401.940  -178778421.56907 -34020401.920  -139307859.56146
 -36484450.160  -191727082.39009 -36484453.240  -149397739.02948
 -37494521.620  -197035040.55409 -37494524.840  -153533816.83248
 15 02 11 00 01  0.0000000  0  6G16G21G25G27G29G31
 -35249706.520  -185238448.43708 -35249710.240  -144341663.15445
 -37739491.000  -198322279.11008 -37739494.660  -154536854.95148
 -35868779.320  -188491721.51908 -35868779.280  -146876672.30447
 -34253513.000  -180003426.44207 -34253512.920  -140262408.77345
 -36688794.220  -192800917.70209 -36688797.220  -150234493.82648
 -37703935.580  -198135518.05009 -37703938.760  -154391331.79148
 15 02 11 00 01 30.0000000  0  6G16G21G25G27G29G31
 -35483960.440  -186469462.04108 -35483964.300  -145300894.51646
 -37961199.220  -199487363.65608 -37961202.940  -155444713.02148
 -36071865.700  -189558948.11708 -36071865.780  -147708277.47447
 -34486603.880  -181228324.56708 -34486603.660  -141216874.79245
 -36893123.300  -193874673.44009 -36893126.080  -151071186.62348
 -37913254.520  -199235496.47509 -37913257.760  -155248457.84248
 15 02 11 00 02  0.0000000  0  6G16G21G25G27G29G31
 -35718208.480  -187700444.59608 -35718212.340  -146260101.68345
 -38182820.420  -200651991.19608 -38182824.180  -156352215.00048
 -36274908.980  -190625947.82308 -36274909.160  -148539705.85846
 -34719673.760  -182453113.68708 -34719673.960  -142171255.91245
 -37097437.060  -194948348.53109 -37097439.560  -151907816.59348
 -38122478.360  -200334975.17509 -38122481.600  -156105194.51848
 15 02 11 00 02 30.0000000  0  6G16G21G25G27G29G31
 -35952450.120  -188931392.98508 -35952454.080  -147219282.22345
 -38404354.240  -201816159.63508 -38404357.980  -157259359.23048
 -36477908.840  -191692719.26208 -36477908.900  -149370956.34746
 -34952722.140  -183677791.65508 -34952722.300  -143125550.38145
 -37301735.220  -196021942.20909 -37301737.620  -152744383.11548
 -38331606.980  -201433953.90609 -38331610.200  -156961541.59648
 15 02 11 00 03  0.0000000  0  6G16G21G25G27G29G31
 -36186684.160  -190162300.80308 -36186688.140  -148178431.15845
 -38625799.780  -202979864.17008 -38625803.580  -158166141.97648
 -36680864.400  -192759257.92308 -36680864.460  -150202025.46347
 -35185748.340  -184902353.46307 -35185748.740  -144079754.34446
 -37506017.000  -197095450.46909 -37506019.400  -153580883.06648
 -38540639.840  -202532429.35609 -38540643.020  -157817496.51348
 15 02 11 00 03 30.0000000  0  6G16G21G25G27G29G31
 -36420910.460  -191393167.54408 -36420914.440  -149137548.09546
 -38847157.160  -204143105.34508 -38847161.080  -159072563.67148
 -36883775.940  -193825564.96008 -36883775.840  -151032914.09646
 -35418752.900  -186126799.59207 -35418752.860  -145033868.09045
 -37710282.900  -198168875.08909 -37710285.280  -154417317.85248
 -38749577.280  -203630403.61109 -38749580.560  -158673060.88548
 15 02 11 00 04  0.0000000  0  6G16G21G25G27G29G31
 -36655129.320  -192623995.12008 -36655133.260  -150096634.49646
 -39068427.040  -205305886.38308 -39068430.960  -159978626.80148
 -37086644.080  -194891644.43908 -37086644.080  -151863625.40746
 -35651736.040  -187351133.27807 -35651735.820  -145987894.26145
 -37914533.760  -199242220.54209 -37914536.240  -155253690.94048
 -38958420.340  -204727881.80609 -38958423.720  -159528238.71248
 15 02 11 00 04 30.0000000  0  6G16G21G25G27G29G31
 -36889339.620  -193854777.99908 -36889343.460  -151055686.07646
 -39289608.520  -206468202.71908 -39289612.380  -160884327.83648
 -37289467.980  -195957491.78208 -37289468.100  -152694155.84146
 -35884696.500  -188575349.31807 -35884696.680  -146941828.82645
 -38118768.760  -200315483.19709 -38118771.380  -156089999.52348
 -39167168.320  -205824860.50709 -39167171.800  -160383027.33248
 15 02 11 00 05  0.0000000  0  7G16G18G21G25G27G29G31
 -37123539.960  -195085508.68308 -37123543.560  -152014696.98145
 -36020503.540  -189289022.24007 -36020501.640  -147497929.93944
 -39510700.320  -207630047.73108 -39510704.220  -161789661.59748
 -37492246.760  -197023101.77608 -37492246.920  -153524501.31146
 -36117633.420  -189799441.78807 -36117633.620  -147895667.07745
 -38322986.960  -201388657.95409 -38322989.780  -156926239.60448
 -39375820.460  -206921335.58309 -39375824.020  -161237423.51948
 15 02 11 00 05 30.0000000  0  7G16G18G21G25G27G29G31
 -37357731.680  -196316194.81208 -37357735.080  -152973673.16945
 -36252731.260  -190509388.24407 -36252729.200  -148448864.55743
 -39731704.160  -208791430.83808 -39731708.120  -162694635.43048
 -37694982.200  -198088484.06908 -37694982.320  -154354669.35646
 -36350548.820  -191023419.71207 -36350548.660  -148849416.03346
 -38527190.280  -202461754.49709 -38527193.200  -157762418.73448
 -39584378.780  -208017317.47509 -39584382.400  -162091435.39548
 15 02 11 00 06  0.0000000  0  7G16G18G21G25G27G29G31
 -37591915.960  -197546841.51408 -37591919.220  -153932618.62746
 -36484970.500  -191729813.72407 -36484968.420  -149399845.43443
 -39952621.180  -209952357.65608 -39952625.120  -163599253.73448
 -37897675.520  -199153645.12808 -37897675.660  -155184665.01146
 -36583443.480  -192247288.84607 -36583442.840  -149803080.20146
 -38731380.120  -203534779.95609 -38731383.100  -158598542.47948
 -39792844.880  -209112814.30109 -39792848.480  -162945069.30348
 15 02 11 00 06 30.0000000  0  7G16G18G21G25G27G29G31
 -37826092.740  -198777448.93908 -37826096.020  -154891533.49746
 -36717221.060  -192950299.03807 -36717218.940  -150350872.99644
 -40173451.600  -211112829.34308 -40173455.480  -164503517.37448
 -38100327.280  -200218587.36408 -38100327.420  -156014490.15346
 -36816317.540  -193471050.84308 -36816316.760  -150756660.91446
 -38935557.120  -204607737.58209 -38935560.260  -159434613.36047
 -40001219.360  -210207829.46309 -40001222.900  -163798327.89648
 15 02 11 00 07  0.0000000  0  7G16G18G21G25G27G29G31
 -38060261.120  -200008011.82608 -38060264.360  -155850413.66346
 -36949481.700  -194170837.70907 -36949479.520  -151301942.24444
 -40394195.260  -212272845.26808 -40394199.240  -165407425.89048
 -38302936.860  -201283307.90408 -38302937.020  -156844142.56246
 -37049170.460  -194694702.15508 -37049169.880  -151710155.41945
 -39139720.760  -205680624.64909 -39139723.980  -160270629.26548
 -40209501.920  -211302361.12309 -40209505.380  -164651209.73548
 15 02 11 00 07 30.0000000  0  7G16G18G21G25G27G29G31
 -38294421.040  -201238529.35008 -38294424.140  -156809258.46446
 -37181751.860  -195391426.62607 -37181749.860  -152253050.62044
 -40614851.780  -213432403.12808 -40614855.880  -166310977.45248
 -38505504.280  -202347806.97808 -38505504.520  -157673622.38146
 -37282002.420  -195918242.25007 -37282001.960  -152663563.23045
 -39343871.080  -206753441.83809 -39343874.380  -161106590.72547
 -40417692.680  -212396410.54609 -40417696.080  -165503715.79448
 15 02 11 00 08  0.0000000  0  7G16G18G21G25G27G29G31
 -38528571.560  -202468997.66008 -38528574.560  -157768064.93846
 -37414030.660  -196612060.69707 -37414028.440  -153204193.88644
 -40835420.720  -214591500.66608 -40835424.820  -167214170.33748
 -38708029.260  -203412082.74408 -38708029.320  -158502928.20446
 -37514812.900  -197141668.70808 -37514812.360  -153616882.48846
 -39548007.880  -207826187.60009 -39548011.180  -161942496.51747
 -40625791.620  -213489977.47809 -40625794.900  -166355845.88948
 15 02 11 00 08 30.0000000  0  7G16G18G21G25G27G29G31
 -38762712.300  -203699415.06708 -38762715.320  -158726831.73045
 -37646317.700  -197832737.91408 -37646315.480  -154155370.73244
 -41055902.080  -215750138.00108 -41055906.120  -168117004.60548
 -38910511.840  -204476135.57708 -38910511.760  -159332060.31147
 -37747601.600  -198364981.12108 -37747601.080  -154570112.88646
 -39752131.220  -208898862.52409 -39752134.480  -162778347.11847
 -40833799.000  -214583063.38109 -40833802.180  -167207601.16248
 15 02 11 00 09  0.0000000  0  7G16G18G21G25G27G29G31
 -38996843.500  -204929783.36908 -38996846.600  -159685560.25646
 -37878613.200  -199053458.55207 -37878610.680  -155106581.46944
 -41276296.560  -216908318.76308 -41276300.580  -169019483.11748
 -39112952.660  -205539969.34208 -39112952.500  -160161021.72847
 -37980369.260  -199588182.61807 -37980369.060  -155523256.86346
 -39956241.920  -209971470.98409 -39956245.060  -163614145.92947
 -41041715.720  -215675673.11309 -41041718.860  -168058985.39648
 15 02 11 00 09 30.0000000  0  7G16G18G21G25G27G29G31
 -39230964.420  -206160098.07408 -39230967.780  -160644247.00946
 -38110915.960  -200274217.24607 -38110913.480  -156057821.92144
 -41496603.420  -218066038.92208 -41496607.460  -169921602.71148
 -39315351.220  -206603581.46408 -39315351.040  -160989810.42347
 -38213115.300  -200811269.94207 -38213115.220  -156476311.82845
 -40160339.640  -211044010.71508 -40160342.420  -164449891.18748
 -41249541.540  -216767805.35309 -41249544.760  -168909997.55148
 15 02 11 00 10  0.0000000  0  7G16G18G21G25G27G29G31
 -39465075.300  -207390359.55108 -39465078.720  -161602892.29146
 -38343225.900  -201495012.69608 -38343223.500  -157009090.87445
 -41716823.140  -219223301.33508 -41716827.240  -170823365.62048
 -39517708.060  -207666974.09508 -39517707.860  -161818428.10147
 -38445839.740  -202034244.46307 -38445839.680  -157429278.96246
 -40364424.660  -212116484.27909 -40364427.200  -165285584.88648
 -41457277.160  -217859463.61409 -41457280.480  -169760640.37148
 15 02 11 00 10 30.0000000  0  7G16G18G21G25G27G29G31
 -39699175.720  -208620565.31508 -39699179.020  -162561494.16646
 -38575542.060  -202715842.05208 -38575539.840  -157960386.19445
 -41936955.420  -220380104.40308 -41936959.480  -171724770.59648
 -39720023.200  -208730147.14308 -39720022.860  -162646874.68247
 -38678542.360  -203257105.29508 -38678542.080  -158382157.48746
 -40568496.980  -213188891.76609 -40568499.420  -166121227.09648
 -41664922.760  -218950648.92809 -41664926.200  -170610914.65948
 15 02 11 00 11  0.0000000  0  7G16G18G21G25G27G29G31
 -39933265.040  -209850712.26908 -39933268.240  -163520050.22246
 -38807863.880  -203936700.45808 -38807861.840  -158911704.07844
 -42157000.200  -221536447.57608 -42157004.200  -172625817.22548
 -39922296.300  -209793099.36508 -39922295.920  -163475149.17946
 -38911223.040  -204479850.60807 -38911222.220  -159334945.96346
 -40772556.560  -214261232.65909 -40772559.080  -166956817.41548
 -41872478.340  -220041361.20609 -41872481.860  -171460820.35448
 15 02 11 00 11 30.0000000  0  7G16G18G21G25G27G29G31
 -40167343.180  -211080800.42708 -40167346.180  -164478560.45346
 -39040191.160  -205157586.72307 -39040188.980  -159863043.70344
 -42376957.600  -222692331.42608 -42376961.540  -173526505.92648
 -40124527.660  -210855832.39008 -40124527.320  -164303252.86546
 -39143882.100  -205702481.14107 -39143881.040  -160287645.03246
 -40976603.760  -215333508.40009 -40976606.400  -167792356.97348
 -42079944.440  -221131603.41409 -42079947.960  -172310359.75548
 15 02 11 00 12  0.0000000  0  7G16G18G21G25G27G29G31
 -40401408.180  -212310819.99108 -40401411.180  -165437017.23446
 -39272521.840  -206378490.34108 -39272519.400  -160814396.97744
 -42596826.020  -223847748.08108 -42596830.020  -174426830.57848
 -40326715.980  -211918338.87108 -40326715.560  -165131180.04246
 -39376517.740  -206924988.90208 -39376516.620  -161240248.42546
 -41180637.140  -216405711.68709 -41180639.940  -168627840.07748
 -42287319.920  -222221369.32709 -42287323.440  -173159528.01748
 15 02 11 00 12 30.0000000  0  7G16G18G21G25G27G29G31
 -40635460.720  -213540774.28308 -40635463.640  -166395423.15346
 -39504856.080  -207599413.47508 -39504853.420  -161765765.36145
 -42816606.480  -225002702.35408 -42816610.480  -175326794.93548
 -40528862.260  -212980624.53408 -40528861.820  -165958935.15546
 -39609130.760  -208147378.82508 -39609130.040  -162192760.02045
 -41384657.880  -217477848.83209 -41384660.820  -169463271.62848
 -42494606.100  -223310666.06509 -42494609.720  -174008330.69248
 15 02 11 00 13  0.0000000  0  6G16G18G25G27G29G31
 -40869503.120  -214770675.92208 -40869506.240  -167353788.05846
 -39737196.200  -208820367.97508 -39737193.640  -162717158.32845
 -40730969.100  -214042703.68008 -40730968.840  -166786529.31146
 -39841723.900  -209369664.43608 -39841723.320  -163145190.29946
 -41588668.880  -218549934.32709 -41588671.900  -170298662.93647
 -42701806.000  -224399509.43209 -42701809.720  -174856780.08248
 15 02 11 00 13 30.0000000  0  6G16G18G25G27G29G31
 -41103535.280  -216000524.60508 -41103538.780  -168312111.69746
 -39969541.940  -210041351.87108 -39969539.300  -163668574.26645
 -40933037.000  -215104577.83008 -40933036.680  -167613963.75946
 -40074297.580  -210591846.57908 -40074296.700  -164097539.91146
 -41792670.500  -219621969.76109 -41792673.580  -171134015.23447
 -42908920.200  -225487901.98909 -42908923.980  -175704878.19648
 15 02 11 00 14  0.0000000  0  5G16G18G25G27G29
 -41337555.340  -217230309.72708 -41337559.260  -169270385.79546
 -40201890.760  -211262353.24008 -40201888.220  -164620003.77245
 -41135064.300  -216166238.90108 -41135064.100  -168441232.16146
 -40306849.760  -211813916.25508 -40306848.940  -165049801.93446
 -41996661.160  -220693947.50709 -41996664.180  -171969322.57947
 15 02 11 00 14 30.0000000  0  5G16G18G25G27G29
 -41571561.320  -218460020.70708 -41571565.560  -170228602.12746
 -40434240.780  -212483360.61508 -40434238.560  -165571437.94544
 -41337049.320  -217227678.14108 -41337049.280  -169268327.68346
 -40539378.620  -213035864.09308 -40539378.160  -166001969.03745
 -42200639.160  -221765858.73009 -42200642.060  -172804578.09047
 15 02 11 00 15  0.0000000  0  6R09R10R16R19R20R21
 -42949672.960  -229348857.40108 -42949822.520  -178383065.81205
 -42949672.960  -228945925.46609 -42949678.360  -178069075.52907
 -42042341.620  -224582705.89007 -42042336.880  -174675447.50006
 -42949672.960  -229751789.33608 -42949792.940  -178696335.33808
 -42949672.960  -229671202.94908 -42949790.920  -178633648.46008
 -41393480.360  -221504864.94107 -41393479.160  -172281557.63405
 15 02 11 00 15 30.0000000  0  7G16R09R10R16R19R20R21
 -42039528.860  -220919205.26208 -42039533.200  -172144849.79646
 -42949672.960  -229348857.40108 -42949590.460  -178382101.99906
 -42949672.960  -228945925.46609 -42949745.720  -178069354.80307
 -42235524.780  -225614656.33407 -42235520.180  -175478075.99006
 -42949672.960  -229751789.33609 -42949794.820  -178696343.16008
 -42949672.960  -229671202.94908 -42949833.480  -178633825.47308
 -41628365.840  -222761784.91507 -41628364.340  -173259161.92905
 15 02 11 00 16  0.0000000  0 10G16G18G25G27G29R09R10R16R19R20
 -42273490.980  -222148683.82808 -42273495.180  -173102885.03245
 -41131291.420  -216146383.49607 -41131289.200  -168425741.35543
 -41942750.860  -220410662.79908 -41942751.060  -171748575.58546
 -41236825.460  -216700966.44407 -41236823.460  -168857892.77746
 -42812497.160  -224981193.27609 -42812500.040  -175310033.61147
 -42949672.960  -229348857.40108 -42949553.040  -178381946.58306
 -42949672.960  -228945925.46609 -42949692.980  -178069136.14307
 -42428671.300  -226646411.88208 -42428666.880  -176280552.89506
 -42949672.960  -229751789.33609 -42949750.360  -178696158.18008
 -42949672.960  -229671202.94907 -42949793.840  -178633660.60508
 15 02 11 00 16 30.0000000  0  9G16G18G25G27R09R10R16R19R20
 -42507442.100  -223378104.05308 -42507446.000  -174060874.79946
 -41363645.000  -217367409.04607 -41363642.820  -169377189.50044
 -42144572.520  -221471242.66308 -42144572.580  -172575001.49246
 -41469265.440  -217922446.85608 -41469263.460  -169809695.66746
 -42949672.960  -229348857.40108 -42949713.640  -178382613.60106
 -42949672.960  -228945925.46609 -42949522.320  -178068428.58807
 -42621784.740  -227677991.29407 -42621780.420  -177082892.81006
 -42949672.960  -229751789.33609 -42949662.760  -178695793.71308
 -42949672.960  -229671202.94908 -42949675.060  -178633166.58408
 15 02 11 00 17  0.0000000  0 10G16G18G25G27G29R09R10R16R19R20
 -42741380.660  -224607458.91608 -42741384.340  -175018813.65946
 -41596000.480  -218588444.07607 -41595998.260  -170328644.91944
 -42346355.860  -222531620.63808 -42346355.680  -173401270.07746
 -41701685.180  -219143821.45908 -41701683.540  -170761416.11746
 -42949672.960  -225702839.08209 -42949693.280  -175872438.25847
 -42949672.960  -229348857.40108 -42949743.460  -178382737.45205
 -42949672.960  -228945925.46609 -42949559.880  -178068584.31207
 -42814864.940  -228709392.53008 -42814860.600  -177885094.14306
 -42949672.960  -229751789.33609 -42949531.200  -178695246.34608
 -42949672.960  -229671202.94908 -42949803.440  -178633700.53208
 15 02 11 00 17 30.0000000  0  8G18G25G27R09R10R19R20R21
 -41828355.240  -219809475.79307 -41828352.840  -171280097.92043
 -42548098.920  -223591787.30108 -42548098.520  -174227374.01546
 -41934082.920  -220365079.97008 -41934081.320  -171713046.05846
 -42949672.960  -229348857.40108 -42949640.880  -178382311.40806
 -42949672.960  -228945925.46609 -42949803.200  -178069593.11507
 -42949672.960  -229751789.33609 -42949682.580  -178695876.17508
 -42949672.960  -229671202.94908 -42949522.100  -178632530.40408
 -42567492.000  -227787243.16307 -42567486.800  -177167840.29606
 15 02 11 00 18  0.0000000  0  9G16G18G25G27R09R10R19R20R21
 -42949672.960  -225702125.05408 -42949692.060  -175871878.43946
 -42060706.820  -221030490.10207 -42060704.360  -172231536.82544
 -42749799.820  -224651732.70808 -42749799.300  -175053305.55046
 -42166456.540  -221586211.67208 -42166454.880  -172664577.19846
 -42949672.960  -229348857.40108 -42949732.380  -178382691.43406
 -42949672.960  -228945925.46609 -42949593.960  -178068725.60707
 -42949672.960  -229751789.33609 -42949787.320  -178696311.95508
 -42949672.960  -229671202.94907 -42949812.340  -178633737.54908
 -42802164.380  -229043022.71807 -42802159.660  -178144557.59706
 15 02 11 00 18 30.0000000  0  5G31R09R10R19R20
 -42949672.960  -225702054.76809 -42949572.800  -175871320.85048
 -42949672.960  -229348857.40108 -42949690.040  -178382515.58406
 -42949672.960  -228945925.46609 -42949586.640  -178068695.25807
 -42949672.960  -229751789.33609 -42949517.700  -178695190.17808
 -42949672.960  -229671202.94908 -42949691.320  -178633234.21108
 15 02 11 00 19  0.0000000  0  5R09R10R16R19R20
 -42949672.960  -229348857.40108 -42949518.140  -178381801.63306
 -42949672.960  -228945925.46609 -42949784.340  -178069514.92107
  42949670.300   229428543.73707  42949522.060   178443794.37806
 -42949672.960  -229751789.33609 -42949533.620  -178695256.41408
 -42949672.960  -229671202.94908 -42949817.920  -178633760.75708
 15 02 11 00 19 30.0000000  0  4R09R10R19R20
 -42949672.960  -229348857.40109 -42949545.380  -178381914.76906
 -42949672.960  -228945925.46609 -42949531.360  -178068466.06807
 -42949672.960  -229751789.33608 -42949835.900  -178696514.07608
 -42949672.960  -229671202.94908 -42949537.740  -178632595.45208
 15 02 11 00 20  0.0000000  0  7G18G29R09R10R19R20R21
 -42949672.960  -225702286.29707 -42949786.740  -175872361.46644
 -42949672.960  -225702054.76808 -42949782.920  -175872181.25647
 -42949672.960  -229348857.40108 -42949770.080  -178382848.01306
 -42949672.960  -228945925.46609 -42949808.360  -178069614.50807
 -42949672.960  -229751789.33608 -42949768.260  -178696232.65408
 -42949672.960  -229671202.94908 -42949832.060  -178633819.56708
 -42949672.960  -229833010.85207 -42949722.620  -178759204.16505
 15 02 11 00 20 30.0000000  0  6G25G31R09R10R19R20
 -42949672.960  -225702630.14208 -42949647.060  -175872080.88446
 -42949672.960  -225702054.76809 -42949638.280  -175871588.97948
 -42949672.960  -229348857.40109 -42949535.520  -178381873.81706
 -42949672.960  -228945925.46609 -42949629.840  -178068874.36507
 -42949672.960  -229751789.33609 -42949656.640  -178695768.25008
 -42949672.960  -229671202.94908 -42949716.500  -178633338.93808
 15 02 11 00 21  0.0000000  0  6G16R09R10R16R19R20
 -42949672.960  -225702054.76808 -42949673.440  -175871732.95446
 -42949672.960  -229348857.40109 -42949824.520  -178383074.11806
 -42949672.960  -228945925.46609 -42949649.440  -178068955.62707
 -42949672.960  -229429443.78807 -42949594.980  -178444798.95906
 -42949672.960  -229751789.33609 -42949828.240  -178696482.20608
 -42949672.960  -229671202.94908 -42949517.280  -178632510.35708
 15 02 11 00 21 30.0000000  0  7G27G31R09R10R16R19R20
 -42949672.960  -225703310.17308 -42949651.720  -175872618.62146
 -42949672.960  -225702054.76809 -42949662.500  -175871688.15648
 -42949672.960  -229348857.40108 -42949657.560  -178382380.68506
 -42949672.960  -228945925.46609 -42949542.460  -178068512.08807
 -42949672.960  -229429443.78807 -42949707.260  -178445265.45406
 -42949672.960  -229751789.33609 -42949631.440  -178695663.40308
 -42949672.960  -229671202.94908 -42949566.120  -178632713.48808
 15 02 11 00 22  0.0000000  0  6G25R09R10R16R19R20
 -42949672.960  -225702054.76808 -42949672.280  -175871728.20446
 -42949672.960  -229348857.40109 -42949691.040  -178382519.73705
 -42949672.960  -228945925.46609 -42949636.720  -178068902.89007
 -42949672.960  -229429443.78807 -42949792.360  -178445619.02405
 -42949672.960  -229751789.33609 -42949723.000  -178696044.34608
 -42949672.960  -229671202.94908 -42949536.380  -178632589.79608
 15 02 11 00 22 30.0000000  0  8G27G31R09R10R16R19R20R21
 -42949672.960  -225702054.76808 -42949697.420  -175871831.14846
 -42949672.960  -225702054.76809 -42949692.900  -175871812.63948
 -42949672.960  -229348857.40108 -42949596.280  -178382126.17105
 -42949672.960  -228945925.46609 -42949602.140  -178068759.52107
 -42949672.960  -229429443.78807 -42949521.640  -178444494.25005
 -42949672.960  -229751789.33608 -42949774.120  -178696257.03508
 -42949672.960  -229671202.94908 -42949754.000  -178633494.90508
 -42949672.960  -229832375.72307 -42949755.880  -178758859.56806
 15 02 11 00 23  0.0000000  0  6R09R10R16R19R20R21
 -42949672.960  -229348857.40108 -42949699.500  -178382554.87406
 -42949672.960  -228945925.46609 -42949763.620  -178069429.01607
 -42949672.960  -229429443.78807 -42949549.560  -178444610.25006
 -42949672.960  -229751789.33608 -42949783.140  -178696294.56408
 -42949672.960  -229671202.94908 -42949562.120  -178632696.85208
 -42949672.960  -229832375.72307 -42949692.260  -178758594.77906
 15 02 11 00 23 30.0000000  0  7G25G27R09R10R16R19R20
 -42949672.960  -225702054.76808 -42949673.060  -175871731.39846
 -42949672.960  -225702054.76808 -42949647.540  -175871626.89846
 -42949672.960  -229348857.40109 -42949672.720  -178382443.64905
 -42949672.960  -228945925.46609 -42949792.460  -178069548.58707
 -42949672.960  -229429443.78807 -42949547.440  -178444601.44206
 -42949672.960  -229751789.33609 -42949750.200  -178696157.51408
 -42949672.960  -229671202.94908 -42949615.820  -178632920.19708
 15 02 11 00 24  0.0000000  0  6G31R09R10R16R19R20
 -42949672.960  -225702054.76809 -42949617.100  -175871502.25148
 -42949672.960  -229348857.40108 -42949519.820  -178381808.61106
 -42949672.960  -228945925.46609 -42949691.640  -178069130.58807
 -42949672.960  -229429443.78807 -42949520.360  -178444488.93206
 -42949672.960  -229751789.33609 -42949679.320  -178695862.61208
 -42949672.960  -229671202.94907 -42949591.260  -178632818.04908
 15 02 11 00 24 30.0000000  0  6G31R09R10R16R19R20
 -42949672.960  -225702054.76809 -42949762.220  -175872096.49348
 -42949672.960  -229348857.40108 -42949569.820  -178382016.27506
 -42949672.960  -228945925.46609 -42949789.140  -178069534.82207
 -42949672.960  -229429443.78807 -42949797.160  -178445638.96606
 -42949672.960  -229751789.33609 -42949571.840  -178695415.43208
 -42949672.960  -229671202.94908 -42949816.560  -178633755.10008
 15 02 11 00 25  0.0000000  0  7G16R09R10R16R19R20R21
 -42949672.960  -225702054.76808 -42949761.680  -175872094.28246
 -42949672.960  -229348857.40109 -42949822.080  -178383063.98406
 -42949672.960  -228945925.46609 -42949755.440  -178069395.10207
 -42949672.960  -229429443.78807 -42949722.360  -178445328.19106
 -42949672.960  -229751789.33609 -42949754.200  -178696174.15708
 -42949672.960  -229671202.94908 -42949635.980  -178633004.04508
 -42949672.960  -229832375.72308 -42949648.780  -178758413.81306
 15 02 11 00 25 30.0000000  0 10G18G21G27G29R09R10R16R19R20R21
 -42949672.960  -225702054.76808 -42949598.380  -175871425.59645
 -42949672.960  -225702054.76808 -42949597.760  -175871423.05748
 -42949672.960  -225702054.76808 -42949613.100  -175871485.87246
 -42949672.960  -225702054.76809 -42949637.940  -175871587.58747
 -42949672.960  -229348857.40108 -42949619.120  -178382221.03205
 -42949672.960  -228945925.46609 -42949587.080  -178068697.08307
 -42949672.960  -229429443.78807 -42949621.360  -178444908.56106
 -42949672.960  -229751789.33609 -42949569.160  -178695404.28208
 -42949672.960  -229671202.94908 -42949701.860  -178633278.04808
 -42949672.960  -229832375.72307 -42949687.640  -178758575.55006
 15 02 11 00 26  0.0000000  0  5R09R10R16R19R20
 -42949672.960  -229348857.40108 -42949615.680  -178382206.74506
 -42949672.960  -228945925.46609 -42949610.120  -178068792.60607
 -42949672.960  -229429443.78807 -42949821.680  -178445740.84106
 -42949672.960  -229751789.33609 -42949671.360  -178695829.49408
 -42949672.960  -229671202.94907 -42949686.100  -178633212.50008
 15 02 11 00 26 30.0000000  0  6G16R09R10R16R19R20
 -42949672.960  -225702054.76809 -42949716.940  -175871911.07946
 -42949672.960  -229348857.40108 -42949815.440  -178383036.40606
 -42949672.960  -228945925.46609 -42949827.540  -178069694.02807
 -42949672.960  -229429443.78807 -42949671.920  -178445118.62606
 -42949672.960  -229751789.33609 -42949736.960  -178696102.42808
 -42949672.960  -229671202.94908 -42949592.400  -178632822.79008
 15 02 11 00 27  0.0000000  0  7G25G29R09R10R16R19R20
 -42949672.960  -225702054.76808 -42949748.560  -175872040.55846
 -42949672.960  -225702054.76808 -42949735.620  -175871987.57147
 -42949672.960  -229348857.40108 -42949565.560  -178381998.58206
 -42949672.960  -228945925.46609 -42949585.180  -178068689.20507
 -42949672.960  -229429443.78807 -42949830.000  -178445775.40806
 -42949672.960  -229751789.33609 -42949768.480  -178696233.57008
 -42949672.960  -229671202.94907 -42949750.140  -178633478.85108
 15 02 11 00 27 30.0000000  0  7G29R09R10R16R19R20R21
 -42949672.960  -225702054.76808 -42949645.900  -175871620.18247
 -42949672.960  -229348857.40109 -42949520.380  -178381810.93706
 -42949672.960  -228945925.46609 -42949536.200  -178068486.13407
 -42949672.960  -229429443.78807 -42949639.620  -178444984.42705
 -42949672.960  -229751789.33608 -42949765.260  -178696220.17308
 -42949672.960  -229671202.94907 -42949830.960  -178633814.99208
 -42949672.960  -229832375.72308 -42949715.640  -178758692.08805
 15 02 11 00 28  0.0000000  0  7G21R09R10R16R19R20R21
 -42949672.960  -225702054.76808 -42949719.860  -175871923.03648
 -42949672.960  -229348857.40108 -42949677.940  -178382465.32906
 -42949672.960  -228945925.46609 -42949677.520  -178069072.04607
 -42949672.960  -229429443.78807 -42949754.500  -178445461.72505
 -42949672.960  -229751789.33608 -42949724.620  -178696051.08608
 -42949672.960  -229671202.94907 -42949831.920  -178633818.98408
 -42949672.960  -229832375.72307 -42949525.280  -178757899.80106
 15 02 11 00 28 30.0000000  0  8G16G18G27R09R10R16R19R20
 -42949672.960  -225702054.76809 -42949696.440  -175871827.13546
 -42949672.960  -225702054.76808 -42949702.060  -175871850.14845
 -42949672.960  -225702054.76808 -42949690.940  -175871804.61346
 -42949672.960  -229348857.40109 -42949708.200  -178382591.00705
 -42949672.960  -228945925.46609 -42949678.740  -178069077.10407
 -42949672.960  -229429443.78807 -42949517.520  -178444477.13205
 -42949672.960  -229751789.33609 -42949644.480  -178695717.65708
 -42949672.960  -229671202.94908 -42949751.100  -178633482.84408
 15 02 11 00 29  0.0000000  0  8G18G25G27R09R10R16R19R20
 -42949672.960  -225702054.76808 -42949565.680  -175871291.69545
 -42949672.960  -225702054.76808 -42949565.400  -175871290.54846
 -42949672.960  -225702054.76808 -42949566.900  -175871296.69046
 -42949672.960  -229348857.40109 -42949615.060  -178382204.17006
 -42949672.960  -228945925.46609 -42949542.100  -178068510.59607
 -42949672.960  -229429443.78807 -42949586.820  -178444765.05605
 -42949672.960  -229751789.33609 -42949528.500  -178695235.11208
 -42949672.960  -229671202.94908 -42949591.940  -178632820.87708
 15 02 11 00 29 30.0000000  0  6G16R09R10R16R19R20
 -42949672.960  -225702054.76808 -42949712.920  -175871894.61846
 -42949672.960  -229348857.40109 -42949729.820  -178382680.80205
 -42949672.960  -228945925.46609 -42949597.280  -178068739.37207
 -42949672.960  -229429443.78806 -42949638.420  -178444979.44105
 -42949672.960  -229751789.33608 -42949707.660  -178695980.52308
 -42949672.960  -229671202.94907 -42949684.540  -178633206.01208
 15 02 11 00 30  0.0000000  0  6R04R09R10R19R20R21
 -42949672.960  -229993548.49705 -42949751.840  -178884199.58605
 -42949672.960  -229348857.40109 -42949722.880  -178382651.97806
 -42949672.960  -228945925.46609 -42949514.560  -178068396.41507
 -42949672.960  -229751789.33609 -42949525.300  -178695221.79808
 -42949672.960  -229671202.94908 -42949700.260  -178633271.39408
 -42949672.960  -229832375.72307 -42949605.260  -178758232.68106
 15 02 11 00 30 30.0000000  0  8G16G25R04R09R10R19R20R21
 -42949672.960  -225702054.76809 -42949639.300  -175871593.15646
 -42949672.960  -225702054.76808 -42949609.160  -175871469.73846
 -42949672.960  -229993548.49706 -42949704.800  -178884003.66604
 -42949672.960  -229348857.40108 -42949593.940  -178382116.45306
 -42949672.960  -228945925.46609 -42949620.080  -178068833.90007
 -42949672.960  -229751789.33609 -42949636.300  -178695683.62308
 -42949672.960  -229671202.94908 -42949638.340  -178633013.86108
 -42949672.960  -229832375.72308 -42949511.160  -178757841.03206
 15 02 11 00 31  0.0000000  0  6G21R04R09R10R19R20
 -42949672.960  -225702054.76808 -42949675.200  -175871740.16148
 -42949672.960  -229993548.49706 -42949587.860  -178883516.61505
 -42949672.960  -229348857.40108 -42949673.040  -178382444.97805
 -42949672.960  -228945925.46609 -42949586.840  -178068696.08807
 -42949672.960  -229751789.33609 -42949714.460  -178696008.81508
 -42949672.960  -229671202.94907 -42949827.920  -178633802.34808
 15 02 11 00 31 30.0000000  0  5R04R09R10R19R20
 -42949672.960  -229993548.49706 -42949729.020  -178884104.54105
 -42949672.960  -229348857.40108 -42949633.780  -178382281.92005
 -42949672.960  -228945925.46609 -42949743.480  -178069345.51607
 -42949672.960  -229751789.33609 -42949761.700  -178696205.36108
 -42949672.960  -229671202.94908 -42949615.120  -178632917.28608
 15 02 11 00 32  0.0000000  0  8G18G21G29R04R09R10R19R20
 -42949672.960  -225702054.76808 -42949781.520  -175872175.52345
 -42949672.960  -225702054.76808 -42949760.240  -175872088.38548
 -42949672.960  -225702054.76809 -42949764.460  -175872105.66647
 -42949672.960  -229993548.49706 -42949800.880  -178884403.83605
 -42949672.960  -229348857.40108 -42949805.980  -178382997.11606
 -42949672.960  -228945925.46609 -42949763.080  -178069426.77707
 -42949672.960  -229751789.33609 -42949779.960  -178696281.33308
 -42949672.960  -229671202.94908 -42949656.900  -178633091.05408
 15 02 11 00 32 30.0000000  0  6R04R09R10R19R20R21
 -42949672.960  -229993548.49706 -42949802.220  -178884409.41705
 -42949672.960  -229348857.40108 -42949534.200  -178381868.33505
 -42949672.960  -228945925.46609 -42949644.660  -178068935.80907
 -42949672.960  -229751789.33608 -42949768.780  -178696234.81808
 -42949672.960  -229671202.94908 -42949625.540  -178632960.62408
 -42949672.960  -229832375.72307 -42949667.900  -178758493.39206
 15 02 11 00 33  0.0000000  0  7G25R04R09R10R19R20R21
 -42949672.960  -225702054.76808 -42949742.980  -175872017.70846
 -42949672.960  -229993548.49706 -42949729.700  -178884107.37405
 -42949672.960  -229348857.40109 -42949798.840  -178382967.46206
 -42949672.960  -228945925.46609 -42949711.920  -178069214.66807
 -42949672.960  -229751789.33608 -42949725.960  -178696056.66208
 -42949672.960  -229671202.94908 -42949517.920  -178632513.01808
 -42949672.960  -229832375.72307 -42949674.540  -178758521.02806
 15 02 11 00 33 30.0000000  0  6R04R09R10R11R19R20
 -42949672.960  -229993548.49706 -42949578.940  -178883479.46405
 -42949672.960  -229348857.40108 -42949614.460  -178382201.67805
 -42949672.960  -228945925.46609 -42949633.900  -178068891.19807
 -42949672.960  -229510030.17507                                
 -42949672.960  -229751789.33608 -42949648.460  -178695734.21608
 -42949672.960  -229671202.94907 -42949658.860  -178633099.20608
 15 02 11 00 34  0.0000000  0  7G25R04R09R10R11R19R20
 -42949672.960  -225702054.76808 -42949674.120  -175871735.73846
 -42949672.960  -229993548.49707 -42949677.660  -178883890.62906
 -42949672.960  -229348857.40109 -42949637.700  -178382298.20006
 -42949672.960  -228945925.46609 -42949738.560  -178069325.11807
 -42949672.960  -229510030.17507 -42949575.680  -178507396.93204
 -42949672.960  -229751789.33608 -42949537.480  -178695272.47408
 -42949672.960  -229671202.94908 -42949721.800  -178633360.98108
 15 02 11 00 34 30.0000000  0  8G16G27R04R09R10R11R19R20
 -42949672.960  -225702054.76809 -42949721.400  -175871929.34247
 -42949672.960  -225702054.76808 -42949689.720  -175871799.61846
 -42949672.960  -229993548.49707 -42949698.480  -178883977.34306
 -42949672.960  -229348857.40109 -42949542.720  -178381903.72105
 -42949672.960  -228945925.46609 -42949698.560  -178069159.27807
 -42949672.960  -229510030.17506 -42949580.680  -178507417.71304
 -42949672.960  -229751789.33609 -42949722.340  -178696041.60008
 -42949672.960  -229671202.94908 -42949708.260  -178633304.66708
 15 02 11 00 35  0.0000000  0  7R04R09R10R11R19R20R21
 -42949672.960  -229993548.49707 -42949640.800  -178883737.10806
 -42949672.960  -229348857.40108 -42949657.560  -178382380.68505
 -42949672.960  -228945925.46609 -42949513.720  -178068392.93307
 -42949672.960  -229510030.17507 -42949544.400  -178507266.92504
 -42949672.960  -229751789.33609 -42949548.400  -178695317.90808
 -42949672.960  -229671202.94908 -42949618.480  -178632931.26008
 -42949672.960  -229832375.72307 -42949541.520  -178757967.39206
 15 02 11 00 35 30.0000000  0  7R04R09R10R11R19R20R21
 -42949672.960  -229993548.49707 -42949830.600  -178884527.61906
 -42949672.960  -229348857.40108 -42949654.420  -178382367.64305
 -42949672.960  -228945925.46609 -42949510.100  -178068377.92407
 -42949672.960  -229510030.17507 -42949792.620  -178508298.57904
 -42949672.960  -229751789.33609 -42949670.260  -178695824.91708
 -42949672.960  -229671202.94908 -42949779.340  -178633600.29708
 -42949672.960  -229832375.72307 -42949632.580  -178758346.38806
 15 02 11 00 36  0.0000000  0  7G16R04R09R10R11R19R20
 -42949672.960  -225702054.76809 -42949635.200  -175871576.36747
 -42949672.960  -229993548.49707 -42949611.820  -178883616.40806
 -42949672.960  -229348857.40109 -42949533.660  -178381866.09205
 -42949672.960  -228945925.46609 -42949687.720  -178069114.33507
 -42949672.960  -229510030.17507 -42949669.160  -178507785.45404
 -42949672.960  -229751789.33609 -42949760.440  -178696200.11908
 -42949672.960  -229671202.94908 -42949535.640  -178632586.71808
 15 02 11 00 36 30.0000000  0  6R04R09R10R11R19R20
 -42949672.960  -229993548.49707 -42949642.540  -178883744.35506
 -42949672.960  -229348857.40109 -42949627.300  -178382255.00605
 -42949672.960  -228945925.46609 -42949721.320  -178069253.64107
 -42949672.960  -229510030.17507 -42949832.360  -178508463.74704
 -42949672.960  -229751789.33609 -42949823.020  -178696460.48808
 -42949672.960  -229671202.94908 -42949546.620  -178632632.38508
 15 02 11 00 37  0.0000000  0  6R04R09R10R11R19R20
 -42949672.960  -229993548.49707 -42949596.240  -178883551.51706
 -42949672.960  -229348857.40109 -42949609.620  -178382181.57605
 -42949672.960  -228945925.46609 -42949612.500  -178068802.47407
 -42949672.960  -229510030.17507 -42949627.880  -178507613.88604
 -42949672.960  -229751789.33608 -42949532.700  -178695252.58708
 -42949672.960  -229671202.94908 -42949814.280  -178633745.61708
 15 02 11 00 37 30.0000000  0  8G21R04R09R10R11R19R20R21
 -42949672.960  -225702054.76808 -42949657.620  -175871668.17448
 -42949672.960  -229993548.49707 -42949797.800  -178884391.00806
 -42949672.960  -229348857.40109 -42949807.460  -178383003.26305
 -42949672.960  -228945925.46609 -42949686.860  -178069110.77007
 -42949672.960  -229510030.17507 -42949708.400  -178507948.54404
 -42949672.960  -229751789.33608 -42949543.360  -178695296.93808
 -42949672.960  -229671202.94908 -42949682.180  -178633196.19708
 -42949672.960  -229832375.72307 -42949525.340  -178757900.05006
 15 02 11 00 38  0.0000000  0  8G25R04R09R10R11R19R20R21
 -42949672.960  -225702054.76808 -42949600.060  -175871432.47545
 -42949672.960  -229993548.49708 -42949588.760  -178883520.36306
 -42949672.960  -229348857.40108 -42949563.540  -178381990.19305
 -42949672.960  -228945925.46609 -42949613.400  -178068806.20507
 -42949672.960  -229510030.17507 -42949743.560  -178508094.67604
 -42949672.960  -229751789.33608 -42949525.220  -178695221.46508
 -42949672.960  -229671202.94908 -42949803.400  -178633700.36608
 -42949672.960  -229832375.72307 -42949709.920  -178758668.28106
 15 02 11 00 38 30.0000000  0 13G16G18G21G25G27G29G31R04R09R10R11R19
                                R20
  22324404.140   117315534.79809  22324399.680    91414683.81047
  23527186.800   123636200.18708  23527185.280    96339890.75745
  20979951.760   110250390.12308  20979947.400    85909376.45248
  24119966.320   126751277.91308  24119966.860    98767231.95945
  23432524.620   123138747.20008  23432525.520    95952274.92147
  23126047.500   121528199.12508  23126044.880    94697288.00547
  21945568.440   115324740.08909  21945565.140    89863419.85448
  23252462.940   124515883.02208  23252463.120    96845687.18006
  20185876.000   107791451.01708  20185877.040    83837799.24605
  19673390.000   104870238.49809  19673394.680    81565760.89507
  23338285.280   124712719.56507  23338286.220    96998785.73204
  20859337.080   111583387.35408  20859336.580    86787076.54208
  19930780.900   106578842.05908  19930782.580    82894661.41308
 15 02 11 00 39  0.0000000  0 13G16G18G21G25G27G29G31R04R09R10R11R19
                                R20
  22091429.560   116091245.23209  22091425.120    90460691.95647
  23295360.440   122417944.50908  23295358.800    95390600.75545
  20764680.380   109119131.11808  20764676.020    85027875.93748
  23919829.000   125699549.05908  23919829.560    97947702.87745
  23201110.400   121922657.17708  23201111.260    95004672.34647
  22922488.080   120458487.25508  22922485.400    93863746.27647
  21742411.180   114257140.72209  21742407.820    89031524.21948
  23021497.140   123279071.58408  23021497.320    95883722.74106
  19984494.560   106716085.30909  19984495.680    83001403.67605
  19448642.400   103672207.31809  19448647.100    80633958.86507
  23097826.420   123427780.74807  23097827.400    95999388.89104
  20655266.640   110491747.92008  20655266.140    85938023.63708
  19710606.900   105401472.51608  19710608.540    81978929.55008
 15 02 11 00 39 30.0000000  0 13G16G18G21G25G27G29G31R04R09R10R11R19
                                R20
  21858481.780   114867096.55409  21858477.460    89506809.87347
  23063555.020   121199798.54208  23063553.100    94441396.23245
  20549487.600   107988285.24008  20549483.340    84146697.32848
  23719722.520   124647982.25407  23719723.280    97128300.03945
  22969716.640   120706674.18508  22969717.180    94057153.17146
  22718931.940   119388792.51208  22718929.240    93030217.87847
  21539316.900   113189872.52609  21539313.580    88199886.62248
  22790612.760   122042696.28808  22790612.920    94922097.51406
  19783221.760   105641299.45308  19783222.880    82165459.08605
  19224039.920   102474949.81209  19224044.600    79702758.58007
  22857411.880   122143078.50907  22857412.860    95000176.02704
  20451219.980   109400236.00308  20451219.420    85089069.90908
  19490502.920   104224477.74208  19490504.540    81063489.17108
 15 02 11 00 40  0.0000000  0 14G16G18G21G25G27G29G31R04R09R10R11R19
                                R20R21
  21625561.440   113643092.59709  21625557.240    88553040.56847
  22831771.220   119981766.66208  22831769.140    93492280.61145
  20334373.540   106857853.14308  20334369.300    83265841.15148
  23519647.060   123596578.30507  23519648.140    96309024.09945
  22738343.660   119490799.92308  22738343.960    93109718.71647
  22515379.340   118319116.39508  22515376.700    92196703.98847
  21336285.400   112122934.57409  21336282.080    87368506.37148
  22559810.860   120806762.81008  22559811.080    93960815.93306
  19582057.280   104567092.00008  19582058.260    81329964.38205
  18999583.380   101278470.38609  18999588.100    78772163.46807
  22617042.780   120858618.88007  22617043.780    94001151.87304
  20247197.200   108308851.56409  20247196.520    84240215.33908
  19270469.160   103047858.46508  19270470.900    80148340.85808
  22023977.380   117854749.78407  22023980.200    91664812.96906
 15 02 11 00 40 30.0000000  0 14G16G18G21G25G27G29G31R04R09R10R11R19
                                R20R21
  21392671.980   112419251.13109  21392667.880    87599397.86747
  22600012.660   118763867.68208  22600010.500    92543268.55645
  20119341.000   105727849.46408  20119336.720    82385318.79348
  23319605.280   122545352.05307  23319606.740    95489886.63344
  22506994.500   118275050.37108  22506994.560    92162381.42946
  22311833.240   117249474.41708  22311830.660    91363216.69647
  21133319.320   111056340.27809  21133316.000    86537393.89248
  22329095.300   119571291.37608  22329095.480    92999893.70506
  19381003.580   103493476.18408  19381004.380    80494929.82305
  18775276.240   100082787.47309  18775281.040    77842187.85007
  22376722.920   119574421.88107  22376723.860    93002331.95904
  20043200.880   107217608.36009  20043200.120    83391470.61908
  19050508.240   101871629.08808  19050510.100    79233495.77108
  21791373.620   116610043.37808  21791377.060    90696708.04406
 15 02 11 00 41  0.0000000  0 13G16G18G21G25G27G29G31R04R09R10R11R19
                                R20
  21159815.580   111195583.69409  21159811.720    86645890.78947
  22368281.640   117546113.56508  22368279.520    91594369.37345
  19904391.640   104598282.86608  19904387.360    81505137.03348
  23119599.020   121494311.95207  23119600.380    94670894.22045
  22275670.820   117059435.01108  22275670.700    91215148.72047
  22108295.260   116179874.99208  22108292.660    90529762.57247
  20930419.960   109990096.75309  20930416.640    85706554.74848
  22098468.540   118336295.57808  22098468.680    92039341.44706
  19180061.820   102420458.26908  19180062.600    79660360.31405
  18551120.780    98887912.85409  18551125.640    76912840.92507
  22136454.760   118290501.17407  22136455.660    92003726.95504
  19839232.460   106126514.40009  19839231.560    82542841.97508
  18830621.840   100695797.94908  18830623.740    78318960.46108
 15 02 11 00 41 30.0000000  0 13G16G18G21G25G27G29G31R04R09R10R11R19
                                R20
  20926990.260   109972079.44009  20926986.640    85692510.85647
  22136576.340   116328494.72908  22136574.340    90645575.59545
  19689522.880   103469139.70608  19689518.640    80625285.22648
  22919625.640   120443444.53707  22919626.940    93852036.39645
  22044370.120   115843941.45008  22044370.040    90268010.92747
  21904763.040   115110305.95708  21904760.500    89696332.13947
  20727584.380   108924188.67709  20727581.120    84875976.99548
  21867928.980   117101766.68408  21867929.120    91079152.33807
  18979229.060   101348022.35109  18979229.900    78826243.46206
  18327115.100    97693836.14109  18327119.920    75984114.58207
  21896236.740   117006848.37407  21896237.520    91005330.31404
  19635289.200   105035555.04509  19635288.180    81694318.02108
  18610807.280    99520350.99608  18610809.140    77404723.95208
 15 02 11 00 42  0.0000000  0 13G16G18G21G25G27G29G31R04R09R10R11R19
                                R20
  20694194.120   108748728.15409  20694190.740    84739250.12347
  21904895.020   115111001.33208  21904892.920    89696879.55645
  19474732.080   102340406.54708  19474727.920    79745752.89848
  22719682.560   119392736.38708  22719684.000    93033302.63945
  21813090.000   114628557.33608  21813090.140    89320958.39347
  21701234.160   114040754.62308  21701231.700    88862915.48246
  20524809.780   107858601.06709  20524806.540    84045648.95648
  21637475.000   115867696.20808  21637475.140    90119319.76607
  18778502.380   100276152.61609  18778503.200    77992566.97905
  18103257.100    96500546.72309  18103261.860    75056000.59007
  21656067.220   115723454.77507  21656067.800    90007135.27604
  19431368.300   103944715.47209  19431367.300    80845887.22808
  18391061.920    98345274.30508  18391063.860    76490775.41908
 15 02 11 00 42 30.0000000  0 14G16G18G21G25G27G29G31R04R09R10R11R19
                                R20R21
  20461427.160   107525529.54109  20461423.840    83786108.35347
  21673237.660   113893633.88608  21673235.320    88748281.64945
  19260018.740   101212080.12508  19260014.540    78866537.50448
  22519769.300   118342184.18508  22519770.580    92214690.39845
  21581830.140   113413280.40808  21581830.560    88373989.38747
  21497708.040   112971217.81008  21497705.620    88029510.14646
  20322095.220   106793328.84609  20322091.960    83215566.67348
  21407106.900   114634085.83508  21407107.220    89159845.04107
  18577880.660    99204843.28008  18577881.340    77159326.35905
  17879546.780    95308044.63409  17879551.420    74128498.96307
  21415946.580   114440322.51407  21415947.120    89009143.48604
  19227468.980   102853991.43309  19227468.020    79997546.29208
  18171385.140    97170564.10107  18171387.200    75577111.92508
  20861439.940   111633774.77208  20861441.740    86826280.00906
 15 02 11 00 43  0.0000000  0 14G16G18G21G25G27G29G31R04R09R10R11R19
                                R20R21
  20228692.960   106302502.38809  20228689.580    82833100.18447
  21441607.840   112676411.83608  21441605.580    87799797.02945
  19045385.720   100084175.98708  19045381.520    77987651.17348
  22319888.820   117291803.74408  22319889.900    91396212.00545
  21350594.000   112198127.57808  21350594.520    87427117.07147
  21294187.920   111901712.13508  21294185.480    87196129.06046
  20119443.400   105728386.32109  20119440.040    82385741.29248
  21176828.700   113400956.76908  21176829.020    88200744.65107
  18377366.380    98134108.25708  18377367.040    76326532.41505
  17655987.780    94116349.10709  17655992.300    73201624.65007
  21175878.700   113157472.31907  21175879.260    88011371.08704
  19023594.060   101763398.09808  19023593.160    79149307.01708
  17951779.800    95996236.16507  17951781.960    74663745.75108
  20629072.980   110390332.23707  20629074.860    85859158.07306
 15 02 11 00 43 30.0000000  0 13G16G18G21G25G27G29G31R04R09R10R11R19
                                R20
  19995994.180   105079660.87609  19995990.620    81880236.66647
  21210008.700   111459350.69808  21210006.340    86851437.80145
  18830835.260    98956705.58608  18830830.980    77109102.81548
  22120043.240   116241606.49808  22120044.400    90577876.31345
  21119384.000   110983111.28008  21119384.420    86480351.17147
  21090676.040   110832249.78508  21090673.460    86362781.75246
  19916856.300   104663783.28109  19916852.780    81556180.45348
  20946643.480   112168325.18008  20946643.760    87242031.21907
  18176961.400    97063957.00408  18176962.140    75494192.53205
  17432582.820    92925474.94009  17432587.400    72275389.18307
  20935866.740   111874921.42907  20935867.500    87013831.48904
  18819745.500   100672946.20108  18819744.700    78301177.75708
  17732248.200    94822301.71908  17732250.260    73750685.62308
 15 02 11 00 44  0.0000000  0 13G16G18G21G25G27G29G31R04R09R10R11R19
                                R20
  19763328.820   103856995.00609  19763325.080    80927510.02747
  20978438.440   110242440.71508  20978436.000    85903196.36445
  18616364.720    97829655.46508  18616360.440    76230881.95048
  21920229.940   115191579.14808  21920231.100    89759673.03246
  20888197.760   109768219.39108  20888197.960    85533682.21647
  20887169.940   109762817.88208  20887167.220    85529458.16946
  19714330.920   103599505.05009  19714327.460    80726872.70848
  20716549.560   110936182.84508  20716549.920    86283698.31207
  17976662.820    95994373.60709  17976663.640    74662294.30505
  17209329.960    91735411.45309  17209334.480    71349784.24407
  20695909.200   110592661.51608  20695910.140    86016518.22604
  18615920.740    99582621.34809  18615919.960    77453147.30608
  17512787.620    93648747.06408  17512789.560    72837920.89408
 15 02 11 00 44 30.0000000  0 13G16G18G21G25G27G29G31R04R09R10R11R19
                                R20
  19530694.580   102634492.96709  19530690.700    79974911.04347
  20746894.760   109025670.92208  20746892.400    84955064.14445
  18401971.440    96703011.26408  18401967.160    75352977.36948
  21720446.160   114141706.91908  21720447.220    88941590.61145
  20657032.680   108553438.19208  20657032.580    84587099.50346
  20683666.900   108693402.61208  20683664.220    84696147.54046
  19511864.120   102535534.98209  19511860.860    79897805.08348
  20486545.100   109704519.63807  20486545.360    85325738.04206
  17776467.320    94925340.76108  17776468.060    73830824.28005
  16986226.880    90546146.65009  16986231.480    70424800.49207
  20456004.160   109310682.45307  20456005.320    85019423.38404
  18412116.780    98492407.64109  18412115.920    76605203.30708
  17293395.160    92475556.71008  17293396.980    71925439.50808
 15 02 11 00 45  0.0000000  0 14G16G18G21G25G27G29G31R04R09R10R11R19
                                R20R21
  19298091.560   101412155.93609  19298087.580    79022440.63847
  20515378.140   107809043.64208  20515375.760    84007042.98145
  18187654.980    95576770.87808  18187650.720    74475387.46048
  21520691.500   113091988.13108  21520692.460    88123627.76245
  20425888.620   107338767.13408  20425888.280    83640602.60946
  20480166.900   107624003.15708  20480164.300    83862849.22746
  19309455.400   101471870.02409  19309452.260    79068975.21348
  20256630.820   108473338.89108  20256631.000    84368153.02706
  17576374.160    93856854.59908  17576374.980    72999779.45905
  16763273.900    89357682.09709  16763278.580    69500439.17307
  20216152.420   108028988.18108  20216153.740    84022550.06204
  18208333.180    97402302.72808  18208332.380    75757343.92208
  17074070.300    91302728.29007  17074072.240    71013239.62508
  19700089.600   105419157.51508  19700091.020    81992684.91406
 15 02 11 00 45 30.0000000  0 14G16G18G21G25G27G29G31R04R09R10R11R19
                                R20R21
  19065522.940   100189999.76009  19065518.800    78070111.14447
  20283891.740   106592574.81208  20283889.340    83059145.27345
  17973417.700    94450946.74308  17973413.480    73598121.89948
  21320968.260   112042435.45208  21320969.340    87305794.33845
  20194768.120   106124219.99708  20194767.600    82694202.28346
  20276672.500   106554632.65208  20276669.880    83029573.47847
  19107106.800   100408521.09809  19107103.780    78240391.59448
  20026810.000   107242658.57308  20026810.120    83410957.23207
  17376385.300    92788925.64208  17376386.200    72169168.01005
  16540474.100    88170034.04509  16540478.860    68576712.89207
  19976357.240   106747596.18707  19976358.640    83025911.82604
  18004572.200    96312318.57608  18004571.360    74909578.45008
  16854815.420    90130274.66107  16854817.580    70101331.25408
  19467961.060   104176990.77908  19467962.420    81026555.27206
 15 02 11 00 46  0.0000000  0 13G16G18G21G25G27G29G31R04R09R10R11R19
                                R20
  18832991.820    98968040.76909  18832987.660    77117935.31647
  20052438.860   105376281.95708  20052436.280    82111384.68345
  17759262.120    93325552.16508  17759258.040    72721191.06148
  21121279.240   110993062.10408  21121280.280    86488100.64845
  19963673.800   104909811.01208  19963673.140    81747909.59247
  20073186.360   105485305.30908  20073183.760    82196331.34547
  18904820.520    99345499.80309  18904817.620    77412063.27748
  19797086.020   106012496.91508  19797086.060    82454164.84407
  17176502.900    91721564.86108  17176503.920    71338998.48605
  16317830.360    86983217.83609  16317835.200    67653633.60907
  19736622.240   105466525.46607  19736623.600    82029523.48304
  17800836.160    95222467.94909  17800835.320    74061916.83908
  16635633.140    88958208.96907  16635635.360    69189724.60908
 15 02 11 00 46 30.0000000  0 13G16G18G21G25G27G29G31R04R09R10R11R19
                                R20
  18600496.320    97746269.50009  18600492.220    76165905.77147
  19821017.740   104160156.14208  19821015.340    81163754.26345
  17545185.900    92200574.62008  17545181.920    71844585.17948
  20921622.040   109943855.47307  20921623.080    85670536.84246
