     2.11           OBSERVATION DATA    G                   RINEX VERSION / TYPE
SPIDER V4,0,0,3554                      2015 04 16 04:38    PGM / RUN BY / DATE 
CABS                                                        MARKER NAME         
CABS                                                        MARKER NUMBER       
                                                            OBSERVER / AGENCY   
462287              LEICA GRX1200PRO    8.10/2.127          REC # / TYPE / VERS 
103298              LEIAT504                                ANT # / TYPE        
  5116912.3402   671231.6412  3737143.4301                  APPROX POSITION XYZ 
        0.0600        0.0000        0.0000                  ANTENNA: DELTA H/E/N
     1     1                                                WAVELENGTH FACT L1/2
     4    C1    L1    P2    L2                              # / TYPES OF OBSERV 
    30.000                                                  INTERVAL            
  2015    02    11    00    00    0.0000000     GPS         TIME OF FIRST OBS   
  2015    02    11    23    59   30.0000000     GPS         TIME OF LAST OBS    
    16                                                      LEAP SECONDS        
    30                                                      # OF SATELLITES     
   G 1   801   801   800   800                              PRN / # OF OBS      
   G 2   941   941   941   941                              PRN / # OF OBS      
   G 3   847   847   847   847                              PRN / # OF OBS      
   G 4   832   832   832   832                              PRN / # OF OBS      
   G 5   645   645   644   644                              PRN / # OF OBS      
   G 6   830   830   830   830                              PRN / # OF OBS      
   G 7   672   672   672   672                              PRN / # OF OBS      
   G 9   807   807   807   807                              PRN / # OF OBS      
   G10   752   752   752   752                              PRN / # OF OBS      
   G11   770   770   770   770                              PRN / # OF OBS      
   G12   829   829   829   829                              PRN / # OF OBS      
   G13   790   790   790   790                              PRN / # OF OBS      
   G14   939   939   939   939                              PRN / # OF OBS      
   G15   688   688   688   688                              PRN / # OF OBS      
   G16   666   666   666   666                              PRN / # OF OBS      
   G17   942   942   942   942                              PRN / # OF OBS      
   G18   903   903   903   903                              PRN / # OF OBS      
   G19   750   750   750   750                              PRN / # OF OBS      
   G20   791   791   791   791                              PRN / # OF OBS      
   G21   738   738   738   738                              PRN / # OF OBS      
   G22   657   657   657   657                              PRN / # OF OBS      
   G23   756   756   756   756                              PRN / # OF OBS      
   G24   814   814   814   814                              PRN / # OF OBS      
   G25   855   855   855   855                              PRN / # OF OBS      
   G27   793   793   793   793                              PRN / # OF OBS      
   G28   875   875   875   875                              PRN / # OF OBS      
   G29   770   770   770   770                              PRN / # OF OBS      
   G30   718   718   718   718                              PRN / # OF OBS      
   G31   869   869   869   869                              PRN / # OF OBS      
   G32   770   770   770   770                              PRN / # OF OBS      
BIT 2 OF LLI FLAGS DATA COLLECTED UNDER A/S CONDITION       COMMENT             
SNR is mapped to RINEX snr flag value [2-9]                 COMMENT             
Lx:     = 25dBHz -> 1; 26-27dBHz -> 2; 28-31dBHz -> 3       COMMENT             
       32-35dBHz -> 4; 36-38dBHz -> 5; 39-41dBHz -> 6       COMMENT             
       42-44dBHz -> 7; 45-48dBHz -> 8; >=49dBHz -> 9        COMMENT             
                                                            END OF HEADER       
 15 02 11 00 00  0.0000000  0  6G16G18G21G25G29G31
  23946083.440   125837515.96606  23946084.980    98055217.25444
  24436308.600   128413668.23005  24436318.020   100062638.46144
  21004138.940   110377676.99108  21004139.900    86008679.67449
  22535411.340   118424569.24107  22535415.900    92278983.13347
  21822246.900   114677042.50008  21822248.300    89358894.97648
  21276303.180   111807734.41509  21276304.260    87122915.31448
 15 02 11 00 00 30.0000000  0  6G16G18G21G25G29G31
  23928745.420   125746404.29006  23928746.840    97984221.16145
  24421172.480   128334127.04405  24421181.620   100000659.07644
  20999806.960   110354912.44008  20999807.920    85990941.07149
  22549815.540   118500263.32408  22549819.920    92337965.50647
  21834316.700   114740470.10808  21834318.200    89408319.07048
  21284373.720   111850145.39609  21284374.820    87155962.82449
 15 02 11 00 01  0.0000000  0  6G16G18G21G25G29G31
  23911411.860   125655315.94606  23911413.100    97913243.25545
  24406025.980   128254533.03405  24406034.780    99938638.53144
  20995561.280   110332601.25708  20995562.200    85973555.74649
  22564271.640   118576230.15607  22564275.980    92397160.41247
  21846406.220   114804001.60608  21846407.840    89457824.11948
  21292541.040   111893064.97609  21292542.160    87189406.63649
 15 02 11 00 01 30.0000000  0  6G16G18G21G25G29G31
  23894083.040   125564252.49506  23894084.160    97842284.74145
  24390869.960   128174888.95405  24390878.760    99876578.95845
  20991401.920   110310743.79008  20991402.800    85956523.96849
  22578779.560   118652469.28607  22578783.900    92456567.49547
  21858515.400   114867636.44308  21858517.140    89507409.70048
  21300804.900   111936491.76709  21300806.020    87223245.67348
 15 02 11 00 02  0.0000000  0  6G16G18G21G25G29G31
  23876759.720   125473217.99406  23876760.780    97771348.78545
  24375704.980   128095199.92505  24375713.920    99814484.37743
  20987329.460   110289342.95808  20987330.300    85939848.00349
  22593339.580   118728982.82807  22593344.120    92516188.41547
  21870644.740   114931376.65008  21870646.480    89557077.37948
  21309165.520   111980426.99809  21309166.620    87257480.90048
 15 02 11 00 02 30.0000000  0  6G16G18G21G25G29G31
  23859441.160   125382208.68106  23859442.180    97700432.46144
  24360531.300   128015463.27706  24360539.700    99752352.59844
  20983342.920   110268393.71408  20983343.720    85923523.92749
  22607950.620   118805765.04507  22607955.380    92576018.69147
  21882793.060   114995216.13508  21882794.720    89606822.42448
  21317621.580   112024863.80709  21317622.640    87292106.96448
 15 02 11 00 03  0.0000000  0  6G16G18G21G25G29G31
  23842128.540   125291230.74006  23842129.760    97629540.55945
  24345349.820   127935686.50505  24345358.240    99690189.63345
  20979443.160   110247900.42908  20979443.940    85907555.14649
  22622613.560   118882819.92207  22622618.420    92636061.45447
  21894961.060   115059158.76808  21894962.560    89656647.84648
  21326173.600   112069805.01209  21326174.640    87327126.06948
 15 02 11 00 03 30.0000000  0  6G16G18G21G25G29G31
  23824821.440   125200281.43206  23824822.780    97558670.97245
  24330160.480   127855867.59805  24330168.360    99627993.74143
  20975629.420   110227859.02708  20975630.160    85891938.48349
  22637327.400   118960142.73207  22637332.420    92696312.97046
  21907147.680   115123199.49408  21907149.100    89706549.69948
  21334820.540   112115245.02508  21334821.600    87362533.85748
 15 02 11 00 04  0.0000000  0  6G16G18G21G25G29G31
  23807520.600   125109364.79306  23807521.900    97487826.83645
  24314963.920   127776011.71406  24314971.700    99565769.06243
  20971902.120   110208271.95708  20971902.840    85876675.84049
  22652092.600   119037735.21707  22652097.680    92756774.62047
  21919353.240   115187339.89208  21919354.640    89756529.21848
  21343562.500   112161184.42708  21343563.580    87398330.77548
 15 02 11 00 04 30.0000000  0  6G16G18G21G25G29G31
  23790225.800   125018479.95106  23790227.040    97417007.47045
  24299760.660   127696119.88506  24299768.060    99503516.32443
  20968260.880   110189137.21208  20968261.620    85861765.66149
  22666908.920   119115595.24607  22666913.800    92817444.73246
  21931577.200   115251577.24408  21931578.640    89806584.28448
  21352398.900   112207620.01209  21352400.000    87434514.32948
 15 02 11 00 05  0.0000000  0  6G16G18G21G25G29G31
  23772937.760   124927630.60106  23772938.960    97346215.77545
  24284551.260   127616196.53106  24284558.340    99441239.10944
  20964706.180   110170457.29708  20964706.940    85847209.88749
  22681776.540   119193723.91107  22681781.020    92878324.17846
  21943819.820   115315912.81208  21943821.320    89856715.88348
  21361329.760   112254551.76409  21361330.860    87471084.50548
 15 02 11 00 05 30.0000000  0  6G16G18G21G25G29G31
  23755656.720   124836817.97007  23755657.900    97275452.69545
  24269336.200   127536243.37606  24269342.960    99378938.57044
  20961237.920   110152231.47108  20961238.680    85833007.95549
  22696695.120   119272120.16907  22696699.260    92939412.13746
  21956080.980   115380345.91808  21956082.560    89906923.48248
  21370354.680   112301977.95709  21370355.820    87508039.96448
 15 02 11 00 06  0.0000000  0  6G16G18G21G25G29G31
  23738383.120   124746044.41306  23738384.320    97204720.05545
  24254116.020   127456264.68506  24254122.880    99316618.16244
  20957856.380   110134461.27408  20957857.120    85819161.05449
  22711664.660   119350784.74807  22711668.660    93000709.18046
  21968360.820   115444876.85208  21968362.380    89957207.32748
  21379473.500   112349897.59608  21379474.680    87545379.92648
 15 02 11 00 06 30.0000000  0  6G16G18G21G25G29G31
  23721117.080   124655310.68506  23721118.460    97134018.46245
  24238891.120   127376261.45206  24238898.380    99254278.62845
  20954561.460   110117146.28408  20954562.200    85805668.85549
  22726684.820   119429715.89007  22726688.880    93062213.94446
  21980658.800   115509503.36008  21980660.400    90007565.65148
  21388685.680   112398307.98908  21388686.900    87583102.29648
 15 02 11 00 07  0.0000000  0  6G16G18G21G25G29G31
  23703858.520   124564615.91906  23703859.960    97063347.22945
  24223661.740   127296234.11706  24223669.080    99191920.25544
  20951352.060   110100280.74208  20951352.800    85792526.88449
  22741754.940   119508910.02307  22741759.240    93123923.63247
  21992974.300   115574222.04608  21992975.960    90057995.78848
  21397990.380   112447204.57208  21397991.620    87621203.50948
 15 02 11 00 07 30.0000000  0  6G16G18G21G25G29G31
  23686607.880   124473963.17606  23686609.320    96992708.73245
  24208428.760   127216187.45906  24208436.060    99129546.84044
  20948229.000   110083868.94008  20948229.760    85779738.47549
  22756875.440   119588368.97107  22756880.020    93185839.68247
  22005307.680   115639034.61108  22005309.400    90108499.07748
  21407387.720   112496588.12508  21407388.960    87659684.18348
 15 02 11 00 08  0.0000000  0  6G16G18G21G25G29G31
  23669365.460   124383354.07806  23669366.900    96922104.25444
  24193192.700   127136123.89105  24193200.140    99067160.24244
  20945192.260   110067910.62708  20945193.000    85767303.43449
  22772046.280   119668091.92707  22772050.980    93247961.43746
  22017658.820   115703940.27708  22017660.600    90159074.91448
  21416877.340   112546456.31208  21416878.540    87698542.49448
 15 02 11 00 08 30.0000000  0  6G16G18G21G25G29G31
  23652131.560   124292789.67706  23652132.900    96851534.59745
  24177953.640   127056044.99105  24177961.140    99004761.63944
  20942241.620   110052404.87808  20942242.360    85755221.04249
  22787267.180   119748077.66807  22787271.860    93310287.95847
  22030027.500   115768937.90508  22030029.240    90209722.40348
  21426458.780   112596806.84608  21426459.940    87737776.64848
 15 02 11 00 09  0.0000000  0  6G16G18G21G25G29G31
  23634906.620   124202272.33506  23634907.840    96781001.62444
  24162711.660   126975954.82106  24162719.100    98942354.27243
  20939377.160   110037351.93408  20939377.880    85743491.48049
  22802538.160   119828326.24307  22802542.640    93372819.28646
  22042413.660   115834027.35808  22042415.340    90260441.43947
  21436131.860   112647638.76208  21436132.940    87777385.91648
 15 02 11 00 09 30.0000000  0  6G16G18G21G25G29G31
  23617690.680   124111802.34806  23617691.880    96710505.52845
  24147468.500   126895854.33905  24147476.240    98879938.87344
  20936598.780   110022751.40108  20936599.480    85732114.45349
  22817858.780   119908835.66907  22817863.020    93435553.86246
  22054816.960   115899206.68008  22054818.580    90311230.50647
  21445895.920   112698948.91708  21445896.960    87817367.83348
 15 02 11 00 10  0.0000000  0  6G16G18G21G25G29G31
  23600484.420   124021382.95506  23600485.620    96640048.87245
  24132224.420   126815748.23606  24132232.420    98817519.05144
  20933906.540   110008603.73408  20933907.240    85721090.30849
  22833229.040   119989607.12507  22833233.140    93498492.62646
  22067237.540   115964476.93708  22067239.120    90362090.43248
  21455750.920   112750737.13208  21455751.980    87857722.27048
 15 02 11 00 10 30.0000000  0  6G16G18G21G25G29G31
  23583287.700   123931013.82006  23583288.980    96569631.38644
  24116979.300   126735636.43906  24116987.360    98755094.76844
  20931300.180   109994907.52508  20931300.900    85710417.94149
  22848648.460   120070637.55707  22848652.560    93561633.18946
  22079674.840   116029835.27708  22079676.340    90413018.99747
  21465696.080   112802999.29508  21465697.180    87898446.01348
 15 02 11 00 11  0.0000000  0  6G16G18G21G25G29G31
  23566101.040   123840697.43906  23566102.380    96499254.99445
  24101733.840   126655523.08206  24101741.800    98692669.28944
  20928779.660   109981662.48408  20928780.420    85700097.14049
  22864117.200   120151927.42807  22864121.400    93624975.92346
  22092128.880   116095281.64308  22092130.340    90464016.15747
  21475731.300   112855734.67708  21475732.420    87939538.50248
 15 02 11 00 11 30.0000000  0  6G16G18G21G25G29G31
  23548924.280   123750433.18906  23548925.700    96428919.23845
  24086488.460   126575408.83706  24086495.860    98630243.02044
  20926344.780   109968867.20508  20926345.540    85690126.80149
  22879634.820   120233474.11407  22879639.220    93688518.77346
  22104599.260   116160814.05108  22104600.780    90515080.36147
  21485855.840   112908939.44908  21485856.980    87980996.74948
 15 02 11 00 12  0.0000000  0  6G16G18G21G25G29G31
  23531758.260   123660225.16906  23531759.680    96358627.29545
  24071243.760   126495298.44906  24071250.840    98567819.83044
  20923995.880   109956523.55308  20923996.620    85680508.37949
  22895201.680   120315278.96207  22895206.320    93752262.78446
  22117086.280   116226434.07808  22117087.920    90566212.83948
  21496069.720   112962613.82708  21496070.920    88022820.91848
 15 02 11 00 12 30.0000000  0  6G16G18G21G25G29G31
  23514602.760   123570072.07706  23514604.120    96288378.14345
  24056000.020   126415191.56306  24056006.480    98505399.30444
  20921732.380   109944628.57208  20921733.080    85671239.57149
  22910817.040   120397338.02807  22910821.800    93816204.87846
  22129589.140   116292137.51608  22129590.880    90617410.31947
  21506371.940   113016752.48208  21506373.180    88065006.86448
 15 02 11 00 13  0.0000000  0  6G16G18G21G25G29G31
  23497458.800   123479979.52806  23497460.040    96218176.17145
  24040758.020   126335094.51506  24040764.000    98442986.46845
  20919554.860   109933185.23108  20919555.500    85662322.68449
  22926481.580   120479654.96107  22926486.360    93880347.92446
  22142108.660   116357928.10608  22142110.340    90668675.71247
  21516762.940   113071357.60308  21516764.200    88107556.28648
 15 02 11 00 13 30.0000000  0  7G16G18G21G25G27G29G31
  23480327.560   123389954.56406  23480328.860    96148026.86345
  24025519.620   126255016.13006  24025525.160    98380588.15844
  20917464.420   109922199.69508  20917465.040    85653762.53849
  22942196.060   120562234.63507  22942200.820    93944695.70046
  24623411.860   129396907.54205  24623415.600   100828772.72344
  22154645.780   116423811.03708  22154647.440    90720013.04347
  21527243.500   113126433.12508  21527244.740    88150472.26248
 15 02 11 00 14  0.0000000  0  7G16G18G21G25G27G29G31
  23463204.940   123299975.12506  23463206.400    96077913.04545
  24010280.640   126174935.06706  24010285.720    98318187.75044
  20915456.320   109911646.94508  20915456.940    85645539.62649
  22957955.820   120645052.20007  22957960.560    94009228.84046
  24608624.660   129319199.97205  24608628.460   100768221.43944
  22167195.740   116489761.25408  22167197.360    90771402.81247
  21537808.620   113181953.09308  21537809.840    88193734.54948
 15 02 11 00 14 30.0000000  0  7G16G18G21G25G27G29G31
  23446095.840   123210066.30506  23446097.300    96007854.24745
  23995046.040   126094877.44506  23995050.900    98255805.60344
  20913535.080   109901550.91308  20913535.740    85637672.59749
  22973765.160   120728130.55807  22973769.800    94073965.19546
  24593855.200   129241585.19505  24593859.000   100707742.46844
  22179762.940   116555802.13408  22179764.520    90822863.21747
  21548462.380   113237938.79308  21548463.600    88237359.75648
 15 02 11 00 15  0.0000000  0  7G16G18G21G25G27G29G31
  23428999.600   123120225.02406  23429001.080    95937848.08446
  23979815.300   126014841.27106  23979819.980    98193440.12444
  20911699.660   109891906.18608  20911700.400    85630157.23349
  22989623.060   120811464.14907  22989627.600    94138900.42446
  24579102.380   129164058.60505  24579106.380   100647332.20145
  22192346.400   116621928.29708  22192347.880    90874390.07747
  21559203.540   113294383.70708  21559204.720    88281342.78348
 15 02 11 00 15 30.0000000  0  7G16G18G21G25G27G29G31
  23411916.140   123030450.72807  23411917.580    95867894.09345
  23964588.560   125934826.31106  23964593.120    98131091.20845
  20909949.580   109882709.98708  20909950.380    85622991.37249
  23005528.840   120895049.40007  23005533.220    94204031.74946
  24564365.680   129086617.50905  24564370.120   100586988.55445
  22204945.360   116688136.03208  22204946.740    90925980.50147
  21570031.120   113351282.93208  21570032.300    88325679.81948
 15 02 11 00 16  0.0000000  0  7G16G18G21G25G27G29G31
  23394845.840   122940745.53307  23394847.280    95797993.96445
  23949366.520   125854836.67906  23949370.920    98068761.95644
  20908284.980   109873962.78908  20908285.780    85616175.38149
  23021482.620   120978886.73007  23021486.780    94269359.50546
  24549645.440   129009263.05105  24549650.260   100526712.41445
  22217559.940   116754426.14708  22217561.300    90977635.11247
  21580944.940   113408635.36408  21580946.140    88370370.00048
 15 02 11 00 16 30.0000000  0  7G16G18G21G25G27G29G31
  23377788.600   122851109.00507  23377789.920    95728147.32145
  23934149.380   125774872.66406  23934153.740    98006452.69444
  20906705.420   109865662.28408  20906706.200    85609707.46449
  23037483.900   121062973.11507  23037487.820    94334881.34046
  24534941.360   128931993.29105  24534946.340   100466502.23245
  22230189.700   116820795.83908  22230191.040    91029351.73747
  21591944.200   113466436.81008  21591945.420    88415410.06748
 15 02 11 00 17  0.0000000  0  7G16G18G21G25G27G29G31
  23360745.420   122761546.41407  23360746.700    95658358.30945
  23918938.140   125694939.78306  23918942.480    97944167.69544
  20905211.340   109857810.79608  20905212.100    85603589.43449
  23053532.980   121147310.94807  23053536.840    94400599.09146
  24520253.860   128854799.37605  24520259.600   100406371.53645
  22242835.060   116887247.51008  22242836.400    91081132.25547
  21603029.080   113524688.24308  21603030.320    88460800.77348
 15 02 11 00 17 30.0000000  0  7G16G18G21G25G27G29G31
  23343715.780   122672055.04407  23343717.020    95588624.77045
  23903732.680   125615036.99006  23903736.980    97881906.13444
  20903801.840   109850403.65008  20903802.540    85597817.64449
  23069628.800   121231894.99307  23069632.780    94466508.70646
  24505582.680   128777701.02705  24505587.940   100346294.93345
  22255495.040   116953776.54608  22255496.480    91132973.05647
  21614198.400   113583383.33408  21614199.660    88506537.18148
 15 02 11 00 18  0.0000000  0  7G16G18G21G25G27G29G31
  23326700.340   122582638.39507  23326701.560    95518949.46945
  23888533.800   125535168.27006  23888538.020    97819671.09445
  20902477.180   109843442.52608  20902477.860    85592393.40349
  23085771.640   121316726.11607  23085775.780    94532610.85346
  24490927.640   128700687.99905  24490932.920   100286284.83745
  22268169.940   117020383.96008  22268171.480    91184874.92347
  21625452.080   113642521.67208  21625453.340    88552618.98948
 15 02 11 00 18 30.0000000  0  7G16G18G21G25G27G29G31
  23309699.300   122493297.55507  23309700.540    95449333.24145
  23873342.000   125455336.11506  23873346.200    97757464.57444
  20901237.220   109836926.64708  20901237.900    85587316.10349
  23101961.220   121401803.14607  23101965.560    94598904.61646
  24476288.740   128623760.03405  24476294.060   100226341.01745
  22280859.560   117087068.63608  22280861.200    91236836.99247
  21636789.600   113702100.67108  21636790.840    88599044.16248
 15 02 11 00 19  0.0000000  0  7G16G18G21G25G27G29G31
  23292713.180   122404035.33407  23292714.460    95379778.27745
  23858157.980   125375544.40305  23858162.200    97695289.51544
  20900082.000   109830856.06108  20900082.700    85582585.78549
  23118197.680   121487126.43207  23118202.160    94665390.26946
  24461666.240   128546918.36705  24461671.480   100166464.43045
  22293564.040   117153831.36808  22293565.740    91288859.89647
  21648210.780   113762119.35608  21648212.000    88645811.95048
 15 02 11 00 19 30.0000000  0  7G16G18G21G25G27G29G31
  23275742.280   122314852.46107  23275743.520    95310285.14245
  23842981.900   125295794.50706  23842986.060    97633147.04245
  20899011.260   109825229.37708  20899011.940    85578201.36049
  23134480.620   121572693.81207  23134485.180    94732066.12546
  24447059.860   128470161.71605  24447065.040   100106654.10444
  22306283.100   117220670.47208  22306284.840    91340942.28847
  21659714.960   113822574.08208  21659716.120    88692919.50748
 15 02 11 00 20  0.0000000  0  7G16G18G21G25G27G29G31
  23258786.980   122225751.75807  23258788.240    95240856.04145
  23827814.380   125216089.76606  23827818.660    97571039.74844
  20898025.100   109820047.07108  20898025.780    85574163.20549
  23150809.940   121658505.30707  23150814.540    94798932.18646
  24432469.900   128393491.17205  24432475.020   100046910.85345
  22319016.780   117287586.13108  22319018.480    91393084.33347
  21671301.880   113883463.74508  21671303.020    88740365.97448
 15 02 11 00 20 30.0000000  0  7G16G18G21G25G27G29G31
  23241847.380   122136733.75107  23241848.740    95171491.38746
  23812655.940   125136432.39306  23812660.220    97508969.33344
  20897123.220   109815307.66708  20897123.900    85570470.16849
  23167185.360   121744559.18007  23167189.940    94865987.11346
  24417896.160   128316905.83505  24417901.180    99987234.00745
  22331764.780   117354576.88208  22331766.420    91445284.89347
  21682970.960   113944785.12908  21682972.080    88788148.84548
 15 02 11 00 21  0.0000000  0  7G16G18G21G25G27G29G31
  23224924.080   122047801.56407  23224925.560    95102193.58545
  23797507.120   125056826.20206  23797511.480    97446938.79644
  20896305.760   109811012.04908  20896306.480    85567122.94349
  23183606.920   121830855.78807  23183611.520    94933231.17246
  24403338.960   128240407.02005  24403343.900    99927624.59444
  22344527.160   117421643.18408  22344528.700    91497544.33347
  21694721.980   114006537.29308  21694723.160    88836267.39648
 15 02 11 00 21 30.0000000  0  7G16G18G21G25G27G29G31
  23208017.060   121958954.78707  23208018.560    95032962.34445
  23782368.220   124977271.47606  23782372.480    97384948.36744
  20895572.160   109807157.05508  20895572.920    85564119.05749
  23200074.080   121917391.70207  23200078.640    95000661.70745
  24388797.640   128163992.24905  24388802.520    99868080.66543
  22357303.480   117488782.79408  22357304.940    91549860.89847
  21706554.080   114068715.34808  21706555.320    88884717.80848
 15 02 11 00 22  0.0000000  0  7G16G18G21G25G27G29G31
  23191126.980   121870196.78307  23191128.380    94963800.28245
  23767239.940   124897772.86306  23767244.300    97323001.67445
  20894922.620   109803743.79608  20894923.420    85561459.38449
  23216587.100   122004168.11107  23216591.580    95068279.64746
  24374272.740   128087663.63605  24374277.500    99808603.86345
  22370093.800   117555996.18508  22370095.220    91602234.95947
  21718467.240   114131319.31408  21718468.520    88933500.10048
 15 02 11 00 22 30.0000000  0  7G16G18G21G25G27G29G31
  23174253.720   121781527.02207  23174254.940    94894706.97045
  23752122.600   124818330.66606  23752126.700    97261098.90744
  20894356.700   109800769.78308  20894357.500    85559141.97949
  23233145.340   122091181.70307  23233149.800    95136082.41546
  24359763.860   128011418.86005  24359768.320    99749192.38644
  22382897.760   117623281.59608  22382899.200    91654665.13747
  21730460.540   114194344.48808  21730461.860    88982610.60548
 15 02 11 00 23  0.0000000  0  7G16G18G21G25G27G29G31
  23157398.200   121692950.57707  23157399.300    94825686.37045
  23737017.080   124738950.78006  23737020.980    97199244.71144
  20893874.840   109798237.58308  20893875.640    85557168.84249
  23249749.180   122178434.65607  23249753.600    95204071.70546
  24345271.480   127935261.12305  24345275.800    99689848.76245
  22395715.820   117690641.14808  22395717.340    91707153.08747
  21742534.120   114257791.56908  21742535.440    89032049.87048
 15 02 11 00 23 30.0000000  0  7G16G18G21G25G27G29G31
  23140560.680   121604468.77807  23140561.760    94756739.52645
  23721923.660   124659635.25006  23721927.380    97137440.64745
  20893476.880   109796146.13408  20893477.640    85555539.15049
  23266398.320   122265925.61807  23266402.640    95272246.44645
  24330795.540   127859189.93405  24330799.960    99630572.55245
  22408547.720   117758073.52108  22408549.380    91759697.78647
  21754687.440   114321657.66508  21754688.740    89081815.63548
 15 02 11 00 24  0.0000000  0  7G16G18G21G25G27G29G31
  23123741.200   121516081.92507  23123742.280    94687866.65745
  23706842.740   124580385.39806  23706846.380    97075687.74945
  20893162.320   109794493.12308  20893163.080    85554251.09449
  23283092.200   122353652.03507  23283096.560    95340604.66246
  24316335.820   127783203.82905  24316340.360    99571362.64944
  22421393.220   117825577.26808  22421395.000    91812298.09847
  21766919.860   114385939.30808  21766921.120    89131905.20548
 15 02 11 00 24 30.0000000  0  7G16G18G21G25G27G29G31
  23106940.260   121427792.46807  23106941.320    94619069.68845
  23691774.840   124501204.60706  23691778.480    97013988.66345
  20892931.220   109793278.71108  20892931.960    85553304.80549
  23299830.840   122441613.62707  23299835.220    95409146.14046
  24301892.400   127707303.53305  24301897.180    99512219.60745
  22434252.280   117893152.15608  22434254.140    91864953.84447
  21779230.960   114450634.44708  21779232.180    89182316.97448
 15 02 11 00 25  0.0000000  0  7G16G18G21G25G27G29G31
  23090158.240   121339602.22307  23090159.200    94550350.01545
  23676720.540   124422095.57406  23676724.180    96952345.47545
  20892783.500   109792502.29008  20892784.200    85552699.81349
  23316613.940   122529809.57607  23316618.500    95477870.20346
  24287465.320   127631489.11005  24287470.320    99453143.44945
  22447124.880   117960798.01008  22447126.760    91917664.89747
  21791620.360   114515740.97608  21791621.540    89233049.31048
 15 02 11 00 25 30.0000000  0  7G16G18G21G25G27G29G31
  23073395.580   121251513.72207  23073396.480    94481709.63046
  23661680.440   124343061.95806  23661684.260    96890761.05544
  20892719.080   109792163.69208  20892719.740    85552435.97949
  23333441.520   122618239.58406  23333446.220    95546776.66546
  24273054.700   127555761.33005  24273059.920    99394134.84045
  22460010.940   118028514.71208  22460012.820    91970431.14047
  21804087.680   114581256.99808  21804088.900    89284100.73748
 15 02 11 00 26  0.0000000  0  7G16G18G21G25G27G29G31
  23056652.180   121163526.58707  23056653.160    94413148.23546
  23646654.720   124264103.79906  23646658.760    96829235.40545
  20892737.380   109792259.65208  20892737.980    85552510.76349
  23350313.020   122706900.31206  23350317.820    95615862.90246
  24258660.180   127480117.91305  24258665.540    99335191.94345
  22472909.980   118096299.65408  22472911.820    92023250.56547
  21816632.100   114647178.08408  21816633.360    89335467.79048
 15 02 11 00 26 30.0000000  0  7G16G18G21G25G27G29G31
  23039928.720   121075644.33007  23039929.800    94344668.56046
  23631644.420   124185225.77006  23631648.420    96767772.20244
  20892838.620   109792791.57708  20892839.180    85552925.25549
  23367228.520   122795792.59706  23367233.440    95685129.56446
  24244282.020   127404560.65605  24244287.360    99276316.17746
  22485822.220   118164154.01708  22485824.100    92076124.07647
  21829253.460   114713503.61508  21829254.780    89387150.00448
 15 02 11 00 27  0.0000000  0  7G16G18G21G25G27G29G31
  23023225.120   120987866.69307  23023226.400    94276270.42646
  23616649.480   124106428.07906  23616653.460    96706371.58444
  20893022.260   109793756.51208  20893022.800    85553677.15849
  23384187.560   122884913.03306  23384192.500    95754574.01946
  24229919.820   127329087.19005  24229925.060    99217505.72345
  22498747.220   118232075.04608  22498749.060    92129049.52947
  21841950.800   114780228.31908  21841952.100    89439143.25648
 15 02 11 00 27 30.0000000  0  7G16G18G21G25G27G29G31
  23006542.000   120900196.59707  23006543.440    94207956.07846
  23601670.720   124027715.04106  23601674.600    96645036.93445
  20893288.440   109795155.26108  20893288.980    85554767.09449
  23401190.180   122974262.03106  23401194.960    95824196.57445
  24215573.840   127253698.99305  24215579.060    99158761.72044
  22511685.300   118300064.25008  22511686.920    92182028.12447
  21854724.020   114847351.78108  21854725.300    89491447.22548
 15 02 11 00 28  0.0000000  0  7G16G18G21G25G27G29G31
  22989879.640   120812635.43807  22989881.160    94139726.62046
  23586708.580   123949088.55706  23586712.160    96583769.73644
  20893636.780   109796985.86008  20893637.340    85556193.54149
  23418236.020   123063837.83106  23418240.620    95893995.85145
  24201243.940   127178395.32805  24201249.100    99100083.56045
  22524636.020   118368119.59508  22524637.360    92235058.24647
  21867572.400   114914870.56308  21867573.700    89544059.23848
 15 02 11 00 28 30.0000000  0  7G16G18G21G25G27G29G31
  22973238.560   120725185.67307  22973240.100    94071583.95446
  23571763.560   123870551.83406  23571767.000    96522572.47344
  20894067.280   109799248.27908  20894067.860    85557956.47349
  23435325.000   123153639.98906  23435329.280    95963971.53245
  24186930.340   127103176.75705  24186935.320    99041471.77545
  22537599.420   118436241.76608  22537600.620    92288140.44247
  21880495.660   114982782.88408  21880496.940    89596977.90148
 15 02 11 00 29  0.0000000  0  7G16G18G21G25G27G29G31
  22956619.020   120637848.97807  22956620.480    94003529.41046
  23556836.200   123792107.73306  23556839.460    96461447.36845
  20894579.860   109801942.01008  20894580.440    85560055.48749
  23452456.860   123243667.39107  23452460.920    96034122.71045
  24172633.040   127028043.35505  24172637.820    98982926.30445
  22550575.440   118504430.36008  22550576.500    92341274.40247
  21893493.280   115051086.17908  21893494.640    89650201.22648
 15 02 11 00 29 30.0000000  0  7G16G18G21G25G27G29G31
  22940021.660   120550628.87107  22940023.020    93935565.69746
  23541927.240   123713760.47206  23541930.420    96400397.72445
  20895174.580   109805067.40808  20895175.180    85562490.87449
  23469631.580   123333920.70207  23469635.620    96104449.91246
  24158352.280   126952996.69306  24158356.940    98924448.44645
  22563564.060   118572685.84808  22563565.200    92394460.46347
  21906565.140   115119779.43308  21906566.560    89703728.41248
 15 02 11 00 30  0.0000000  0  7G16G18G21G25G27G29G31
  22923446.560   120463526.33007  22923447.940    93867693.59346
  23527037.000   123635511.74106  23527040.000    96339424.83645
  20895851.020   109808622.33708  20895851.660    85565260.95749
  23486848.780   123424397.64306  23486852.940    96174951.39845
  24144087.760   126878035.67705  24144092.300    98866037.32544
  22576565.140   118641007.34908  22576566.400    92447697.98147
  21919710.580   115188859.19908  21919712.040    89757556.77948
 15 02 11 00 30 30.0000000  0  7G16G18G21G25G27G29G31
  22906894.180   120376543.20407  22906895.520    93799914.54446
  23512165.940   123557364.07206  23512168.880    96278530.71745
  20896609.220   109812606.77608  20896609.880    85568365.71849
  23504108.240   123515097.25906  23504112.700    96245626.37246
  24129839.500   126803160.37105  24129844.060    98807692.97745
  22589578.700   118709394.21608  22589580.020    92500986.44247
  21932929.100   115258323.02808  21932930.580    89811684.41148
 15 02 11 00 31  0.0000000  0  7G16G18G21G25G27G29G31
  22890365.080   120289682.72507  22890366.440    93732231.06446
  23497314.880   123479321.65006  23497317.900    96217718.59445
  20897449.260   109817021.15608  20897449.920    85571805.49749
  23521409.980   123606019.93506  23521414.860    96316475.15745
  24115607.760   126728372.25405  24115612.340    98749416.57646
  22602604.840   118777847.47408  22602606.240    92554326.62747
  21946220.560   115328169.86408  21946222.020    89866110.49048
 15 02 11 00 31 30.0000000  0  7G16G18G21G25G27G29G31
  22873859.240   120202944.20307  22873860.540    93664642.60346
  23482483.780   123401384.52406  23482486.800    96156988.51745
  20898370.340   109821861.28808  20898370.960    85575577.03649
  23538753.480   123697161.79406  23538758.760    96387494.74045
  24101392.060   126653668.56405  24101396.720    98691205.96445
  22615642.980   118846363.76208  22615644.440    92607715.92647
  21959583.920   115398394.20608  21959585.260    89920830.72448
 15 02 11 00 32  0.0000000  0  7G16G18G21G25G27G29G31
  22857377.100   120116329.73107  22857378.280    93597150.80546
  23467673.140   123323555.35506  23467676.380    96096342.56245
  20899372.420   109827127.12008  20899373.040    85579680.28449
  23556138.640   123788521.95406  23556144.120    96458684.42746
  24087192.340   126579049.50405  24087197.180    98633061.26645
  22628693.200   118914943.27508  22628694.680    92661154.48347
  21973018.680   115468993.84208  21973019.920    89975843.40148
 15 02 11 00 32 30.0000000  0  7G16G18G21G25G27G29G31
  22840918.900   120029840.92807  22840919.960    93529756.93946
  23452883.460   123245836.60706  23452886.860    96035782.63045
  20900455.320   109832817.70608  20900455.940    85584114.50949
  23573565.280   123880099.18006  23573570.820    96530043.24446
  24073008.700   126504514.96905  24073013.640    98574982.45245
  22641755.340   118983585.31308  22641756.820    92714641.76347
  21986524.360   115539966.14608  21986525.460    90031146.46548
 15 02 11 00 33  0.0000000  0  7G16G18G21G25G27G29G31
  22824485.180   119943480.83907  22824486.200    93462463.36746
  23438115.600   123168232.61306  23438119.100    95975312.11945
  20901618.920   109838932.60708  20901619.580    85588879.37149
  23591033.320   123971893.28306  23591038.800    96601571.04946
  24058841.380   126430065.82805  24058846.300    98516970.17145
  22654829.500   119052290.46708  22654830.940    92768178.23047
  22000100.580   115611309.64308  22000101.700    90086738.76748
 15 02 11 00 33 30.0000000  0  7G16G18G21G25G27G29G31
  22808076.180   119857250.98507  22808077.220    93395271.27946
  23423369.920   123090745.26006  23423373.580    95914932.52544
  20902863.060   109845470.87208  20902863.780    85593974.12349
  23608542.460   124063902.88106  23608547.700    96673266.78745
  24044690.160   126355701.90505  24044695.200    98459024.28845
  22667915.520   119121058.08208  22667916.980    92821763.35147
  22013746.760   115683021.15008  22013748.020    90142617.83448
 15 02 11 00 34  0.0000000  0  7G16G18G21G25G27G29G31
  22791692.200   119771153.06207  22791693.400    93328181.99946
  23408647.140   123013377.34306  23408650.680    95854645.95945
  20904187.580   109852431.34808  20904188.300    85599397.87349
  23626092.220   124156126.55506  23626097.280    96745129.33245
  24030555.240   126281422.83505  24030560.300    98401144.53245
  22681013.300   119189887.11208  22681014.800    92875396.33847
  22027462.340   115755097.79708  22027463.860    90198781.43148
 15 02 11 00 34 30.0000000  0  7G16G18G21G25G27G29G31
  22775333.740   119685188.68807  22775334.920    93261196.77846
  23393947.440   122936130.38206  23393950.800    95794453.66745
  20905592.060   109859812.06908  20905592.820    85605149.08649
  23643682.280   124248562.48106  23643687.160    96817157.26645
  24016436.480   126207228.02706  24016441.520    98343330.44646
  22694122.580   119258776.69408  22694124.140    92929076.49447
  22041246.860   115827536.42508  22041248.580    90255227.09148
 15 02 11 00 35  0.0000000  0  7G16G18G21G25G27G29G31
  22759001.460   119599361.83307  22759002.600    93194318.71447
  23379272.000   122859009.94607  23379275.040    95734359.95845
  20907076.940   109867615.14008  20907077.680    85611229.40749
  23661312.880   124341212.01006  23661317.600    96889351.66244
  24002334.220   126133119.83305  24002339.200    98285583.83146
  22707243.780   119327728.97608  22707245.360    92982805.51747
  22055100.320   115900336.91708  22055102.140    90311954.72448
 15 02 11 00 35 30.0000000  0  7G16G18G21G25G27G29G31
  22742695.420   119513673.24307  22742696.580    93127548.38046
  23364620.980   122782017.16007  23364623.600    95674365.70745
  20908641.600   109875837.57008  20908642.340    85617636.49849
  23678983.500   124434072.41206  23678988.200    96961710.36644
  23988248.200   126059096.82506  23988253.040    98227903.61345
  22720376.580   119396742.42407  22720378.220    93036582.19447
  22069021.960   115973495.00408  22069023.680    90368960.99748
 15 02 11 00 36  0.0000000  0  7G16G18G21G25G27G29G31
  22726415.980   119428124.47907  22726417.180    93060887.00947
  23349994.600   122705154.27907  23349996.860    95614472.66144
  20910285.860   109884478.30408  20910286.620    85624369.54549
  23696693.960   124527142.30106  23696698.680    97034232.30245
  23974178.360   125985158.68606  23974183.100    98170289.53245
  22733520.720   119465815.60307  22733522.460    93090405.43147
  22083011.140   116047007.95208  22083012.700    90426243.78148
 15 02 11 00 36 30.0000000  0  7G16G18G21G25G27G29G31
  22710163.320   119342716.69407  22710164.640    92994335.49946
  23335393.080   122628423.09107  23335395.240    95554682.22845
  20912009.400   109893535.57008  20912010.140    85631427.15849
  23714444.080   124620419.58506  23714448.620    97106915.84145
  23960124.540   125911304.56206  23960129.140    98112740.90546
  22746676.140   119534948.01008  22746677.920    93144274.81447
  22097067.080   116120871.84808  22097068.440    90483800.02948
 15 02 11 00 37  0.0000000  0  7G16G18G21G25G27G29G31
  22693938.340   119257454.30107  22693939.740    92927897.27946
  23320817.520   122551828.73706  23320819.600    95494998.42245
  20913812.400   109903010.39708  20913813.120    85638810.14349
  23732233.920   124713905.48406  23732238.380    97179761.93645
  23946087.100   125837536.76006  23946091.420    98055259.55445
  22759843.240   119604141.53707  22759845.080    93198191.82647
  22111189.740   116195086.63308  22111190.940    90541629.69748
 15 02 11 00 37 30.0000000  0  7G16G18G21G25G27G29G31
  22677741.260   119172337.85607  22677742.640    92861572.78247
  23306268.160   122475372.71907  23306270.340    95435422.41045
  20915694.480   109912900.76208  20915695.180    85646516.92649
  23750062.960   124807597.46906  23750067.400    97252768.62345
  23932065.800   125763854.00805  23932069.920    97997844.47546
  22773021.540   119673394.08707  22773023.440    93252154.83147
  22125378.400   116269648.50508  22125379.540    90599729.81848
 15 02 11 00 38  0.0000000  0  7G16G18G21G25G27G29G31
  22661572.220   119087368.73807  22661573.580    92795363.09047
  23291745.500   122399056.89406  23291747.780    95375955.62645
  20917655.260   109923204.85408  20917656.000    85654546.09449
  23767930.960   124901493.77506  23767935.400    97325934.50445
  23918060.500   125690255.66005  23918064.500    97940495.16246
  22786210.920   119742705.04607  22786212.920    93306163.34047
  22139632.460   116344554.09608  22139633.640    90658097.78648
 15 02 11 00 38 30.0000000  0  7G16G18G21G25G27G29G31
  22645431.540   119002548.58407  22645432.840    92729269.46847
  23277250.060   122322883.97007  23277252.400    95316600.21145
  20919694.480   109933921.03308  20919695.220    85662896.37249
  23785837.600   124995592.92306  23785842.020    97399258.45045
  23904071.200   125616741.49505  23904075.140    97883211.45046
  22799411.320   119812073.59207  22799413.340    93360216.72247
  22153951.380   116419800.39708  22153952.620    90716731.23548
 15 02 11 00 39  0.0000000  0  7G16G18G21G25G27G29G31
  22629320.140   118917882.75607  22629321.480    92663296.09147
  23262783.000   122246859.40607  23262785.380    95257360.36745
  20921812.600   109945051.79708  20921813.320    85671569.69949
  23803783.060   125089896.63406  23803787.720    97472741.79245
  23890098.400   125543314.49505  23890102.460    97825995.66646
  22812623.180   119881502.48507  22812625.220    93414317.12347
  22168335.260   116495387.70308  22168336.580    90775630.40348
 15 02 11 00 39 30.0000000  0  7G16G18G21G25G27G29G31
  22613237.800   118833369.88307  22613239.220    92597441.92547
  23248344.140   122170982.86107  23248346.640    95198235.90145
  20924008.820   109956592.94608  20924009.520    85680562.80749
  23821766.680   125184400.69906  23821771.580    97546381.25746
  23876141.580   125469971.57805  23876145.780    97768845.38246
  22825845.960   119950988.31607  22825847.920    93468461.90047
  22182782.880   116571310.15108  22182784.320    90834790.72048
 15 02 11 00 40  0.0000000  0  7G16G18G21G25G27G29G31
  22597185.060   118749012.13607  22597186.500    92531708.61947
  23233934.040   122095257.02207  23233936.460    95139228.84845
  20926282.900   109968543.31708  20926283.600    85689874.78949
  23839788.320   125279103.87106  23839793.320    97620175.84645
  23862200.760   125396712.68905  23862205.120    97711760.56447
  22839079.600   120020530.94407  22839081.500    93522650.93646
  22197293.700   116647564.96408  22197295.280    90894210.02048
 15 02 11 00 40 30.0000000  0  7G16G18G21G25G27G29G31
  22581162.340   118664812.05607  22581163.760    92466098.17447
  23219553.360   122019685.31107  23219555.640    95080341.88045
  20928634.660   109980902.15608  20928635.400    85699505.06249
  23857847.700   125374005.41006  23857852.720    97694125.02645
  23848276.040   125323538.42005  23848280.680    97654741.70447
  22852324.120   120090130.58107  22852325.880    93576884.38647
  22211867.320   116724150.04908  22211869.020    90953886.67848
 15 02 11 00 41  0.0000000  0  7G16G18G21G25G27G29G31
  22565170.420   118580773.71008  22565171.760    92400613.75847
  23205202.800   121944272.02007  23205205.080    95021578.37346
  20931064.400   109993670.49208  20931065.120    85709454.41849
  23875944.900   125469106.00806  23875949.900    97768229.29245
  23834367.840   125250450.62205  23834372.600    97597790.19646
  22865579.560   120159788.19607  22865581.320    93631163.02547
  22226503.700   116801064.81508  22226505.460    91013820.23648
 15 02 11 00 41 30.0000000  0  7G16G18G21G25G27G29G31
  22549209.220   118496897.07408  22549210.580    92335255.34947
  23190882.480   121869018.24407  23190884.840    94962939.15545
  20933571.500   110006845.25008  20933572.160    85719720.46949
  23894079.360   125564402.61606  23894084.200    97842486.31345
  23820475.740   125177447.48805  23820480.500    97540904.67446
  22878845.700   120229502.41107  22878847.520    93685485.74747
  22241201.920   116878304.55408  22241203.660    91074007.00748
 15 02 11 00 42  0.0000000  0  7G16G18G21G25G27G29G31
  22533279.260   118413184.77508  22533280.660    92270024.99047
  23176592.960   121793926.83007  23176595.420    94904426.43246
  20936155.800   110020425.75608  20936156.440    85730302.68849
  23912250.840   125659894.39006  23912255.520    97916895.43345
  23806599.920   125104529.47006  23806604.620    97484085.47246
  22892122.580   120299273.30707  22892124.560    93739852.64647
  22255961.560   116955866.88008  22255963.240    91134445.14847
 15 02 11 00 42 30.0000000  0  7G16G18G21G25G27G29G31
  22517381.160   118329639.66608  22517382.540    92204924.91047
  23162334.960   121719001.28007  23162337.480    94846042.97145
  20938817.240   110034411.67108  20938817.860    85741200.80849
  23930459.140   125755580.78506  23930463.960    97991456.15745
  23792740.500   125031697.27106  23792745.100    97427333.16046
  22905410.280   120369100.89607  22905412.360    93794263.73646
  22270782.220   117033749.65708  22270783.820    91195132.98547
 15 02 11 00 43  0.0000000  0  7G16G18G21G25G27G29G31
  22501514.920   118246262.04608  22501516.300    92139955.34647
  23148108.700   121644242.39707  23148111.120    94787789.37445
  20941555.180   110048799.89508  20941555.840    85752412.40549
  23948703.800   125851458.73606  23948708.880    98066166.17844
  23778897.060   124958949.09306  23778901.560    97370646.32046
  22918708.360   120438983.26407  22918710.620    93848717.49947
  22285663.000   117111948.41808  22285664.580    91256067.04848
 15 02 11 00 43 30.0000000  0  7G16G18G21G25G27G29G31
  22485681.040   118163054.43808  22485682.400    92075118.26547
  23133914.820   121569653.89007  23133917.140    94729668.53745
  20944369.620   110063590.02908  20944370.320    85763937.19349
  23966984.960   125947527.71605  23966990.020    98141025.01245
  23765069.680   124886285.65306  23765074.080    97314025.49046
  22932016.940   120508920.90207  22932019.380    93903214.33147
  22300603.520   117190461.09908  22300605.120    91317245.72448
 15 02 11 00 44  0.0000000  0  7G16G18G21G25G27G29G31
  22469879.840   118080018.30308  22469881.100    92010414.79347
  23119753.700   121495237.27207  23119755.900    94671681.63645
  20947260.140   110078779.90408  20947260.860    85775773.45949
  23985302.240   126043785.52305  23985307.240    98216031.04445
  23751258.180   124813706.05906  23751262.500    97257470.03846
  22945335.840   120578912.35207  22945338.360    93957753.08846
  22315603.140   117269284.21408  22315604.720    91378666.29648
 15 02 11 00 44 30.0000000  0  7G16G18G21G25G27G29G31
  22454111.780   117997156.82008  22454113.020    91945847.41447
  23105626.040   121420996.46407  23105628.140    94613831.73345
  20950226.840   110094370.05708  20950227.580    85787921.63849
  24003655.620   126140232.08506  24003660.500    98291184.10744
  23737462.780   124741211.53906  23737467.100    97200980.84446
  22958665.320   120648958.80307  22958667.780    94012334.71246
  22330661.460   117348415.93608  22330663.000    91440327.34947
 15 02 11 00 45  0.0000000  0  7G16G18G21G25G27G29G31
  22438377.100   117914470.77108  22438378.300    91881416.73747
  23091532.180   121346933.18207  23091534.220    94556120.16946
  20953269.160   110110357.75308  20953269.940    85800379.58649
  24022044.620   126236864.91406  24022049.240    98366482.34044
  23723683.400   124668800.87806  23723687.660    97144557.00045
  22972005.040   120719058.99307  22972007.380    94066958.20546
  22345777.780   117427852.54408  22345779.260    91502225.96247
 15 02 11 00 45 30.0000000  0  7G16G18G21G25G27G29G31
  22422676.560   117831964.12808  22422677.700    91817125.85947
  23077472.880   121273051.29807  23077474.860    94498549.93345
  20956387.240   110126743.39508  20956388.020    85813147.62249
  24040469.160   126333684.44906  24040473.700    98441926.04645
  23709920.300   124596475.85906  23709924.500    97088199.87945
  22985355.140   120789214.12907  22985357.400    94121624.52746
  22360951.900   117507592.82608  22360953.260    91564361.20947
 15 02 11 00 46  0.0000000  0  7G16G18G21G25G27G29G31
  22407010.620   117749638.78708  22407011.640    91752976.25347
  23063448.740   121199353.80607  23063450.720    94441123.38345
  20959580.820   110143525.70308  20959581.560    85826224.74749
  24058928.860   126430689.16706  24058933.380    98517514.04345
  23696173.480   124524236.24806  23696177.640    97031909.32045
  22998715.640   120859423.96507  22998717.840    94176333.45346
  22376183.240   117587633.77108  22376184.500    91626730.73647
 15 02 11 00 46 30.0000000  0  7G16G18G21G25G27G29G31
  22391379.380   117667495.85408  22391380.380    91688968.77847
  23049459.980   121125842.18107  23049462.060    94383841.66245
  20962849.500   110160702.57008  20962850.180    85839609.32149
  24077423.120   126527876.69106  24077427.880    98593244.48145
  23682442.740   124452080.93005  23682446.840    96975684.43446
  23012086.360   120929687.01007  23012088.420    94231083.85346
  22391470.980   117667971.41108  22391472.240    91689331.44347
 15 02 11 00 47  0.0000000  0  7G16G18G21G25G27G29G31
  22375783.400   117585538.30708  22375784.440    91625105.76147
  23035507.160   121052519.83607  23035509.440    94326707.42745
  20966193.100   110178273.09608  20966193.720    85853300.64249
  24095951.980   126625246.56805  24095957.180    98669117.01446
  23668728.200   124380010.88806  23668732.340    96919526.00046
  23025467.280   121000003.81507  23025469.220    94285876.14046
  22406814.800   117748603.80808  22406816.140    91752161.83747
 15 02 11 00 47 30.0000000  0  7G16G18G21G25G27G29G31
  22360223.140   117503768.79408  22360224.240    91561389.26447
  23021591.000   120979389.87607  23021593.300    94269723.10146
  20969611.520   110196236.92508  20969612.100    85867298.43349
  24114515.220   126722798.05706  24114520.880    98745131.04244
  23655030.020   124308026.66006  23655034.200    96863434.43146
  23038858.500   121070374.68807  23038860.400    94340710.56246
  22422214.360   117829528.91608  22422215.780    91815220.32647
 15 02 11 00 48  0.0000000  0  7G16G18G21G25G27G29G31
  22344698.600   117422187.06708  22344699.800    91497819.10147
  23007711.540   120906452.90907  23007713.900    94212889.15845
  20973104.040   110214590.29408  20973104.640    85881599.76249
  24133112.160   126820527.47505  24133118.320    98821283.73845
  23641347.820   124236125.92506  23641352.020    96807407.93146
  23052259.680   121140797.41607  23052261.480    94395585.38446
  22437668.620   117910741.43208  22437670.160    91878502.76647
 15 02 11 00 48 30.0000000  0  7G16G18G21G25G27G29G31
  22329210.700   117340797.60608  22329211.900    91434398.74647
  22993869.740   120833713.62507  22993872.080    94156209.24946
  20976670.940   110233334.59308  20976671.560    85896205.71149
  24151743.160   126918435.78105  24151749.780    98897575.80746
  23627681.900   124164310.89106  23627686.180    96751448.19246
  23065670.940   121211273.86307  23065672.760    94450502.06846
  22453177.480   117992240.81008  22453179.120    91942008.74047
 15 02 11 00 49  0.0000000  0  7G16G18G21G25G27G29G31
  22313759.340   117259600.14308  22313760.520    91371128.00747
  22980065.620   120761172.46107  22980067.920    94099683.71846
  20980311.480   110252465.88108  20980312.120    85911113.20649
  24170407.760   127016519.05005  24170414.520    98974004.21846
  23614031.820   124092579.23406  23614036.140    96695553.43146
  23079091.840   121281801.27107  23079093.760    94505458.47347
  22468739.960   118074021.91908  22468741.640    92005734.23247
 15 02 11 00 49 30.0000000  0  7G16G18G21G25G27G29G31
  22298345.080   117178597.70408  22298346.280    91308009.23647
  22966299.880   120688833.33707  22966302.100    94043315.62346
  20984025.580   110271983.91508  20984026.300    85926322.06249
  24189105.920   127114777.39805  24189112.260    99050569.03145
  23600397.820   124020932.16506  23600402.200    96639724.57246
  23092522.600   121352380.74107  23092524.640    94560455.43246
  22484355.660   118156082.95508  22484357.360    92069677.85547
 15 02 11 00 50  0.0000000  0  7G16G18G21G25G27G29G31
  22282968.400   117097792.66608  22282969.640    91245044.27847
  22952572.860   120616698.23307  22952575.080    93987106.50446
  20987813.060   110291887.41508  20987813.840    85941831.28049
  24207837.180   127213208.94405  24207843.060    99127268.82545
  23586779.840   123949369.33906  23586784.280    96583961.34746
  23105963.200   121423011.74107  23105965.320    94615492.54046
  22500024.000   118238420.69308  22500025.720    92133837.08647
 15 02 11 00 50 30.0000000  0  7G16G18G21G25G27G29G31
  22267629.960   117017188.56708  22267631.180    91182235.89347
  22938885.480   120544771.58207  22938887.700    93931059.82145
  20991674.020   110312177.01208  20991674.840    85957641.35849
  24226601.420   127311814.05205  24226606.880    99204103.82445
  23573178.180   123877892.44306  23573182.720    96528265.07746
  23119413.900   121493695.56807  23119415.980    94670570.82446
  22515744.760   118321033.98108  22515746.440    92198211.02447
 15 02 11 00 51  0.0000000  0  7G16G18G21G25G27G29G31
  22252329.880   116936786.01008  22252331.040    91119584.55247
  22925237.940   120473054.20807  22925240.100    93875176.21645
  20995607.800   110332849.28608  20995608.640    85973749.62449
  24245398.160   127410589.72405  24245403.100    99281071.78944
  23559592.540   123806499.93506  23559597.200    96472634.57646
  23132874.360   121564430.53907  23132876.460    94725688.96346
  22531517.140   118403918.48408  22531518.800    92262796.30847
 15 02 11 00 51 30.0000000  0  7G16G18G21G25G27G29G31
  22237068.680   116856587.73408  22237069.780    91057092.39047
  22911630.920   120401549.59207  22911632.960    93819458.38545
  20999614.300   110353903.49708  20999615.140    85990155.50649
  24264227.120   127509535.11306  24264231.760    99358171.95945
  23546023.060   123735192.33806  23546027.680    96417070.23446
  23146344.600   121635216.98907  23146346.640    94780847.20746
  22547340.740   118487071.84208  22547342.360    92327591.08447
 15 02 11 00 52  0.0000000  0  7G16G18G21G25G27G29G31
  22221846.780   116776596.03008  22221847.800    90994761.19947
  22898064.960   120330260.62207  22898066.960    93763908.60745
  21003693.340   110375338.66008  21003694.120    86006858.22949
  24283088.080   127608649.01606  24283092.620    99435403.45244
  23532469.880   123663969.84406  23532474.320    96361572.20546
  23159824.660   121706054.81707  23159826.620    94836045.49046
  22563214.960   118570491.15308  22563216.560    92392593.09347
 15 02 11 00 52 30.0000000  0  8G16G18G21G22G25G27G29G31
  22206664.760   116696814.24708  22206665.760    90932593.58947
  22884540.820   120259190.79207  22884542.760    93708529.56445
  21007844.800   110397154.55908  21007845.560    86023857.63049
  24550859.200   129015637.72406  24550865.400   100531696.29243
  24301980.940   127707931.22306  24301985.720    99512766.04044
  23518933.100   123592833.61206  23518937.420    96306141.39046
  23173314.740   121776945.20107  23173316.600    94891284.72246
  22579139.500   118654174.94708  22579141.100    92457801.19547
 15 02 11 00 53  0.0000000  0  8G16G18G21G22G25G27G29G31
  22191521.800   116617237.50308  22191522.760    90870585.73447
  22871057.620   120188335.52507  22871059.440    93653317.70845
  21012067.100   110419342.73008  21012067.820    86041147.11849
  24532759.020   128920520.40306  24532764.680   100457579.43344
  24320904.180   127807373.23405  24320909.120    99590253.16944
  23505411.440   123521776.69606  23505415.580    96250772.40046
  23186813.360   121847880.68607  23186815.120    94946559.08946
  22595112.420   118738113.09508  22595114.080    92523207.49947
 15 02 11 00 53 30.0000000  0  8G16G18G21G22G25G27G29G31
  22176419.900   116537876.44308  22176420.860    90808745.94747
  22857617.460   120117706.14307  22857619.200    93598281.88245
  21016361.560   110441910.30608  21016362.280    86058732.24349
  24514645.360   128825332.89706  24514651.000   100383407.90645
  24339859.040   127906982.14805  24339864.380    99667870.33743
  23491906.500   123450807.44706  23491910.480    96195471.72145
  23200322.060   121918869.58407  23200323.780    95001875.08846
  22611134.760   118822311.17008  22611136.540    92588816.33747
 15 02 11 00 54  0.0000000  0  8G16G18G21G22G25G27G29G31
  22161358.980   116458730.78208  22161359.980    90747073.99946
  22844220.380   120047303.16907  22844222.120    93543422.45446
  21020727.520   110464853.68808  21020728.260    86076610.20749
  24496518.340   128730075.84406  24496524.140   100309182.19044
  24358845.060   128006754.29105  24358850.540    99745614.70044
  23478417.840   123379923.75006  23478421.660    96140237.70046
  23213840.560   121989909.65207  23213842.220    95057230.96546
  22627205.720   118906764.42508  22627207.580    92654624.02547
 15 02 11 00 54 30.0000000  0  8G16G18G21G22G25G27G29G31
  22146339.860   116379804.85808  22146340.920    90685573.27947
  22830867.100   119977130.60707  22830868.880    93488742.57746
  21025165.060   110488173.02408  21025165.780    86094781.11849
  24478378.620   128634753.18705  24478384.380   100234905.31744
  24377862.180   128106689.88105  24377867.900    99823486.41845
  23464945.700   123309127.23406  23464949.500    96085071.60946
  23227369.000   122061001.96607  23227370.780    95112627.55346
  22643325.000   118991471.19308  22643326.800    92720629.24847
 15 02 11 00 55  0.0000000  0  8G16G18G21G22G25G27G29G31
  22131362.100   116301096.44808  22131363.200    90624242.05447
  22817557.280   119907187.00707  22817559.180    93434241.10146
  21029673.120   110511862.92608  21029673.820    86113240.78249
  24460226.100   128539363.22606  24460231.900   100160575.99144
  24396909.560   128206783.30905  24396915.220    99901481.13545
  23451489.360   123238413.79306  23451493.140    96029970.25746
  23240906.640   122132142.72307  23240908.580    95168061.88046
  22659491.200   119076424.34308  22659492.860    92786826.45947
 15 02 11 00 55 30.0000000  0  8G16G18G21G22G25G27G29G31
  22116426.640   116222610.25408  22116427.740    90563083.97947
  22804291.940   119837477.47407  22804293.940    93379922.00745
  21034251.860   110535924.37008  21034252.540    86131989.95549
  24442061.500   128443910.82806  24442067.400   100086198.02144
  24415987.160   128307035.69405  24415992.760    99979599.70945
  23438049.360   123167785.93806  23438053.120    95974935.59746
  23254453.880   122203333.93907  23254455.900    95223535.53746
  22675704.220   119161623.79508  22675705.760    92853215.58847
 15 02 11 00 56  0.0000000  0  8G16G18G21G22G25G27G29G31
  22101533.840   116144348.30908  22101535.020    90502100.65447
