     2.11           OBSERVATION DATA    G                   RINEX VERSION / TYPE
SPIDER V4,0,0,3554                      2015 03 24 00:13    PGM / RUN BY / DATE 
CJSR                                                        MARKER NAME         
CJSR                                                        MARKER NUMBER       
                                                            OBSERVER / AGENCY   
496548              LEICA GRX1200+GNSS  8.20/4.007          REC # / TYPE / VERS 
10321013            LEIAR25         NONE                    ANT # / TYPE        
  5147913.4740   536355.0963  3716357.4907                  APPROX POSITION XYZ 
        0.0720        0.0000        0.0000                  ANTENNA: DELTA H/E/N
     1     1                                                WAVELENGTH FACT L1/2
     4    C1    L1    P2    L2                              # / TYPES OF OBSERV 
    30.000                                                  INTERVAL            
  2015    02    11    09    27    0.0000000     GPS         TIME OF FIRST OBS   
  2015    02    11    23    53    0.0000000     GPS         TIME OF LAST OBS    
    16                                                      LEAP SECONDS        
    27                                                      # OF SATELLITES     
   G 1   138   138   138   138                              PRN / # OF OBS      
   G 2   911   910   909   909                              PRN / # OF OBS      
   G 3   286   286   286   286                              PRN / # OF OBS      
   G 4     3     3     3     3                              PRN / # OF OBS      
   G 5   652   652   652   652                              PRN / # OF OBS      
   G 6   693   693   692   692                              PRN / # OF OBS      
   G 7   659   659   659   659                              PRN / # OF OBS      
   G 9   576   576   576   576                              PRN / # OF OBS      
   G10   720   720   720   720                              PRN / # OF OBS      
   G11    39    39    39    39                              PRN / # OF OBS      
   G12   797   796   796   796                              PRN / # OF OBS      
   G13   789   789   789   789                              PRN / # OF OBS      
   G14   454   454   454   454                              PRN / # OF OBS      
   G15   701   689   686   686                              PRN / # OF OBS      
   G16    35    35    35    35                              PRN / # OF OBS      
   G17   572   572   571   571                              PRN / # OF OBS      
   G18   304   304   303   303                              PRN / # OF OBS      
   G20   589   589   589   589                              PRN / # OF OBS      
   G21   240   240   240   240                              PRN / # OF OBS      
   G23   389   389   389   389                              PRN / # OF OBS      
   G24   804   804   804   804                              PRN / # OF OBS      
   G25   653   653   653   653                              PRN / # OF OBS      
   G28   597   597   597   597                              PRN / # OF OBS      
   G29   545   545   545   545                              PRN / # OF OBS      
   G30   711   711   711   711                              PRN / # OF OBS      
   G31   353   353   352   352                              PRN / # OF OBS      
   G32    33    33    33    33                              PRN / # OF OBS      
BIT 2 OF LLI FLAGS DATA COLLECTED UNDER A/S CONDITION       COMMENT             
SNR is mapped to RINEX snr flag value [2-9]                 COMMENT             
Lx:     = 25dBHz -> 1; 26-27dBHz -> 2; 28-31dBHz -> 3       COMMENT             
       32-35dBHz -> 4; 36-38dBHz -> 5; 39-41dBHz -> 6       COMMENT             
       42-44dBHz -> 7; 45-48dBHz -> 8; >=49dBHz -> 9        COMMENT             
                                                            END OF HEADER       
 15 02 11 09 27  0.0000000  0 12G01G03G04G06G07G09G10G11G17G20G23G32
  22178779.640   116550260.84909  22178782.300    90818394.32148
  21170957.160   111254126.07109  21170958.620    86691531.59948
  24905168.940   130877496.35508  24905174.720   101982462.18245
  22631643.880   118930095.57109  22631646.320    92672819.16348
  24522536.380   128866810.96608  24522540.940   100415701.55345
  20883106.580   109741471.45809  20883107.880    85512842.17949
  23739042.520   124749518.18608  23739043.460    97207422.29544
  24360013.640   128012706.01808  24360015.360    99750152.10244
  22326378.520   117325905.20309  22326378.480    91422778.35748
  21552997.060   113261764.19609  21552995.940    88255922.20248
  20468296.500   107561622.48909  20468292.580    83814236.63649
  24584288.700   129191287.06907  24584292.580   100668533.95845
 15 02 11 09 27 30.0000000  0 12G01G03G04G06G07G09G10G11G17G20G23G32
  22194833.940   116634627.21909  22194836.760    90884134.28848
  21177852.780   111290362.80609  21177854.280    86719767.97848
  24925463.000   130984141.35108  24925468.700   102065561.79845
  22614701.040   118841060.71909  22614703.560    92603441.40148
  24503100.100   128764673.56308  24503104.860   100336114.27045
  20873707.420   109692078.05509  20873708.580    85474353.82949
  23723400.280   124667317.87808  23723401.420    97143370.21745
  24381339.900   128124775.45308  24381341.580    99837478.69345
  22334283.540   117367446.46909  22334283.460    91455148.10548
  21542152.980   113204777.90809  21542151.840    88211517.32348
  20469826.800   107569664.41909  20469823.000    83820503.04949
  24598886.240   129267997.72607  24598890.160   100728308.33845
 15 02 11 09 28  0.0000000  0 12G01G03G04G06G07G09G10G11G17G20G23G32
  22210948.500   116719310.27109  22210951.420    90950121.01948
  21184783.020   111326781.34309  21184784.580    86748146.01948
  24945772.520   131090868.01608  24945778.300   102148725.03445
  22597800.680   118752248.90909  22597803.320    92534237.43748
  24483653.220   128662480.77508  24483658.160   100256483.82546
  20864390.240   109643115.66809  20864391.400    85436201.34849
  23707772.100   124585192.23107  23707773.240    97079376.36244
  24402676.660   128236899.35508  24402678.340    99924847.72445
  22342279.220   117409464.09509  22342279.200    91487889.06048
  21531338.360   113147947.04109  21531337.360    88167233.56748
  20471437.320   107578127.75409  20471433.520    83827097.81649
  24613484.680   129344712.48607  24613488.600   100788085.93645
 15 02 11 09 28 30.0000000  0 11G01G03G06G07G09G10G11G17G20G23G32
  22227123.100   116804308.55209  22227126.020    91016353.38448
  21191747.860   111363381.73709  21191749.480    86776665.76848
  22580943.200   118663662.66909  22580946.000    92465209.24548
  24464196.340   128560235.36308  24464201.380   100176812.34746
  20855155.140   109594584.80309  20855156.300    85398385.11149
  23692158.180   124503141.72107  23692159.080    97015440.99345
  24424023.440   128349075.40508  24424025.060   100012257.38745
  22350365.180   117451956.13109  22350365.300    91520999.69248
  21520553.400   113091272.30009  21520552.500    88123071.46748
  20473127.860   107587011.52809  20473124.080    83834020.20949
  24628083.960   129421431.27407  24628087.820   100847866.65245
 15 02 11 09 29  0.0000000  0 11G01G03G06G07G09G10G11G17G20G23G32
  22243357.720   116889622.16609  22243360.800    91082831.45348
  21198747.640   111400165.61909  21198749.260    86805328.49648
  22564129.340   118575306.07409  22564132.280    92396359.99748
  24444730.260   128457941.60408  24444735.300   100097103.20146
  20846002.440   109546487.34709  20846003.580    85360906.59049
  23676558.960   124421168.26508  23676560.220    96951565.69644
  24445380.020   128461302.94808  24445381.560   100099707.16345
  22358541.180   117494921.70309  22358541.440    91554479.29548
  21509798.620   113034755.80809  21509797.800    88079032.65748
  20474898.540   107596315.85409  20474894.640    83841270.30349
  24642684.420   129498155.65907  24642688.140   100907651.74645
 15 02 11 09 29 30.0000000  0 11G01G03G06G07G09G10G11G17G20G23G32
  22259651.860   116975248.53409  22259655.120    91149553.22048
  21205782.140   111437131.86409  21205783.760    86834133.32448
  22547359.480   118487180.48009  22547362.480    92327690.73148
  24425255.220   128355600.84508  24425260.240   100017357.42146
  20836932.100   109498822.54409  20836933.300    85323765.19749
  23660974.420   124339271.16208  23660975.860    96887749.87245
  24466745.720   128573578.68608  24466747.180   100187194.47446
  22366806.760   117538357.50309  22366806.940    91588325.32648
  21499073.800   112978396.92109  21499073.060    88035116.67148
  20476748.800   107606038.76009  20476744.860    83848846.57549
  24657285.760   129574884.57108  24657289.280   100967440.35145
 15 02 11 09 30  0.0000000  0 11G01G03G06G07G09G10G11G17G20G23G32
  22276005.560   117061187.67309  22276008.780    91216518.71048
  21212851.640   111474282.12209  21212853.340    86863081.53848
  22530634.280   118399289.94109  22530637.460    92259204.63848
  24405772.080   128253217.26508  24405777.000    99937578.29347
  20827944.460   109451592.29809  20827945.740    85286962.42249
  23645404.580   124257452.32208  23645406.260    96823995.05545
  24488120.440   128685902.17908  24488121.920   100274719.01046
  22375161.780   117582262.93109  22375162.060    91622537.28648
  21488379.360   112922197.75409  21488378.720    87991325.13048
  20478678.820   107616180.77409  20478674.860    83856749.41249
  24671888.220   129651619.65307  24671891.480   101027233.76345
 15 02 11 09 30 30.0000000  0 11G01G03G06G07G09G10G11G17G20G23G32
  22292418.420   117147437.63509  22292421.720    91283726.38448
  21219956.120   111511615.90109  21219957.860    86892172.75748
  22513954.180   118311636.44009  22513957.540    92190903.25248
  24386281.240   128150793.21307  24386286.080    99857767.63247
  20819039.460   109404796.40409  20819040.800    85250498.10649
  23629849.720   124175711.34708  23629851.420    96760300.87245
  24509503.720   128798270.80208  24509505.160   100362278.70045
  22383605.680   117626635.43109  22383605.860    91657113.20848
  21477715.520   112866158.63309  21477714.760    87947658.28148
  20480688.280   107626740.34509  20480684.260    83864977.63349
  24686491.580   129728360.24707  24686494.980   101087031.44045
 15 02 11 09 31  0.0000000  0 11G01G03G06G07G09G10G11G17G20G23G32
  22308890.220   117233997.33709  22308893.520    91351175.42748
  21227095.640   111549133.77009  21227097.380    86921407.42348
  22497319.700   118224222.97409  22497323.180    92122788.91248
  24366783.140   128048331.40606  24366788.060    99777927.58346
  20810217.340   109358435.69309  20810218.600    85214372.89549
  23614309.900   124094049.32308  23614311.920    96696668.24346
  24530895.240   128910682.89208  24530896.720   100449872.26845
  22392138.060   117671473.20609  22392137.920    91692051.70047
  21467082.260   112810280.27509  21467081.440    87904116.72448
  20482777.020   107637716.61309  20482772.980    83873530.56349
  24701096.040   129805106.86108  24701099.520   101146833.82745
 15 02 11 09 31 30.0000000  0 11G01G03G06G07G09G10G11G17G20G23G32
  22325420.400   117320864.39208  22325423.800    91418863.94948
  21234269.980   111586834.85809  21234271.740    86950784.84348
  22480731.260   118137051.12908  22480734.760    92054862.83448
  24347277.900   127945833.52905  24347283.220    99698059.48245
  20801478.040   109312509.52609  20801479.140    85178586.27949
  23598785.020   124012465.53308  23598787.020    96633096.56546
  24552294.480   129023135.40408  24552295.980   100537497.31145
  22400758.420   117716773.07809  22400757.980    91727350.27147
  21456479.580   112754562.52909  21456478.660    87860700.31148
  20484944.660   107649107.49109  20484940.640    83882406.56049
  24715701.500   129881858.66607  24715704.980   101206640.27145
 15 02 11 09 32  0.0000000  0 11G01G03G06G07G09G10G11G17G20G23G32
  22342008.440   117408035.28808  22342011.920    91486789.23947
  21241478.780   111624717.29709  21241480.600    86980303.58448
  22464188.900   118050121.45008  22464192.480    91987125.47748
  24327765.820   127843300.43506  24327771.500    99618163.99046
  20792821.000   109267016.25809  20792821.960    85143136.99649
  23583274.640   123930958.60308  23583276.620    96569584.77246
  24573700.560   129135623.99708  24573702.180   100625150.45745
  22409465.880   117762530.62709  22409465.480    91763005.45448
  21445907.220   112699004.07409  21445906.320    87817408.01648
  20487190.560   107660909.69709  20487186.580    83891603.06749
  24730307.540   129958613.79107  24730311.040   101266449.28945
 15 02 11 09 32 30.0000000  0 11G01G03G06G07G09G10G11G17G20G23G32
  22358654.000   117495508.47208  22358657.580    91554950.08048
  21248722.080   111662781.12409  21248723.920    87009963.66848
  22447693.180   117963436.45808  22447696.800    91919578.76948
  24308248.000   127740734.77908  24308253.700    99538243.02946
  20784246.220   109221956.07909  20784247.180    85108025.18549
  23567779.000   123849528.74408  23567781.020    96506133.00746
  24595113.060   129248146.72407  24595114.900   100712830.19945
  22418260.040   117808743.84209  22418259.760    91799015.67648
  21435365.260   112643605.49309  21435364.300    87774240.28848
  20489514.520   107673122.26809  20489510.660    83901119.36649
  24744914.220   130035372.14408  24744917.540   101326260.80445
 15 02 11 09 33  0.0000000  0 11G01G03G06G07G09G10G11G17G20G23G32
  22375357.520   117583285.99108  22375361.260    91623348.05448
  21256000.600   111701030.02309  21256002.420    87039767.95448
  22431245.380   117877002.22109  22431249.000    91852227.46048
  24288725.480   127638142.75508  24288730.780    99458301.47946
  20775754.640   109177332.88009  20775755.600    85073253.87349
  23552298.820   123768179.78108  23552300.520    96442744.26646
  24616532.260   129360705.17207  24616534.180   100800537.75944
  22427141.180   117855414.21909  22427140.960    91835382.14548
  21424854.460   112588370.96909  21424853.460    87731200.40348
  20491917.060   107685747.69309  20491913.300    83910957.35049
  24759522.380   130112137.16908  24759525.460   101386077.54345
 15 02 11 09 33 30.0000000  0 11G01G03G06G07G09G10G11G17G20G23G32
  22392118.200   117671363.62009  22392122.020    91691979.89148
  21263313.840   111739461.35609  21263315.640    87069714.40048
  22414845.340   117790818.63809  22414848.880    91785071.46248
  24269197.960   127535524.15409  24269202.800    99378339.19346
  20767345.880   109133144.21709  20767346.760    85038821.14849
  23536833.620   123686909.82108  23536835.280    96379417.10546
  24637957.340   129473294.34107  24637959.440   100888269.26444
  22436108.340   117902536.48509  22436108.240    91872100.73648
  21414374.540   112533298.51009  21414373.580    87688286.80148
  20494397.400   107698781.96509  20494393.680    83921113.92149
  24774131.280   130188906.41308  24774134.500   101445897.54344
 15 02 11 09 34  0.0000000  0 11G01G03G06G07G09G10G11G17G20G23G32
  22408936.580   117759744.09209  22408940.440    91760847.71148
  21270662.640   111778079.53709  21270664.500    87099806.45048
  22398494.280   117704892.50709  22398497.620    91718116.08148
  24249666.640   127432885.95409  24249671.040    99298361.61046
  20759020.660   109089394.60409  20759021.540    85004730.55749
  23521384.280   123605723.48308  23521386.040    96316155.11146
  24659388.780   129585916.35408  24659390.940   100976026.35945
  22445161.900   117950112.36309  22445161.800    91909172.78948
  21403926.280   112478392.93209  21403925.440    87645503.24248
  20496956.140   107712228.20309  20496952.400    83931591.50549
  24788741.780   130265684.27108  24788745.040   101505724.26344
 15 02 11 09 34 30.0000000  0 11G01G03G06G07G09G10G11G17G20G23G32
  22425810.900   117848418.54809  22425814.760    91829944.59248
  21278045.680   111816877.35409  21278047.500    87130038.48048
  22382191.300   117619219.07809  22382194.480    91651357.62048
  24230130.640   127330223.91209  24230134.660    99218365.42945
  20750777.660   109046077.10709  20750778.440    84970976.67849
  23505949.580   123524613.84208  23505951.400    96252952.89045
  24680824.680   129698561.71508  24680826.800   101063801.64244
  22454300.020   117998132.52009  22454299.880    91946591.03448
  21393508.440   112423647.47509  21393507.640    87602844.45548
  20499591.600   107726077.92209  20499587.920    83942383.49649
  24803352.480   130342463.33408  24803355.940   101565551.95345
 15 02 11 09 35  0.0000000  0 11G01G03G06G07G09G10G11G17G20G23G32
  22442742.100   117937391.84809  22442745.860    91899274.35048
  21285464.160   111855861.33509  21285465.940    87160415.57048
  22365938.020   117533807.35208  22365941.120    91584803.06548
  24210591.620   127227546.64708  24210595.080    99138357.33244
  20742618.100   109003198.09409  20742618.800    84937564.45649
  23490530.760   123443587.62208  23490532.560    96189815.64945
  24702265.920   129811234.76008  24702268.040   101151598.50644
  22463523.400   118046601.20709  22463523.260    91984358.76648
  21383122.600   112369069.59409  21383121.800    87560316.24048
  20502304.880   107740336.37309  20502301.260    83953493.96349
  24817964.560   130419250.12008  24817968.000   101625385.64644
 15 02 11 09 35 30.0000000  0 11G01G03G06G07G09G10G11G17G20G23G32
  22459729.260   118026659.23309  22459733.000    91968833.26948
  21292917.500   111895028.39709  21292919.200    87190935.32148
  22349734.380   117448656.67308  22349737.360    91518451.92748
  24191049.500   127124853.59708  24191052.460    99058336.91344
  20734541.480   108960754.72509  20734542.200    84904491.70149
  23475127.340   123362642.22208  23475128.980    96126741.36945
  24723711.460   129923930.47008  24723713.720   101239413.03644
  22472830.980   118095512.56009  22472830.660    92022471.47648
  21372768.120   112314656.51909  21372767.300    87517916.45148
  20505095.140   107754999.10509  20505091.460    83964919.46249
  24832577.520   130496041.65408  24832581.200   101685223.03945
 15 02 11 09 36  0.0000000  0 11G01G03G06G07G09G10G11G17G20G23G32
  22476772.220   118116220.29809  22476776.060    92038621.02648
  21300405.900   111934379.87309  21300407.520    87221598.76448
  22333581.100   117363770.79209  22333583.980    91452307.11448
  24171505.120   127022148.79508  24171508.040    98978307.37545
  20726547.960   108918748.34409  20726548.660    84871759.45449
  23459739.600   123281779.06608  23459741.000    96063731.16245
  24745161.200   130036647.96908  24745163.580   101327244.53245
  22482222.720   118144865.78809  22482222.320    92060928.48548
  21362445.340   112260410.01709  21362444.560    87475646.46448
  20507962.340   107770066.12909  20507958.640    83976659.98749
  24847191.680   130572839.05208  24847195.420   101745064.97944
 15 02 11 09 36 30.0000000  0 11G01G03G06G07G09G10G11G17G20G23G32
  22493870.080   118206069.99308  22493873.980    92108633.67748
  21307928.800   111973912.34409  21307930.320    87252403.24648
  22317478.120   117279148.77209  22317480.700    91386367.89248
  24151958.400   126919431.36308  24151961.640    98898267.98746
  20718636.940   108877175.64009  20718637.720    84839365.13549
  23444366.780   123200995.02608  23444368.220    96000782.62246
  24766613.980   130149381.40008  24766616.480   101415088.40845
  22491697.320   118194654.69709  22491696.980    92099724.97548
  21352153.800   112206327.39409  21352152.980    87433504.16948
  20510905.500   107785532.56609  20510901.880    83988711.73749
  24861806.380   130649638.80008  24861810.120   101804908.77545
 15 02 11 09 37  0.0000000  0 11G01G03G06G07G09G10G11G17G20G23G32
  22511023.540   118296211.88609  22511027.460    92178874.01948
  21315487.100   112013631.11809  21315488.580    87283352.90048
  22301426.920   117194798.37409  22301429.120    91320640.32248
  24132410.800   126816709.30808  24132414.420    98818225.01846
  20710809.420   108836041.99209  20710810.280    84807312.93649
  23429010.260   123120295.86408  23429011.820    95937900.20345
  24788070.400   130262133.74008  24788072.900   101502947.00845
  22501255.200   118244882.04009  22501255.020    92138863.08448
  21341894.560   112152414.51109  21341893.660    87391494.14248
  20513925.480   107801402.56809  20513921.820    84001077.95449
  24876422.440   130726446.31908  24876426.160   101864758.61044
 15 02 11 09 37 30.0000000  0 11G01G03G06G07G09G10G11G17G20G23G32
  22528231.900   118386641.93709  22528235.680    92249338.89447
  21323080.340   112053533.89009  21323081.860    87314445.93448
  22285427.400   117110719.67209  22285429.380    91255124.48348
  24112862.400   126713982.77207  24112866.460    98738178.56946
  20703065.100   108795345.04209  20703065.900    84775601.00449
  23413669.400   123039679.57608  23413671.180    95875082.38846
  24809529.560   130374900.54308  24809532.060   101590816.85445
  22510895.560   118295543.43509  22510895.720    92178339.39248
  21331667.220   112098669.39809  21331666.260    87349614.85848
  20517021.540   107817672.54909  20517017.940    84013755.83148
  24891039.580   130803259.11508  24891043.600   101924612.52944
 15 02 11 09 38  0.0000000  0 11G01G03G06G07G09G10G11G17G20G23G32
  22545494.660   118477357.61509  22545498.360    92320026.34148
  21330708.420   112093619.88109  21330710.100    87345681.73448
  22269479.820   117026914.40809  22269481.760    91189821.71448
  24093313.620   126611253.61007  24093317.940    98658130.08046
  20695403.720   108755084.06909  20695404.500    84744228.81149
  23398344.360   122959146.04708  23398346.220    95812329.02146
  24830990.920   130487679.06908  24830993.480   101678695.84745
  22520617.900   118346634.97609  22520618.180    92218150.90247
  21321471.720   112045092.15709  21321470.760    87307866.39748
  20520193.200   107834339.98209  20520189.680    84026743.41849
  24905657.720   130880076.43808  24905661.740   101984470.04645
 15 02 11 09 38 30.0000000  0 11G01G03G06G07G09G10G11G17G20G23G32
  22562811.660   118568357.94709  22562815.140    92390935.59848
  21338371.480   112133889.84409  21338373.360    87377060.88948
  22253584.860   116943385.74309  22253586.860    91124734.45948
  24073765.140   126508525.26508  24073769.420    98578082.20047
  20687825.440   108715259.79209  20687826.140    84713196.89049
  23383035.320   122878695.81908  23383036.820    95749640.55245
  24852454.200   130600467.72208  24852456.880   101766582.73045
  22530421.840   118398155.16009  22530422.080    92258296.42447
  21311308.440   111991684.04109  21311307.480    87266249.69648
  20523440.460   107851404.38309  20523436.900    84040040.32148
  24920276.780   130956898.84508  24920280.820   102044331.46644
 15 02 11 09 39  0.0000000  0 11G01G03G06G07G09G10G11G17G20G23G32
  22580182.680   118659642.39109  22580186.000    92462066.23347
  21346069.760   112174345.00609  21346071.780    87408584.34548
  22237743.180   116860137.33909  22237745.340    91059865.59648
  24054217.620   126405801.80008  24054221.660    98498038.09547
  20680330.380   108675873.37409  20680331.100    84682506.17249
  23367742.460   122798330.76607  23367743.720    95687018.46045
  24873919.140   130713265.33708  24873922.020   101854476.56046
  22540307.040   118450102.46509  22540307.340    92298774.77947
  21301177.760   111938447.01609  21301176.760    87224766.33348
  20526763.260   107868865.61009  20526759.600    84053646.43549
  24934897.040   131033727.71108  24934900.980   102104197.93244
 15 02 11 09 39 30.0000000  0 11G01G03G06G07G09G10G11G17G20G23G32
  22597607.280   118751208.91109  22597610.560    92533416.66847
  21353803.160   112214985.12509  21353805.380    87440251.93148
  22221955.260   116777171.41509  22221957.540    90995216.85848
  24034671.300   126303084.92408  24034675.100    98417999.12647
  20672918.680   108636924.55509  20672919.360    84652156.41749
  23352465.440   122718050.65107  23352467.140    95624462.59945
  24895385.320   130826069.70508  24895388.460   101942375.63845
  22550272.940   118502474.20908  22550273.520    92339583.83148
  21291079.680   111885380.98509  21291078.580    87183416.20148
  20530161.240   107886721.95209  20530157.540    84067560.43548
  24949518.420   131110562.53308  24949522.640   102164069.05245
 15 02 11 09 40  0.0000000  0 11G01G03G06G07G09G10G11G17G20G23G32
  22615085.040   118843054.68709  22615088.520    92604984.69947
  21361571.580   112255809.13109  21361573.920    87472062.81448
  22206221.360   116694489.32509  22206223.620    90930789.27848
  24015126.500   126200376.69608  24015130.180    98337966.91347
  20665589.960   108598412.19709  20665590.720    84622146.78649
  23337204.560   122637855.01808  23337206.420    95561972.54345
  24916852.040   130938877.41607  24916855.540   102030277.30545
  22560318.940   118555266.62708  22560319.720    92380720.68647
  21281013.980   111832485.49209  21281012.720    87142198.96748
  20533633.920   107904971.11909  20533630.280    84081780.53948
  24964140.720   131187402.31308  24964145.220   102223944.01545
 15 02 11 09 40 30.0000000  0 11G01G03G06G07G09G10G11G17G20G23G32
  22632615.780   118935178.82209  22632619.420    92676769.63348
  21369375.220   112296817.97509  21369377.660    87504017.71448
  22190542.080   116612094.49209  22190544.340    90866585.51848
  23995583.860   126097680.34708  23995587.520    98257943.95347
  20658344.460   108560337.15309  20658345.320    84592477.90849
  23321960.100   122557745.07408  23321961.900    95499549.23245
  24938319.020   131051687.18807  24938322.920   102118180.58045
  22570444.800   118608477.95209  22570445.280    92422183.98447
  21270981.080   111779762.18909  21270979.780    87101115.89448
  20537181.280   107923612.53509  20537177.620    84096306.27048
  24978764.100   131264247.90507  24978768.700   102283823.52744
 15 02 11 09 41  0.0000000  0 11G01G03G06G07G09G10G11G17G20G23G32
  22650199.600   119027581.80809  22650203.320    92748771.85147
  21377214.500   112338013.89509  21377217.000    87536118.38848
  22174918.400   116529991.56709  22174920.640    90802609.22248
  23976044.400   125995000.71608  23976048.000    98177934.02446
  20651182.620   108522701.59009  20651183.520    84563151.48949
  23306732.500   122477723.60908  23306733.940    95437194.84445
  24959786.340   131164499.18706  24959790.820   102206085.56545
  22580650.340   118662107.83809  22580650.780    92463973.42447
  21260981.480   111727214.09709  21260980.260    87060169.36548
  20540803.440   107942646.81009  20540799.780    84111138.13448
  24993388.980   131341101.60607  24993393.580   102343709.36045
 15 02 11 09 41 30.0000000  0 11G01G03G06G07G09G10G11G17G20G23G32
  22667835.340   119120257.74209  22667838.980    92820986.75447
  21385088.600   112379392.78009  21385091.160    87568361.63748
  22159349.920   116448178.91309  22159352.340    90738859.12448
  23956507.840   125892336.15208  23956511.360    98097935.82646
  20644103.600   108485501.26709  20644104.500    84534164.22549
  23291520.920   122397786.57908  23291522.140    95374906.25545
  24981252.900   131277306.97107  24981257.920   102293987.25345
  22590934.240   118716149.58509  22590934.500    92506083.78247
  21251014.520   111674837.39709  21251013.220    87019356.37748
  20544499.380   107962068.58509  20544495.680    84126271.95049
  25008014.480   131417959.10407  25008019.240   102403598.09445
 15 02 11 09 42  0.0000000  0 11G01G03G06G07G09G10G11G17G20G23G32
  22685523.040   119213206.70309  22685526.560    92893414.40947
  21392997.940   112420956.59509  21393000.520    87600748.99248
  22143837.400   116366660.87109  22143840.080    90675338.60148
  23936975.060   125789691.43108  23936978.520    98017953.10446
  20637107.760   108448738.01609  20637108.720    84505517.54049
  23276326.000   122317936.29708  23276327.060    95312685.26945
  25002718.780   131390110.21407  25002724.180   102381885.45045
  22601296.360   118770602.45409  22601296.240    92548514.51047
  21241080.620   111622634.75809  21241079.340    86978679.03548
  20548269.200   107981878.39809  20548265.420    84141708.13148
  25022641.200   131494822.24307  25022645.700   102463491.28745
 15 02 11 09 42 30.0000000  0 11G01G03G06G07G09G10G11G17G20G23G32
  22703262.540   119306427.73709  22703266.040    92966054.06947
  21400942.680   112462706.19709  21400945.240    87633281.11048
  22128381.480   116285440.78009  22128384.420    90612050.23048
  23917446.680   125687070.35708  23917450.060    97937988.79746
  20630195.180   108412412.51809  20630196.140    84477211.95549
  23261147.680   122238173.89708  23261148.860    95250532.79245
  25024183.720   131502907.61608  25024189.240   102469779.08345
  22611736.380   118825464.54609  22611735.840    92591264.10647
  21231180.020   111570607.59709  21231178.920    86938138.43548
  20552112.720   108002075.52509  20552108.880    84157446.11948
  25037269.220   131571692.01607  25037273.500   102523389.60545
 15 02 11 09 43  0.0000000  0 11G01G03G06G07G09G10G11G17G20G23G32
  22721053.020   119399916.97809  22721056.600    93038902.71247
  21408922.480   112504639.59609  21408924.900    87665956.44348
  22112982.380   116204519.05909  22112985.400    90548994.35448
  23897922.840   125584473.18108  23897926.080    97858043.10745
  20623365.500   108376522.64409  20623366.520    84449245.81749
  23245985.780   122158497.76608  23245987.060    95188447.52946
  25045646.860   131615694.92108  25045652.260   102557664.83645
  22622253.440   118880731.16609  22622252.740    92634328.93447
  21221312.600   111518754.31509  21221311.500    86897733.30948
  20556029.240   108022656.58209  20556025.440    84173483.27448
  25051898.060   131648566.32407  25051902.480   102583291.46345
 15 02 11 09 43 30.0000000  0 10G01G03G06G07G09G10G11G17G20G23
  22738896.160   119493683.33508  22738899.880    93111967.28547
  21416939.280   112546767.52509  21416941.600    87698783.34848
  22097642.700   116123908.87509  22097645.600    90486181.24648
  23878406.100   125481913.10208  23878409.220    97778126.34545
  20616620.680   108341078.90409  20616621.760    84421627.34149
  23230842.400   122078918.94608  23230843.540    95126438.08346
  25067109.760   131728480.81008  25067115.060   102645549.48444
  22632848.980   118936410.26409  22632848.400    92677715.17147
  21211480.540   111467086.54409  21211479.440    86857472.74148
  20560020.360   108043630.43309  20560016.660    84189826.51548
 15 02 11 09 44  0.0000000  0 10G01G03G06G07G09G10G11G17G20G23
  22756788.120   119587706.59508  22756792.000    93185232.04447
  21424989.600   112589071.60909  21424991.800    87731747.52848
  22082359.340   116043594.31009  22082362.040    90423598.48048
  23858893.460   125379374.49108  23858896.680    97698226.32345
  20609957.340   108306062.79209  20609958.400    84394342.06149
  23215714.020   121999419.36408  23215715.120    95064490.38746
  25088568.520   131841244.78808  25088573.620   102733417.06444
  22643519.020   118992480.76709  22643518.620    92721406.40447
  21201680.380   111415586.33909  21201679.180    86817342.74448
  20564082.500   108064977.61909  20564078.940    84206460.66648
 15 02 11 09 44 30.0000000  0 10G01G03G06G07G09G10G11G17G20G23
  22774730.320   119681993.90008  22774734.300    93258702.55047
  21433075.120   112631560.91009  21433077.240    87764856.03748
  22067134.460   115963586.84409  22067137.080    90361255.00148
  23839387.140   125276868.87807  23839390.360    97618352.04345
  20603377.020   108271483.06109  20603378.200    84367396.83449
  23200602.440   121920008.42608  23200603.860    95002611.82046
  25110024.380   131953993.45508  25110029.380   102821272.72243
  22654264.700   119048948.92609  22654264.420    92765407.48047
  21191914.000   111364263.41609  21191912.780    86777350.88548
  20568217.180   108086705.67709  20568213.680    84223391.59448
 15 02 11 09 45  0.0000000  0 10G01G03G06G07G09G10G11G17G20G23
  22792722.660   119776544.49708  22792726.820    93332378.21247
  21441196.100   112674236.51409  21441198.160    87798109.71048
  22051968.620   115883889.99309  22051971.280    90299153.57048
  23819888.000   125174400.12408  23819891.020    97538506.46746
  20596879.920   108237340.63009  20596881.100    84340792.35349
  23185508.120   121840687.81408  23185509.840    94940803.63146
  25131477.180   132066725.75608  25131481.940   102909115.63744
  22665085.800   119105813.04509  22665085.560    92809717.09648
  21182181.700   111313119.56709  21182180.460    86737498.56348
  20572424.260   108108814.21309  20572420.840    84240619.01048
 15 02 11 09 45 30.0000000  0 10G01G03G06G07G09G10G11G17G20G23
  22810764.340   119871353.90308  22810768.600    93406255.54447
  21449352.040   112717095.92109  21449354.060    87831506.59548
  22036861.800   115804503.63309  22036864.600    90237294.07548
  23800395.900   125071968.21108  23800398.580    97458689.56446
  20590465.420   108203632.68609  20590466.740    84314526.43749
  23170430.680   121761455.21208  23170432.460    94879063.98246
  25152925.980   132179436.85508  25152930.540   102996942.00544
  22675981.220   119163067.82309  22675981.080    92854331.10348
  21172482.960   111262152.65709  21172481.740    86697784.10848
  20576702.900   108131298.81009  20576699.560    84258139.46548
 15 02 11 09 46  0.0000000  0 10G01G03G06G07G09G10G11G17G20G23
  22828855.820   119966424.35208  22828860.120    93480336.29947
  21457543.740   112760143.20609  21457545.740    87865049.89348
  22021815.360   115725434.31809  22021818.220    90175681.61948
  23780912.120   124969579.95708  23780914.480    97378906.67047
  20584134.460   108170363.03609  20584135.780    84288602.04049
  23155370.840   121682315.02408  23155372.580    94817396.34645
  25174371.140   132292128.91508  25174375.640   103084753.55544
  22686951.160   119220714.61909  22686951.140    92899250.57348
  21162818.660   111211367.39509  21162817.600    86658211.20848
  20581053.740   108154162.31309  20581050.460    84275955.16548
 15 02 11 09 46 30.0000000  0  9G01G03G06G07G09G10G17G20G23
  22846997.760   120061759.63208  22847002.040    93554623.40147
  21465772.260   112803384.10309  21465774.280    87898744.04348
  22006830.800   115646690.16809  22006833.740    90114322.55048
  23761438.160   124867243.82709  23761440.440    97299164.40147
  20577887.980   108137537.16509  20577889.220    84263023.44849
  23140329.820   121603273.27908  23140331.080    94755805.38845
  22697996.220   119278756.43808  22697996.420    92944477.84648
  21153190.220   111160770.42109  21153189.180    86618785.00648
  20585477.460   108177408.76709  20585474.140    84294069.27748
 15 02 11 09 47  0.0000000  0  9G01G03G06G07G09G10G17G20G23
  22865186.860   120157343.12508  22865191.220    93629103.90147
  21474034.760   112846803.88909  21474036.860    87932577.58948
  21991905.860   115568258.89509  21991908.840    90053207.28948
  23741971.680   124764947.27509  23741973.940    97219452.96347
  20571723.020   108105140.01109  20571724.220    84237778.93249
  23125304.920   121524315.96608  23125305.760    94694280.20945
  22709112.960   119337175.20708  22709113.220    92989998.86448
  21143594.880   111110347.42809  21143593.900    86579494.38148
  20589971.000   108201022.01909  20589967.560    84312469.19948
 15 02 11 09 47 30.0000000  0  9G01G03G06G07G09G10G17G20G23
  22883424.580   120253182.10308  22883428.900    93703783.48747
  21482333.060   112890411.76209  21482335.240    87966557.69948
  21977042.580   115490152.10409  21977045.640    89992344.87348
  23722514.960   124662702.27809  23722517.180    97139781.68647
  20565641.440   108073180.49609  20565642.420    84212875.41449
  23110297.580   121445452.21908  23110298.640    94632827.98845
  22720302.680   119395977.61908  22720303.060    93035818.82347
  21134034.540   111060108.22809  21134033.700    86540346.96448
  20594535.680   108225009.57409  20594532.260    84331160.79348
 15 02 11 09 48  0.0000000  0  9G01G03G06G07G09G10G17G20G23
  22901710.160   120349273.08808  22901714.460    93778659.43047
  21490666.920   112934206.18509  21490669.120    88000683.17248
  21962241.260   115412370.66709  21962244.320    89931735.98748
  23703068.320   124560510.32808  23703070.540    97060151.74247
  20559642.780   108041656.75409  20559643.760    84188311.47049
  23095307.820   121366681.06708  23095309.020    94571447.92945
  22731564.400   119455159.13008  22731565.000    93081934.15148
  21124509.140   111010051.69209  21124508.320    86501341.88648
  20599170.940   108249368.41909  20599167.560    84350141.71048
 15 02 11 09 48 30.0000000  0  9G01G03G06G07G09G10G17G20G23
  22920043.040   120445612.43109  22920047.200    93853728.90547
  21499036.000   112978185.49309  21499038.100    88034952.69948
  21947502.040   115334915.34309  21947505.120    89871381.20648
  23683631.800   124458371.79308  23683634.140    96980563.42147
  20553726.700   108010566.72209  20553727.540    84164085.46749
  23080335.440   121288001.21508  23080336.640    94510139.00445
  22742897.660   119514715.60509  22742898.360    93128341.70248
  21115018.480   110960177.09909  21115017.460    86462478.56748
  20603876.280   108274095.33909  20603872.920    84369409.43048
 15 02 11 09 49  0.0000000  0  9G01G03G06G07G09G10G17G20G23
  22938423.060   120542199.10609  22938427.180    93928991.11347
  21507440.420   113022350.60309  21507442.480    88069367.01748
  21932825.460   115257789.47909  21932828.580    89811283.15248
  23664206.140   124356290.47708  23664208.720    96901019.65946
  20547893.140   107979910.99409  20547893.980    84140197.89749
  23065380.760   121209413.87808  23065381.700    94448902.14145
  22754301.860   119574644.76309  22754302.540    93175039.63347
  21105562.760   110910486.05909  21105561.540    86423758.27248
  20608651.520   108299189.42409  20608648.180    84388963.26948
 15 02 11 09 49 30.0000000  0  9G01G03G06G07G09G10G17G20G23
  22956850.760   120639036.24508  22956854.740    94004448.49247
  21515881.180   113066706.58409  21515883.220    88103930.06048
  21918213.020   115181000.52209  21918216.100    89751447.62048
  23644792.640   124254273.79107  23644795.560    96821526.28446
  20542143.100   107949694.24609  20542143.820    84116652.38149
  23050444.480   121130924.28908  23050445.580    94387741.49245
  22765777.520   119634948.84909  22765778.040    93222029.73947
  21096142.860   110860984.05309  21096141.620    86385185.29948
  20613497.420   108324654.29509  20613493.920    84408806.02648
 15 02 11 09 50  0.0000000  0  9G01G03G06G07G09G10G17G20G23
  22975324.680   120736116.72809  22975328.740    94080095.46947
  21524357.320   113111248.30609  21524359.300    88138637.83448
  21903664.280   115104545.74409  21903667.260    89691872.49148
  23625390.900   124152319.57808  23625394.120    96742081.59546
  20536475.500   107919910.95109  20536476.260    84093444.62149
  23035526.020   121052528.10408  23035527.260    94326653.62345
  22777322.920   119695619.54209  22777323.260    93269305.50247
  21086758.120   110811666.50909  21086756.780    86346756.04248
  20618412.580   108350483.24409  20618409.000    84428932.47548
 15 02 11 09 50 30.0000000  0  9G01G03G06G07G09G10G17G20G23
  22993844.280   120833436.77609  22993848.380    94155929.14047
  21532868.500   113155973.99709  21532870.440    88173488.96548
  21889179.300   115028425.77009  21889182.080    89632558.25648
  23606001.400   124050428.84208  23606004.640    96662686.34546
  20530889.940   107890558.93509  20530890.760    84070572.93649
  23020625.160   120974223.81708  23020626.320    94265637.35746
  22788937.140   119756652.36509  22788937.420    93316863.45947
  21077408.280   110762532.14309  21077406.860    86308469.51948
  20623396.320   108376672.98809  20623392.880    84449340.07848
 15 02 11 09 51  0.0000000  0  9G01G03G06G07G09G10G17G20G23
  23012409.480   120930996.79608  23012413.680    94231949.76947
  21541415.100   113200886.05309  21541417.000    88208485.31248
  21874758.960   114952645.38109  21874761.440    89573508.61948
  23586625.100   123948606.28908  23586628.160    96583344.21346
  20525386.820   107861640.13309  20525387.580    84048038.80149
  23005742.340   120896014.00108  23005743.420    94204694.69346
  22800620.220   119818046.91209  22800620.380    93364703.29147
  21068093.940   110713584.51209  21068092.360    86270328.49348
  20628448.760   108403224.11209  20628445.360    84470029.26448
 15 02 11 09 51 30.0000000  0  9G01G03G06G07G09G10G17G20G23
  23031020.780   121028799.63008  23031025.000    94308159.60647
  21549998.020   113245989.29709  21549999.920    88243630.63248
  21860404.460   114877211.76409  21860406.800    89514729.20848
  23567263.320   123846859.09908  23567266.220    96504060.80746
  20519967.040   107833158.93409  20519967.780    84025845.65349
  22990878.580   120817904.22908  22990879.520    94143829.98646
  22812372.420   119879804.94309  22812372.540    93412826.36247
  21058816.100   110664829.00009  21058814.520    86232337.17948
  20633570.580   108430139.90509  20633567.220    84491002.60448
 15 02 11 09 52  0.0000000  0  9G01G03G06G07G09G10G17G20G23
  23049676.880   121126837.75308  23049681.140    94384552.78947
  21558616.220   113291278.21709  21558618.160    88278920.63648
  21846115.320   114802121.85609  21846117.580    89456217.61348
  23547915.560   123745184.75409  23547918.040    96424834.14546
  20514629.360   107805109.38109  20514630.200    84003988.86649
  22976032.620   120739889.31508  22976033.780    94083039.24245
  22824192.100   119941917.82809  22824192.320    93461225.91247
  21049573.840   110616260.48809  21049572.220    86194491.57748
  20638760.500   108457413.25509  20638757.140    84512254.56648
 15 02 11 09 52 30.0000000  0  9G01G03G06G07G09G10G17G20G23
  23068378.040   121225112.79908  23068382.420    94461130.57947
  21567270.440   113336756.44809  21567272.380    88314358.15748
  21831892.740   114727381.69109  21831894.940    89397978.55248
  23528582.840   123643589.40809  23528584.920    96345669.01246
  20509374.460   107777494.68209  20509375.380    83982470.91749
  22961205.480   120661972.87008  22961206.560    94022325.18345
  22836079.560   120004386.29009  22836079.800    93509902.53547
  21040367.980   110567883.30709  21040366.420    86156795.06248
  20644018.900   108485046.12909  20644015.460    84533786.66748
 15 02 11 09 53  0.0000000  0  9G01G03G06G07G09G10G17G20G23
  23087123.320   121323618.99608  23087127.660    94537888.48947
  21575959.920   113382420.29709  21575961.940    88349940.31848
  21817736.340   114652989.85909  21817738.720    89340010.93448
  23509264.900   123542072.03909  23509266.920    96266564.67747
  20504201.500   107750310.56509  20504202.400    83961288.48849
  22946396.560   120584151.80908  22946397.200    93961685.41145
  22848033.580   120067203.90109  22848033.660    93558851.24847
  21031197.880   110519694.41909  21031196.460    86119245.27548
  20649344.680   108513033.09709  20649341.120    84555594.68448
 15 02 11 09 53 30.0000000  0  9G01G03G06G07G09G10G17G20G23
  23105912.820   121422357.30809  23105916.980    94614827.28347
  21584685.220   113428272.70409  21584687.360    88385669.40348
  21803647.340   114578951.76909  21803649.820    89282318.94748
  23489962.780   123440638.42008  23489964.820    96187525.63747
  20499110.920   107723559.51009  20499111.900    83940443.51649
  22931606.600   120506429.63208  22931607.260    93901122.73546
  22860053.900   120130370.33909  22860054.020    93608071.75147
  21022064.360   110471697.54709  21022062.980    86081845.10348
  20654738.140   108541375.66809  20654734.500    84577679.80048
 15 02 11 09 54  0.0000000  0  9G01G03G06G07G09G10G17G20G23
  23124746.300   121521326.81308  23124750.320    94691946.21847
  21593446.700   113474314.82609  21593448.920    88421546.31748
  21789626.360   114505270.88009  21789628.780    89224905.29848
  23470677.140   123339292.26508  23470679.200    96108554.74647
  20494102.840   107697242.14709  20494103.900    83919936.48749
  22916835.740   120428807.87608  22916836.560    93840638.31046
  22872140.100   120193883.55708  22872140.360    93657562.44547
  21012967.640   110423894.17109  21012966.220    86044595.71748
  20660199.060   108570073.08309  20660195.460    84600041.41248
 15 02 11 09 54 30.0000000  0  9G01G03G06G07G09G10G17G20G23
  23143622.900   121620522.84609  23143626.880    94769241.67547
  21602243.860   113520544.02509  21602246.140    88457569.01648
  21775673.320   114431946.99709  21775675.580    89167769.83948
  23451408.080   123238033.18409  23451410.080    96029651.70147
  20489176.660   107671355.34409  20489177.780    83899764.96149
  22902083.360   120351283.99508  22902084.340    93780230.15046
  22884291.240   120257738.34508  22884291.660    93707319.28747
  21003907.480   110376282.71909  21003906.020    86007495.87448
  20665726.680   108599120.85709  20665723.060    84622676.03148
 15 02 11 09 55  0.0000000  0  9G01G03G06G07G09G10G17G20G23
  23162542.780   121719946.62708  23162546.860    94846714.58147
  21611077.280   113566963.59209  21611079.540    88493740.05348
  21761789.200   114358985.72209  21761791.340    89110916.92048
  23432156.840   123136867.40608  23432158.820    95950821.34547
  20484332.980   107645901.80409  20484334.100    83879931.04349
  22887350.500   120273861.77608  22887351.520    93719901.19146
  22896507.340   120321934.68308  22896507.940    93757342.28147
  20994884.600   110328866.91809  20994883.100    85970548.49048
  20671321.420   108628521.15109  20671317.800    84645585.33748
 15 02 11 09 55 30.0000000  0  9G01G03G06G07G09G10G17G20G23
  23181505.400   121819595.47108  23181509.540    94924362.86547
  21619946.800   113613572.89009  21619949.020    88530058.93548
  21747974.360   114286388.78409  21747976.580    89054347.91048
  23412923.640   123035796.92008  23412925.700    95872065.27247
  20479571.640   107620880.33909  20479572.560    83860433.79549
  22872636.920   120196541.07308  22872637.800    93659651.34246
  22908787.740   120386468.96208  22908788.560    93807628.62447
  20985899.080   110281646.96409  20985897.580    85933753.71548
  20676982.760   108658271.50409  20676979.180    84668767.41248
 15 02 11 09 56  0.0000000  0  9G01G03G06G07G09G10G17G20G23
  23200509.900   121919464.25908  23200514.100    95002182.52447
  21628851.760   113660368.85709  21628854.020    88566523.27248
  21734228.660   114214155.45409  21734231.060    88998062.21748
  23393708.420   122934821.09208  23393710.580    95793382.96347
  20474891.780   107596287.28809  20474892.680    83841270.39149
  22857942.200   120119319.07308  22857942.880    93599478.35746
  22921131.240   120451335.02008  22921132.380    93858173.46747
  20976950.300   110234620.40809  20976948.780    85897109.64548
  20682709.740   108688366.93509  20682706.140    84692218.37648
 15 02 11 09 56 30.0000000  0  9G01G03G06G07G09G10G17G20G23
  23219556.460   122019554.11408  23219560.700    95080174.45047
  21637792.800   113707354.71009  21637795.200    88603135.57848
  21720553.200   114142291.35709  21720555.740    88942064.24248
  23374512.360   122833946.16508  23374514.560    95714779.25047
  20470293.920   107572125.32309  20470294.780    83822442.89049
  22843266.800   120042199.61508  22843267.460    93539385.31146
  22933538.140   120516533.10208  22933539.320    93908977.04947
  20968039.080   110187791.26309  20968037.400    85860619.39448
  20688502.680   108718809.18709  20688499.120    84715939.59148
 15 02 11 09 57  0.0000000  0  9G01G03G06G07G09G10G17G20G23
  23238644.600   122119862.32508  23238649.000    95158336.52747
  21646769.860   113754529.80009  21646772.400    88639895.34448
  21706948.300   114070798.16609  21706951.040    88886355.28448
  23355335.860   122733173.94408  23355338.080    95636255.56846
  20465777.840   107548393.17109  20465778.720    83803950.31249
  22828610.900   119965182.41108  22828611.740    93479371.96646
  22946007.460   120582059.17009  22946008.700    93960036.20347
  20959165.360   110141159.27409  20959163.480    85824282.76948
  20694361.140   108749595.72809  20694357.600    84739929.08748
 15 02 11 09 57 30.0000000  0  9G01G03G06G07G09G10G17G20G23
  23257774.140   122220388.10608  23257778.680    95236668.11847
  21655783.220   113801895.42309  21655785.840    88676803.55348
  21693414.740   113999679.48709  21693417.660    88830938.15348
  23336179.620   122632508.11108  23336181.880    95557814.77547
  20461343.620   107525091.51309  20461344.540    83785793.18049
  22813974.740   119888269.17908  22813975.580    93419439.59946
  22958538.920   120647911.82209  22958540.240    94011349.82347
  20950329.500   110094726.64009  20950327.720    85788101.48748
  20700285.060   108780726.11409  20700281.500    84764186.50048
 15 02 11 09 58  0.0000000  0  9G01G03G06G07G09G10G17G20G23
  23276944.240   122321127.50408  23276949.040    95315166.17647
  21664832.540   113849449.72109  21664835.180    88713858.80348
  21679952.660   113928935.88209  21679955.540    88775813.28648
  23317043.860   122531949.85208  23317045.960    95479457.80446
  20456990.880   107502217.87609  20456991.740    83767969.57349
  22799358.060   119811458.62708  22799359.160    93359587.26046
  22971131.520   120714085.86409  22971132.780    94062913.87447
  20941531.400   110048492.27009  20941529.740    85752074.70648
  20706273.820   108812197.10009  20706270.240    84788709.32848
 15 02 11 09 58 30.0000000  0  9G01G03G06G07G09G10G17G20G23
  23296154.720   122422079.69408  23296159.840    95393830.02247
  21673918.020   113897193.91009  21673920.680    88751062.01248
  21666562.720   113858570.90509  21666565.480    88720983.45048
  23297929.220   122431502.63408  23297931.180    95401187.35146
  20452719.740   107479772.86209  20452720.600    83750479.95649
  22784761.500   119734752.57708  22784762.540    93299816.33446
  22983784.920   120780579.62208  22983786.180    94114727.06347
  20932771.420   110002458.05709  20932769.780    85716203.89048
  20712327.320   108844007.98709  20712323.700    84813497.01848
 15 02 11 09 59  0.0000000  0  9G01G03G06G07G09G10G17G20G23
  23315404.960   122523240.34308  23315410.200    95472656.30747
  21683039.260   113945125.87609  21683041.900    88788411.55548
  21653244.920   113788584.69709  21653247.580    88666448.75548
  23278835.880   122331167.30109  23278837.840    95323004.04046
  20448529.620   107457753.60709  20448530.420    83733322.09949
  22770184.320   119658149.07408  22770185.220    93240125.33246
  22996498.100   120847387.89709  22996499.480    94166785.33247
  20924049.240   109956622.56809  20924047.620    85680487.92748
  20718444.800   108876155.06509  20718441.080    84838546.67048
 15 02 11 09 59 30.0000000  0  9G01G03G06G07G09G10G17G20G23
  23334695.720   122624613.77608  23334700.840    95551648.40146
  21692197.440   113993252.05409  21692200.100    88825912.40748
  21640000.780   113718985.99609  21640003.420    88612216.02548
  23259765.460   122230952.67908  23259767.580    95244914.80047
  20444421.580   107436165.87409  20444422.500    83716500.50549
  22755627.940   119581655.09108  22755628.900    93180519.67846
  23009271.880   120914513.79109  23009273.100    94219091.11647
  20915366.140   109910992.65609  20915364.500    85644932.16448
  20724627.080   108908642.89009  20724623.320    84863861.84448
 15 02 11 10 00  0.0000000  0  9G01G03G06G07G09G10G17G20G23
  23354025.480   122726191.56008  23354030.320    95630799.73646
  21701391.320   114041566.04309  21701394.080    88863559.61248
  21626829.560   113649770.80409  21626832.160    88558282.14248
  23240717.340   122130855.14209  23240719.720    95166916.80747
  20440394.420   107415002.69209  20440395.280    83700009.70649
  22741091.160   119505264.76808  22741092.240    93120994.82546
  23022104.360   120981948.13308  23022105.600    94271637.19447
  20906721.160   109865562.98509  20906719.560    85609532.41648
  20730872.680   108941463.48509  20730868.900    84889436.31548
 15 02 11 10 00 30.0000000  0  9G01G03G06G07G09G10G17G20G23
  23373394.000   122827972.33208  23373398.700    95710109.24346
  21710621.140   114090068.67209  21710623.860    88901353.79548
  21613731.820   113580942.21509  21613734.500    88504649.49248
  23221692.300   122030878.20809  23221694.760    95089012.77247
  20436447.980   107394264.07109  20436448.860    83683849.75649
  22726574.520   119428979.40708  22726575.620    93061551.73646
  23034995.040   121049688.28608  23034996.380    94324421.57147
  20898114.440   109820334.70309  20898112.920    85574289.61348
  20737181.460   108974616.32609  20737177.680    84915269.68048
 15 02 11 10 01  0.0000000  0  9G01G03G06G07G09G10G17G20G23
  23392801.720   122929959.13908  23392806.460    95789579.28946
  21719887.920   114138765.08409  21719890.440    88939298.98548
  21600709.080   113512507.70609  21600711.860    88451323.92148
  23202691.800   121931029.51209  23202694.000    95011208.62547
  20432583.220   107373954.54409  20432584.060    83668024.15449
  22712078.660   119352804.43408  22712080.100    93002194.69346
  23047944.220   121117736.26808  23047945.560    94377445.82547
  20889547.240   109775314.14909  20889545.880    85539208.67648
  20743553.860   109008104.01109  20743550.200    84941363.95948
 15 02 11 10 01 30.0000000  0  9G01G03G06G07G09G10G17G20G23
  23412246.920   123032143.69508  23412251.680    95869203.41046
  21729190.400   114187649.11109  21729192.820    88977390.35748
  21587760.560   113444463.36309  21587763.400    88398302.36948
  23183715.080   121831305.65508  23183717.080    94933501.75447
  20428798.780   107354067.14609  20428799.640    83652527.48049
  22697602.780   119276733.99608  22697604.140    92942919.07946
  23060950.340   121186082.83608  23060951.560    94430702.74247
  20881018.520   109730495.79309  20881017.240    85504285.28648
  20749988.540   109041918.99209  20749985.000    84967713.27748
 15 02 11 10 02  0.0000000  0  9G01G03G06G07G09G10G17G20G23
  23431729.600   123134524.36408  23431734.300    95948980.35446
  21738528.700   114236721.32809  21738531.000    89015628.37548
  21574886.860   113376812.10709  21574889.760    88345587.12148
  23164762.660   121731709.75608  23164764.560    94855894.61347
  20425094.600   107334601.72409  20425095.440    83637359.62649
  22683147.220   119200769.31108  22683148.440    92883725.86646
  23074012.760   121254725.50208  23074013.920    94484190.37447
  20872528.460   109685880.81509  20872527.180    85469520.38748
  20756485.240   109076059.97009  20756481.860    84994316.62348
 15 02 11 10 02 30.0000000  0  9G01G03G06G07G09G10G17G20G23
  23451250.280   123237104.43008  23451254.900    96028912.67247
  21747903.840   114285987.07009  21747906.000    89054017.18948
  21562089.380   113309561.58109  21562092.380    88293184.13548
  23145836.080   121632250.09908  23145838.020    94778393.63047
  20421471.640   107315562.94109  20421472.500    83622524.22349
  22668712.860   119124916.36808  22668714.140    92824619.73947
  23087131.900   121323666.58108  23087133.240    94537910.57447
  20864078.260   109641475.29509  20864077.080    85434918.69748
  20763044.800   109110530.92409  20763041.460    85021177.09148
 15 02 11 10 03  0.0000000  0  9G01G03G06G07G09G10G17G20G23
  23470808.560   123339882.76008  23470813.160    96108999.48446
  21757315.940   114335447.39609  21757318.020    89092557.61648
  21549368.780   113242715.07409  21549371.800    88241095.96548
  23126936.020   121532930.22008  23126938.060    94701001.56647
  20417929.880   107296950.99309  20417930.660    83608021.41249
  22654299.940   119049176.37808  22654301.140    92765601.63246
  23100307.240   121392903.46808  23100308.780    94591861.24147
  20855668.380   109597281.00709  20855667.200    85400481.61848
  20769666.960   109145330.95909  20769663.640    85048293.99348
 15 02 11 10 03 30.0000000  0  9G01G03G06G07G09G10G17G20G23
  23490403.200   123442853.03108  23490408.020    96189235.83746
  21766764.260   114385098.16409  21766766.280    89131246.43848
  21536724.780   113176270.72309  21536727.880    88189321.16148
  23108062.120   121433748.14908  23108064.440    94623716.88347
  20414468.340   107278761.00009  20414469.260    83593847.40649
  22639907.800   118973545.70708  22639908.820    92706668.67546
  23113537.580   121462428.98508  23113539.220    94646036.78747
  20847298.060   109553294.43409  20847296.840    85366206.37948
  20776350.720   109180454.45009  20776347.380    85075662.92648
 15 02 11 10 04  0.0000000  0  9G01G03G06G07G09G10G17G20G23
  23510033.740   123546012.18608  23510038.760    96269619.37846
  21776248.580   114434938.44909  21776250.640    89170082.94348
  21524157.640   113110229.89609  21524160.800    88137860.79348
  23089214.980   121334705.93909  23089217.340    94546541.15947
  20411086.840   107260991.29209  20411087.820    83580000.88249
  22625536.460   118898024.10508  22625537.420    92647820.73946
  23126822.220   121532239.25408  23126823.920    94700434.23947
  20838967.220   109509515.59809  20838965.980    85332093.02548
  20783095.480   109215898.42409  20783092.120    85103281.58548
 15 02 11 10 04 30.0000000  0  9G01G03G06G07G09G10G17G20G23
  23529700.280   123649360.35208  23529705.560    96350150.19946
  21785769.400   114484970.56209  21785771.560    89209068.93148
  21511668.180   113044597.15709  21511671.340    88086718.41348
  23070395.640   121235808.64609  23070397.640    94469478.35247
  20407785.600   107243643.31909  20407786.720    83566483.00649
  22611186.440   118822614.29108  22611187.340    92589059.88247
  23140160.900   121602333.36609  23140162.360    94755052.87647
  20830676.460   109465947.53609  20830675.220    85298143.91048
  20789901.380   109251663.59309  20789898.020    85131150.53648
 15 02 11 10 05  0.0000000  0  9G01G03G06G07G09G10G17G20G23
  23549402.400   123752895.01308  23549407.860    96430826.33146
  21795326.640   114535194.11109  21795328.860    89248204.08148
  21499256.780   112979374.38909  21499259.880    88035895.49448
  23051604.320   121137058.50309  23051605.920    94392530.19947
  20404564.400   107226715.93309  20404565.480    83553292.85349
  22596857.800   118747316.50708  22596858.740    92530386.34947
  23153552.940   121672707.61009  23153554.420    94809889.78447
  20822425.960   109422590.56109  20822424.520    85264359.27148
  20796767.960   109287747.56009  20796764.560    85159267.88848
 15 02 11 10 05 30.0000000  0  9G01G03G06G07G09G10G17G20G23
  23569139.900   123856616.30508  23569145.580    96511647.87746
  21804920.760   114585611.46209  21804923.020    89287490.25248
  21486924.220   112914566.16009  21486927.300    87985395.60148
  23032841.920   121038460.71309  23032843.240    94315700.77947
  20401423.440   107210210.60009  20401424.580    83540431.57549
  22582550.960   118672133.35808  22582551.760    92471802.13246
  23166998.160   121743361.27309  23166999.520    94864944.42747
  20814216.240   109379447.80009  20814214.640    85230741.54348
  20803695.300   109324151.09509  20803691.920    85187634.25548
 15 02 11 10 06  0.0000000  0  9G01G03G06G07G09G10G17G20G23
  23588912.140   123960519.74908  23588918.040    96592611.36646
  21814551.340   114636220.31809  21814553.640    89326925.64048
  21474670.420   112850172.44809  21474673.500    87935218.69948
  23014108.560   120940015.45909  23014109.660    94238990.21247
  20398362.260   107194124.21409  20398363.440    83527896.75149
  22568265.560   118597063.35508  22568266.360    92413306.08046
  23180495.400   121814288.54709  23180496.740    94920212.28147
  20806046.920   109336517.64209  20806045.280    85197289.49048
