     2.11           OBSERVATION DATA    M                   RINEX VERSION / TYPE
SPIDER V4,0,0,3554                      2015 03 13 00:36    PGM / RUN BY / DATE 
CKHR                                                        MARKER NAME         
CKHR                                                        MARKER NUMBER       
                                                            OBSERVER / AGENCY   
496547              LEICA GRX1200+GNSS  8.10/4.007          REC # / TYPE / VERS 
10301042            LEIAR25         NONE                    ANT # / TYPE        
  5141838.0877   498328.5776  3730203.3049                  APPROX POSITION XYZ 
        0.0720        0.0000        0.0000                  ANTENNA: DELTA H/E/N
     1     1                                                WAVELENGTH FACT L1/2
     4    C1    L1    P2    L2                              # / TYPES OF OBSERV 
    30.000                                                  INTERVAL            
  2015    02    11    00    00    0.0000000     GPS         TIME OF FIRST OBS   
  2015    02    11    05    06    0.0000000     GPS         TIME OF LAST OBS    
    16                                                      LEAP SECONDS        
    31                                                      # OF SATELLITES     
   G 1   157   157   157   157                              PRN / # OF OBS      
   G 3    41    41    40    40                              PRN / # OF OBS      
   G 4   314   314   314   314                              PRN / # OF OBS      
   G11   221   221   221   221                              PRN / # OF OBS      
   G14   166   165   165   165                              PRN / # OF OBS      
   G16   613   613   613   613                              PRN / # OF OBS      
   G18   574   574   574   574                              PRN / # OF OBS      
   G19   425   425   425   425                              PRN / # OF OBS      
   G21   455   455   455   455                              PRN / # OF OBS      
   G22   509   509   508   508                              PRN / # OF OBS      
   G25   127   127   127   127                              PRN / # OF OBS      
   G27   597   597   597   597                              PRN / # OF OBS      
   G28     1     1     0     0                              PRN / # OF OBS      
   G29   193   193   193   193                              PRN / # OF OBS      
   G31   230   230   230   230                              PRN / # OF OBS      
   G32   211   211   211   211                              PRN / # OF OBS      
   R 4   286   286   286   285                              PRN / # OF OBS      
   R 5   420   420   420   420                              PRN / # OF OBS      
   R 6   383   383   383   383                              PRN / # OF OBS      
   R 7   236   236   236   236                              PRN / # OF OBS      
   R 8    63    63    63    63                              PRN / # OF OBS      
   R 9   204   204   204   203                              PRN / # OF OBS      
   R10   344   344   344   344                              PRN / # OF OBS      
   R11   413   413   413   413                              PRN / # OF OBS      
   R12   271   271   270   270                              PRN / # OF OBS      
   R16    36    36    36    36                              PRN / # OF OBS      
   R19   253   253   253   253                              PRN / # OF OBS      
   R20   549   549   549   549                              PRN / # OF OBS      
   R21   344   344   344   344                              PRN / # OF OBS      
   R22   284   284   284   284                              PRN / # OF OBS      
   R23     8     8     8     7                              PRN / # OF OBS      
BIT 2 OF LLI FLAGS DATA COLLECTED UNDER A/S CONDITION       COMMENT             
SNR is mapped to RINEX snr flag value [2-9]                 COMMENT             
Lx:     = 25dBHz -> 1; 26-27dBHz -> 2; 28-31dBHz -> 3       COMMENT             
       32-35dBHz -> 4; 36-38dBHz -> 5; 39-41dBHz -> 6       COMMENT             
       42-44dBHz -> 7; 45-48dBHz -> 8; >=49dBHz -> 9        COMMENT             
                                                            END OF HEADER       
 15 02 11 00 00  0.0000000  0  6G16G18G21G25G29G31
  23834896.900   125253230.97708  23834893.580    97599908.36545
  24484807.440   128668526.56207  24484811.660   100261204.95444
  21011535.580   110416500.63308  21011531.680    86038886.81348
  22657022.340   119063667.28209  22657022.360    92776976.62147
  21939625.740   115293893.24909  21939622.920    89839560.06748
  21184288.300   111324193.95209  21184284.240    86746120.10148
 15 02 11 00 00 30.0000000  0  6G16G18G21G25G29G31
  23817900.920   125163916.61808  23817897.500    97530312.74645
  24470036.460   128590904.37807  24470040.800   100200720.28745
  21007461.820   110395093.68408  21007458.080    86022206.08848
  22671378.780   119139110.26409  22671378.660    92835763.34947
  21952197.260   115359956.69109  21952194.440    89891038.06448
  21192271.200   111366144.34909  21192267.140    86778808.70348
 15 02 11 00 01  0.0000000  0  6G16G18G21G25G29G31
  23800908.860   125074622.97108  23800905.360    97460733.32645
  24455253.520   128513220.28907  24455258.020   100140187.67944
  21003474.700   110374141.78908  21003471.040    86005879.94448
  22685784.120   119214810.19808  22685784.100    92894750.25647
  21964786.120   115426111.21509  21964783.100    89942587.04648
  21200350.640   111408602.71009  21200346.760    86811893.11748
 15 02 11 00 01 30.0000000  0  6G16G18G21G25G29G31
  23783922.100   124985357.28108  23783918.520    97391175.63545
  24440460.180   128435482.10008  24440464.140   100079612.74944
  20999575.360   110353650.96308  20999571.720    85989913.08248
  22700239.380   119290772.32909  22700239.220    92953941.50147
  21977393.280   115492361.93109  21977390.240    89994210.96448
  21208527.480   111451573.40009  21208523.880    86845376.76048
 15 02 11 00 02  0.0000000  0  6G16G18G21G25G29G31
  23766940.520   124896118.67308  23766937.100    97321639.12745
  24425656.560   128357689.84008  24425660.760   100018995.49645
  20995763.420   110333619.31509  20995759.840    85974304.01148
  22714743.920   119366993.98609  22714743.660    93013334.98947
  21990018.180   115558705.93909  21990015.180    90045907.59248
  21216801.120   111495052.88309  21216797.820    86879256.85848
 15 02 11 00 02 30.0000000  0  6G16G18G21G25G29G31
  23749964.880   124806911.24509  23749961.420    97252126.85645
  24410843.580   128279849.37708  24410847.800    99958340.73944
  20992039.460   110314049.73109  20992035.940    85959054.99348
  22729298.220   119443477.55408  22729298.120    93072932.50947
  22002661.260   115625145.02209  22002658.100    90097678.30748
  21225171.840   111539042.27309  21225168.780    86913534.28848
 15 02 11 00 03  0.0000000  0  6G16G18G21G25G29G31
  23732994.000   124717728.35908  23732990.400    97182633.67146
  24396020.840   128201955.53107  24396024.220    99897644.29744
  20988401.940   110294933.84309  20988398.380    85944159.50448
  22743900.660   119520214.20409  22743900.660    93132727.30747
  22015320.620   115691670.24709  22015317.320    90149516.13948
  21233637.840   111583531.73909  21233634.920    86948201.38748
 15 02 11 00 03 30.0000000  0  6G16G18G21G25G29G31
  23716030.120   124628582.36308  23716026.400    97113169.27146
  24381190.020   128124020.88808  24381193.960    99836916.19944
  20984852.860   110276282.71809  20984849.220    85929626.16848
  22758553.280   119597214.51509  22758553.380    93192727.50547
  22027998.200   115758291.65309  22027995.040    90201428.90748
  21242200.920   111628530.88709  21242197.980    86983265.64348
 15 02 11 00 04  0.0000000  0  6G16G18G21G25G29G31
  23699072.220   124539467.80808  23699068.520    97043729.42545
  24366350.920   128046041.22208  24366354.600    99776152.72044
  20981390.860   110258089.42309  20981387.120    85915449.58948
  22773254.660   119674470.84309  22773254.820    93252927.21647
  22040692.620   115825001.28309  22040689.480    90253410.43748
  21250859.460   111674030.92809  21250856.320    87018720.19848
 15 02 11 00 04 30.0000000  0  6G16G18G21G25G29G31
  23682121.040   124450388.72208  23682117.200    96974317.13246
  24351504.280   127968023.14508  24351508.220    99715359.70045
  20978016.480   110240356.85009  20978012.640    85901632.00548
  22788005.380   119751985.93808  22788005.540    93313328.58347
  22053404.140   115891801.30709  22053401.220    90305462.38948
  21259613.760   111720033.63509  21259610.340    87054566.43848
 15 02 11 00 05  0.0000000  0  6G16G18G21G25G29G31
  23665176.120   124361342.85008  23665172.120    96904930.73046
  24336650.360   127889965.18408  24336654.420    99654535.65745
  20974729.160   110223081.73809  20974725.280    85888170.88548
  22802804.420   119829755.32909  22802804.440    93373928.06347
  22066131.880   115958687.15209  22066129.200    90357581.20548
  21268462.680   111766533.27309  21268458.960    87090799.90549
 15 02 11 00 05 30.0000000  0  6G16G18G21G25G29G31
  23648238.320   124272334.55108  23648234.540    96835573.70545
  24321789.480   127811871.80508  24321793.500    99593684.04345
  20971529.320   110206266.58809  20971525.500    85875068.19248
  22817652.280   119907781.22508  22817652.380    93434727.45547
  22078876.600   116025661.29109  22078874.100    90409768.83448
  21277406.320   111813531.41009  21277402.500    87127421.81548
 15 02 11 00 06  0.0000000  0  6G16G18G21G25G29G31
  23631308.120   124183365.67608  23631304.420    96766247.31945
  24306922.700   127733746.77408  24306926.700    99532807.74045
  20968417.140   110189912.28709  20968413.360    85862324.59348
  22832548.900   119986063.74208  22832548.940    93495726.76747
  22091638.120   116092723.30809  22091635.460    90462024.95148
  21286444.400   111861026.46809  21286440.520    87164430.93048
 15 02 11 00 06 30.0000000  0  6G16G18G21G25G29G31
  23614385.380   124094436.22708  23614381.560    96696951.65045
  24292049.880   127655590.87608  24292054.020    99471907.54645
  20965392.440   110174017.92809  20965388.660    85849939.37648
  22847493.920   120064600.72709  22847494.060    93556924.38947
  22104415.840   116159870.45909  22104412.980    90514347.37948
  21295576.440   111909015.33609  21295572.460    87201824.83348
 15 02 11 00 07  0.0000000  0  6G16G18G21G25G29G31
  23597470.680   124005548.99708  23597466.860    96627688.88846
  24277171.800   127577407.69608  24277176.000    99410986.05045
  20962454.900   110158581.45308  20962451.120    85837910.97748
  22862487.340   120143392.37508  22862487.560    93618320.46647
  22117209.800   116227102.91309  22117206.740    90566736.31648
  21304802.140   111957497.17609  21304798.200    87239602.87248
 15 02 11 00 07 30.0000000  0  6G16G18G21G25G29G31
  23580564.100   123916704.48508  23580560.140    96558459.38846
  24262288.880   127499199.66408  24262293.020    99350045.18344
  20959604.900   110143604.61508  20959601.080    85826240.72848
  22877529.200   120222438.01708  22877529.460    93679914.42447
  22130019.840   116294419.76709  22130016.900    90619190.99448
  21314121.280   112006470.28109  21314117.480    87277763.71548
 15 02 11 00 08  0.0000000  0  7G16G18G21G25G27G29G31
  23563666.780   123827908.73708  23563663.020    96489267.93946
  24247402.720   127420973.46908  24247406.460    99289089.98145
  20956843.200   110129091.68909  20956839.340    85814931.96048
  22892620.200   120301741.48909  22892620.440    93741709.31047
  24613111.780   129342787.67408  24613112.860   100786584.21745
  22142846.580   116361824.74909  22142843.640    90671714.35248
  21323534.340   112055936.94409  21323530.720    87316309.14448
 15 02 11 00 08 30.0000000  0  7G16G18G21G25G27G29G31
  23546776.660   123739150.57608  23546773.040    96420105.69446
  24232511.140   127342718.66608  24232514.600    99228112.48844
  20954167.340   110115029.55909  20954163.420    85803974.46248
  22907757.840   120381289.37009  22907757.940    93803694.63047
  24598257.300   129264726.41108  24598258.780   100725757.32646
  22155687.440   116429304.43609  22155684.520    90724295.91448
  21333038.620   112105882.70609  21333035.140    87355227.89348
 15 02 11 00 09  0.0000000  0  7G16G18G21G25G27G29G31
  23529895.980   123650442.57908  23529892.620    96350982.64346
  24217617.120   127264450.90808  24217620.380    99167125.47745
  20951579.280   110101428.79609  20951575.300    85793376.46948
  22922943.960   120461092.14208  22922944.100    93865878.59347
  24583422.300   129186767.39008  24583424.020   100665010.13545
  22168544.420   116496868.97109  22168541.680    90776943.61048
  21342635.900   112156317.01609  21342632.440    87394527.33748
 15 02 11 00 09 30.0000000  0  7G16G18G21G25G27G29G31
  23513023.940   123561779.93308  23513020.700    96281894.87646
  24202719.440   127186165.04508  24202722.440    99106124.51345
  20949077.980   110088283.93709  20949073.860    85783133.74348
  22938177.240   120541142.80709  22938177.200    93928255.70647
  24568605.500   129108904.24908  24568606.980   100604337.65446
  22181416.200   116564511.25709  22181413.700    90829651.88048
  21352324.560   112207231.67509  21352321.120    87434201.08748
 15 02 11 00 10  0.0000000  0  7G16G18G21G25G27G29G31
  23496161.720   123473168.98908  23496158.440    96212847.40346
  24187819.400   127107867.70908  24187822.080    99045114.05745
  20946664.100   110075598.66009  20946659.920    85773249.11748
  22953458.460   120621445.88908  22953458.120    93990829.49547
  24553808.000   129031142.33608  24553809.220   100543743.95046
  22194303.640   116632235.53209  22194301.180    90882424.02848
  21362105.260   112258629.84009  21362101.840    87474251.58048
 15 02 11 00 10 30.0000000  0  7G16G18G21G25G27G29G31
  23479309.180   123384608.57508  23479306.000    96143839.29846
  24172917.200   127029559.04408  24172919.680    98984094.79745
  20944337.220   110063370.75509  20944333.060    85763720.88148
  22968786.940   120701997.55609  22968786.600    94053596.99146
  24539029.000   128953478.54008  24539030.080   100483226.80645
  22207206.120   116700038.07809  22207203.560    90935257.16548
  21371977.140   112310506.62509  21371973.720    87514675.01848
 15 02 11 00 11  0.0000000  0  7G16G18G21G25G27G29G31
  23462466.900   123296101.29408  23462463.540    96074872.58046
  24158013.780   126951244.32808  24158016.580    98923071.29345
  20942097.320   110051600.08009  20942093.200    85754548.94348
  22984162.900   120782798.50808  22984162.880    94116558.73347
  24524268.980   128875914.32908  24524269.720   100422787.18045
  22220123.620   116767918.95809  22220120.840    90988151.35348
  21381940.060   112362861.51109  21381936.600    87555471.01948
 15 02 11 00 11 30.0000000  0  7G16G18G21G25G27G29G31
  23445634.760   123207648.05408  23445631.400    96005948.01445
  24143109.220   126872924.05508  24143111.940    98862043.02845
  20939944.480   110040286.93408  20939940.360    85745733.50548
  22999586.080   120863847.86909  22999586.400    94179714.04647
  24509527.800   128798449.46308  24509528.920   100362425.05944
  22233055.840   116835877.77809  22233052.760    91041106.26348
  21391993.600   112415692.42409  21391990.020    87596637.93548
 15 02 11 00 12  0.0000000  0  7G16G18G21G25G27G29G31
  23428813.300   123119250.82908  23428810.020    95937067.06246
  24128204.260   126794601.36407  24128207.200    98801012.67344
  20937878.580   110029430.99808  20937874.520    85737274.33648
  23015056.300   120945144.94608  23015056.640    94243062.37347
  24494805.660   128721084.13408  24494806.840   100302140.39845
  22246002.800   116903913.87409  22245999.700    91094121.40548
  21402137.380   112468997.44109  21402133.640    87638174.28648
 15 02 11 00 12 30.0000000  0  7G16G18G21G25G27G29G31
  23412002.720   123030910.40408  23411999.400    95868230.39746
  24113299.380   126716278.30008  24113302.420    98739982.05245
  20935899.540   110019031.54809  20935895.540    85729170.88548
  23030573.400   121026687.95709  23030573.700    94306602.37847
  24480102.180   128643817.18808  24480103.120   100241932.49645
  22258964.020   116972025.26809  22258960.920    91147195.21348
  21412370.760   112522773.53009  21412366.920    87680077.72048
 15 02 11 00 13  0.0000000  0  7G16G18G21G25G27G29G31
  23395203.260   122942628.42808  23395199.860    95799439.26845
  24098395.080   126637957.42508  24098398.220    98678953.12644
  20934007.220   110009087.63409  20934003.240    85721422.38848
  23046137.340   121108476.86408  23046137.560    94370333.93447
  24465417.740   128566649.39608  24465418.160   100181801.73546
  22271939.460   117040211.65809  22271936.560    91200327.45048
  21422693.400   112577019.01509  21422689.500    87722346.90048
 15 02 11 00 13 30.0000000  0  7G16G18G21G25G27G29G31
  23378415.000   122854405.34508  23378411.500    95730694.03946
  24083491.900   126559641.48408  24083494.820    98617928.26344
  20932201.540   109999598.87909  20932197.600    85714028.57248
  23061747.800   121190509.97508  23061748.040    94434255.78847
  24450752.040   128489579.91608  24450752.320   100121747.64446
  22284928.840   117108471.68909  22284926.260    91253517.06848
  21433104.800   112631731.34909  21433100.860    87764979.86948
 15 02 11 00 14  0.0000000  0  7G16G18G21G25G27G29G31
  23361638.040   122766242.02709  23361634.540    95661995.37446
  24068589.700   126481331.46008  24068592.440    98556908.00844
  20930482.060   109990563.24208  20930478.180    85706987.82248
  23077404.420   121272785.55108  23077404.560    94498366.58547
  24436104.820   128412607.70608  24436105.420   100061769.39345
  22297931.840   117176803.22009  22297929.300    91306762.41548
  21443604.420   112686907.62909  21443600.480    87807974.35748
 15 02 11 00 14 30.0000000  0  7G16G18G21G25G27G29G31
  23344873.500   122678143.70708  23344869.960    95593347.32646
  24053690.020   126403034.85008  24053692.500    98495898.59445
  20928849.640   109981984.90609  20928845.760    85700303.41148
  23093107.720   121355306.79508  23093107.680    94562668.83647
  24421476.680   128335736.67106  24421477.800   100001869.95746
  22310949.080   117245209.85909  22310946.520    91360066.27348
  21454192.580   112742549.45309  21454188.740    87851331.59548
 15 02 11 00 15  0.0000000  0 12G16G18G21G25G27G29G31R09R10R16R19R20
  23328121.520   122590112.02208  23328118.020    95524751.23346
  24038793.020   126324753.10708  24038795.460    98434900.82345
  20927304.160   109973863.23108  20927300.240    85693974.83448
  23108857.540   121438073.00108  23108857.560    94627161.91147
  24406867.760   128258967.00108  24406868.860    99942049.56446
  22323980.560   117313690.87209  22323978.100    91413428.07548
  21464869.040   112798655.09109  21464865.300    87895050.25648
  19582776.220   104570945.02409  19582777.040    81332971.12106
  20336379.040   108404348.27009  20336384.060    84314516.79307
  22727400.540   121405660.46308  22727406.060    94426676.10306
  20268940.060   108425508.13209  20268939.480    84330923.25708
  20343834.680   108787772.55908  20343836.960    84612803.51008
 15 02 11 00 15 30.0000000  0 12G16G18G21G25G27G29G31R09R10R16R19R20
  23311382.400   122502147.54508  23311378.860    95456207.48745
  24023898.880   126246486.98908  24023901.000    98373914.88144
  20925845.280   109966196.63109  20925841.280    85688000.87048
  23124653.560   121521081.87808  23124653.740    94691844.10747
  24392277.820   128182297.16407  24392278.580    99882306.87446
  22337025.720   117382243.74209  22337023.060    91466845.89047
  21475633.060   112855220.93709  21475629.480    87939127.51048
  19593153.440   104626358.04709  19593154.120    81376070.12205
  20322893.840   108332464.49109  20322898.940    84258607.19307
  22752148.320   121537861.07308  22752154.160    94529499.29006
  20280037.620   108484872.49609  20280036.980    84377095.53208
  20337502.100   108753909.57408  20337504.480    84586465.63908
 15 02 11 00 16  0.0000000  0 12G16G18G21G25G27G29G31R09R10R16R19R20
  23294655.780   122414248.74008  23294652.260    95387714.92746
  24009007.860   126168237.42408  24009009.960    98312941.82745
  20924472.420   109958982.00808  20924468.360    85682379.10148
  23140495.240   121604330.28409  23140495.460    94756712.96146
  24377706.640   128105724.83108  24377706.920    99822640.13746
  22350084.020   117450865.64309  22350081.380    91520317.47848
  21486483.780   112912242.34109  21486480.460    87983559.75248
  19603667.100   104682499.46709  19603667.640    81419735.65906
  20309530.980   108261232.76209  20309536.020    84203204.74207
  22776933.720   121670262.71808  22776939.680    94632478.62306
  20291179.640   108544474.42309  20291178.980    84423452.58008
  20331245.880   108720454.93608  20331248.380    84560445.37708
 15 02 11 00 16 30.0000000  0 12G16G18G21G25G27G29G31R09R10R16R19R20
  23277942.440   122326419.51108  23277939.000    95319276.61246
  23994120.800   126090009.07508  23994122.860    98251985.26345
  20923186.020   109952221.42909  20923181.900    85677111.12948
  23156382.760   121687819.68708  23156382.960    94821769.63147
  24363154.200   128029252.22808  24363154.320    99763051.18845
  22363155.840   117519558.04509  22363152.900    91573844.04248
  21497421.260   112969719.53309  21497418.160    88028347.16148
  19614317.140   104739369.25409  19614317.580    81463967.70106
  20296291.460   108190658.91609  20296296.520    84148313.98707
  22801756.580   121802863.39908  22801762.640    94735612.25006
  20302366.040   108604313.55009  20302365.340    84469994.12408
  20325066.260   108687409.83808  20325068.800    84534743.64908
 15 02 11 00 17  0.0000000  0 12G16G18G21G25G27G29G31R09R10R16R19R20
  23261242.880   122238662.41309  23261239.340    95250894.46846
  23979238.580   126011804.89008  23979240.320    98191047.48045
  20921985.940   109945914.52409  20921981.820    85672196.66248
  23172316.100   121771549.91408  23172316.520    94887013.90147
  24348621.040   127952880.12208  24348621.320    99703540.50345
  22376240.920   117588320.73109  22376238.320    91627425.31648
  21508445.240   113027650.88909  21508442.260    88073488.45448
  19625103.300   104796966.17509  19625103.720    81508765.28706
  20283176.220   108120747.54909  20283181.260    84093938.47707
  22826616.420   121935660.76508  22826622.460    94838898.57306
  20313596.480   108664388.34509  20313595.700    84516718.96608
  20318963.200   108654774.06508  20318965.720    84509360.29908
 15 02 11 00 17 30.0000000  0 12G16G18G21G25G27G29G31R09R10R16R19R20
  23244556.760   122150976.35808  23244553.240    95182567.67846
  23964361.060   125933625.44608  23964362.600    98130128.96345
  20920871.600   109940058.41309  20920867.420    85667633.46748
  23188294.580   121855517.55108  23188295.180    94952443.18546
  24334106.440   127876605.76508  24334106.780    99644105.96045
  22389338.980   117657150.70709  22389336.200    91681059.06448
  21519554.860   113086031.91109  21519551.880    88118980.13948
  19636024.600   104855285.58509  19636025.180    81554124.81006
  20270185.440   108051499.34109  20270190.420    84040078.76007
  22851512.240   122068649.19308  22851518.480    94942333.69306
  20324869.880   108724693.51109  20324869.120    84563622.97608
  20312936.020   108622544.01408  20312938.500    84484292.49408
 15 02 11 00 18  0.0000000  0 12G16G18G21G25G27G29G31R09R10R16R19R20
  23227884.440   122063362.62008  23227880.940    95114297.24946
  23949488.700   125855472.65608  23949490.100    98069231.18545
  20919842.920   109934652.57609  20919838.740    85663421.12948
  23204318.100   121939721.34908  23204318.440    95018056.51046
  24319610.540   127800428.83108  24319611.080    99584747.33145
  22402449.560   117726046.79209  22402446.760    91734744.30448
  21530749.580   113144860.05709  21530746.540    88164820.22648
  19647080.680   104914324.88709  19647081.380    81600044.24406
  20257319.720   107982917.60609  20257324.720    83986737.41107
  22876443.060   122201824.15907  22876449.480    95045913.85006
  20336185.860   108785226.52309  20336185.100    84610704.19308
  20306984.380   108590718.24108  20306986.820    84459539.12608
 15 02 11 00 18 30.0000000  0 13G16G18G21G25G27G29G31R04R09R10R16R19
                                R20
  23211226.760   121975825.85208  23211223.080    95046086.79646
  23934622.560   125777352.50008  23934623.720    98008358.83145
  20918900.380   109929699.85209  20918896.260    85659561.86948
  23220387.060   122024163.88309  23220387.160    95083855.82246
  24305133.800   127724352.58708  24305134.040    99525467.18746
  22415573.160   117795011.41009  22415570.380    91788482.95447
  21542029.540   113204136.38709  21542026.460    88211009.55048
  23581551.500   126278137.26508  23581551.700                  
  19658271.880   104974085.66809  19658272.660    81646524.82706
  20244580.320   107915009.55009  20244585.440    83933920.04207
  22901408.880   122335186.02808  22901415.360    95149639.62606
  20347544.560   108845988.24109  20347543.820    84657963.30008
  20301108.800   108559299.28608  20301111.320    84435102.16508
 15 02 11 00 19  0.0000000  0 14G16G18G21G25G27G29G31R04R09R10R16R19
                                R20R21
  23194583.540   121888365.37408  23194579.940    94977935.78446
  23919762.680   125699265.51808  23919763.780    97947512.30545
  20918043.420   109925196.87009  20918039.320    85656053.05648
  23236500.880   122108842.08809  23236501.180    95149838.78346
  24290675.840   127648375.00508  24290676.020    99466263.92645
  22428709.160   117864041.92409  22428706.340    91842272.95848
  21553393.960   113263856.58009  21553390.820    88257544.74948
  23565942.540   126194552.21208  23565942.520    98151318.60606
  19669597.440   105034563.49209  19669598.160    81693563.11206
  20231967.440   107847776.09809  20231972.680    83881627.36307
  22926408.420   122468728.01307  22926414.800    95253505.33506
  20358945.140   108906974.00709  20358944.460    84705396.67408
  20295308.700   108528283.81808  20295311.300    84410979.05008
  23613429.140   126360225.90807  23613430.020    98280193.62806
 15 02 11 00 19 30.0000000  0 13G16G18G21G25G27G29G31R04R09R10R16R19
                                R20
  23177955.880   121800986.22409  23177952.160    94909848.15546
  23904910.140   125621217.31608  23904911.120    97886695.98944
  20917272.640   109921146.59409  20917268.560    85652897.01148
  23252659.880   122193758.26109  23252660.420    95216007.18547
  24276237.120   127572499.04608  24276237.260    99407139.87646
  22441858.220   117933140.90009  22441855.600    91896116.29248
  21564842.960   113324021.38209  21564839.740    88304426.39048
  23550392.460   126111284.41708  23550393.180    98086554.81506
  19681057.460   105095759.05309  19681058.140    81741159.64206
  20219482.480   107781224.19509  20219487.740    83829864.76807
  22951441.660   122602449.88307  22951447.960    95357510.99506
  20370387.780   108968184.83509  20370387.200    84753005.09408
  20289584.560   108497674.16208  20289587.180    84387171.55808
 15 02 11 00 20  0.0000000  0 13G16G18G21G25G27G29G31R04R09R10R16R19
                                R20
  23161343.280   121713686.19308  23161339.520    94841822.14946
  23890064.840   125543206.49108  23890065.500    97825908.76345
  20916587.160   109917544.56909  20916583.160    85650090.25148
  23268863.300   122278907.60309  23268863.780    95282357.30546
  24261816.960   127496720.91408  24261817.000    99348091.95246
  22455019.400   118002303.59909  22455016.640    91950009.30248
  21576375.420   113384624.85509  21576372.100    88351649.85348
  23534901.640   126028334.35507  23534902.820    98022038.06506
  19692650.780   105157666.41409  19692651.420    81789309.80206
  20207125.360   107715353.47009  20207130.480    83778631.97807
  22976507.120   122736344.03208  22976513.460    95461650.58406
  20381871.320   109029614.32509  20381870.780    84800783.58408
  20283935.360   108467465.29508  20283937.840    84363675.79108
 15 02 11 00 20 30.0000000  0 13G16G18G21G25G27G29G31R04R09R10R16R19
                                R20
  23144746.660   121626470.20609  23144742.960    94773861.64346
  23875227.840   125465239.57108  23875228.400    97765155.73145
  20915987.540   109914393.72609  20915983.620    85647635.04848
  23285111.580   122364292.84808  23285112.000    95348891.21546
  24247416.000   127421044.01508  24247416.440    99289123.01446
  22468193.200   118071532.91609  22468190.700    92003954.17748
  21587991.520   113445668.20309  21587988.200    88399216.07448
  23519471.740   125945709.58707  23519472.880    97957774.41306
  19704377.620   105220286.81109  19704378.140    81838014.52906
  20194897.140   107650170.28509  20194902.200    83727933.94907
  23001604.780   122870410.46307  23001611.100    95565924.17106
  20393396.060   109091263.65809  20393395.480    84848733.05908
  20278361.560   108437659.76708  20278364.000    84340493.73708
 15 02 11 00 21  0.0000000  0 13G16G18G21G25G27G29G31R04R09R10R16R19
                                R20
  23128165.660   121539336.24208  23128161.960    94705965.04046
  23860398.920   125387315.25408  23860399.340    97704435.91245
  20915473.020   109911689.87308  20915469.100    85645528.16148
  23301403.900   122449909.37908  23301404.180    95415605.33746
  24233033.440   127345464.67407  24233034.340    99230230.09846
  22481378.980   118140824.16909  22481376.440    92057947.35348
  21599690.180   113507145.48909  21599686.860    88447120.43048
  23504102.860   125863410.82507  23504103.780    97893764.31405
  19716236.820   105283614.34609  19716237.380    81887269.26706
  20182798.000   107585675.21009  20182803.080    83677771.10707
  23026733.200   123004641.59307  23026739.680    95670325.83706
  20404960.880   109153127.07209  20404960.240    84896849.04408
  20272862.220   108408252.59408  20272864.700    84317621.50408
 15 02 11 00 21 30.0000000  0 14G16G18G21G25G27G29G31R04R09R10R16R19
                                R20R21
  23111601.040   121452288.52708  23111597.320    94638135.65546
  23845579.220   125309438.68708  23845579.440    97643753.23944
  20915043.860   109909434.60709  20915039.920    85643770.82448
  23317740.560   122535758.60208  23317740.440    95482500.82046
  24218669.980   127269985.21508  24218671.060    99171415.00546
  22494577.000   118210179.86709  22494574.280    92111990.74847
  21611471.440   113569056.67309  21611468.120    88495362.89848
  23488796.300   125781444.85307  23488796.920    97830012.95106
  19728228.360   105347649.01909  19728229.100    81937073.99806
  20170828.960   107521873.58009  20170834.100    83628147.62907
  23051892.340   123139036.13507  23051899.060    95774854.60106
  20416565.580   109215204.00209  20416564.860    84945131.08708
  20267437.700   108379245.21608  20267440.220    84295060.22008
  23532571.900   125927560.32507  23532570.740    97943650.94504
 15 02 11 00 22  0.0000000  0 14G16G18G21G25G27G29G31R04R09R10R16R19
                                R20R21
  23095052.780   121365327.17008  23095049.120    94570373.57746
  23830768.840   125231611.16008  23830769.100    97583108.77545
  20914699.660   109907625.77608  20914695.640    85642361.35448
  23334121.100   122621838.48208  23334121.140    95549575.99446
  24204325.440   127194604.46408  24204326.320    99112676.80746
  22507786.720   118279597.15609  22507783.880    92166082.12047
  21623334.760   113631398.52009  21623331.320    88543940.93848
  23473552.520   125699814.36207  23473553.360    97766522.62506
  19740351.740   105412387.22609  19740352.520    81987425.90206
  20158990.420   107458767.48909  20158995.560    83579065.10807
  23077081.320   123273589.14708  23077088.160    95879506.54906
  20428209.600   109277491.36009  20428208.860    84993576.79608
  20262087.540   108350635.37508  20262090.080    84272808.12408
  23516525.220   125841687.76208  23516524.660    97876861.23105
 15 02 11 00 22 30.0000000  0 13G16G18G21G25G27G29G31R04R09R10R16R19
                                R20
  23078521.580   121278455.40109  23078517.980    94502681.31246
  23815968.600   125153836.80308  23815968.980    97522505.74645
  20914440.680   109906264.74309  20914436.620    85641300.82148
  23350545.620   122708149.69908  23350545.940    95616831.44847
  24190000.020   127119323.91308  24190000.760    99054016.69046
  22521008.460   118349078.08209  22521005.600    92220223.08047
  21635279.980   113694170.25209  21635276.380    88592853.95248
  23458372.560   125618525.70708  23458373.620    97703298.17406
  19752606.820   105477828.22409  19752607.580    82038324.43906
  20147283.320   107396361.98909  20147288.480    83530527.50107
  23102299.720   123408298.64808  23102306.280    95984280.27106
  20439892.760   109339988.27109  20439892.020    85042185.50208
  20256811.820   108322423.67308  20256814.400    84250865.71608
 15 02 11 00 23  0.0000000  0 13G16G18G21G25G27G29G31R04R09R10R16R19
                                R20
  23062007.560   121191673.77909  23062004.000    94435059.26846
  23801178.840   125076117.14808  23801179.080    97461945.32345
  20914266.560   109905349.58408  20914262.440    85640587.71848
  23367013.660   122794690.04308  23367013.860    95684265.43047
  24175693.560   127044142.33808  24175693.820    98995433.62746
  22534241.920   118418620.23909  22534239.080    92274411.75247
  21647306.420   113757368.17809  21647302.560    88642099.06548
  23443256.880   125537581.57307  23443257.900    97640341.61906
  19764992.820   105543968.26009  19764993.480    82089766.66606
  20135708.160   107334659.74209  20135713.300    83482536.86007
  23127546.400   123543159.64507  23127553.000    96089171.69406
  20451614.400   109402691.47809  20451613.640    85090954.64508
  20251610.100   108294607.63708  20251612.620    84229231.02808
 15 02 11 00 23 30.0000000  0 13G16G18G21G25G27G29G31R04R09R10R16R19
                                R20
  23045510.960   121104983.60308  23045507.460    94367508.47346
  23786399.940   124998454.24608  23786399.920    97401429.10145
  20914177.080   109904879.31108  20914172.940    85640221.27248
  23383525.180   122881458.26708  23383525.360    95751876.96546
  24161405.780   126969059.25808  24161405.780    98936927.37446
  22547486.760   118488222.36709  22547483.700    92328647.14747
  21659413.480   113820989.51309  21659409.320    88691674.09048
  23428206.320   125456986.05508  23428206.980    97577656.22106
  19777509.180   105610804.50009  19777509.780    82141750.38106
  20124265.320   107273662.95809  20124270.460    83435094.89607
  23152820.580   123678168.21807  23152827.040    96194177.94306
  20463374.120   109465597.95909  20463373.260    85139881.88908
  20246482.220   108267185.93008  20246484.580    84207903.04008
 15 02 11 00 24  0.0000000  0 14G16G18G21G25G27G29G31R04R09R10R16R19
                                R20R21
  23029032.260   121018387.26609  23029028.620    94300030.80846
  23771632.520   124920851.47408  23771632.160    97340959.74445
  20914172.240   109904853.72409  20914168.020    85640201.34048
  23400079.960   122968454.03208  23400080.440    95819665.82346
  24147136.760   126894075.28108  24147136.240    98878498.34546
  22560743.180   118557885.03209  22560739.980    92382929.75447
  21671600.780   113885032.91909  21671596.460    88741578.01048
  23413221.880   125376744.08808  23413222.080    97515245.78706
  19790155.560   105678335.16509  19790156.040    82194274.21506
  20112955.560   107213375.66809  20112960.680    83388204.79507
  23178121.760   123813321.11907  23178128.380    96299296.41706
  20475171.580   109528706.05909  20475170.660    85188965.96708
  20241427.880   108240157.76808  20241430.080    84186881.16108
  23452750.320   125500407.07407  23452753.800    97611440.51006
 15 02 11 00 24 30.0000000  0 14G16G18G21G25G27G29G31R04R09R10R16R19
                                R20R21
  23012571.960   120931887.57709  23012568.180    94232628.45346
  23756877.320   124843312.76008  23756876.760    97280540.27745
  20914252.140   109905273.43809  20914247.860    85640528.39648
  23416678.080   123055677.63108  23416678.780    95887632.22147
  24132886.820   126819191.64808  24132886.480    98820147.54246
  22574010.960   118627608.50409  22574007.960    92437259.69347
  21683868.080   113949496.89109  21683863.680    88791809.65248
  23398304.540   125296861.32008  23398304.540    97453114.76406
  19802931.640   105746559.03908  19802932.120    82247337.21406
  20101779.740   107153802.57609  20101784.840    83341870.16307
  23203449.560   123948615.90708  23203456.020    96404525.30206
  20487006.600   109592014.79709  20487005.620    85238206.09408
  20236447.220   108213523.70608  20236449.340    84166165.78508
  23436911.200   125415647.26607  23436914.140    97545516.30006
 15 02 11 00 25  0.0000000  0 13G16G18G21G25G27G29G31R04R09R10R16R19
                                R20
  22996130.380   120845486.55209  22996126.600    94165302.99147
  23742134.860   124765840.94108  23742133.920    97220172.92445
  20914416.600   109906138.01808  20914412.340    85641202.10148
  23433319.260   123143128.53608  23433320.220    95955775.69446
  24118655.940   126744408.68108  24118655.720    98761875.15045
  22587290.320   118697392.64809  22587287.600    92491636.93548
  21696214.940   114014379.55609  21696210.560    88842367.54448
  23383454.860   125217342.27607  23383455.060    97391266.65007
  19815836.940   105815473.70509  19815837.680    82300937.49506
  20090738.680   107094947.12209  20090743.720    83296093.69907
  23228803.320   124084049.43308  23228809.980    96509862.04606
  20498878.760   109655522.29409  20498877.680    85287600.80808
  20231539.920   108187282.87008  20231542.160    84145756.25908
 15 02 11 00 25 30.0000000  0 13G16G18G21G25G27G29G31R04R09R10R16R19
                                R20
  22979707.500   120759183.86308  22979703.800    94098054.13446
  23727405.160   124688437.00408  23727404.180    97159858.46145
  20914665.200   109907444.59808  20914660.960    85642220.21648
  23450003.260   123230803.71308  23450004.080    96024094.01046
  24104443.820   126669724.38708  24104444.120    98703679.58646
  22600580.900   118767234.67009  22600578.180    92546059.27048
  21708640.480   114079676.36709  21708636.240    88893248.14948
  23368673.320   125138189.00007  23368673.560    97329702.99105
  19828870.780   105885074.79708  19828871.800    82355071.65306
  20079832.560   107036810.42409  20079837.440    83250876.25907
  23254181.920   124219615.90907  23254188.800    96615302.20406
  20510787.240   109719224.38609  20510786.120    85337146.86508
  20226705.500   108161431.71708  20226707.820    84125649.80008
 15 02 11 00 26  0.0000000  0 13G16G18G21G25G27G29G31R04R09R10R16R19
                                R20
  22963303.780   120672981.74909  22963300.180    94030883.67246
  23712688.640   124611103.55008  23712687.520    97099598.93845
  20914997.840   109909192.55709  20914993.580    85643582.27048
  23466729.880   123318702.66308  23466730.560    96092586.66746
  24090250.620   126595139.07008  24090251.360    98645561.20645
  22613882.380   118837134.54609  22613879.740    92600526.69147
  21721144.300   114145385.56209  21721140.340    88944450.10948
  23353960.960   125059406.33507  23353961.080    97268427.54906
  19842032.760   105955360.04508  19842034.080    82409737.94506
  20069061.960   106979396.33009  20069066.760    83206220.85407
  23279584.720   124355312.19907  23279591.880    96720843.25806
  20522731.700   109783119.19309  20522730.580    85386842.83208
  20221943.980   108135969.79408  20221946.320    84105846.09908
 15 02 11 00 26 30.0000000  0 14G16G18G21G25G27G29G31R04R09R10R16R19
                                R20R21
  22946918.620   120586877.45908  22946915.080    93963789.41047
  23697985.320   124533839.12908  23697984.360    97039393.17145
  20915413.560   109911377.05208  20915409.220    85645284.47348
  23483498.140   123406820.02008  23483499.000    96161249.50447
  24076075.480   126520648.34607  24076076.560    98587516.50246
  22627194.100   118907087.16609  22627191.440    92655035.22048
  21733725.060   114211500.38709  21733721.620    88995968.13048
  23339317.800   124980994.09408  23339318.240    97207440.33406
  19855321.720   106026322.19009  19855323.140    82464930.70306
  20058426.500   106922703.26609  20058431.300    83162126.24507
  23305010.280   124491130.06607  23305017.620    96826478.87606
  20534710.800   109847199.93409  20534709.840    85436683.40008
  20217254.220   108110891.59908  20217256.520    84086340.83808
  23373973.000   125078850.18207  23373975.380    97283565.74106
 15 02 11 00 27  0.0000000  0 14G16G18G21G25G27G29G31R04R09R10R16R19
                                R20R21
  22930554.120   120500881.79408  22930550.660    93896779.82346
  23683297.380   124456655.10208  23683296.580    96979250.04245
  20915913.880   109914006.33008  20915909.480    85647333.27048
  23500309.400   123495163.69608  23500310.680    96230088.63546
  24061919.940   126446260.85607  24061921.160    98529552.33446
  22640517.260   118977100.97008  22640514.740    92709591.39747
  21746384.120   114278026.78509  21746381.200    89047806.85748
  23324746.480   124902965.25108  23324747.020    97146751.19406
  19868738.820   106097967.85309  19868740.160    82520655.08706
  20047928.540   106866743.41809  20047933.300    83118601.92907
  23330459.580   124627074.55007  23330466.880    96932213.00405
  20546725.820   109911473.52709  20546725.180    85486673.96808
  20212637.700   108086204.86308  20212639.940    84067140.06208
  23358341.300   124995210.60808  23358344.860    97218512.83106
 15 02 11 00 27 30.0000000  0 13G16G18G21G25G27G29G31R04R09R10R16R19
                                R20
  22914209.640   120414991.03209  22914206.200    93829851.97146
  23668624.380   124379549.06208  23668623.640    96919167.65146
  20916497.700   109917074.49309  20916493.320    85649724.05248
  23517162.540   123583727.51508  23517163.800    96299099.35146
  24047783.280   126371971.70208  24047784.360    98471664.75146
  22653851.180   119047170.72209  22653848.580    92764191.18947
  21759120.280   114344957.73009  21759117.740    89099960.82848
  23310246.680   124825319.09008  23310247.480    97086359.79406
  19882282.480   106170288.80009  19882283.580    82576904.68506
  20037567.740   106811514.55109  20037572.520    83075646.13707
  23355931.240   124763137.33108  23355938.600    97038039.08006
  20558775.560   109975932.49509  20558775.200    85536808.71108
  20208093.200   108061903.28808  20208095.400    84048238.84808
 15 02 11 00 28  0.0000000  0 13G16G18G21G25G27G29G31R04R09R10R16R19
                                R20
  22897885.680   120329207.92309  22897882.120    93763007.99846
  23653967.000   124302524.41508  23653966.200    96859148.70345
  20917164.940   109920581.07608  20917160.700    85652456.46048
  23534057.560   123672511.18708  23534058.180    96368281.41846
  24033665.500   126297781.55609  24033666.340    98413854.22045
  22667195.660   119117295.85508  22667192.740    92818834.15047
  21771933.160   114412291.32209  21771930.880    89152428.54248
  23295819.260   124748060.51407  23295820.180    97026269.82406
  19895952.100   106243283.06309  19895953.080    82633677.97806
  20027344.860   106757020.78109  20027349.620    83033262.08807
  23381424.620   124899315.05507  23381431.880    97143954.56206
  20570859.920   110040575.39909  20570859.520    85587086.52108
  20203620.640   108037986.17408  20203622.820    84029636.65208
 15 02 11 00 28 30.0000000  0 13G16G18G21G25G27G29G31R04R09R10R16R19
                                R20
  22881582.340   120243533.40609  22881578.720    93696248.64046
  23639325.480   124225582.90808  23639324.560    96799194.52645
  20917915.300   109924524.51208  20917911.160    85655529.27248
  23550994.040   123761512.95108  23550994.480    96437633.41146
  24019566.340   126223689.34208  24019566.880    98356120.03446
  22680550.340   119187475.47409  22680547.600    92873519.52247
  21784822.280   114480024.32609  21784820.040    89205207.48548
  23281464.740   124671192.84008  23281465.720    96966483.89106
  19909747.100   106316947.14009  19909747.960    82690972.23506
  20017260.240   106703264.29209  20017265.000    82991451.48707
  23406938.780   125035603.33607  23406945.960    97249956.06206
  20582978.160   110105399.11709  20582977.620    85637504.96808
  20199219.620   108014451.67508  20199221.820    84011332.04808
 15 02 11 00 29  0.0000000  0 14G16G18G21G25G27G29G31R04R09R10R16R19
                                R20R21
  22865300.400   120157971.17809  22865296.780    93629576.78746
  23624700.700   124148729.44308  23624699.620    96739308.94945
  20918749.080   109928906.42109  20918745.020    85658943.75048
  23567972.220   123850733.93108  23567972.680    96507156.16946
  24005486.100   126149697.29707  24005486.500    98298463.89747
  22693915.740   119257711.27509  22693913.040    92928248.70147
  21797787.600   114548156.34709  21797785.120    89258297.34748
  23267184.460   124594722.39907  23267185.180    96907006.93306
  19923667.420   106391280.57809  19923668.120    82748787.12106
  20007314.800   106650249.78009  20007319.620    82950217.98707
  23432473.140   125172000.86307  23432480.560    97356042.38506
  20595130.180   110170403.71909  20595129.460    85688064.10108
  20194890.280   107991300.52408  20194892.400    83993325.62008
  23296240.720   124662895.41207  23296242.600    96960041.39006
 15 02 11 00 29 30.0000000  0 14G16G18G21G25G27G29G31R04R09R10R16R19
                                R20R21
  22849039.980   120072522.36208  22849036.380    93562993.30646
  23610092.980   124071965.99008  23610091.560    96679493.49445
  20919665.960   109933724.82309  20919661.940    85662698.35848
  23584991.940   123940172.44108  23584992.240    96576848.42446
  23991424.580   126075804.49808  23991425.160    98240885.23046
  22707291.560   119328001.36809  22707288.780    92983020.22147
  21810828.420   114616684.10309  21810825.480    89311695.56848
  23252979.060   124518652.85908  23252979.740    96847841.72307
  19937712.340   106466279.57409  19937712.940    82807119.65106
  19997509.020   106597979.78509  19997513.900    82909563.54607
  23458027.060   125308503.18307  23458034.800    97462210.27606
  20607315.440   110235586.23409  20607314.600    85738761.60808
  20190632.260   107968531.11608  20190634.360    83975616.08508
  23280820.920   124580381.59308  23280823.220    96895864.04106
 15 02 11 00 30  0.0000000  0 13G16G18G21G25G27G29G31R04R09R10R16R19
                                R20
  22832801.600   119987189.40409  22832798.060    93496500.11346
  23595502.940   123995295.67408  23595501.360    96619750.62845
  20920665.860   109938979.07009  20920661.800    85666792.58348
  23602053.100   124029827.87008  23602053.600    96646709.73846
  23977382.200   126002011.67208  23977382.980    98183384.36746
  22720677.740   119398346.36809  22720675.260    93037834.46247
  21823944.260   114685605.66709  21823940.800    89365400.65048
  23238849.300   124442988.77307  23238850.260    96788991.93606
  19951881.480   106541941.72109  19951882.060    82865967.96906
  19987843.520   106546457.36709  19987848.480    82869490.55207
  23483600.100   125445107.05107  23483607.960    97568457.15406
  20619533.620   110300945.30909  20619532.900    85789596.43208
  20186445.460   107946142.77108  20186447.600    83958202.94008
 15 02 11 00 30 30.0000000  0 13G16G18G21G25G27G29G31R04R09R10R16R19
                                R20
  22816585.160   119901971.51309  22816581.580    93430096.56346
  23580930.520   123918718.47508  23580928.680    96560080.27045
  20921748.240   109944666.54308  20921744.120    85671224.38348
  23619154.720   124119696.67808  23619155.340    96716737.31546
  23963358.360   125928316.11108  23963359.360    98125959.29746
  22734073.920   119468742.90809  22734071.180    93092688.92447
  21837134.020   114754916.05409  21837130.140    89419408.71348
  23224795.540   124367731.87907  23224796.780    96730458.75306
  19966173.780   106618261.72909  19966174.360    82925327.95006
  19978318.380   106495683.32009  19978323.400    82829999.62907
  23509191.020   125581806.15807  23509198.880    97674778.03805
  20631783.840   110366475.92909  20631783.220    85840564.68608
  20182329.140   107924131.51408  20182331.360    83941083.09608
 15 02 11 00 31  0.0000000  0 13G16G18G21G25G27G29G31R04R09R10R16R19
                                R20
  22800391.980   119816875.51009  22800388.300    93363788.00646
  23566377.180   123842242.24808  23566375.520    96500488.61445
  20922913.820   109950791.34208  20922909.640    85675996.96248
  23636297.700   124209783.01508  23636298.380    96786934.44146
  23949353.940   125854722.88608  23949354.840    98068613.99146
  22747480.680   119539195.74909  22747477.800    93147587.21647
  21850398.100   114824617.95309  21850393.960    89473721.85348
  23210819.280   124292891.24307  23210820.860    96672249.48806
  19980589.640   106695241.98009  19980590.340    82985201.45806
  19968935.220   106445665.84809  19968940.240    82791097.15507
  23534799.800   125718602.51007  23534807.800    97781174.55405
  20644066.720   110432181.23109  20644066.120    85891668.80408
  20178284.240   107902501.54108  20178286.400    83924259.79208
 15 02 11 00 31 30.0000000  0 14G16G18G21G25G27G29G31R04R09R10R16R19
                                R20R21
  22784221.440   119731898.37309  22784217.680    93297572.06346
  23551842.560   123765864.71908  23551841.240    96440973.89645
  20924161.340   109957346.97009  20924157.140    85681105.25248
  23653480.820   124300080.90708  23653481.300    96857296.36946
  23935368.000   125781227.05608  23935368.940    98011344.57046
  22760897.080   119609699.13909  22760894.380    93202524.89647
  21863735.040   114894703.58909  21863730.820    89528334.00348
  23196920.820   124218466.13707  23196921.660    96614363.24306
  19995127.680   106772874.45209  19995128.420    83045582.24606
  19959693.560   106396402.50109  19959698.580    82752781.21807
  23560425.180   125855487.11507  23560433.380    97887639.77606
  20656380.900   110498054.20309  20656380.340    85942903.33108
  20174309.440   107881246.19408  20174311.540    83907727.87508
  23219563.780   124252577.31807  23219566.860    96640905.38606
 15 02 11 00 32  0.0000000  0 14G16G18G21G25G27G29G31R04R09R10R16R19
                                R20R21
  22768073.000   119647037.61709  22768069.220    93231446.80947
  23537326.640   123689584.08808  23537325.420    96381534.61745
  20925489.960   109964328.86509  20925485.700    85686545.69648
  23670703.220   124390584.95408  23670703.400    96927818.96246
  23921399.860   125707824.19708  23921400.920    97954147.56447
  22774322.260   119680248.75209  22774319.580    93257498.59847
  21877143.580   114965166.31309  21877139.460    89583239.99148
  23183100.120   124144456.30308  23183100.400    96556800.09906
  20009786.540   106851151.78109  20009787.240    83106464.59106
  19950593.100   106347891.64609  19950598.080    82715050.55307
  23586065.500   125992451.93508  23586074.120    97994167.22606
  20668725.200   110564088.19909  20668724.680    85994263.09808
  20170403.660   107860360.03308  20170405.780    83891483.09708
  23204355.600   124171190.29807  23204358.380    96577604.43306
 15 02 11 00 32 30.0000000  0 13G16G18G21G25G27G29G31R04R09R10R16R19
                                R20
  22751949.260   119562306.86209  22751945.540    93165422.86446
  23522832.040   123613414.85808  23522830.600    96322182.15145
  20926901.760   109971748.12108  20926897.500    85692326.94548
  23687966.860   124481306.12608  23687967.140    96998510.68446
  23907451.800   125634526.36608  23907452.820    97897032.42646
  22787758.360   119750855.92909  22787755.460    93312517.18347
  21890625.540   115036015.59209  21890621.620    89638447.19748
  23169359.980   124070878.27708  23169359.780    96499572.70306
  20024567.820   106930083.13009  20024568.560    83167855.62306
  19941636.620   106300148.49309  19941641.620    82677916.98507
  23611722.660   126129505.75807  23611731.700    98100763.98106
  20681101.680   110630293.64209  20681101.080    86045756.21108
  20166568.960   107839854.14208  20166571.060    83875534.07108
 15 02 11 00 33  0.0000000  0 12G16G18G21G25G27G29G31R04R09R10R19R20
  22735848.900   119477698.97809  22735845.220    93099494.65347
  23508357.680   123537351.26508  23508356.120    96262912.01545
  20928394.740   109979594.19408  20928390.560    85698440.76848
  23705269.940   124572234.17008  23705270.060    97069363.64246
  23893522.020   125561324.26308  23893522.820    97839991.90146
  22801203.500   119821511.10309  22801200.620    93367573.11447
  21904178.760   115107239.89309  21904175.180    89693946.62648
  23155699.520   123997726.46407  23155699.320    96442676.87406
  20039469.240   107009656.28009  20039470.100    83229745.82806
  19932822.800   106253165.80909  19932827.700    82641374.89307
  20693508.140   110696658.86409  20693507.280    86097373.60208
  20162803.360   107819717.60408  20162805.380    83859872.32408
 15 02 11 00 33 30.0000000  0 12G16G18G21G25G27G29G31R04R09R10R19R20
  22719772.800   119393218.53109  22719769.160    93033665.74847
  23493904.480   123461398.29808  23493902.580    96203728.06145
  20929969.320   109987869.23008  20929965.300    85704888.85048
  23722612.800   124663370.91108  23722612.940    97140379.20446
  23879611.000   125488220.82908  23879611.520    97783028.16546
  22814658.380   119892216.63509  22814655.300    93422668.31747
  21917803.280   115178839.16009  21917800.200    89749738.24048
  23142119.800   123925008.22908  23142119.200    96386118.20705
  20054490.740   107089871.00709  20054491.820    83292135.03806
  19924152.900   106206950.02209  19924157.700    82605429.28107
  20705944.580   110763184.82209  20705943.580    86149116.01208
  20159107.200   107799952.38308  20159109.120    83844499.38408
 15 02 11 00 34  0.0000000  0 13G16G18G21G25G27G29G31R04R09R10R19R20
                                R21
  22703721.100   119308866.27809  22703717.540    92967936.73247
  23479472.560   123385557.85208  23479470.480    96144631.77745
  20931625.260   109996571.13509  20931621.260    85711669.56348
  23739994.920   124754714.07108  23739995.420    97211555.58446
  23865718.480   125415214.78408  23865718.920    97726140.35647
  22828122.500   119962970.58509  22828119.280    93477801.28047
  21931498.480   115250809.73009  21931495.900    89805819.17748
  23128621.860   123852726.35008  23128621.100    96329899.04506
  20069631.580   107170722.99309  20069632.800    83355019.89906
  19915626.980   106161501.98009  19915631.820    82570080.80407
  20718410.320   110829868.39809  20718409.360    86200981.00708
  20155479.900   107780555.93808  20155481.840    83829413.27508
  23143946.840   123847933.27207  23143949.420    96326174.15006
 15 02 11 00 34 30.0000000  0 13G16G18G21G25G27G29G31R04R09R10R19R20
                                R21
  22687695.420   119224650.93509  22687691.800    92902314.38746
  23465063.540   123309838.64308  23465061.460    96085629.94945
  20933363.500   110005705.14609  20933359.440    85718786.97648
  23757417.260   124846269.19608  23757417.840    97282897.19545
  23851845.520   125342312.49107  23851846.060    97669333.47947
  22841596.940   120033779.26109  22841594.000    93532976.84347
  21945265.280   115323155.62709  21945262.960    89862192.57148
  23115207.520   123780891.68308  23115206.540    96274027.58106
  20084892.540   107252215.93509  20084893.820    83418403.26506
  19907246.840   106116831.57109  19907251.760    82535337.14107
  20730906.260   110896714.08609  20730905.420    86252972.07908
  20151922.620   107761533.81508  20151924.620    83814618.29208
  23128950.460   123767688.92708  23128954.000    96263761.97006
 15 02 11 00 35  0.0000000  0 12G16G18G21G25G27G29G31R04R09R10R19R20
  22671694.940   119140568.10009  22671691.320    92836795.29946
  23450676.900   123234237.92408  23450674.980    96026720.45845
  20935182.780   110015265.04309  20935178.580    85726236.25948
  23774878.560   124938029.33808  23774879.540    97354398.47546
  23837991.160   125269508.34208  23837991.840    97612603.05546
  22855080.600   120104636.48609  22855077.780    93588190.24647
  21959102.100   115395868.50209  21959099.880    89918851.93348
  23101876.040   123709502.06308  23101874.840    96218502.36905
  20100272.000   107334340.71509  20100273.200    83482278.08106
  19899011.940   106072935.13309  19899016.880    82501195.46707
  20743431.080   110963713.96809  20743430.280    86305083.07708
  20148433.900   107742878.33708  20148435.980    83800108.49208
 15 02 11 00 35 30.0000000  0 12G16G18G21G25G27G29G31R04R09R10R19R20
  22655720.060   119056619.66009  22655716.440    92771380.94447
  23436313.180   123158758.01808  23436311.400    95967905.11345
  20937082.740   110025248.98308  20937078.420    85734015.96348
  23792378.680   125029993.00608  23792379.840    97426058.45146
  23824155.480   125196801.94908  23824155.960    97555948.69046
  22868573.480   120175541.78609  22868570.580    93643441.12347
  21973008.340   115468945.26409  21973005.980    89975794.84248
  23088628.300   123638561.64607  23088627.540    96163326.48107
  20115769.240   107417094.00109  20115770.320    83546641.73006
  19890922.660   106029814.90309  19890927.600    82467657.50607
  20755984.340   111030865.62009  20755983.620    86357312.13408
  20145013.560   107724588.37508  20145015.740    83785882.98808
 15 02 11 00 36  0.0000000  0 12G16G18G21G25G27G29G31R04R09R10R19R20
  22639771.540   118972809.54509  22639767.940    92706074.36947
  23421973.420   123083403.56508  23421971.660    95909187.49545
  20939063.600   110035658.33109  20939059.220    85742127.14148
  23809917.900   125122161.38808  23809918.580    97497877.91345
  23810338.860   125124195.36008  23810339.020    97499372.09547
  22882075.580   120246496.21009  22882072.960    93698730.23447
  21986983.900   115542385.68809  21986981.320    90033021.11848
  23075465.520   123568076.52608  23075465.740    96108504.79607
  20131384.000   107500474.73909  20131384.840    83611493.38606
  19882979.920   105987475.64309  19882984.880    82434726.95707
  20768566.140   111098169.39209  20768565.440    86409659.50408
  20141661.700   107706664.73308  20141663.920    83771942.36408
 15 02 11 00 36 30.0000000  0 13G16G18G21G25G27G29G31R04R09R10R19R20
                                R21
  22623848.940   118889135.79109  22623845.340    92640874.05847
  23407657.460   123008173.36608  23407655.620    95850566.71445
  20941124.500   110046488.26809  20941120.060    85750566.05148
  23827495.120   125214529.44108  23827495.660    97569852.94946
  23796540.500   125051684.59108  23796540.160    97442870.27946
  22895586.300   120317496.12509  22895583.980    93754054.77547
  22001027.460   115616182.88209  22001024.560    90090525.38848
  23062387.920   123498046.57708  23062388.340    96054037.05107
  20147114.820   107584475.66909  20147115.440    83676827.41906
  19875183.420   105945916.08109  19875188.440    82402402.85407
  20781175.280   111165619.24009  20781174.580    86462120.49508
  20138377.320   107689102.04908  20138379.580    83758282.51108
  23069392.460   123448986.68807  23069393.680    96015877.84206
 15 02 11 00 37  0.0000000  0 13G16G18G21G25G27G29G31R04R09R10R19R20
                                R21
  22607952.920   118805601.69709  22607949.280    92575782.55447
