     2.11           OBSERVATION DATA    G                   RINEX VERSION / TYPE
SPIDER V4,0,0,3554                      2015 03 11 23:59    PGM / RUN BY / DATE 
EECH                                                        MARKER NAME         
EECH                                                        MARKER NUMBER       
                                                            OBSERVER / AGENCY   
462240              LEICA GRX1200PRO    8.20/2.127          REC # / TYPE / VERS 
103299              LEIAT504                                ANT # / TYPE        
  5154282.7593   121017.3605  3742656.9418                  APPROX POSITION XYZ 
        0.0590        0.0000        0.0000                  ANTENNA: DELTA H/E/N
     1     1                                                WAVELENGTH FACT L1/2
     4    C1    L1    P2    L2                              # / TYPES OF OBSERV 
    30.000                                                  INTERVAL            
  2015    02    11    08    04    0.0000000     GPS         TIME OF FIRST OBS   
  2015    02    11    14    40    0.0000000     GPS         TIME OF LAST OBS    
    16                                                      LEAP SECONDS        
    19                                                      # OF SATELLITES     
   G 1   222   222   222   222                              PRN / # OF OBS      
   G 2   537   537   537   537                              PRN / # OF OBS      
   G 3   327   327   326   326                              PRN / # OF OBS      
   G 4   100   100   100   100                              PRN / # OF OBS      
   G 5   370   370   369   369                              PRN / # OF OBS      
   G 6   566   566   566   566                              PRN / # OF OBS      
   G 7   611   611   611   611                              PRN / # OF OBS      
   G 9   646   646   646   646                              PRN / # OF OBS      
   G10   628   628   628   628                              PRN / # OF OBS      
   G11   121   121   121   121                              PRN / # OF OBS      
   G13   297   297   297   297                              PRN / # OF OBS      
   G15    59    59    59    59                              PRN / # OF OBS      
   G17   281   281   281   281                              PRN / # OF OBS      
   G20   673   673   671   671                              PRN / # OF OBS      
   G23   425   425   418   418                              PRN / # OF OBS      
   G28   229   229   229   229                              PRN / # OF OBS      
   G30   518   518   518   518                              PRN / # OF OBS      
   G31    34    34    34    34                              PRN / # OF OBS      
   G32   105   105   105   105                              PRN / # OF OBS      
BIT 2 OF LLI FLAGS DATA COLLECTED UNDER A/S CONDITION       COMMENT             
SNR is mapped to RINEX snr flag value [2-9]                 COMMENT             
Lx:     = 25dBHz -> 1; 26-27dBHz -> 2; 28-31dBHz -> 3       COMMENT             
       32-35dBHz -> 4; 36-38dBHz -> 5; 39-41dBHz -> 6       COMMENT             
       42-44dBHz -> 7; 45-48dBHz -> 8; >=49dBHz -> 9        COMMENT             
                                                            END OF HEADER       
 15 02 11 08 04  0.0000000  0  9G01G03G04G09G11G17G20G23G32
  20646791.920   108499633.75209  20646796.580    84545192.20949
  20480438.940   107625439.28209  20480442.640    83863990.75749
  22279955.340   117081938.02708  22279958.240    91232685.95647
  23301349.320   122449428.71907  23301355.360    95415167.40747
  21467155.900   112810669.45808  21467157.220    87904423.80848
  22158637.260   116444405.83708  22158638.860    90735893.79748
  23321024.620   122552811.79607  23321027.100    95495711.23245
  21383957.740   112373453.56509  21383957.380    87563722.06848
  22449270.620   117971705.75308  22449273.280    91926011.47747
 15 02 11 08 04 30.0000000  0  9G01G03G04G09G11G17G20G23G32
  20651751.300   108525695.55909  20651755.940    84565500.08749
  20482504.560   107636293.93609  20482508.240    83872448.92949
  22294302.760   117157333.87308  22294305.600    91291435.91047
  23281176.000   122343417.41707  23281182.020    95332561.27646
  21481666.740   112886924.40309  21481668.140    87963843.18848
  22149077.020   116394166.62008  22149078.700    90696746.35848
  23306388.780   122475899.83607  23306391.400    95435779.87745
  21371434.280   112307642.33409  21371433.960    87512440.59748
  22464087.800   118049570.37308  22464090.340    91986685.13947
 15 02 11 08 05  0.0000000  0  9G01G03G04G09G11G17G20G23G32
  20656779.940   108552121.02309  20656784.480    84586091.33649
  20484618.760   107647404.43409  20484622.520    83881106.46049
  22308699.500   117232989.19708  22308702.320    91350388.04347
  23261039.680   122237600.36007  23261045.580    95250106.50046
  21496246.220   112963539.54309  21496247.660    88023543.23648
  22139613.460   116344435.81308  22139615.280    90657995.07948
  23291780.660   122399133.91507  23291783.540    95375962.29245
  21358988.840   112242240.93709  21358988.580    87461478.48048
  22478919.360   118127510.65508  22478921.740    92047417.76147
 15 02 11 08 05 30.0000000  0  9G01G03G04G09G11G17G20G23G32
  20661876.940   108578906.00409  20661881.440    84606962.73649
  20486780.540   107658765.24309  20486784.380    83889959.04349
  22323144.560   117308898.83608  22323147.440    91409538.33847
  23240939.860   122131975.16107  23240945.680    95167801.22046
  21510893.040   113040508.39809  21510894.480    88083518.90548
  22130246.160   116295210.80008  22130248.000    90619637.93348
  23277199.440   122322509.32007  23277202.400    95316254.82445
  21346620.800   112177246.21709  21346620.580    87410833.25848
  22493764.200   118205520.82608  22493766.400    92108204.84647
 15 02 11 08 06  0.0000000  0  9G01G03G04G09G11G17G20G23G32
  20667043.160   108606054.93109  20667047.700    84628117.71349
  20488990.540   107670379.45709  20488994.420    83899009.08249
  22337638.600   117385066.21908  22337641.600    91468889.47347
  23220877.720   122026548.11107  23220883.500    95085650.34146
  21525607.720   113117834.01409  21525609.120    88143772.56248
  22120976.260   116246497.07308  22120977.940    90581679.18248
  23262646.020   122246030.22707  23262648.880    95256660.74045
  21334331.260   112112664.10109  21334331.020    87360509.54148
  22508622.880   118283603.48008  22508625.020    92169048.40747
 15 02 11 08 06 30.0000000  0  9G01G03G04G09G11G17G20G23G32
  20672278.380   108633566.09809  20672282.880    84649554.96249
  20491248.360   107682244.02109  20491252.140    83908254.19549
  22352181.320   117461488.57108  22352184.360    91528439.29647
  23200853.420   121921319.37907  23200859.060    95003653.98446
  21540389.600   113195512.88409  21540390.940    88204301.48548
  22111803.680   116198294.32208  22111805.260    90544118.60648
  23248119.900   122169694.85207  23248122.700    95197178.66245
  21322119.940   112048493.23109  21322119.700    87310506.27948
  22523494.740   118361755.31908  22523496.980    92229945.87447
 15 02 11 08 07  0.0000000  0  9G01G03G04G09G11G17G20G23G32
  20677582.980   108661441.84909  20677587.500    84671276.30149
  20493554.100   107694359.97609  20493557.700    83917695.18449
  22366772.900   117538166.98208  22366775.900    91588188.64047
  23180867.640   121816293.22807  23180873.220    94921815.47246
  21555238.780   113273545.55509  21555240.100    88265106.08948
  22102729.060   116150606.48608  22102730.680    90506959.24948
  23233621.620   122093505.10407  23233624.140    95137810.06645
  21309987.640   111984737.54309  21309987.320    87260826.52648
  22538379.880   118439977.01808  22538382.280    92290897.77447
 15 02 11 08 07 30.0000000  0  9G01G03G04G09G11G17G20G23G32
  20682956.400   108689679.35409  20682960.920    84693279.52549
  20495906.900   107706723.14609  20495910.380    83927328.81749
  22381412.560   117615097.72408  22381415.440    91648134.60847
  23160920.260   121711468.63407  23160925.720    94840134.02146
  21570154.420   113351927.25709  21570155.700    88326182.69148
  22093751.900   116103431.67808  22093753.760    90470199.65648
  23219150.560   122017458.23507  23219152.900    95078552.82345
  21297934.000   111921395.41609  21297933.620    87211469.03048
  22553277.480   118518263.99308  22553280.060    92351900.53847
 15 02 11 08 08  0.0000000  0 10G01G03G04G09G11G17G20G23G31G32
  20688399.080   108718280.51009  20688403.520    84715566.11849
  20498306.740   107719334.15109  20498310.200    83937155.56449
  22396100.240   117692281.32808  22396103.040    91708277.61047
  23141011.980   121606849.39307  23141017.260    94758612.57646
  21585136.520   113430658.08009  21585137.740    88387531.32748
  22084873.080   116056773.31408  22084875.060    90433842.48548
  23204706.800   121941555.68007  23204709.180    95019408.01446
  21285959.520   111858469.50409  21285959.140    87162435.86048
  24242334.640   127394327.79304  24242337.580    99268311.26644
  22568187.540   118596616.62508  22568190.300    92412954.46347
 15 02 11 08 08 30.0000000  0  9G01G03G04G09G11G17G20G23G32
  20693912.660   108747254.31309  20693917.060    84738143.08349
  20500755.080   107732200.68209  20500758.640    83947181.42849
  22410837.480   117769726.01808  22410840.260    91768624.04447
  23121144.780   121502446.40607  23121149.860    94677259.63346
  21600186.340   113509744.80809  21600187.500    88449157.29048
  22076094.540   116010641.55408  22076096.440    90397895.65948
  23190292.000   121865806.21907  23190294.500    94960382.48945
  21274066.160   111795970.05109  21274065.840    87113734.99248
  22583111.480   118675042.25908  22583114.420    92474065.28747
 15 02 11 08 09  0.0000000  0  9G01G03G04G09G11G17G20G23G32
  20699495.140   108776590.09209  20699499.500    84761002.10949
  20503249.740   107745310.79209  20503253.440    83957397.09449
  22425622.080   117847419.85808  22425624.980    91829164.63947
  23101316.940   121398250.90007  23101321.840    94596068.36146
  21615301.540   113589175.24809  21615302.620    88511051.07748
  22067414.460   115965026.90308  22067416.120    90362351.77148
  23175904.240   121790198.88407  23175906.880    94901467.70745
  21262252.160   111733887.28809  21262251.900    87065358.82148
  22598046.900   118753528.59708  22598050.020    92535223.39947
 15 02 11 08 09 30.0000000  0  9G01G03G04G09G11G17G20G23G32
  20705147.040   108806290.80809  20705151.380    84784145.48949
  20505791.140   107758666.18709  20505794.900    83967803.89349
  22440454.540   117925364.97408  22440457.520    91889901.03647
  23081529.420   121294267.71307  23081534.180    94515042.52646
  21630482.480   113668950.94309  21630483.500    88573213.89948
  22058833.660   115919933.90608  22058835.160    90327214.35248
  23161544.080   121714736.50907  23161546.880    94842665.90346
  21250518.300   111672225.23709  21250518.060    87017310.47248
  22612994.240   118832077.10708  22612997.400    92596429.96047
 15 02 11 08 10  0.0000000  0 10G01G03G04G09G11G17G20G23G31G32
  20710867.100   108836349.73709  20710871.440    84807568.00149
  20508377.800   107772258.87209  20508381.460    83978395.58449
  22455333.280   118003553.45408  22455336.360    91950827.06546
  23061781.440   121190492.01107  23061786.080    94434178.37946
  21645727.420   113749062.90709  21645728.360    88635638.75148
  22050350.880   115875356.95908  22050352.560    90292479.06548
  23147210.320   121639412.22907  23147213.140    94783971.70445
  21238863.620   111610978.67909  21238863.300    86969585.88748
  24238173.480   127372459.21004  24238174.940    99251268.61944
  22627951.840   118910679.46608  22627954.940    92657678.49447
 15 02 11 08 10 30.0000000  0 10G01G03G04G09G11G17G20G23G31G32
  20716658.600   108866784.08109  20716662.880    84831283.04349
  20511012.720   107786104.80009  20511016.220    83989184.60049
  22470261.340   118082001.43808  22470264.520    92011955.29247
  23042076.720   121086942.92407  23042081.280    94353490.81246
  21661039.200   113829526.47309  21661040.100    88698337.57548
  22041969.800   115831314.61908  22041971.700    90258160.35748
  23132906.160   121564243.05607  23132908.960    94725398.35345
  21227291.400   111550165.49109  21227291.000    86922198.98748
  24237375.500   127368267.09305  24237377.060    99248002.07043
  22642922.580   118989351.25408  22642925.580    92718981.12147
 15 02 11 08 11  0.0000000  0 10G01G03G04G09G11G17G20G23G31G32
  20722519.880   108897585.11309  20722524.220    84855283.80649
  20513693.880   107800193.98909  20513697.300    84000163.16249
  22485237.040   118160699.11508  22485240.180    92073278.08846
  23022413.920   120983613.57407  23022418.460    94272974.47646
  21676415.840   113910331.21709  21676416.700    88761302.26148
  22033689.120   115787799.22608  22033690.940    90224252.25248
  23118629.760   121489219.84707  23118632.520    94666938.73446
  21215800.120   111489778.21509  21215799.700    86875143.96948
  24236674.680   127364586.50505  24236677.280    99245134.07441
  22657904.680   119068082.34508  22657907.480    92780329.95947
 15 02 11 08 11 30.0000000  0 10G01G03G04G09G11G17G20G23G31G32
  20728450.940   108928753.04109  20728455.400    84879570.47549
  20516421.100   107814525.45809  20516424.540    84011330.51849
  22500260.240   118239645.61008  22500263.280    92134794.76847
  23002793.320   120880506.18707  23002797.980    94192631.09247
  21691857.040   113991475.64408  21691857.980    88824531.63347
  22025509.080   115744812.55808  22025510.720    90190756.15748
  23104381.040   121414342.75607  23104383.820    94608592.98246
  21204390.000   111429817.87109  21204389.600    86828421.63248
  24236071.480   127361418.21805  24236074.680    99242665.23142
  22672897.860   119146871.41508  22672900.400    92841723.96447
 15 02 11 08 12  0.0000000  0 10G01G03G04G09G11G17G20G23G31G32
  20734452.120   108960289.22909  20734456.560    84904144.08949
  20519194.360   107829099.30609  20519197.980    84022686.74149
  22515330.980   118318841.38808  22515333.880    92196505.69847
  22983215.500   120777623.95107  22983220.320    94112463.13947
  21707362.760   114072959.23608  21707363.860    88888025.28447
  22017430.100   115702356.81608  22017431.580    90157673.76148
  23090160.240   121339612.91007  23090163.220    94550361.96445
  21193061.560   111370286.98209  21193061.220    86782033.92448
  24235566.060   127358764.00205  24235569.640    99240596.97843
  22687901.940   119225718.23508  22687904.480    92903162.97147
 15 02 11 08 12 30.0000000  0 10G01G03G04G09G11G17G20G23G31G32
  20740523.500   108992194.50709  20740527.920    84929005.30149
  20522013.660   107843915.23509  20522017.460    84034231.59649
  22530448.980   118398285.90808  22530451.700    92258410.44747
  22963681.040   120674969.66008  22963686.060    94032472.82346
  21722932.800   114154781.02408  21722934.100    88951782.46447
  22009452.340   115660433.48108  22009453.820    90125006.22148
  23075967.580   121265031.17107  23075970.660    94492246.35446
  21181815.240   111311187.28809  21181814.840    86735982.22448
  24235158.740   127356624.86106  24235162.520    99238930.14244
  22702916.760   119304622.24908  22702919.620    92964646.53847
 15 02 11 08 13  0.0000000  0 10G01G03G04G09G11G17G20G23G31G32
  20746664.340   109024465.01709  20746668.740    84954151.11549
  20524878.120   107858968.15809  20524881.920    84045961.12049
  22545613.380   118477974.59008  22545615.980    92320505.45747
  22944189.520   120572541.36008  22944194.740    93952658.61047
  21738566.080   114236935.10308  21738567.560    89015798.57647
  22001575.680   115619041.16908  22001577.100    90092752.45748
  23061802.420   121190593.40407  23061805.320    94434242.93645
  21170650.440   111252516.12509  21170650.000    86690264.43748
  24234849.060   127354997.49706  24234852.900    99237662.09743
  22717941.520   119383578.17108  22717944.660    93026170.56447
 15 02 11 08 13 30.0000000  0 10G01G03G04G09G11G17G20G23G31G32
  20752875.920   109057106.88809  20752880.300    84979586.30249
  20527788.720   107874263.01009  20527792.360    84057879.15949
  22560825.080   118557912.44808  22560827.720    92382794.62046
  22924742.580   120470347.13407  22924747.840    93873026.78547
  21754263.500   114319425.82308  21754265.060    89080077.00847
  21993801.340   115578186.59708  21993802.720    90060917.70148
  23047666.000   121116305.50107  23047668.460    94376356.27845
  21159568.500   111194280.49709  21159568.100    86644886.03248
  24234637.800   127353888.18805  24234641.860    99236797.72143
  22732977.080   119462590.64308  22732980.460    93087738.66947
 15 02 11 08 14  0.0000000  0 10G01G03G04G09G11G17G20G23G31G32
  20759157.860   109090118.32509  20759162.180    85005309.46649
  20530744.820   107889796.86309  20530748.320    84069983.42649
  22576083.620   118638096.54808  22576086.400    92445275.67246
  22905340.260   120368387.07308  22905345.420    93793577.45647
  21770024.380   114402249.52808  21770025.920    89144614.90047
  21986129.020   115537868.70108  21986130.540    90029501.13648
  23033557.700   121042165.57107  23033559.920    94318584.92145
  21148569.280   111136479.72109  21148568.980    86599846.46448
  24234524.760   127353296.32705  24234529.320    99236336.47144
  22748022.820   119541656.47008  22748026.320    93149348.32047
 15 02 11 08 14 30.0000000  0 10G01G03G04G09G11G17G20G23G31G32
  20765510.000   109123498.73309  20765514.260    85031320.14149
  20533746.040   107905567.95509  20533749.440    84082272.55549
  22591388.760   118718525.26608  22591391.620    92507947.32246
  22885982.780   120266662.55908  22885987.820    93714311.66847
  21785848.240   114485403.88508  21785849.720    89209410.44647
  21978559.140   115498088.96108  21978560.820    89998503.92348
  23019477.280   120968172.93507  23019479.600    94260928.33046
  21137652.900   111079114.16709  21137652.720    86555146.03448
  24234510.180   127353221.71305  24234514.680    99236278.34142
  22763078.320   119620773.60408  22763081.920    93210997.94446
 15 02 11 08 15  0.0000000  0 10G01G03G04G09G11G17G20G23G31G32
  20771931.780   109157245.56209  20771936.140    85057616.33349
  20536791.600   107921572.61209  20536795.040    84094743.68249
  22606739.760   118799195.16808  22606742.740    92570806.92747
  22866669.940   120165172.95707  22866674.940    93635228.93047
  21801734.180   114568884.55808  21801735.640    89274460.25847
  21971091.420   115458845.40408  21971093.160    89967924.52948
  23005424.540   120894324.93007  23005426.940    94203384.45945
  21126819.100   111022182.05609  21126818.960    86510783.36548
  24234593.860   127353662.11105  24234597.580    99236621.50041
  22778142.960   119699938.21108  22778146.500    93272684.57847
 15 02 11 08 15 30.0000000  0 10G01G03G04G09G11G17G20G23G31G32
  20778423.880   109191361.91909  20778428.320    85084200.47549
  20539881.960   107937812.84709  20539885.440    84107398.38249
  22622136.960   118880108.25508  22622140.140    92633856.00647
  22847402.700   120063923.49307  22847407.680    93556333.31147
  21817682.320   114652692.42908  21817683.860    89339765.02347
  21963726.600   115420142.36208  21963728.320    89937766.31448
  22991400.160   120820624.52907  22991402.400    94145955.60646
  21116068.720   110965687.90009  21116068.500    86466761.96048
  24234776.320   127354621.06106  24234780.040    99237368.67843
  22793217.100   119779152.08508  22793220.400    93334409.58946
 15 02 11 08 16  0.0000000  0 10G01G03G04G09G11G17G20G23G31G32
  20784986.640   109225849.43809  20784991.120    85111073.83349
  20543017.280   107954289.11709  20543020.800    84120237.00649
  22637580.480   118961264.75508  22637583.780    92697094.77447
  22828181.640   119962917.39907  22828186.720    93477627.33947
  21833692.840   114736827.63608  21833694.340    89405324.85247
  21956465.020   115381982.22308  21956466.720    89908031.12548
  22977404.180   120747073.29507  22977406.060    94088642.97246
  21105402.180   110909634.24109  21105401.800    86423083.79348
  24235058.000   127356100.58406  24235062.360    99238521.52942
  22808300.640   119858415.45908  22808303.660    93396173.17546
 15 02 11 08 16 30.0000000  0 10G01G03G04G09G11G17G20G23G31G32
  20791620.300   109260709.47709  20791624.800    85138237.46949
  20546197.640   107971001.73009  20546201.220    84133259.79249
  22653070.500   119042665.47008  22653073.840    92760523.84546
  22809007.500   119862158.20307  22809012.740    93399113.75847
  21849765.660   114821289.86809  21849767.040    89471139.50847
  21949307.380   115344368.15909  21949308.940    89878721.44948
  22963436.420   120673672.47307  22963438.360    94031447.53646
  21094819.820   110854023.28009  21094819.340    86379750.59148
  24235438.980   127358102.29305  24235443.760    99240081.24744
  22823393.540   119937728.42208  22823396.360    93457975.38546
 15 02 11 08 17  0.0000000  0 10G01G03G04G09G11G17G20G23G31G32
  20798324.740   109295941.77909  20798329.300    85165691.17649
  20549422.720   107987949.33509  20549426.380    84146465.69849
  22668606.760   119124309.02508  22668610.080    92824142.14846
  22789880.700   119761647.59907  22789886.080    93320793.87447
  21865900.300   114906076.97308  21865901.540    89537207.32447
  21942253.860   115307300.72009  21942255.260    89849837.72148
  22949496.820   120600421.65107  22949499.220    93974368.96846
  21084321.800   110798855.90809  21084321.260    86336763.03648
  24235919.480   127360626.57805  24235924.160    99242048.17541
  22838495.420   120017089.26608  22838498.220    93519814.93246
 15 02 11 08 17 30.0000000  0 10G01G03G04G09G11G17G20G23G31G32
  20805099.480   109331543.33509  20805104.060    85193432.61649
  20552691.720   108005127.83609  20552695.480    84159851.53049
  22684188.460   119206191.23008  22684191.600    92887946.41947
  22770801.080   119661384.52307  22770806.500    93242666.86347
  21882095.780   114991184.34008  21882096.980    89603524.66947
  21935303.960   115270778.02409  21935305.240    89821378.46748
  22935585.240   120527317.65207  22935588.120    93917404.81646
  21073907.760   110744129.81109  21073907.160    86294119.33548
  24236498.800   127363670.54705  24236503.200    99244419.99641
  22853605.620   120096493.86408  22853608.400    93581688.57546
 15 02 11 08 18  0.0000000  0 10G01G03G04G09G11G17G20G23G31G32
  20811944.860   109367515.89209  20811949.460    85221463.15349
  20556004.720   108022537.90809  20556008.580    84173417.80849
  22699815.720   119288313.08308  22699818.780    92951937.42246
  22751769.380   119561372.68207  22751774.720    93164735.61447
  21898352.020   115076611.49508  21898353.280    89670091.21347
  21928458.100   115234802.83708  21928459.360    89793345.82948
  22921702.340   120454362.28307  22921705.240    93860556.47746
  21063578.280   110689847.98509  21063577.600    86251821.82448
  24237177.140   127367236.34104  24237181.740    99247198.51643
  22868724.260   120175942.71108  22868727.060    93643596.70446
 15 02 11 08 18 30.0000000  0 10G01G03G04G09G11G17G20G23G31G32
  20818859.500   109403852.46609  20818864.180    85249777.33849
  20559360.260   108040171.54709  20559364.180    84187158.30049
  22715486.920   119370666.21508  22715490.080    93016108.62247
  22732784.620   119461607.09508  22732789.820    93086996.24547
  21914667.420   115162349.62408  21914668.720    89736900.07147
  21921715.260   115199369.37008  21921716.540    89765735.32548
  22907846.560   120381548.39607  22907849.200    93803818.40046
  21053332.160   110636004.30009  21053331.440    86209865.73348
  24237953.860   127371317.61205  24237956.940    99250381.57153
  22883849.800   120255427.52708  22883852.560    93705532.85546
 15 02 11 08 19  0.0000000  0 10G01G03G04G09G11G17G20G23G31G32
  20825846.740   109440570.56009  20825851.460    85278388.80349
  20562761.480   108058045.22909  20562765.440    84201085.82949
  22731205.280   119453267.26408  22731208.620    93080473.01047
  22713850.520   119362107.18108  22713855.540    93009463.90247
  21931045.100   115248414.73208  21931046.380    89803963.72247
  21915079.020   115164496.27208  21915080.340    89738561.47648
  22894020.980   120308893.54807  22894023.440    93747204.25546
  21043172.920   110582617.18609  21043172.180    86168265.41148
  24238832.160   127375931.91105  24238833.020    99253976.92745
  22898985.220   120334964.45907  22898987.940    93767509.63046
 15 02 11 08 19 30.0000000  0 10G01G03G04G09G11G17G20G23G31G32
  20832904.020   109477656.74609  20832908.780    85307287.09249
  20566205.620   108076144.45909  20566209.560    84215189.11449
  22746968.140   119536101.88908  22746971.700    93145019.40046
  22694964.760   119262861.53308  22694969.640    92932129.69247
  21947482.160   115334791.47108  21947483.440    89871270.21147
  21908547.000   115130171.27308  21908548.480    89711814.71248
  22880222.940   120236384.14007  22880225.140    93690703.44646
  21033098.140   110529674.13109  21033097.420    86127011.10948
  24239809.460   127381066.32804  24239810.420    99257977.59143
  22914127.640   120414539.00507  22914130.480    93829515.70846
 15 02 11 08 20  0.0000000  0  9G01G03G04G09G11G17G20G23G32
  20840031.520   109515111.85309  20840036.260    85336472.86449
  20569692.680   108094469.11209  20569696.620    84229468.05449
  22762775.620   119619169.96408  22762779.160    93209747.71646
  22676127.860   119163872.96008  22676132.680    92854995.79247
  21963978.320   115421478.76208  21963979.660    89938818.68647
  21902119.600   115096396.00708  21902121.300    89685496.31648
  22866452.860   120164021.23507  22866454.780    93634316.79345
  21023108.140   110477176.65709  21023107.480    86086104.00948
  22929277.260   120494150.86307  22929280.200    93891550.86546
 15 02 11 08 20 30.0000000  0  9G01G03G04G09G11G17G20G23G32
  20847230.600   109552943.03509  20847235.300    85365951.67849
  20573223.820   108113025.31209  20573227.740    84243927.42049
  22778628.640   119702477.19808  22778632.040    93274662.39546
  22657341.580   119065150.61907  22657346.440    92778069.32747
  21980534.520   115508481.91308  21980535.980    90006613.28347
  21895798.440   115063178.48908  21895800.200    89659612.53448
  22852711.940   120091811.91107  22852713.980    93578049.81646
  21013204.620   110425133.35309  21013203.960    86045550.80248
  22944435.160   120573805.91807  22944438.160    93953619.66746
 15 02 11 08 21  0.0000000  0  9G01G03G04G09G11G17G20G23G32
  20854500.920   109591148.43809  20854505.560    85395722.08549
  20576798.500   108131810.21409  20576802.380    84258564.99649
  22794526.560   119786021.26807  22794530.000    93339761.61546
  22638605.980   118966694.57808  22638610.940    92701350.38247
  21997150.060   115595797.40408  21997151.660    90074651.26347
  21889583.480   115030518.10709  21889585.020    89634162.87048
  22838999.640   120019753.93207  22839002.180    93521900.76246
  21003387.360   110373543.15409  21003386.680    86005350.66548
  22959600.700   120653501.18507  22959603.740    94015719.80646
 15 02 11 08 21 30.0000000  0  9G01G03G04G09G11G17G20G23G32
  20861842.300   109629727.05909  20861846.900    85425783.31049
  20580416.320   108150821.89509  20580420.200    84273379.28049
  22810468.980   119869799.91508  22810472.680    93405043.60046
  22619921.340   118868505.94108  22619926.300    92624839.78247
  22013824.440   115683422.35108  22013826.240    90142930.36847
  21883474.580   114998415.03009  21883476.040    89609147.48048
  22825315.840   119947846.54907  22825318.880    93465869.06246
  20993656.280   110322405.89709  20993655.600    85965503.46448
  22974773.540   120733234.50408  22974776.440    94077849.60546
 15 02 11 08 22  0.0000000  0 10G01G03G04G09G11G17G20G23G31G32
  20869254.000   109668675.30409  20869258.560    85456132.55449
  20584076.400   108170055.75809  20584080.220    84288366.69649
  22826455.340   119953808.72308  22826459.200    93470504.91446
  22601287.320   118770583.03408  22601292.240    92548536.25547
  22030556.720   115771351.45708  22030558.700    90211446.48147
  21877471.240   114966866.57109  21877472.700    89584564.26048
  22811660.140   119876086.18807  22811663.200    93409951.91246
  20984010.940   110271718.98009  20984010.240    85926007.18148
  24246194.600   127414614.62105  24246196.040    99284121.39544
  22989952.780   120813001.26207  22989955.500    94140005.46346
 15 02 11 08 22 30.0000000  0 10G01G03G04G09G11G17G20G23G31G32
  20876735.860   109707992.32809  20876740.400    85486769.16049
  20587778.440   108189510.06209  20587782.200    84303525.87849
  22842485.200   120038045.71708  22842489.020    93536144.05146
  22582704.080   118672927.05008  22582708.880    92472440.71547
  22047346.420   115859582.13308  22047348.480    90280197.59847
  21871573.420   114935872.86108  21871574.900    89560413.32548
  22798032.420   119804472.00007  22798034.980    93354148.67945
  20974451.260   110221482.36809  20974450.560    85886861.78848
  24247771.540   127422897.87406  24247773.400    99290575.80143
  23005137.980   120892799.53307  23005140.680    94202185.85046
 15 02 11 08 23  0.0000000  0 11G01G03G04G06G09G11G17G20G23G31G32
  20884290.000   109747689.35509  20884294.540    85517701.86149
  20591524.420   108209195.09909  20591528.060    84318864.85149
  22858560.440   120122521.16108  22858564.180    93601968.97846
  24660701.700   129592864.81205  24660708.000   100981501.13044
  22564174.160   118575551.22908  22564178.820    92396563.48647
  22064195.280   115948123.43508  22064197.380    90349190.76547
  21865783.420   114905446.12409  21865784.900    89536704.18448
  22784434.560   119733015.06007  22784436.620    93298467.99846
  20964979.540   110171708.19809  20964978.880    85848076.73948
  24249449.580   127431714.87505  24249451.860    99297446.15144
  23020331.000   120972639.32607  23020333.880    94264398.61546
 15 02 11 08 23 30.0000000  0 11G01G03G04G06G09G11G17G20G23G31G32
  20891916.800   109787768.12109  20891921.300    85548932.03149
  20595314.460   108229111.69209  20595318.040    84334384.25949
  22874681.300   120207235.80108  22874684.860    93667980.30846
  24642240.740   129495851.38704  24642247.580   100905906.15943
  22545698.140   118478459.31008  22545702.740    92320907.47947
  22081103.340   116036975.63508  22081105.380    90418426.18247
  21860101.840   114875589.11508  21860103.320    89513438.97948
  22770866.860   119661717.20107  22770868.820    93242911.28246
  20955596.360   110122399.32509  20955595.700    85809654.25348
  24251229.360   127441067.59805  24251231.840    99304733.96044
  23035531.960   121052521.42007  23035535.180    94326644.34046
 15 02 11 08 24  0.0000000  0 11G01G03G04G06G09G11G17G20G23G31G32
  20899612.480   109828208.77209  20899616.920    85580444.18349
  20599144.580   108249239.06909  20599148.200    84350067.92449
  22890843.800   120292168.88508  22890847.180    93734161.84846
  24623773.200   129398803.61705  24623780.420   100830284.48845
  22527272.680   118381633.43408  22527277.340    92245458.78647
  22098066.500   116126117.17708  22098068.440    90487887.06547
  21854524.940   114846282.73608  21854526.480    89490602.84648
  22757325.860   119590558.77607  22757327.940    93187463.21246
  20946298.020   110073536.51109  20946297.420    85771579.34748
  24253107.180   127450936.35706  24253110.140    99312423.87844
  23050737.060   121132425.00707  23050740.520    94388906.84146
 15 02 11 08 24 30.0000000  0 11G01G03G04G06G09G11G17G20G23G31G32
  20907379.000   109869021.83909  20907383.380    85612246.53149
  20603016.620   108269586.90009  20603020.320    84365923.36449
  22907049.620   120377329.96108  22907052.860    93800521.04046
  24605301.580   129301733.23005  24605308.260   100754645.19544
  22508900.260   118285086.17208  22508905.020    92170227.19647
  22115086.380   116215556.58308  22115088.200    90557580.03947
  21849054.980   114817538.46108  21849056.520    89468204.71848
  22743813.600   119519550.25608  22743815.820    93132131.95746
  20937086.700   110025131.40709  20937086.260    85733861.09648
  24255085.520   127461332.34706  24255088.520    99320524.64744
  23065948.140   121212359.46407  23065951.680    94451193.37646
 15 02 11 08 25  0.0000000  0 11G01G03G04G06G09G11G17G20G23G31G32
  20915216.980   109910210.68909  20915221.340    85644341.70149
  20606931.080   108290157.69109  20606934.900    84381952.53449
  22923299.080   120462721.28408  22923302.300    93867059.65846
  24586826.460   129204644.88104  24586832.520   100678991.91344
  22490581.840   118188822.90308  22490586.720    92095216.90647
  22132163.300   116305295.62308  22132165.000    90627506.50447
  21843692.780   114789360.65108  21843694.360    89446247.98548
  22730330.560   119448695.05508  22730332.780    93076920.17246
  20927963.260   109977187.87909  20927962.920    85696502.51548
  24257164.660   127472258.65805  24257167.800    99329038.67944
  23081165.580   121292327.28307  23081169.120    94513505.89446
 15 02 11 08 25 30.0000000  0 11G01G03G04G06G09G11G17G20G23G31G32
  20923126.040   109951773.20609  20923130.480    85676728.03549
  20610887.380   108310948.44009  20610891.320    84398153.10549
  22939591.680   120548339.81408  22939595.020    93933775.30746
  24568347.620   129107537.62705  24568353.520   100603323.89545
  22472317.520   118092843.50408  22472322.440    92020427.80047
  22149296.520   116395330.28008  22149298.100    90697663.32047
  21838438.160   114761748.09108  21838439.800    89424731.69648
  22716876.040   119377990.86507  22716878.140    93021826.04546
  20918927.540   109929705.01009  20918927.240    85659502.88848
  24259344.340   127483713.30406  24259346.560    99337978.35643
  23096388.900   121372325.28508  23096392.200    94575841.93246
 15 02 11 08 26  0.0000000  0 11G01G03G04G06G09G11G17G20G23G31G32
  20931106.380   109993709.86509  20931110.840    85709405.92149
  20614885.480   108331958.86009  20614889.500    84414524.85149
  22955927.440   120634184.98108  22955930.920    94000667.56046
  24549865.540   129010413.36005  24549871.640   100527642.67244
  22454107.760   117997150.55308  22454112.680    91945861.91247
  22166485.740   116485659.33108  22166487.220    90768049.52947
  21833291.600   114734702.66208  21833293.200    89403657.33648
  22703450.120   119307438.71607  22703452.260    92966850.35746
  20909979.820   109882684.15309  20909979.440    85622863.27148
  24261624.700   127495697.11506  24261626.700    99347316.45044
  23111617.980   121452353.00307  23111620.960    94638201.13846
 15 02 11 08 26 30.0000000  0 11G01G03G04G06G09G11G17G20G23G31G32
  20939157.920   110036020.85209  20939162.440    85742375.48849
  20618925.280   108353188.23409  20618929.320    84431067.21049
  22972306.320   120720256.29508  22972309.820    94067736.03346
  24531380.520   128913273.46205  24531386.580   100451949.22245
  22435952.940   117901746.19108  22435957.880    91871520.90848
  22183730.680   116576281.16208  22183731.980    90838663.86647
  21828253.120   114708224.89808  21828254.760    89383025.31448
  22690053.140   119237038.78007  22690055.240    92911993.28246
  20901120.200   109836126.32109  20901119.760    85586584.45148
  24264005.700   127508210.35306  24264008.180    99357067.08344
  23126852.440   121532409.72407  23126855.300    94700582.95346
 15 02 11 08 27  0.0000000  0 11G01G03G04G06G09G11G17G20G23G31G32
  20947280.760   110078706.66409  20947285.340    85775637.12749
  20623006.780   108374636.29109  20623010.720    84447779.96949
  22988728.100   120806553.14708  22988731.580    94134980.24846
  24512892.700   128816119.74505  24512898.860   100376245.04445
  22417853.500   117806632.97908  22417858.440    91797406.76347
  22201031.080   116667194.62108  22201032.180    90909505.44347
  21823322.880   114682315.92308  21823324.540    89362836.51148
  22676685.500   119166791.23908  22676687.380    92857254.95946
  20892348.920   109790032.81509  20892348.460    85550667.44448
  24266487.640   127521253.70805  24266490.940    99367230.83444
  23142092.080   121612495.04107  23142095.100    94762987.03346
 15 02 11 08 27 30.0000000  0 11G01G03G04G06G09G11G17G20G23G31G32
  20955474.660   110121765.82609  20955479.320    85809189.69449
  20627129.500   108396300.74809  20627133.320    84464661.35249
  23005192.400   120893073.11808  23005195.880    94202398.30646
  24494402.040   128718952.05605  24494408.560   100300529.95945
  22399809.560   117711811.45008  22399814.480    91723519.91547
  22218386.260   116758396.22108  22218387.240    90980571.56147
  21818500.880   114656975.65608  21818502.540    89343090.84048
  22663346.780   119096695.25907  22663348.620    92802634.74946
  20883665.840   109744402.96409  20883665.360    85515111.72148
  24269070.180   127534825.50006  24269073.880    99377806.33444
  23157336.700   121692606.53307  23157339.920    94825411.50446
 15 02 11 08 28  0.0000000  0 11G01G03G04G06G09G11G17G20G23G31G32
  20963739.780   110165199.35909  20963744.560    85843033.97349
  20631293.440   108418181.81709  20631297.160    84481711.51949
  23021699.280   120979816.34108  23021702.720    94269990.32846
  24475909.540   128621774.80205  24475917.200   100224777.89245
  22381821.660   117617284.67608  22381826.560    91649862.74847
  22235796.080   116849885.42508  22235797.060    91051861.77246
  21813787.300   114632205.85408  21813789.100    89323789.69248
  22650036.960   119026751.88807  22650038.980    92748133.45646
  20875071.320   109699238.70809  20875070.820    85479918.79548
  24271753.460   127548927.06405  24271757.440    99388794.67945
  23172586.420   121772744.36307  23172589.740    94887856.49546
 15 02 11 08 28 30.0000000  0 10G01G03G04G06G09G11G17G20G23G32
  20972076.240   110209007.73809  20972081.080    85877170.35249
  20635498.540   108440279.31209  20635502.220    84498930.33249
  23038248.500   121066782.31208  23038252.000    94337755.91946
  24457415.080   128524585.88805  24457422.560   100149046.26244
  22363890.280   117523055.25508  22363895.140    91576437.28147
  22253260.400   116941661.03008  22253261.440    91123375.14947
  21809182.500   114608007.96908  21809184.360    89304934.19048
  22636756.180   118956961.70407  22636758.440    92693751.53346
  20866565.640   109654541.19209  20866565.120    85445089.56648
  23187841.220   121852908.15807  23187844.480    94950321.71445
 15 02 11 08 29  0.0000000  0 10G01G03G04G06G09G11G17G20G23G32
  20980483.300   110253187.18409  20980488.120    85911595.87049
  20639743.860   108462588.58709  20639747.580    84516314.16749
  23054839.200   121153966.28008  23054842.740    94405691.37446
  24438918.240   128427384.86805  24438925.680   100073305.19444
  22346015.140   117429121.33608  22346019.920    91503242.06847
  22270778.140   117033717.35908  22270779.320    91195107.27147
  21804685.980   114584378.73908  21804687.740    89286521.80148
  22623503.820   118887320.81007  22623506.240    92639485.92246
  20858148.300   109610307.73509  20858147.740    85410621.93948
  23203100.100   121933093.26207  23203103.000    95012803.56645
 15 02 11 08 29 30.0000000  0 10G01G03G04G06G09G11G17G20G23G32
  20988962.240   110297744.62509  20988967.060    85946315.93749
  20644030.640   108485115.91009  20644034.440    84533867.91049
  23071472.540   121241374.38607  23071475.960    94473801.50146
  24420420.640   128330180.13406  24420428.320    99997561.27345
  22328197.900   117335491.96208  22328202.660    91430284.17447
  22288350.280   117126059.66208  22288351.680    91267062.24747
  21800299.280   114561326.12509  21800300.900    89268558.72248
  22610281.380   118817836.07708  22610283.720    92585341.99146
  20849820.740   109566546.11509  20849820.160    85376521.98548
  23218364.180   122013305.82107  23218366.920    95075306.80245
 15 02 11 08 30  0.0000000  0 10G01G03G04G06G09G11G17G20G23G32
  20997511.660   110342672.76609  20997516.580    85981324.85349
  20648357.400   108507853.27409  20648361.220    84551585.31849
  23088146.880   121328998.19307  23088150.220    94542079.71646
  24401921.320   128232965.85306  24401928.940    99921809.90644
  22310437.660   117242161.89308  22310442.440    91357559.49047
  22305975.140   117218678.86908  22305976.740    91339232.97647
  21796021.140   114538843.75408  21796022.600    89251039.97648
  22597087.500   118748501.12808  22597089.700    92531314.75846
  20841581.640   109523249.35709  20841581.020    85342784.25848
  23233631.840   122093537.73007  23233634.820    95137825.11346
 15 02 11 08 30 30.0000000  0  9G01G03G04G09G11G17G20G23G32
  21006131.500   110387970.71409  21006136.500    86016621.93249
  20652723.820   108530799.06109  20652727.660    84569465.13249
  23104861.860   121416836.07107  23104865.360    94610524.72446
  22292734.640   117149132.27908  22292739.460    91285068.94347
  22323652.140   117311572.17808  22323653.940    91411617.30347
  21791851.360   114516931.26808  21791852.800    89233965.29948
  22583921.840   118679315.01307  22583923.980    92477403.50146
  20833431.060   109480417.82809  20833430.400    85309409.04348
  23248902.780   122173787.30307  23248906.020    95200357.15146
 15 02 11 08 31  0.0000000  0 10G01G03G04G06G09G11G17G20G23G32
  21014825.020   110433655.29709  21014829.960    86052220.28349
  20657133.000   108553969.43709  20657136.800    84587519.95249
  23121620.600   121504903.85508  23121624.260    94679148.89546
  24364920.760   128038521.62905  24364928.240    99770313.44245
  22275092.440   117056421.99208  22275097.260    91212827.22447
  22341384.260   117404754.93208  22341386.220    91484227.16747
  21787793.380   114495606.57308  21787794.840    89217348.63648
  22570787.540   118610294.31307  22570789.700    92423621.15046
  20825372.380   109438069.09509  20825371.700    85276410.04448
  23264180.140   122254070.63107  23264183.520    95262915.48146
 15 02 11 08 31 30.0000000  0 10G01G03G04G06G09G11G17G20G23G32
  21023587.780   110479703.74109  21023592.680    86088102.16149
  20661580.500   108577340.94209  20661584.280    84605731.50049
  23138418.680   121593177.88808  23138422.340    94747933.77646
  24346419.440   127941295.72505  24346427.000    99694553.05845
  22257507.080   116964010.37008  22257511.900    91140818.23147
  22359166.840   117498202.48708  22359168.840    91557043.37047
  21783842.940   114474847.22208  21783844.480    89201172.49648
  22557680.500   118541416.72307  22557682.700    92369950.31946
  20817401.380   109396181.20209  20817400.720    85243770.14849
  23279459.520   122334364.18107  23279462.880    95325481.80146
 15 02 11 08 32  0.0000000  0 10G01G03G04G06G09G11G17G20G23G32
  21032421.640   110526125.79709  21032426.460    86124275.16349
  20666067.940   108600922.67209  20666071.760    84624106.85349
  23155257.780   121681667.03108  23155261.220    94816886.26346
  24327918.120   127844069.21306  24327925.320    99618792.19745
  22239980.820   116871909.15708  22239985.640    91069051.12048
  22377001.380   117591922.99408  22377003.280    91630072.26746
  21780002.220   114454663.92108  21780003.760    89185445.21448
  22544602.620   118472691.96607  22544604.760    92316398.58146
  20809520.040   109354764.46709  20809519.380    85211497.38949
  23294742.640   122414677.08807  23294745.880    95388063.20346
 15 02 11 08 32 30.0000000  0 10G01G03G04G06G09G11G17G20G23G32
  21041326.840   110572922.66009  21041331.580    86160740.22649
  20670595.480   108624715.17909  20670599.320    84642646.45549
  23172137.680   121770371.50407  23172141.080    94886006.55045
  24309417.240   127746844.74506  24309423.920    99543032.96045
  22222514.300   116780121.66008  22222519.020    90997528.45748
  22394887.780   117685916.24608  22394889.580    91703313.69846
  21776271.500   114435058.65308  21776273.000    89170168.36148
  22531554.260   118404122.15108  22531556.420    92262967.58746
  20801728.780   109313821.22509  20801728.120    85179593.58249
  23310029.620   122495009.77707  23310032.620    95450660.01045
 15 02 11 08 33  0.0000000  0 10G01G03G04G06G09G11G17G20G23G32
  21050303.320   110620094.22809  21050308.040    86197497.25449
  20675163.000   108648717.76309  20675166.800    84661349.74749
  23189058.320   121859290.26707  23189061.760    94955293.80345
  24290916.820   127649623.84605  24290923.340    99467276.53845
  22205107.840   116688649.81708  22205112.440    90926251.74948
  22412825.540   117780179.92108  22412827.380    91776765.83747
  21772650.840   114416032.19008  21772652.400    89155342.50748
  22518535.340   118335707.02208  22518537.580    92209657.10546
  20794027.720   109273351.97909  20794027.100    85148059.12349
  23325320.240   122575361.43507  23325322.920    95513271.60145
 15 02 11 08 33 30.0000000  0 10G01G03G04G06G09G11G17G20G23G32
  21059351.120   110667640.41009  21059355.820    86234546.19649
  20679770.380   108672929.69009  20679774.180    84680216.16749
  23206019.500   121948422.47407  23206023.080    95024747.38745
  24272417.060   127552407.99706  24272423.680    99391523.98946
  22187761.820   116597495.63808  22187766.320    90855222.57048
  22430814.420   117874712.46808  22430816.420    91850427.48047
  21769140.420   114397585.10008  21769142.140    89140968.12448
  22505545.920   118267446.68408  22505548.160    92156467.23746
  20786417.000   109233357.34409  20786416.360    85116894.49049
  23340614.220   122655731.36407  23340616.820    95575897.45045
 15 02 11 08 34  0.0000000  0 10G01G03G04G06G09G11G17G20G23G32
  21068470.220   110715561.25709  21068474.900    86271887.09149
  20684417.460   108697350.44709  20684421.360    84699245.31449
  23223021.120   122037767.06807  23223024.860    95094366.48845
  24253918.620   127455198.80106  24253925.480    99315776.64145
  22170476.620   116506661.18608  22170481.060    90784442.54347
  22448854.140   117969512.15908  22448856.240    91924297.29047
  21765740.460   114379718.05908  21765742.260    89127045.72348
  22492586.020   118199341.38008  22492588.160    92103398.17946
  20778896.820   109193838.40009  20778896.140    85086100.53049
  23355911.360   122736118.96007  23355914.200    95638537.02545
 15 02 11 08 34 30.0000000  0 10G01G03G04G06G09G11G17G20G23G32
  21077660.120   110763854.20009  21077664.740    86309517.92348
  20689103.660   108721976.85409  20689107.680    84718434.71049
  23240062.500   122127320.93607  23240066.560    95164148.61646
  24235421.400   127357995.31406  24235428.380    99240033.73845
  22153252.140   116416145.98508  22153256.520    90713911.27748
  22466943.940   118064574.60008  22466946.120    91998371.83947
  21762450.460   114362428.67908  21762452.240    89113573.44348
  22479655.200   118131388.85508  22479657.100    92050448.18946
  20771466.700   109154792.85009  20771466.020    85055675.44549
  23371211.260   122816520.94507  23371214.320    95701187.82845
 15 02 11 08 35  0.0000000  0  9G01G03G04G09G11G17G20G23G32
  21086920.560   110812517.56209  21086925.080    86347437.40648
  20693828.600   108746806.72909  20693832.700    84737782.65449
  23257143.200   122217081.32707  23257147.500    95234091.69946
  22136088.500   116325950.49508  22136092.800    90643629.14348
  22485083.140   118159896.50508  22485085.400    92072648.57747
  21759270.380   114345716.81508  21759272.060    89100551.17648
  22466753.120   118063587.83808  22466754.800    91997616.26246
  20764126.560   109116220.17209  20764125.900    85025618.84449
  23386513.600   122896935.14807  23386516.760    95763848.12545
 15 02 11 08 35 30.0000000  0 10G01G03G04G06G09G11G17G20G23G32
  21096254.420   110861566.55809  21096258.860    86385657.38449
  20698595.100   108771854.70809  20698599.140    84757300.55449
  23274266.100   122307062.57207  23274270.600    95304206.83946
  24198431.280   127163617.31905  24198440.840    99088567.45945
  22118988.900   116236091.95808  22118993.140    90573609.55548
  22503274.420   118255491.74608  22503276.720    92147138.29147
  21756203.220   114329598.19209  21756204.840    89087991.17548
  22453882.580   117995953.81907  22453884.380    91944914.45846
  20756879.420   109078136.28909  20756878.780    84995943.11849
  23401821.020   122977376.14407  23401824.240    95826529.35345
 15 02 11 08 36  0.0000000  0 10G01G03G04G06G09G11G17G20G23G32
  21105657.340   110910978.95009  21105661.820    86424160.52249
  20703398.740   108797098.00909  20703402.780    84776970.65249
  23291426.840   122397241.65007  23291431.280    95374476.12645
  24179940.700   127066447.19705  24179949.600    99012849.18446
  22101949.520   116146550.19508  22101953.760    90503836.80747
  22521513.140   118351336.08908  22521515.380    92221822.12747
  21753244.760   114314050.87008  21753246.340    89075876.35048
  22441039.700   117928464.79908  22441041.680    91892325.64246
  20749721.240   109040519.57609  20749720.580    84966631.41449
  23417129.180   123057821.11207  23417132.580    95889213.65446
 15 02 11 08 36 30.0000000  0 10G01G03G04G06G09G11G17G20G23G32
  21115129.880   110960757.74609  21115134.500    86462949.15748
  20708240.060   108822539.15209  20708244.120    84796794.90749
  23308625.760   122487620.77407  23308629.960    95444901.33045
  24161451.360   126969283.79305  24161459.320    98937140.16445
  22084971.420   116057330.31608  22084975.680    90434314.85648
  22539799.480   118447430.98708  22539801.700    92296701.18446
  21750395.640   114299078.72208  21750397.240    89064209.69948
  22428225.220   117861124.09708  22428227.180    91839852.39246
  20742652.640   109003373.77709  20742651.920    84937686.65449
  23432438.820   123138272.58907  23432442.060    95951903.01845
 15 02 11 08 37  0.0000000  0 10G01G03G04G06G09G11G17G20G23G32
  21124674.160   111010913.74409  21124678.940    86502031.71449
  20713120.980   108848188.42809  20713125.060    84816781.34249
  23325864.500   122578209.76907  23325868.640    95515490.02845
  24142964.980   126872136.70806  24142972.860    98861441.17045
  22068057.100   115968445.22208  22068061.400    90365053.77948
  22558135.220   118543785.60108  22558137.380    92371782.63646
  21747658.180   114284693.11509  21747659.700    89053000.10048
  22415441.040   117793942.78308  22415442.980    91787503.33846
  20735675.880   108966710.57509  20735675.080    84909117.94149
  23447751.680   123218740.80307  23447754.800    96014605.42045
 15 02 11 08 37 30.0000000  0 10G01G03G04G06G09G11G17G20G23G32
  21134290.160   111061446.07809  21134294.960    86541407.53248
  20718041.280   108874044.49009  20718045.260    84836928.91249
  23343142.800   122669006.84507  23343146.840    95586240.85445
  24124482.240   126775009.90306  24124489.920    98785758.00445
  22051206.800   115879896.10108  22051211.100    90296054.51148
  22576519.900   118640397.08508  22576521.960    92447064.23846
  21745032.300   114270893.47309  21745033.580    89042247.09648
  22402686.940   117726920.46508  22402689.020    91735278.19346
  20728790.940   108930529.74209  20728790.100    84880925.10549
  23463067.220   123299224.46206  23463070.500    96077319.85945
 15 02 11 08 38  0.0000000  0 10G01G03G04G06G09G11G17G20G23G32
  21143976.880   111112349.72009  21143981.580    86581072.68948
  20722999.880   108900101.85209  20723003.720    84857233.34049
  23360459.620   122760006.22307  23360463.460    95657149.37545
  24106002.720   126677900.06906  24106009.860    98710088.05544
  22034419.900   115791680.03808  22034424.060    90227314.77748
  22594952.260   118737259.21208  22594954.260    92522541.13246
  21742517.140   114257675.80108  21742518.300    89031947.57548
  22389962.080   117660052.30408  22389964.280    91683173.17746
  20721996.960   108894827.00209  20721996.100    84853104.81049
  23478384.520   123379718.08906  23478388.200    96140042.07645
 15 02 11 08 38 30.0000000  0 10G01G03G04G06G09G11G17G20G23G32
  21153733.720   111163622.06909  21153738.380    86621025.16048
  20727996.160   108926357.44909  20728000.020    84877692.25749
  23377814.220   122851204.41607  23377817.880    95728212.84045
  24087526.560   126580806.36806  24087533.220    98634430.66645
  22017696.220   115703796.46508  22017700.300    90158834.15348
  22613431.400   118834367.41708  22613433.360    92598209.81246
  21740112.220   114245038.11808  21740113.480    89022100.03548
  22377266.240   117593336.02108  22377268.380    91631186.51646
  20715293.440   108859600.39209  20715292.700    84825655.55349
  23493703.320   123460218.46107  23493707.180    96202769.56745
 15 02 11 08 39  0.0000000  0 10G01G03G04G06G09G11G17G20G23G32
  21163561.340   111215266.19009  21163565.980    86661267.31448
  20733030.700   108952813.94909  20733034.640    84898307.71149
  23395206.980   122942603.67707  23395210.740    95799432.90445
  24069054.640   126483733.76806  24069060.300    98558789.74945
  22001036.740   115616250.64808  22001040.760    90090616.69248
  22631957.620   118931723.36808  22631959.680    92674071.51746
  21737818.280   114232983.80508  21737819.740    89012707.05548
  22364600.120   117526775.20308  22364602.040    91579320.99346
  20708681.200   108824853.65609  20708680.620    84798580.19349
  23509024.020   123540728.20107  23509027.780    96265504.37245
 15 02 11 08 39 30.0000000  0 10G01G03G04G06G09G11G17G20G23G32
  21173460.000   111267284.09609  21173464.720    86701800.71548
  20738103.720   108979472.91709  20738107.740    84919080.92149
  23412638.340   123034205.32408  23412641.920    95870810.72245
  24050587.220   126386686.05106  24050592.660    98483168.17445
  21984442.200   115529046.60808  21984446.300    90022665.53848
  22650531.040   119029327.32808  22650533.180    92750126.45846
  21735635.820   114221515.41308  21735637.560    89003770.62948
  22351964.040   117460372.17008  22351965.800    91527578.39746
  20702160.880   108790589.51109  20702160.340    84771880.87849
  23524346.720   123621248.88107  23524350.420    96328247.68345
 15 02 11 08 40  0.0000000  0 10G01G03G04G06G09G11G17G20G23G32
  21183429.740   111319675.71709  21183434.560    86742625.32948
  20743215.200   109006333.88609  20743219.200    84940011.52849
  23430108.000   123126008.25107  23430111.420    95942345.37145
  24032124.520   126289665.07205  24032130.040    98407567.48345
  21967913.120   115442186.40308  21967917.360    89954982.30648
  22669151.340   119127177.62808  22669153.540    92826373.35346
  21733565.000   114210633.70608  21733566.940    88995291.35148
  22339358.020   117394127.36408  22339359.860    91475959.12046
  20695732.580   108756808.67209  20695732.020    84745558.15849
  23539671.360   123701780.16107  23539675.060    96390999.25446
 15 02 11 08 40 30.0000000  0 10G01G03G04G06G09G11G17G20G23G32
  21193469.960   111372437.42409  21193474.760    86783738.34148
  20748364.340   109033392.87609  20748368.280    84961096.46549
  23447615.040   123218008.16707  23447618.540    96014033.50546
  24013666.520   126192669.05706  24013672.220    98331986.21945
  21951449.220   115355668.50008  21951453.540    89887565.82648
  22687817.480   119225268.83208  22687819.820    92902807.98247
  21731605.180   114200335.02408  21731607.240    88987266.41448
  22326781.580   117328037.65708  22326783.580    91424460.70947
  20689395.660   108723507.98509  20689395.080    84719609.61649
  23554997.100   123782318.02506  23555000.960    96453755.98645
 15 02 11 08 41  0.0000000  0 10G01G03G04G06G09G11G17G20G23G32
  21203580.900   111425570.83609  21203585.700    86825140.98548
  20753551.420   109060651.09209  20753555.280    84982336.62749
  23465159.700   123310205.93307  23465163.260    96085875.81345
  23995214.060   126095701.50806  23995219.980    98256427.14745
  21935051.180   115269496.57308  21935055.540    89820418.92148
  22706529.500   119323601.26108  22706531.980    92979430.55546
  21729756.940   114190622.02409  21729758.880    88979697.83048
  22314235.100   117262104.88408  22314237.160    91373084.58246
  20683150.580   108690689.94409  20683149.980    84694037.13749
  23570324.200   123862863.61206  23570328.440    96516518.70945
 15 02 11 08 41 30.0000000  0 10G01G03G04G06G09G11G17G20G23G32
  21213762.100   111479073.91509  21213766.980    86866831.68048
  20758775.980   109088106.21109  20758779.740    85003730.22949
  23482741.340   123402598.68407  23482745.140    96157870.07345
  23976767.060   125998762.32606  23976773.120    98180890.20645
  21918718.900   115183670.73208  21918723.360    89753541.71448
  22725286.720   119422171.05408  22725289.280    93056238.10546
  21728019.880   114181493.04409  21728021.620    88972584.34648
  22301718.160   117196327.46908  22301720.320    91321829.52247
  20676997.120   108658353.20709  20676996.480    84668839.70849
  23585652.460   123943414.71606  23585656.980    96579285.74045
 15 02 11 08 42  0.0000000  0 10G01G03G04G06G09G11G17G20G23G32
  21224013.920   111532947.58209  21224018.800    86908811.13848
  20764038.120   109115758.74609  20764041.820    85025277.64849
  23500360.120   123495186.40007  23500364.220    96230016.25146
  23958325.980   125901854.43206  23958332.220    98105377.61746
  21902453.060   115098193.97308  21902457.700    89686936.51248
  22744089.140   119520977.72908  22744091.700    93133230.23546
  21726394.160   114172949.32408  21726395.820    88965926.90148
  22289230.980   117130706.85308  22289233.160    91270696.62646
  20670935.540   108626499.21609  20670934.840    84644018.43049
  23600981.960   124023971.70406  23600986.640    96642057.35946
 15 02 11 08 42 30.0000000  0 10G01G03G04G06G09G11G17G20G23G32
  21234336.340   111587191.55409  21234341.180    86951079.15548
  20769337.760   109143608.15609  20769341.360    85046978.47549
  23518015.860   123587967.95307  23518020.260    96302313.47746
  23939891.100   125804979.44506  23939897.600    98029890.66645
  21886254.120   115013068.11508  21886258.840    89620604.74748
  22762936.280   119620019.32508  22762938.880    93210405.41646
  21724879.840   114164991.17908  21724881.500    88959725.75848
  22276773.580   117065243.20208  22276775.680    91219686.06546
  20664965.900   108595128.42809  20664965.140    84619573.68749
  23616312.580   124104534.08007  23616317.220    96704833.20045
 15 02 11 08 43  0.0000000  0 10G01G03G04G06G09G11G17G20G23G32
  21244728.680   111641802.98809  21244733.480    86993633.49548
  20774674.280   109171651.27509  20774677.820    85068830.24549
  23535707.860   123680939.85907  23535712.540    96374759.01445
  23921462.420   125708136.55407  23921468.920    97954428.72045
  21870121.860   114928292.40108  21870126.660    89554545.81548
  22781827.360   119719291.56108  22781829.900    93287760.32146
  21723476.400   114157616.13408  21723478.120    88953978.97148
  22264345.680   116999934.09208  22264347.620    91168795.89646
  20659087.760   108564238.60409  20659086.940    84595503.71349
  23631643.720   124185098.76607  23631648.100    96767610.83945
 15 02 11 08 43 30.0000000  0 10G01G03G04G06G09G11G17G20G23G32
  21255191.400   111696784.48509  21255196.180    87036476.19648
  20780048.040   109199890.42909  20780051.700    85090834.76749
  23553436.540   123774103.85807  23553441.280    96447354.24546
  23903040.940   125611330.37707  23903047.240    97878995.37046
  21854057.120   114843871.54708  21854061.940    89488763.40448
  22800762.340   119818795.03508  22800764.920    93365295.41046
  21722184.540   114150827.43708  21722186.260    88948689.07648
  22251947.840   116934782.55108  22251949.680    91118028.51146
  20653301.760   108533832.97909  20653300.880    84571811.03949
  23646975.680   124265667.97907  23646979.940    96830392.00546
