     2.11           OBSERVATION DATA    G                   RINEX VERSION / TYPE
SPIDER V4,0,0,3554                      2015 03 12 01:21    PGM / RUN BY / DATE 
EMHD                                                        MARKER NAME         
EMHD                                                        MARKER NUMBER       
                                                            OBSERVER / AGENCY   
462397              LEICA GRX1200PRO    8.20/2.127          REC # / TYPE / VERS 
103297              LEIAT504                                ANT # / TYPE        
  5146535.6892   265261.6083  3747697.6292                  APPROX POSITION XYZ 
        0.0470        0.0000        0.0000                  ANTENNA: DELTA H/E/N
     1     1                                                WAVELENGTH FACT L1/2
     4    C1    L1    P2    L2                              # / TYPES OF OBSERV 
    30.000                                                  INTERVAL            
  2015    02    11    00    00    0.0000000     GPS         TIME OF FIRST OBS   
  2015    02    11    23    59   30.0000000     GPS         TIME OF LAST OBS    
    16                                                      LEAP SECONDS        
    30                                                      # OF SATELLITES     
   G 1   812   812   812   812                              PRN / # OF OBS      
   G 2   922   922   921   921                              PRN / # OF OBS      
   G 3   822   822   822   822                              PRN / # OF OBS      
   G 4   833   833   833   833                              PRN / # OF OBS      
   G 5   658   658   658   658                              PRN / # OF OBS      
   G 6   763   763   763   763                              PRN / # OF OBS      
   G 7   648   648   648   648                              PRN / # OF OBS      
   G 9   777   777   777   777                              PRN / # OF OBS      
   G10   748   748   748   748                              PRN / # OF OBS      
   G11   774   774   774   774                              PRN / # OF OBS      
   G12   810   810   810   810                              PRN / # OF OBS      
   G13   792   792   792   792                              PRN / # OF OBS      
   G14   895   895   895   895                              PRN / # OF OBS      
   G15   704   704   704   704                              PRN / # OF OBS      
   G16   669   669   669   669                              PRN / # OF OBS      
   G17   930   930   930   930                              PRN / # OF OBS      
   G18   896   896   896   896                              PRN / # OF OBS      
   G19   766   766   766   766                              PRN / # OF OBS      
   G20   794   794   794   794                              PRN / # OF OBS      
   G21   657   657   657   657                              PRN / # OF OBS      
   G22   758   758   757   757                              PRN / # OF OBS      
   G23   730   730   730   730                              PRN / # OF OBS      
   G24   778   778   778   778                              PRN / # OF OBS      
   G25   834   834   834   834                              PRN / # OF OBS      
   G27   804   804   804   804                              PRN / # OF OBS      
   G28   876   876   873   873                              PRN / # OF OBS      
   G29   744   744   743   743                              PRN / # OF OBS      
   G30   678   678   677   677                              PRN / # OF OBS      
   G31   812   812   811   811                              PRN / # OF OBS      
   G32   743   743   743   743                              PRN / # OF OBS      
BIT 2 OF LLI FLAGS DATA COLLECTED UNDER A/S CONDITION       COMMENT             
SNR is mapped to RINEX snr flag value [2-9]                 COMMENT             
Lx:     = 25dBHz -> 1; 26-27dBHz -> 2; 28-31dBHz -> 3       COMMENT             
       32-35dBHz -> 4; 36-38dBHz -> 5; 39-41dBHz -> 6       COMMENT             
       42-44dBHz -> 7; 45-48dBHz -> 8; >=49dBHz -> 9        COMMENT             
                                                            END OF HEADER       
 15 02 11 00 00  0.0000000  0  5G16G21G25G29G31
  23650147.800   124282376.03304  23650146.360    96843393.52345
  21050424.100   110620729.98507  21050422.200    86197965.75849
  22847012.300   120061852.95606  22847014.080    93554694.94146
  22069993.020   115978592.07507  22069991.620    90372922.95947
  21091871.920   110838530.21408  21091870.000    86367676.12348
 15 02 11 00 00 30.0000000  0  5G16G21G25G29G31
  23633585.340   124195340.24705  23633584.120    96775573.50545
  21046437.940   110599782.73107  21046436.060    86181643.23448
  22861501.420   120137993.09706  22861503.180    93614024.90346
  22083247.160   116048243.20107  22083245.860    90427196.54047
  21099993.200   110881207.72608  21099991.300    86400931.31748
 15 02 11 00 01  0.0000000  0  5G16G21G25G29G31
  23617027.920   124108329.25905  23617026.620    96707772.72744
  21042538.720   110579292.25707  21042536.840    86165676.63948
  22876035.100   120214367.81405  22876036.800    93673537.64746
  22096516.920   116117976.04807  22096515.620    90481533.80747
  21108210.560   110924390.17608  21108208.680    86434579.95948
 15 02 11 00 01 30.0000000  0  5G16G21G25G29G31
  23600477.560   124021355.44505  23600475.860    96640000.92044
  21038728.620   110559270.00207  21038726.680    86150074.88848
  22890615.440   120290987.81805  22890617.000    93733241.50946
  22109804.200   116187800.92007  22109802.900    90535942.78747
  21116525.860   110968087.32808  21116523.960    86468629.67348
 15 02 11 00 02  0.0000000  0  5G16G21G25G29G31
  23583934.480   123934421.31405  23583932.480    96572260.02745
  21035007.940   110539717.59907  21035005.960    86134839.25449
  22905242.560   120367853.96805  22905244.020    93793137.19046
  22123109.120   116257718.32407  22123107.780    90590423.86647
  21124939.060   111012299.16008  21124937.200    86503080.42948
 15 02 11 00 02 30.0000000  0  5G16G21G25G29G31
  23567398.280   123847523.35405  23567396.280    96504547.35145
  21031375.780   110520630.44807  21031373.820    86119966.15648
  22919915.440   120444961.02005  22919917.060    93853220.57647
  22136430.500   116327722.39607  22136429.120    90644972.48347
  21133448.980   111057019.29108  21133447.180    86537927.26648
 15 02 11 00 03  0.0000000  0  6G16G21G25G27G29G31
  23550869.360   123760663.03805  23550867.440    96436864.02945
  21027832.080   110502008.35307  21027830.180    86105455.43849
  22934634.080   120522308.43105  22934635.960    93913491.26646
  24538807.740   128952301.61204  24538809.720   100482319.73845
  22149768.180   116397812.18307  22149766.800    90699587.89847
  21142055.320   111102246.02608  21142053.580    86573168.85748
 15 02 11 00 03 30.0000000  0  6G16G18G21G25G29G31
  23534347.200   123673838.39605  23534345.300    96369208.45445
  24509482.360   128798202.58604  24509488.320   100362249.99143
  21024376.300   110483848.24507  21024374.440    86091304.71749
  22949397.760   120599892.61605  22949399.900    93973946.43846
  22163121.360   116467983.48907  22163119.980    90754266.82947
  21150757.240   111147974.85408  21150755.480    86608801.69548
 15 02 11 00 04  0.0000000  0  5G16G21G25G29G31
  23517832.900   123587055.24005  23517830.980    96301585.23844
  21021009.240   110466154.56707  21021007.420    86077517.44848
  22964207.280   120677717.28505  22964209.680    94034588.99847
  22176490.620   116538239.56407  22176489.220    90809011.81647
  21159555.200   111194208.36908  21159553.420    86644827.79548
 15 02 11 00 04 30.0000000  0  7G16G18G21G25G27G29G31
  23501326.480   123500313.68805  23501324.680    96233994.44745
  24480576.660   128646297.95113  24480582.700   100243893.11053
  21017730.860   110448926.41207  21017728.960    86064092.91949
  22979062.520   120755781.52205  22979064.920    94095418.24147
  24493565.200   128714552.64304  24493567.000   100297062.60046
  22189875.640   116608578.66306  22189874.300    90863821.49447
  21168448.840   111240944.55508  21168447.020    86681245.58048
 15 02 11 00 05  0.0000000  0  6G16G21G25G27G29G31
  23484828.360   123413614.89405  23484826.520    96166436.94945
  21014541.100   110432164.06007  21014539.140    86051031.35549
  22993963.200   120834084.23905  22993965.380    94156433.30246
  24478528.120   128635533.15004  24478530.040   100235489.05446
  22203276.240   116678999.52706  22203274.960    90918694.87247
  21177437.700   111288181.17608  21177435.920    86718053.32048
 15 02 11 00 05 30.0000000  0  6G16G21G25G27G29G31
  23468339.160   123326963.53405  23468337.240    96098916.44745
  21011440.500   110415870.41007  21011438.540    86038335.01249
  23008909.660   120912628.08005  23008911.660    94217636.25446
  24463513.420   128556632.31104  24463515.540   100174007.94645
  22216693.020   116749504.92707  22216691.720    90973634.12448
  21186522.140   111335920.21208  21186520.400    86755252.55048
 15 02 11 00 06  0.0000000  0  7G16G18G21G25G27G29G31
  23451858.080   123240354.85605  23451856.060    96031429.15945
  24437152.860   128418104.21614  24437158.620   100066079.27855
  21008428.100   110400040.03307  21008426.140    86025999.66049
  23023900.780   120991406.90205  23023902.660    94279022.32146
  24448520.360   128477841.57204  24448522.020   100112612.96244
  22230124.560   116820087.98907  22230123.240    91028633.90647
  21195700.640   111384153.76008  21195698.920    86792837.12148
 15 02 11 00 06 30.0000000  0  6G16G21G25G27G29G31
  23435386.340   123153794.91505  23435384.340    95963979.88645
  21005504.820   110384678.06407  21005502.840    86014029.30349
  23038937.380   121070424.59505  23038939.160    94340594.53146
  24433550.180   128399171.59504  24433551.920   100051311.75145
  22243571.460   116890751.78107  22243570.140    91083696.59748
  21204973.880   111432884.74208  21204972.120    86830809.28848
 15 02 11 00 07  0.0000000  0  7G16G18G21G25G27G29G31
  23418923.660   123067283.21605  23418921.720    95896568.19345
  24408162.960   128265761.77004  24408166.560    99947364.82943
  21002669.680   110369779.31107  21002667.700    86002419.89349
  23054018.940   121149678.16605  23054020.580    94402350.52946
  24418601.760   128320617.03804  24418603.820    99990100.46346
  22257033.120   116961493.26006  22257031.860    91138819.81847
  21214341.040   111482109.20508  21214339.240    86869165.99248
 15 02 11 00 07 30.0000000  0  7G16G18G21G25G27G29G31
  23402470.340   122980820.41705  23402468.520    95829194.61446
  24393656.760   128189530.77504  24393659.940    99887964.09644
  20999923.040   110355345.77507  20999921.060    85991172.99449
  23069145.340   121229167.26205  23069146.980    94464290.05046
  24403675.300   128242178.21704  24403677.580    99928979.35345
  22270509.440   117032311.61106  22270508.140    91194002.94247
  21223801.780   111531825.68808  21223800.020    86907906.09048
 15 02 11 00 08  0.0000000  0  7G16G18G21G25G27G29G31
  23386026.820   122894408.96105  23386024.920    95761861.01744
  24379143.720   128113266.04604  24379145.640    99828532.17644
  20997265.120   110341378.34607  20997263.120    85980289.29149
  23084316.540   121308892.27205  23084318.260    94526413.41646
  24388770.880   128163856.17704  24388773.420    99867949.23744
  22284000.320   117103207.00806  22283999.100    91249246.09847
  21233355.900   111582033.02408  21233354.180    86947028.67848
 15 02 11 00 08 30.0000000  0  7G16G18G21G25G27G29G31
  23369593.520   122808051.75405  23369591.640    95694569.68645
  24364625.080   128036970.77904  24364628.320    99769081.45244
  20994696.120   110327878.10207  20994694.080    85969769.62449
  23099532.720   121388854.09005  23099534.460    94588721.29746
  24373889.140   128085652.52904  24373891.440    99807011.36645
  22297506.020   117174180.13706  22297504.860    91304549.81547
  21243003.400   111632731.03208  21243001.700    86986533.59448
 15 02 11 00 09  0.0000000  0  7G16G18G21G25G27G29G31
  23353170.780   122721749.49705  23353168.900    95627321.21944
  24350100.600   127960647.35804  24350104.840    99709608.64644
  20992215.800   110314843.78207  20992213.740    85959613.02448
  23114793.660   121469051.30705  23114795.420    94651212.60446
  24359029.640   128007566.49604  24359032.140    99746165.19345
  22311026.180   117245229.06806  22311025.100    91359912.61447
  21252743.820   111683917.27407  21252742.100    87026418.95548
 15 02 11 00 09 30.0000000  0  7G16G18G21G25G27G29G31
  23336757.740   122635497.99305  23336755.820    95560112.27344
  24335569.960   127884284.50404  24335575.440    99650115.30344
  20989823.280   110302270.74507  20989821.160    85949815.85849
  23130098.380   121549477.76405  23130100.120    94713882.52446
  24344191.760   127929592.68704  24344194.260    99685406.42845
  22324559.680   117316347.43906  22324558.540    91415329.51048
  21262575.740   111735584.39907  21262574.060    87066679.03648
 15 02 11 00 10  0.0000000  0  7G16G18G21G25G27G29G31
  23320355.640   122549304.91405  23320353.580    95492948.86645
  24321036.340   127807907.92904  24321041.660    99590601.22244
  20987519.500   110290164.08407  20987517.360    85940382.10649
  23145447.900   121630139.38505  23145449.540    94776735.70046
  24329376.300   127851737.76804  24329378.880    99624740.27144
  22338107.380   117387540.72906  22338106.200    91470804.79047
  21272500.020   111787736.95207  21272498.360    87107317.37148
 15 02 11 00 10 30.0000000  0  6G16G21G25G27G29G31
  23303964.860   122463170.47905  23303962.620    95425831.11845
  20985304.260   110278523.10807  20985302.180    85931311.22049
  23160841.660   121711033.93205  23160843.520    94839770.36746
  24314583.120   127774000.16504  24314585.740    99564165.58145
  22351668.880   117458806.63506  22351667.720    91526336.65547
  21282516.060   111840371.59307  21282514.440    87148331.35648
 15 02 11 00 11  0.0000000  0  7G16G18G21G25G27G29G31
  23287585.100   122377094.03905  23287582.920    95358758.60645
  24291956.820   127655088.51504  24291962.420    99471527.03141
  20983177.000   110267344.58307  20983175.000    85922600.69249
  23176279.040   121792158.93905  23176281.260    94902984.61546
  24299811.960   127696378.09104  24299814.720    99503680.90846
  22365243.520   117530141.93106  22365242.360    91581922.58247
  21292623.220   111893484.68008  21292621.560    87189718.15748
 15 02 11 00 11 30.0000000  0  7G16G18G21G25G27G29G31
  23271216.880   122291077.95706  23271214.620    95291733.09445
  24277411.720   127578652.81904  24277416.280    99411966.66241
  20981138.140   110256630.27807  20981136.120    85914251.89349
  23191760.460   121873515.17205  23191762.820    94966379.06746
  24285063.220   127618873.06304  24285066.060    99443287.48845
  22378831.520   117601547.59206  22378830.420    91637563.33247
  21302821.300   111947075.61908  21302819.600    87231477.31348
 15 02 11 00 12  0.0000000  0  7G16G18G21G25G27G29G31
  23254860.260   122205123.55706  23254857.960    95224755.65446
  24262863.940   127502202.71804  24262868.580    99352395.25344
  20979187.500   110246379.49907  20979185.420    85906264.28349
  23207285.800   121955101.43205  23207288.100    95029952.73246
  24270336.640   127541484.54904  24270339.500    99382984.79743
  22392432.620   117673022.43006  22392431.620    91693257.98547
  21313109.860   112001142.13807  21313108.180    87273607.04448
 15 02 11 00 12 30.0000000  0  7G16G18G21G25G27G29G31
  23238516.120   122119235.49105  23238514.100    95157829.91746
  24248314.200   127425743.75104  24248318.980    99292816.84444
  20977325.640   110236595.42707  20977323.540    85898640.34149
  23222855.500   122036920.01705  23222857.740    95093707.42946
  24255632.560   127464215.72403  24255635.820    99322775.39246
  22406047.260   117744568.23806  22406046.300    91749007.95447
  21323489.060   112055685.08907  21323487.400    87316108.02448
 15 02 11 00 13  0.0000000  0  7G16G18G21G25G27G29G31
  23222184.040   122033410.48605  23222182.260    95090953.30445
  24233762.140   127349273.70704  24233766.700    99233229.95044
  20975551.460   110227272.30807  20975549.400    85891375.58349
  23238468.520   122118965.86105  23238470.600    95157639.22946
  24240950.540   127387062.12904  24240953.880    99262655.77345
  22419674.420   117816179.80706  22419673.460    91804809.16547
  21333957.660   112110698.01107  21333956.040    87358975.21248
 15 02 11 00 13 30.0000000  0  6G16G18G21G25G29G31
  23205863.560   121947645.80105  23205861.760    95024123.70546
  24219207.780   127272791.38304  24219211.900    99173633.54243
  20973864.320   110218406.72907  20973862.320    85884467.34449
  23254123.680   122201234.46305  23254125.820    95221744.58046
  22433313.300   117887852.51306  22433312.300    91860658.02747
  21344514.660   112166175.31808  21344513.040    87402204.25748
 15 02 11 00 14  0.0000000  0  7G16G18G21G25G27G29G31
  23189557.940   121861959.23405  23189556.120    94957354.97045
  24204654.680   127196315.44504  24204659.000    99114042.06143
  20972267.140   110210013.70207  20972265.140    85877927.32949
  23269824.100   122283741.06605  23269826.340    95286035.38046
  24211654.140   127233099.51104  24211656.380    99142690.68645
  22446966.640   117959601.16006  22446965.620    91916566.06147
  21355162.740   112222131.11408  21355161.100    87445806.15648
 15 02 11 00 14 30.0000000  0  7G16G18G21G25G27G29G31
  23173264.500   121776336.25606  23173262.580    94890635.77946
  24190100.180   127119832.59804  24190104.080    99054445.34444
  20970756.940   110202077.78107  20970754.960    85871743.51349
  23285566.860   122366469.32405  23285568.980    95350498.93946
  24197039.000   127156296.77104  24197041.620    99082844.45346
  22460631.420   118031409.58206  22460630.420    91972520.65647
  21365898.420   112278547.41207  21365896.820    87489766.88948
 15 02 11 00 15  0.0000000  0  7G16G18G21G25G27G29G31
  23156984.200   121690783.11705  23156982.320    94823970.99946
  24175545.960   127043350.26004  24175549.460    98994848.90345
  20969334.480   110194602.96907  20969332.540    85865919.00049
  23301352.600   122449423.19605  23301354.580    95415138.27946
  24182446.040   127079610.56704  24182448.740    99023089.05545
  22474308.240   118103281.64406  22474307.240    92028524.85147
  21376722.280   112335427.14608  21376720.680    87534088.73548
 15 02 11 00 15 30.0000000  0  7G16G18G21G25G27G29G31
  23140717.960   121605303.98205  23140716.180    94757363.89445
  24160992.840   126966873.35304  24160996.120    98935256.97944
  20968000.200   110187591.47707  20967998.320    85860455.50949
  23317181.400   122532604.10405  23317183.460    95479954.51845
  24167875.740   127003043.17604  24167878.340    98963426.18145
  22487997.340   118175218.41306  22487996.380    92084579.45847
  21387634.400   112392770.46908  21387632.740    87578771.81948
 15 02 11 00 16  0.0000000  0  7G16G18G21G25G27G29G31
  23124465.720   121519898.41305  23124464.020    94690814.10546
  24146440.900   126890403.35104  24146444.420    98875670.46844
  20966753.760   110181041.38807  20966751.900    85855351.54349
  23333053.000   122616010.31905  23333055.080    95544946.33346
  24153327.920   126926593.52904  24153330.140    98903855.10845
  22501698.420   118247218.11306  22501697.500    92140683.10047
  21398634.080   112450573.94607  21398632.380    87623813.47248
 15 02 11 00 16 30.0000000  0  7G16G18G21G25G27G29G31
  23108228.040   121434568.85205  23108226.360    94624323.53646
  24131890.580   126813943.01004  24131894.720    98816091.36144
  20965595.320   110174953.42207  20965593.380    85850607.68548
  23348967.520   122699641.82805  23348969.580    95610113.70145
  24138802.600   126850262.43904  24138804.520    98844376.37845
  22515411.460   118319280.76406  22515410.600    92196835.79947
  21409721.080   112508836.46707  21409719.440    87669212.82048
 15 02 11 00 17  0.0000000  0  7G16G18G21G25G27G29G31
  23092004.720   121349314.61405  23092003.000    94557891.68146
  24117342.040   126737492.56304  24117346.400    98756520.11242
  20964524.200   110169324.20907  20964522.120    85846221.30149
  23364924.360   122783495.48005  23364926.460    95675454.15246
  24124299.420   126774047.58504  24124301.200    98784988.19046
  22529135.820   118391402.88906  22529134.940    92253034.84747
  21420894.500   112567553.39007  21420892.920    87714966.24648
 15 02 11 00 17 30.0000000  0  7G16G18G21G25G27G29G31
  23075796.680   121264140.12206  23075794.780    94491521.97245
  24102796.340   126661058.35604  24102800.720    98696961.58544
  20963540.840   110164156.32107  20963538.660    85842194.38149
  23380924.040   122867573.41305  23380926.140    95740969.39547
  24109818.680   126697951.77904  24109820.900    98725692.82645
  22542871.920   118463586.98106  22542871.100    92309282.16347
  21432154.600   112626725.65907  21432153.040    87761074.48648
 15 02 11 00 18  0.0000000  0  7G16G18G21G25G27G29G31
  23059603.500   121179044.90106  23059601.720    94425214.02046
  24088253.780   126584639.78704  24088258.320    98637415.06445
  20962644.840   110159447.69907  20962642.640    85838525.33249
  23396965.740   122951872.89205  23396968.020    95806657.25046
  24095360.300   126621973.05204  24095362.600    98666488.68746
  22556619.340   118535830.13506  22556618.480    92365575.51047
  21443500.620   112686349.24207  21443499.000    87807534.39148
 15 02 11 00 18 30.0000000  0  7G16G18G21G25G27G29G31
  23043425.980   121094032.10906  23043424.320    94358970.31246
  24073715.200   126508241.69004  24073719.800    98577884.46042
  20961836.520   110155199.77207  20961834.320    85835215.26249
  23413049.620   123036395.04505  23413052.220    95872518.63145
  24080924.460   126546113.39304  24080926.880    98607377.32045
  22570378.240   118608133.20306  22570377.260    92421915.56447
  21454932.460   112746423.76407  21454930.820    87854345.69348
 15 02 11 00 19  0.0000000  0  7G16G18G21G25G27G29G31
  23027263.600   121009099.36105  23027262.240    94292788.97946
  24059180.780   126431863.36504  24059185.380    98518369.39244
  20961114.920   110151407.58607  20961112.720    85832260.32249
  23429175.040   123121135.24805  23429177.760    95938549.92645
  24066510.640   126470368.95204  24066513.340    98548355.72046
  22584147.780   118680491.82806  22584146.580    92478298.91246
  21466448.960   112806943.36207  21466447.400    87901503.79248
 15 02 11 00 19 30.0000000  0  7G16G18G21G25G27G29G31
  23011117.260   120924250.34505  23011116.020    94226672.87146
  24044650.780   126355508.76404  24044654.980    98458872.68541
  20960480.360   110148072.91907  20960478.160    85829661.88749
  23445342.400   123206094.73405  23445345.020    96004752.04645
  24052119.320   126394741.72104  24052122.060    98489425.44945
  22597928.100   118752907.33406  22597926.700    92534726.58146
  21478050.100   112867907.52507  21478048.560    87949008.31548
 15 02 11 00 20  0.0000000  0  7G16G18G21G25G27G29G31
  22994987.560   120839487.78106  22994986.220    94160624.13246
  24030126.000   126279181.65204  24030129.940    98399397.51144
  20959932.960   110145196.30807  20959930.700    85827420.37949
  23461551.500   123291273.70105  23461554.040    96071125.21445
  24037750.500   126319232.74204  24037753.060    98430587.29446
  22611719.220   118825379.78806  22611717.800    92591198.61946
  21489735.680   112929315.40507  21489734.140    87996858.58848
 15 02 11 00 20 30.0000000  0  7G16G18G21G25G27G29G31
  22978874.640   120754813.15606  22978873.120    94094643.93146
  24015606.820   126202885.05304  24015610.960    98339946.13044
  20959472.660   110142777.43107  20959470.380    85825535.54849
  23477802.280   123376671.59805  23477804.640    96137668.95645
  24023404.180   126243842.27104  24023406.700    98371841.51845
  22625521.040   118897908.68106  22625519.560    92647714.62146
  21501505.260   112991164.92107  21501503.700    88045052.99348
 15 02 11 00 21  0.0000000  0  7G16G18G21G25G27G29G31
  22962778.480   120670226.66506  22962776.700    94028732.40646
  24001093.980   126126620.60204  24001098.000    98280520.04443
  20959099.080   110140814.35707  20959096.820    85824005.88949
  23494094.200   123462286.11805  23494096.540    96204381.54745
  24009080.180   126168568.79404  24009082.540    98313186.91546
  22639333.060   118970491.53306  22639331.600    92704272.67047
  21513358.220   113053452.42507  21513356.600    88093588.68948
 15 02 11 00 21 30.0000000  0  7G16G18G21G25G27G29G31
  22946699.760   120585731.44406  22946697.680    93962891.98045
  23986587.660   126050391.08104  23986591.240    98221120.93244
  20958812.360   110139307.72007  20958810.160    85822831.89449
  23510427.520   123548117.82905  23510430.040    96271263.31845
  23994778.520   126093413.63904  23994780.860    98254624.50846
  22653155.640   119043129.73706  22653154.220    92760873.84447
  21525294.320   113116176.87007  21525292.680    88142464.85548
 15 02 11 00 22  0.0000000  0  7G16G18G21G25G27G29G31
  22930638.320   120501327.94106  22930636.100    93897123.01946
  23972088.240   125974198.79004  23972092.080    98161750.73941
  20958612.160   110138255.88307  20958610.020    85822012.28049
  23526801.960   123634165.19305  23526804.280    96338313.17145
  23980499.460   126018376.21704  23980501.900    98196153.82945
  22666988.280   119115820.79306  22666986.980    92817516.20147
  21537313.060   113179335.57807  21537311.440    88191679.41048
 15 02 11 00 22 30.0000000  0  7G16G18G21G25G27G29G31
  22914594.740   120417018.69806  22914592.660    93831427.52246
  23957596.620   125898047.23804  23957600.320    98102412.20343
  20958498.640   110137659.55407  20958496.520    85821547.61749
  23543217.360   123720428.25105  23543219.380    96405531.09745
  23966243.000   125943457.31304  23966245.240    98137775.46046
  22680831.200   119188566.01206  22680830.060    92874200.74947
  21549414.120   113242927.13807  21549412.560    88241231.25248
 15 02 11 00 23  0.0000000  0  7G16G18G21G25G27G29G31
  22898569.480   120332805.70106  22898567.520    93765807.01146
  23943113.540   125821939.80704  23943117.200    98043108.25044
  20958471.780   110137518.40707  20958469.600    85821437.64049
  23559673.660   123806906.48304  23559675.580    96472916.66746
  23952008.980   125868657.21704  23952011.200    98079489.73646
  22694684.240   119261364.41506  22694683.220    92930926.75947
  21561597.060   113306949.43707  21561595.640    88291118.73448
 15 02 11 00 23 30.0000000  0  7G16G18G21G25G27G29G31
  22882562.440   120248688.19906  22882560.500    93700260.93146
  23928638.820   125745876.90004  23928642.360    97983839.27145
  20958530.920   110137829.50007  20958528.760    85821680.05649
  23576170.320   123893596.62805  23576172.220    96540467.39245
  23937797.040   125793973.65404  23937799.260    98021294.80946
  22708546.880   119334212.68606  22708545.860    92987691.63747
  21573861.100   113371397.73407  21573859.740    88341338.15948
 15 02 11 00 24  0.0000000  0  7G16G18G21G25G27G29G31
  22866574.280   120164669.73006  22866572.340    93634791.99546
  23914173.300   125669862.94804  23914176.780    97924608.66145
  20958676.340   110138593.93607  20958674.240    85822275.72849
  23592707.600   123980499.85405  23592709.540    96608184.11844
  23923607.580   125719408.47104  23923609.740    97963192.11646
  22722419.320   119407112.61406  22722418.260    93044496.77146
  21586206.280   113436272.04807  21586204.920    88391889.54648
 15 02 11 00 24 30.0000000  0  7G16G18G21G25G27G29G31
  22850605.300   120080752.21006  22850603.360    93569401.74246
  23899717.720   125593900.97404  23899720.820    97865418.72845
  20958908.020   110139811.54607  20958905.940    85823224.52349
  23609285.180   124067615.61405  23609287.120    96676066.46946
  23909440.700   125644962.01304  23909442.800    97905181.92846
  22736301.480   119480063.45506  22736300.240    93101341.60346
  21598632.160   113501570.05907  21598630.780    88442771.08548
 15 02 11 00 25  0.0000000  0  7G16G18G21G25G27G29G31
  22834655.660   119996936.89106  22834653.860    93504091.11646
  23885271.940   125517991.65104  23885275.060    97806269.38244
  20959225.740   110141481.15807  20959223.660    85824525.52549
  23625902.800   124154942.64204  23625904.960    96744113.45146
  23895296.620   125570633.91104  23895298.480    97847263.94345
  22750193.140   119553064.37906  22750191.760    93158225.45746
  21611138.120   113567289.20207  21611136.760    88493980.78448
 15 02 11 00 25 30.0000000  0  7G16G18G21G25G27G29G31
  22818725.760   119913225.35306  22818724.060    93438861.35446
  23870837.020   125442138.55304  23870839.580    97747163.55743
  20959629.300   110143601.98307  20959627.200    85826178.12649
  23642560.480   124242480.19304  23642562.940    96812324.46645
  23881174.980   125496424.20204  23881176.840    97789438.24946
  22764094.020   119626114.45906  22764092.660    93215147.59546
  21623723.740   113633426.99707  21623722.380    88545516.70248
 15 02 11 00 26  0.0000000  0  7G16G18G21G25G27G29G31
  22802815.680   119829617.97206  22802814.200    93373712.76146
  23856413.060   125366342.82504  23856415.220    97688102.40844
  20960118.260   110146171.64007  20960116.160    85828180.46249
  23659257.900   124330225.89504  23659260.420    96880697.67346
  23867075.600   125422331.46804  23867077.380    97731703.67245
  22778003.840   119699211.81605  22778002.660    93272106.56246
  21636388.400   113699979.97007  21636386.980    88597376.12648
 15 02 11 00 26 30.0000000  0  7G16G18G21G25G27G29G31
  22786925.720   119746115.79506  22786924.320    93308646.12946
  23842000.540   125290606.88904  23842002.620    97629087.75744
  20960692.400   110149189.22007  20960690.380    85830531.82849
  23675994.980   124418178.44104  23675997.240    96949232.04745
  23852998.420   125348355.21404  23853000.120    97674059.88346
  22791922.440   119772355.18605  22791921.460    93329101.36347
  21649131.540   113766945.26507  21649130.020    88649556.84548
 15 02 11 00 27  0.0000000  0  7G16G18G21G25G27G29G31
  22771056.800   119662723.84506  22771055.280    93243665.38245
  23827600.420   125214936.45404  23827602.700    97570124.17244
  20961352.380   110152657.26007  20961350.380    85833234.20449
  23692771.820   124506340.03805  23692773.820    97017929.35845
  23838944.000   125274498.54204  23838945.540    97616509.28446
  22805850.340   119845547.11506  22805849.540    93386133.98647
  21661953.120   113834323.15407  21661951.600    88702059.06948
 15 02 11 00 27 30.0000000  0  7G16G18G21G25G27G29G31
  22755208.960   119579442.54206  22755207.320    93178770.88146
  23813213.140   125139333.26504  23813215.320    97511212.98843
  20962097.760   110156574.11907  20962095.740    85836286.30949
  23709587.940   124594708.79304  23709589.800    97086788.06545
  23824912.060   125200760.52304  23824913.560    97559051.13845
  22819787.380   119918786.48906  22819786.660    93443203.59947
  21674852.700   113902110.87007  21674851.220    88754880.63448
 15 02 11 00 28  0.0000000  0  7G16G18G21G25G27G29G31
  22739382.320   119496273.01606  22739380.620    93113963.45845
  23798839.040   125063799.33704  23798841.080    97452355.72043
  20962928.180   110160937.88707  20962926.140    85839686.65649
  23726443.080   124683283.18604  23726444.900    97155806.97845
  23810902.580   125127140.36304  23810904.260    97501684.83046
  22833733.080   119992071.23206  22833732.400    93500308.56347
  21687829.660   113970305.08707  21687828.220    88808018.95648
 15 02 11 00 28 30.0000000  0  7G16G18G21G25G27G29G31
  22723577.140   119413216.43506  22723575.360    93049244.05646
  23784478.580   124988336.49204  23784480.260    97393553.83445
  20963843.320   110165747.25107  20963841.260    85843434.22049
  23743337.080   124772061.61104  23743338.800    97224984.92045
  23796915.300   125053637.46004  23796917.220    97444409.85046
  22847687.360   120065400.60206  22847686.600    93557448.30547
  21700883.380   114038902.82807  21700882.000    88861471.71848
 15 02 11 00 29  0.0000000  0  7G16G18G21G25G27G29G31
  22707793.700   119330274.20206  22707791.800    92984613.75246
  23770132.320   124912947.52704  23770133.780    97334809.45944
  20964843.200   110171001.69007  20964841.080    85847528.59249
  23760269.900   124861043.11104  23760271.560    97294321.08046
  23782950.400   124980251.74104  23782952.360    97387226.21844
  22861650.000   120138774.04806  22861649.200    93614622.40047
  21714013.340   114107901.58507  21714012.000    88915236.95948
 15 02 11 00 29 30.0000000  0  7G16G18G21G25G27G29G31
  22692032.680   119247450.09306  22692030.840    92920075.47846
  23755801.060   124837637.12204  23755802.380    97276126.33144
  20965927.900   110176701.94007  20965925.800    85851970.35649
  23777241.460   124950228.78004  23777243.360    97363816.33145
  23769008.160   124906985.20904  23769010.040    97330135.46346
  22875621.140   120212192.25606  22875620.200    93671831.38546
  21727219.580   114177300.78207  21727218.200    88969314.21848
 15 02 11 00 30  0.0000000  0  7G16G18G21G25G27G29G31
  22676294.340   119164744.49506  22676292.460    92855629.57046
  23741485.000   124762406.41804  23741486.020    97217505.28644
  20967096.980   110182845.48107  20967094.940    85856757.53749
  23794251.280   125039616.23204  23794253.440    97433468.81145
  23755088.380   124833836.35504  23755090.180    97273136.41545
  22889600.500   120285653.85006  22889599.360    93729074.16946
  21740501.360   114247096.65507  21740499.900    89023700.58448
 15 02 11 00 30 30.0000000  0  7G16G18G21G25G27G29G31
  22660579.140   119082160.26706  22660577.280    92791278.22446
  23727184.680   124687259.07704  23727185.600    97158949.16044
  20968350.660   110189433.36207  20968348.620    85861890.95249
  23811299.500   125129205.64204  23811301.780    97503278.66644
  23741191.200   124760806.32804  23741192.920    97216229.94246
  22903588.060   120359159.10506  22903586.820    93786350.99045
  21753858.380   114317287.93007  21753856.900    89078395.05348
 15 02 11 00 31  0.0000000  0  7G16G18G21G25G27G29G31
  22644887.160   118999697.72806  22644885.280    92727021.71646
  23712900.440   124612196.60004  23712901.440    97100459.22745
  20969688.420   110196463.37207  20969686.360    85867368.89149
  23828385.920   125218994.95204  23828388.160    97573244.28645
  23727316.400   124687893.91704  23727318.120    97159415.11946
  22917583.520   120432706.28205  22917582.180    93843660.46245
  21767289.880   114387870.93107  21767288.460    89133394.76648
 15 02 11 00 31 30.0000000  0  7G16G18G21G25G27G29G31
  22629218.560   118917358.39006  22629216.620    92662861.18746
  23698632.840   124537221.22804  23698633.680    97042037.09744
  20971109.940   110203933.57107  20971107.840    85873189.82949
  23845510.180   125308982.70504  23845512.220    97643364.51045
  23713463.840   124615098.64604  23713465.840    97102691.56846
  22931586.660   120506294.12305  22931585.440    93901001.63746
  21780795.340   114458842.51507  21780793.940    89188697.26948
 15 02 11 00 32  0.0000000  0  7G16G18G21G25G27G29G31
  22613574.100   118835146.20306  22613572.160    92598799.75946
  23684382.720   124462337.69704  23684383.700    96983686.51344
  20972615.640   110211845.99907  20972613.460    85879355.36349
  23862672.300   125399170.17804  23862674.420    97713640.41645
  23699633.880   124542422.76704  23699636.240    97046061.06447
  22945598.020   120579924.79505  22945596.940    93958376.14545
  21794374.780   114530202.62307  21794373.300    89244302.51548
 15 02 11 00 32 30.0000000  0  7G16G18G21G25G27G29G31
  22597953.700   118753060.87806  22597951.840    92534837.17647
  23670150.360   124387546.64504  23670151.420    96925408.01945
  20974204.980   110220197.92107  20974202.760    85885863.35749
  23879871.960   125489554.59404  23879874.060    97784069.76445
  23685826.400   124469864.29805  23685829.040    96989522.04147
  22959617.040   120653595.65005  22959615.940    94015781.99046
  21808027.360   114601946.92407  21808025.820    89300207.13248
 15 02 11 00 33  0.0000000  0  7G16G18G21G25G27G29G31
  22582357.660   118671103.22906  22582355.740    92470974.07946
  23655936.060   124312850.38105  23655937.140    96867203.37144
  20975877.440   110228986.81007  20975875.260    85892711.84849
  23897108.640   125580133.79004  23897110.760    97854650.84345
  23672041.160   124397422.21505  23672043.860    96933073.71246
  22973643.440   120727305.08705  22973642.380    94073217.90246
  21821752.340   114674071.92807  21821750.760    89356408.41148
 15 02 11 00 33 30.0000000  0  7G16G18G21G25G27G29G31
  22566786.880   118589278.36506  22566784.920    92407214.45746
  23641740.960   124238254.48005  23641741.840    96809076.89544
  20977633.540   110238215.54107  20977631.440    85899903.06449
  23914382.680   125670910.36104  23914384.880    97925385.75745
  23658278.540   124325099.87904  23658281.240    96876718.66746
  22987677.880   120801056.08106  22987676.800    94130686.20147
  21835549.880   114746578.30707  21835548.240    89412906.85748
 15 02 11 00 34  0.0000000  0  7G16G18G21G25G27G29G31
  22551241.260   118507585.44306  22551239.360    92343557.63746
  23627564.960   124163759.31205  23627565.600    96751028.93044
  20979472.700   110247880.45207  20979470.600    85907434.16648
  23931693.560   125761880.58504  23931695.840    97996271.53144
  23644538.440   124252894.64905  23644540.960    96820454.89246
  23001719.460   120874845.05805  23001718.460    94188184.07746
  21849419.020   114819460.85107  21849417.280    89469698.41948
 15 02 11 00 34 30.0000000  0  7G16G18G21G25G27G29G31
  22535721.120   118426026.53106  22535719.320    92280005.25246
  23613408.560   124089367.02305  23613408.980    96693061.11344
  20981394.680   110257980.24707  20981392.500    85915304.14049
  23949041.260   125853043.47904  23949043.560    98067307.50444
  23630820.620   124180806.47905  23630822.820    96764282.32946
  23015768.220   120948671.65306  23015767.320    94245711.27847
  21863359.220   114892717.10107  21863357.480    89526781.17948
 15 02 11 00 35  0.0000000  0  7G16G18G21G25G27G29G31
  22520227.380   118344606.37506  22520225.600    92216560.99346
  23599272.880   124015084.03004  23599273.020    96635178.42745
  20983400.000   110268517.95407  20983397.700    85923515.34949
  23966426.020   125944401.39604  23966428.560    98138495.36845
  23617125.640   124108838.66105  23617127.860    96708203.55546
  23029824.660   121022538.84705  23029823.880    94303270.13246
  21877370.700   114966347.92007  21877369.000    89584155.81148
 15 02 11 00 35 30.0000000  0  7G16G18G21G25G27G29G31
  22504759.480   118263322.44306  22504757.780    92153222.86746
  23585157.500   123940908.40104  23585157.420    96577379.39544
  20985487.520   110279487.49607  20985485.120    85932063.05249
  23983847.060   126035948.72004  23983849.840    98209830.86945
  23603452.680   124036986.60305  23603454.920    96652214.99546
  23043887.900   121096441.80805  23043887.220    94360856.82846
  21891452.060   115040345.98507  21891450.440    89641816.61248
 15 02 11 00 36  0.0000000  0  7G16G18G21G25G27G29G31
  22489318.160   118182177.61106  22489316.460    92089993.12646
  23571063.300   123866843.72304  23571063.180    96519666.86444
  20987657.160   110290889.14407  20987654.840    85940947.45549
  24001304.200   126127685.54804  24001307.120    98281313.99646
  23589801.960   123965251.40405  23589803.980    96596317.46046
  23057957.980   121170380.40705  23057957.300    94418471.28247
  21905603.080   115114710.08707  21905601.500    89699762.63448
 15 02 11 00 36 30.0000000  0  7G16G18G21G25G27G29G31
  22473903.940   118101175.39606  22473902.180    92026874.52346
  23556991.060   123792894.35905  23556990.920    96462044.15944
  20989909.180   110302723.76507  20989906.980    85950169.23448
  24018797.620   126219612.65304  24018800.440    98352945.42045
  23576173.760   123893634.75305  23576175.800    96540512.33946
  23072035.280   121244356.56305  23072034.560    94476115.01846
  21919823.540   115189438.92707  21919821.900    89757992.86748
 15 02 11 00 37  0.0000000  0  7G16G18G21G25G27G29G31
  22458517.040   118020316.44206  22458515.200    91963867.54946
  23542941.120   123719061.80004  23542941.040    96404512.45644
  20992243.120   110314988.68207  20992240.980    85959726.31249
  24036326.780   126311727.66604  24036329.420    98424723.23544
  23562567.940   123822135.32105  23562569.820    96484798.50946
  23086119.360   121318368.46405  23086118.560    94533786.60247
  21934112.720   115264528.87207  21934111.040    89816504.47348
 15 02 11 00 37 30.0000000  0  7G16G18G21G25G27G29G31
  22443158.180   117939604.54106  22443156.220    91900975.17146
  23528914.240   123645350.89405  23528914.260    96347075.55045
  20994659.240   110327685.30007  20994657.040    85969619.78849
  24053891.800   126404031.66204  24053894.300    98496648.32144
  23548984.660   123750755.12305  23548986.520    96429177.61047
  23100210.500   121392417.22205  23100209.620    94591486.91646
  21948470.520   115339979.57107  21948468.840    89875297.18848
 15 02 11 00 38  0.0000000  0  7G16G18G21G25G27G29G31
  22427827.040   117859038.73306  22427825.080    91838196.63247
  23514910.460   123571761.34205  23514910.440    96289733.18645
  20997156.700   110340809.59607  20997154.440    85979846.51949
  24071492.120   126496520.77504  24071494.280    98568717.65946
  23535423.620   123679491.38805  23535425.560    96373647.45746
  23114308.020   121466499.97705  23114307.180    94649213.71847
  21962895.960   115415785.59107  21962894.300    89934366.79048
 15 02 11 00 38 30.0000000  0  7G16G18G21G25G27G29G31
  22412524.420   117778623.09006  22412522.500    91775535.10046
  23500930.800   123498298.38705  23500930.660    96232489.47145
  20999735.660   110354362.50007  20999733.440    85990407.22349
  24089127.760   126589196.41804  24089129.960    98640932.35444
  23521885.100   123608346.48905  23521887.240    96318209.93346
  23128412.300   121540618.38405  23128411.440    94706968.29046
  21977388.980   115491946.54407  21977387.360    89993712.95948
 15 02 11 00 39  0.0000000  0  7G16G18G21G25G27G29G31
  22397250.760   117698359.53606  22397248.880    91712992.07146
  23486975.660   123424964.25705  23486975.460    96175346.15844
  21002396.040   110368343.26507  21002393.960    86001301.31949
  24106798.380   126682057.11704  24106801.000    98713291.22545
  23508369.260   123537320.02405  23508370.960    96262864.65446
  23142523.160   121614771.79005  23142522.320    94764750.12846
  21991948.940   115568459.51407  21991947.340    90053333.41148
 15 02 11 00 39 30.0000000  0  7G16G18G21G25G27G29G31
  22382005.720   117618246.17106  22382003.800    91650566.08547
  23473044.860   123351758.17105  23473044.520    96118302.58045
  21005137.060   110382747.22807  21005135.040    86012525.19949
  24124503.740   126775098.42104  24124506.200    98785790.81645
  23494875.280   123466408.54404  23494876.640    96207608.98446
  23156640.000   121688956.22705  23156639.100    94822556.15346
  22006574.720   115645318.30107  22006573.100    90113223.34747
 15 02 11 00 40  0.0000000  0  7G16G18G21G25G27G29G31
  22366790.720   117538290.58307  22366788.720    91588263.02947
  23459139.920   123278688.34005  23459139.740    96061365.18845
  21007959.520   110397578.82707  21007957.460    86024082.29349
  24142244.360   126868324.78704  24142246.780    98858434.60244
  23481404.040   123395617.49805  23481405.540    96152447.17346
  23170763.680   121763177.01405  23170762.820    94880390.48047
  22021266.800   115722525.78207  22021265.240    90173384.98748
 15 02 11 00 40 30.0000000  0  7G16G18G21G25G27G29G31
  22351605.260   117458490.45507  22351603.220    91526081.12546
  23445260.620   123205753.55605  23445260.900    96004533.01244
  21010862.220   110412832.57407  21010860.100    86035968.33649
  24160018.980   126961731.04304  24160021.500    98931218.62045
  23467955.100   123324942.82105  23467956.640    96097376.01246
  23184893.420   121837429.62705  23184892.700    94938249.65346
  22036023.980   115800075.25407  22036022.440    90233813.10748
 15 02 11 00 41  0.0000000  0  7G16G18G21G25G27G29G31
  22336449.720   117378847.88307  22336447.640    91464021.98746
  23431407.620   123132956.16205  23431407.980    95947807.89845
  21013844.960   110428507.64507  21013842.860    86048182.68049
  24177827.520   127055316.09604  24177830.140    99004141.88844
  23454528.320   123254384.42405  23454529.880    96042395.48046
  23199029.220   121911713.01605  23199028.460    94996132.78747
  22050845.880   115877964.29707  22050844.300    90294505.83548
 15 02 11 00 41 30.0000000  0  7G16G18G21G25G27G29G31
  22321324.680   117299365.87106  22321322.680    91402087.95947
  23417581.760   123060300.55405  23417581.820    95891193.26445
  21016907.940   110444604.19207  21016905.880    86060725.45249
  24195670.240   127149080.36204  24195673.040    99077204.81341
  23441124.020   123183943.77105  23441125.600    95987506.71546
  23213171.260   121986028.90505  23213170.340    95054041.23146
  22065732.100   115956191.53507  22065730.520    90355462.09048
 15 02 11 00 42  0.0000000  0  7G16G18G21G25G27G29G31
  22306231.080   117220048.51507  22306229.140    91340282.22347
  23403783.720   122987791.00705  23403783.560    95834692.43345
  21020051.440   110461123.04707  21020049.320    86073597.29049
  24213547.300   127243024.69904  24213550.200    99150408.05445
  23427742.280   123113622.75205  23427743.820    95932711.15146
  23227319.680   122060378.87405  23227318.660    95111976.24147
  22080682.420   116034756.20207  22080680.920    90416681.27848
 15 02 11 00 42 30.0000000  0  7G16G18G21G25G27G29G31
  22291168.520   117140894.35107  22291166.640    91278603.66446
  23390013.380   122915426.99005  23390013.000    95778305.00245
  21023274.500   110478059.70607  21023272.280    86086794.69749
  24231457.920   127337144.46804  24231460.540    99223747.98444
  23414382.580   123043417.91105  23414384.140    95878006.10046
  23241473.780   122134758.63005  23241472.660    95169934.46646
  22095695.780   116113651.99707  22095694.360    90478158.48848
 15 02 11 00 43  0.0000000  0  7G16G18G21G25G27G29G31
  22276137.520   117061905.90806  22276135.620    91217054.22247
  23376271.160   122843211.61505  23376270.480    95722033.37145
  21026576.860   110495413.47207  21026574.600    86100317.11149
  24249401.800   127431439.38504  24249404.400    99297224.36645
  23401045.300   122973329.84305  23401046.760    95823392.05646
  23255633.520   122209168.52105  23255632.460    95227916.15846
  22110771.880   116192876.99807  22110770.420    90539892.21047
 15 02 11 00 43 30.0000000  0  7G16G18G21G25G27G29G31
  22261138.560   116983085.84607  22261136.740    91155636.01147
  23362557.920   122771148.92705  23362557.220    95665880.74646
  21029958.420   110513184.24207  21029956.220    86114164.45549
  24267378.820   127525909.19704  24267381.460    99370837.09245
  23387730.440   122903359.53905  23387731.920    95768869.76846
  23269799.040   122283609.28005  23269798.160    95285921.93546
  22125910.220   116272429.48307  22125908.740    90601881.12248
 15 02 11 00 44  0.0000000  0  7G16G18G21G25G27G29G31
  22246172.080   116904436.05907  22246170.180    91094350.47046
  23348874.100   122699240.97905  23348873.500    95609848.67745
  21033419.040   110531370.37207  21033416.880    86128335.46449
  24285388.880   127620552.47204  24285391.560    99444584.91946
  23374437.760   122833506.65205  23374439.320    95714438.98646
  23283970.360   122358079.93605  23283969.480    95343950.99647
  22141110.280   116352306.57407  22141108.840    90664122.97047
 15 02 11 00 44 30.0000000  0  7G16G18G21G25G27G29G31
  22231238.440   116825959.39507  22231236.520    91033199.83547
  23335220.560   122627491.47305  23335219.880    95553940.09245
  21036958.920   110549972.10707  21036956.640    86142830.33049
  24303432.080   127715369.18804  24303434.860    99518467.93144
  23361167.560   122763772.10005  23361169.060    95660100.40546
  23298147.500   122432581.25105  23298146.640    95402003.92246
  22156371.820   116432506.35007  22156370.420    90726616.25947
 15 02 11 00 45  0.0000000  0  7G16G18G21G25G27G29G31
  22216337.620   116747655.56207  22216335.780    90972183.87247
  23321597.400   122555901.26105  23321596.740    95498155.61544
  21040577.200   110568985.89207  21040574.860    86157646.27749
  24321507.860   127810356.04304  24321510.400    99592483.48445
  23347919.480   122694153.80005  23347921.100    95605852.41346
  23312330.040   122507111.07005  23312329.220    95460079.08646
  22171693.960   116513024.17707  22171692.540    90789357.39047
 15 02 11 00 45 30.0000000  0  7G16G18G21G25G27G29G31
  22201470.180   116669527.14506  22201468.400    90911304.59847
  23308004.880   122484472.92105  23308004.280    95442497.25745
  21044273.600   110588410.81807  21044271.340    86172782.57949
  24339615.800   127905512.42504  24339618.320    99666631.11145
  23334693.760   122624652.24305  23334695.520    95551695.40346
  23326517.940   122581669.10405  23326517.100    95518176.22046
  22187076.160   116593857.69807  22187074.720    90852344.50447
 15 02 11 00 46  0.0000000  0  7G16G18G21G25G27G29G31
  22186636.540   116591576.10807  22186634.740    90850563.53047
  23294443.820   122413209.71705  23294443.280    95386967.58145
  21048047.920   110608245.80207  21048045.840    86188238.40349
  24357755.720   128000837.17104  24357758.160    99740910.00344
  23321490.280   122555267.23305  23321492.080    95497629.19247
  23340711.120   122656255.39105  23340710.340    95576295.37145
  22202517.860   116675004.19007  22202516.460    90915575.50047
 15 02 11 00 46 30.0000000  0  7G16G18G21G25G27G29G31
  22171837.580   116513806.60207  22171835.700    90789963.91547
  23280915.120   122342116.22305  23280914.560    95331570.13245
  21051900.620   110628491.92207  21051898.560    86204014.60049
  24375927.780   128096331.17604  24375930.220    99815320.69944
  23308309.360   122486001.01205  23308311.020    95443655.54846
  23354910.040   122730871.45005  23354909.320    95634437.74746
  22218018.980   116756462.88107  22218017.620    90979049.76847
 15 02 11 00 47  0.0000000  0  7G16G18G21G25G27G29G31
  22157073.260   116436219.17507  22157071.320    90729506.19847
  23267419.040   122271193.62305  23267418.380    95276305.84646
  21055831.040   110649145.89007  21055828.840    86220108.60949
  24394131.500   128191992.08704  24394134.220    99889861.52545
  23295150.740   122416852.19405  23295152.420    95389773.39246
  23369114.380   122805515.39805  23369113.580    95692601.82846
  22233578.680   116838229.65607  22233577.360    91042764.09747
 15 02 11 00 47 30.0000000  0  7G16G18G21G25G27G29G31
  22142343.700   116358814.89607  22142341.820    90669191.18247
  23253955.660   122200443.58805  23253955.020    95221176.03345
  21059838.700   110670205.99407  21059836.320    86236519.08849
  24412366.600   128287817.69504  24412369.300    99964530.62244
  23282014.180   122347819.77005  23282016.000    95335981.91747
  23383323.800   122880186.07005  23383322.960    95750786.71446
  22249196.280   116920301.07907  22249195.100    91106715.82147
 15 02 11 00 48  0.0000000  0  7G16G18G21G25G27G29G31
  22127649.340   116281595.83607  22127647.520    90609020.49247
  23240525.640   122129869.19205  23240524.920    95166183.07545
  21063923.280   110691670.88007  21063920.880    86253244.97349
  24430633.000   128383807.10604  24430635.580   100039327.34244
  23268899.860   122278903.89805  23268901.740    95282281.26046
  23397538.280   122954883.59105  23397537.420    95808992.55845
  22264871.320   117002674.38507  22264870.220    91170902.77447
 15 02 11 00 48 30.0000000  0  7G16G18G21G25G27G29G31
  22112990.920   116204565.97107  22112989.220    90548997.23047
  23227129.920   122059474.71605  23227129.000    95111330.32645
  21068085.000   110713541.48707  21068082.720    86270287.00249
  24448930.520   128479960.88104  24448933.520   100114252.11646
  23255808.060   122210106.37905  23255809.900    95228672.84046
  23411758.100   123029609.31505  23411757.220    95867220.36046
  22280603.680   117085348.69207  22280602.620    91235324.27747
 15 02 11 00 49  0.0000000  0  7G16G18G21G25G27G29G31
  22098368.700   116127725.97507  22098367.040    90489121.90747
  23213768.760   121989261.79805  23213767.820    95056619.05045
  21072323.520   110735815.04607  21072321.320    86287643.01749
  24467258.940   128576276.67604  24467261.960   100189303.21145
  23242738.500   122141425.94805  23242740.240    95175155.63647
  23425982.960   123104361.63805  23425982.200    95925468.89446
  22296392.620   117168320.07907  22296391.540    91299977.25748
 15 02 11 00 49 30.0000000  0  7G16G18G21G25G27G29G31
  22083782.960   116051077.52307  22083781.320    90429395.84247
  23200442.540   121919233.01905  23200441.720    95002051.24045
  21076638.560   110758489.96507  21076636.280    86305311.78849
  24485617.900   128672753.21304  24485620.760   100264479.52445
  23229691.240   122072862.49705  23229692.980    95121729.61746
  23440212.860   123179140.16705  23440212.240    95983737.83746
  22312237.540   117251585.48006  22312236.420    91364859.34647
 15 02 11 00 50  0.0000000  0  7G16G18G21G25G27G29G31
  22069233.980   115974622.11707  22069232.300    90369820.20746
  23187151.700   121849389.73305  23187150.980    94947627.96345
  21081029.600   110781564.28707  21081027.200    86323291.78448
  24504006.960   128769388.25204  24504010.040   100339779.32946
  23216666.020   122004414.97905  23216667.760    95068393.90347
  23454447.660   123253943.67905  23454446.960    96042026.25546
  22328137.680   117335141.07207  22328136.540    91429967.56747
 15 02 11 00 50 30.0000000  0  7G16G18G21G25G27G29G31
  22054722.260   115898362.37407  22054720.520    90310397.03847
  23173897.000   121779735.60705  23173896.380    94893352.09045
  21085496.480   110805037.80807  21085494.020    86341582.84148
  24522426.280   128866181.47604  24522429.760   100415202.35246
  23203662.980   121936084.25005  23203664.820    95015149.20546
  23468687.160   123328772.45405  23468686.440    96100334.36346
  22344092.660   117418984.97407  22344091.520    91495300.44147
 15 02 11 00 51  0.0000000  0  7G16G18G21G25G27G29G31
  22040247.700   115822297.91707  22040245.920    90251126.03247
  23160678.320   121710270.54905  23160677.720    94839223.54146
  21090038.400   110828906.23407  21090035.960    86360181.61548
  24540875.260   128963129.22904  24540878.840   100490745.80646
  23190681.860   121867867.81205  23190683.820    94961993.57247
  23482931.000   123403624.05205  23482930.240    96158660.23345
  22360101.580   117503112.06207  22360100.440    91560853.97147
 15 02 11 00 51 30.0000000  0  7G16G18G21G25G27G29G31
  22025811.720   115746436.23807  22025809.960    90192013.04347
  23147497.180   121641003.00905  23147496.400    94785248.90145
  21094656.300   110853173.70907  21094653.880    86379091.34049
  24559354.360   129060235.83104  24559357.900   100566413.03246
  23177723.580   121799771.14105  23177725.500    94908931.26946
  23497180.080   123478503.45705  23497179.300    96217007.79846
  22376164.920   117587524.93906  22376163.780    91626630.19047
 15 02 11 00 52  0.0000000  0  7G16G18G21G25G27G29G31
  22011414.400   115670777.97607  22011412.640    90133058.56247
  23134353.780   121571934.35705  23134352.960    94731429.25545
  21099349.760   110877837.68007  21099347.320    86398310.02649
  24577862.860   129157498.64704  24577866.500   100642201.95946
  23164787.780   121731792.77805  23164789.680    94855961.14446
  23511434.140   123553409.09005  23511433.320    96275375.78146
  22392281.740   117672219.22706  22392280.600    91692625.69947
 15 02 11 00 52 30.0000000  0  7G16G18G21G25G27G29G31
  21997055.880   115595323.49407  21997054.160    90074262.86847
  23121248.460   121503065.18105  23121247.580    94677765.01145
  21104118.040   110902895.02407  21104115.700    86417835.22949
  24596400.440   129254914.63404  24596404.180   100718110.26341
  23151874.160   121663931.03605  23151876.080    94803081.90047
  23525692.860   123628339.08005  23525692.040    96333762.73346
  22408451.280   117757190.62806  22408450.120    91758837.14047
 15 02 11 00 53  0.0000000  0  7G16G18G21G25G27G29G31
  21982735.920   115520071.74307  21982734.300    90015625.14647
  23108180.980   121434395.02805  23108180.060    94624255.86346
  21108960.200   110928341.30007  21108958.040    86437663.49348
  24614966.660   129352479.78004  24614970.360   100794134.75945
  23138982.100   121596182.91205  23138984.040    94750291.19247
  23539955.600   123703289.94305  23539954.780    96392165.95446
  22424672.380   117842433.10506  22424671.240    91825259.81447
 15 02 11 00 53 30.0000000  0  7G16G18G21G25G27G29G31
  21968455.620   115445028.16907  21968453.940    89957149.63147
  23095152.540   121365930.03305  23095151.640    94570906.59845
  21113876.700   110954178.46007  21113874.640    86457796.34248
  24633561.840   129450195.96704  24633565.240   100870276.93744
  23126112.320   121528551.62505  23126114.220    94697591.52247
  23554222.860   123778264.78205  23554222.120    96450587.88846
  22440945.180   117927947.17006  22440944.020    91891894.10147
 15 02 11 00 54  0.0000000  0  8G16G18G21G22G25G27G29G31
  21954215.820   115370197.38807  21954214.100    89898839.94347
  23082164.180   121297675.85606  23082163.300    94517721.58245
  21118867.940   110980407.95307  21118865.840    86478234.91449
  24550879.080   129015739.38614                                
  24652186.120   129548064.90904  24652189.380   100946538.17844
  23113265.240   121461040.02105  23113266.920    94644985.10147
  23568495.140   123853266.30905  23568494.420    96509030.61345
  22457269.760   118013733.15906  22457268.620    91958740.28247
 15 02 11 00 54 30.0000000  0  8G16G18G21G22G25G27G29G31
  21940015.440   115295573.31207  21940013.620    89840691.31047
  23069214.640   121229626.17906  23069213.740    94464695.90346
  21123932.060   111007019.63107  21123929.820    86498971.29349
  24533383.600   128923800.59604  24533385.500   100460114.14345
  24670837.380   129646076.65504  24670840.480   101022910.62546
  23100439.280   121393639.40905  23100440.760    94592465.17447
  23582770.880   123928285.35305  23582769.980    96567486.97146
  22473643.820   118099779.26506  22473642.780    92025789.16347
 15 02 11 00 55  0.0000000  0  8G16G18G21G22G25G27G29G31
  21925856.320   115221166.22507  21925854.340    89782711.76947
  23056306.180   121161792.28405  23056305.420    94411838.37446
  21129070.240   111034020.69207  21129067.960    86520011.08548
  24515873.760   128831785.56804  24515875.880   100388414.33745
  24689517.120   129744238.48904  24689520.360   101099400.05543
  23087636.120   121326358.30205  23087637.500    94540038.36247
  23597051.540   124003330.48405  23597050.560    96625963.65945
  22490068.460   118186090.96806  22490067.460    92093044.98847
 15 02 11 00 55 30.0000000  0  7G16G18G21G25G27G29G31
  21911739.620   115146982.24707  21911737.500    89724906.07347
  23043440.140   121094180.77106  23043439.460    94359154.14445
  21134282.860   111061413.63607  21134280.700    86541356.23449
  24708226.020   129842553.16903  24708229.460   101176008.56944
  23074856.440   121259200.68805  23074857.980    94487707.79747
  23611337.840   124078405.33905  23611336.820    96684463.53645
  22506543.900   118272669.84306  22506542.960    92160508.99747
