     2.11           OBSERVATION DATA    G                   RINEX VERSION / TYPE
SPIDER V4,0,0,3554                      2015 03 24 05:57    PGM / RUN BY / DATE 
CNAJ                                                        MARKER NAME         
CNAJ                                                        MARKER NUMBER       
                                                            OBSERVER / AGENCY   
496642              LEICA GRX1200+GNSS  8.10/4.007          REC # / TYPE / VERS 
10321018            LEIAR25         NONE                    ANT # / TYPE        
  5206098.7325   612081.0247  3621806.3029                  APPROX POSITION XYZ 
        0.0720        0.0000        0.0000                  ANTENNA: DELTA H/E/N
     1     1                                                WAVELENGTH FACT L1/2
     4    C1    L1    P2    L2                              # / TYPES OF OBSERV 
    30.000                                                  INTERVAL            
  2015    01    15    00    00    0.0000000     GPS         TIME OF FIRST OBS   
  2015    01    15    23    59   30.0000000     GPS         TIME OF LAST OBS    
    16                                                      LEAP SECONDS        
    30                                                      # OF SATELLITES     
   G 1   795   795   794   794                              PRN / # OF OBS      
   G 2   932   931   931   931                              PRN / # OF OBS      
   G 3   852   852     5     5                              PRN / # OF OBS      
   G 4   844   844   842   842                              PRN / # OF OBS      
   G 5   640   640   640   640                              PRN / # OF OBS      
   G 6   790   790   783   783                              PRN / # OF OBS      
   G 7   645   645   645   645                              PRN / # OF OBS      
   G 9   807   807   805   805                              PRN / # OF OBS      
   G10   751   751   750   750                              PRN / # OF OBS      
   G11   781   781   781   781                              PRN / # OF OBS      
   G12   823   823   822   822                              PRN / # OF OBS      
   G13   789   788   789   788                              PRN / # OF OBS      
   G14   945   945   944   944                              PRN / # OF OBS      
   G15   705   704   705   704                              PRN / # OF OBS      
   G16   664   664   663   663                              PRN / # OF OBS      
   G17   920   920   918   918                              PRN / # OF OBS      
   G18   904   904   903   903                              PRN / # OF OBS      
   G19   759   759   759   759                              PRN / # OF OBS      
   G20   848   848   847   847                              PRN / # OF OBS      
   G21   743   743   741   741                              PRN / # OF OBS      
   G22   656   656   655   655                              PRN / # OF OBS      
   G23   756   756   751   751                              PRN / # OF OBS      
   G24   838   838   838   838                              PRN / # OF OBS      
   G25   861   861   860   860                              PRN / # OF OBS      
   G27   801   801   800   800                              PRN / # OF OBS      
   G28   864   864   859   859                              PRN / # OF OBS      
   G29   783   782   778   778                              PRN / # OF OBS      
   G30   676   676   667   667                              PRN / # OF OBS      
   G31   846   844   842   842                              PRN / # OF OBS      
   G32   774   772   761   759                              PRN / # OF OBS      
BIT 2 OF LLI FLAGS DATA COLLECTED UNDER A/S CONDITION       COMMENT             
SNR is mapped to RINEX snr flag value [2-9]                 COMMENT             
Lx:     = 25dBHz -> 1; 26-27dBHz -> 2; 28-31dBHz -> 3       COMMENT             
       32-35dBHz -> 4; 36-38dBHz -> 5; 39-41dBHz -> 6       COMMENT             
       42-44dBHz -> 7; 45-48dBHz -> 8; >=49dBHz -> 9        COMMENT             
                                                            END OF HEADER       
 15 01 15 00 00  0.0000000  0  8G02G12G14G21G24G25G29G31
  23866141.500   125417445.83807  23866136.740    97727867.40545
  22795889.240   119793292.03508  22795886.040    93345464.28645
  22970630.680   120711490.31507  22970630.620    94060884.37045
  23654065.080   124302964.10107  23654062.520    96859453.64442
  24320324.180   127804246.12607  24320324.940    99587742.17543
  20780627.960   109202942.06508  20780628.280    85093238.94448
  20095982.540   105605161.54808  20095979.100    82289704.11348
  22003507.000   115629212.47408  22003503.200    90100689.09746
 15 01 15 00 00 30.0000000  0  8G02G12G14G21G24G25G29G31
  23878308.480   125481382.23908  23878303.400    97777687.95045
  22807705.060   119855386.96908  22807701.960    93393849.93845
  22982860.540   120775760.28707  22982860.500    94110964.80945
  23636276.700   124209485.44107  23636273.840    96786613.14841
  24340820.740   127911956.08108  24340821.740    99671671.95943
  20783420.300   109217618.01608  20783421.080    85104674.73948
  20097651.900   105613935.55508  20097648.640    82296540.99948
  21990014.860   115558310.86009  21990011.080    90045441.08646
 15 01 15 00 01  0.0000000  0  8G02G12G14G21G24G25G29G31
  23890544.700   125545681.98308  23890539.220    97827791.63745
  22819544.320   119917605.63508  22819541.520    93442332.02044
  22995148.960   120840336.83507  22995148.700    94161284.17045
  23618508.360   124116112.87507  23618505.280    96713855.30443
  24361338.160   128019774.37208  24361338.960    99755686.18143
  20786254.600   109232514.06008  20786255.760    85116282.05148
  20099399.520   105623120.57708  20099396.480    82303698.16148
  21976586.480   115487743.23309  21976582.580    89990453.33246
 15 01 15 00 01 30.0000000  0  8G02G12G14G21G24G25G29G31
  23902851.300   125610351.47108  23902845.380    97878183.44045
  22831408.420   119979956.58607  22831405.960    93490917.18144
  23007496.960   120905225.47407  23007496.380    94211846.70945
  23600762.120   124022857.19207  23600759.660    96641188.58343
  24381877.560   128127707.85508  24381878.040    99839790.16344
  20789132.580   109247639.05108  20789134.100    85128067.74948
  20101226.800   105632723.41809  20101224.000    82311180.89948
  21963223.780   115417520.22809  21963219.640    89935734.11446
 15 01 15 00 02  0.0000000  0  8G02G12G14G21G24G25G29G31
  23915227.120   125675385.53307  23915220.920    97928859.30645
  22843296.980   120042435.93606  22843295.400    93539602.39744
  23019903.140   120970419.71007  23019902.460    94262647.38444
  23583037.840   123929716.94107  23583035.640    96568611.79343
  24402437.480   128235749.79507  24402437.520    99923978.62844
  20792053.700   109262989.61608  20792055.320    85140029.21948
  20103132.920   105642739.23809  20103130.220    82318985.43748
  21949926.360   115347640.35109  21949921.980    89881282.27446
 15 01 15 00 02 30.0000000  0  8G02G12G14G21G24G25G29G31
  23927673.160   125740789.14507  23927666.980    97979823.13045
  22855211.540   120105051.25807  22855211.140    93588393.47945
  23032368.140   121035923.62407  23032367.720    94313689.38144
  23565337.180   123836701.25707  23565335.400    96496132.11144
  24423018.960   128343905.80507  24423019.000   100008255.90844
  20795019.300   109278573.25308  20795020.780    85152172.30048
  20105118.760   105653173.18709  20105116.040    82327115.80648
  21936696.040   115278112.99509  21936691.320    89827105.11346
 15 01 15 00 03  0.0000000  0  8G02G12G14G21G24G25G29G31
  23940187.140   125806549.31908  23940180.800    98031064.81244
  22867150.400   120167791.73607  22867150.820    93637282.16145
  23044889.260   121101723.30306  23044889.340    94364961.84945
  23547658.940   123743803.02907  23547657.460    96423743.94345
  24443619.660   128452162.98907  24443619.400   100092612.10144
  20798027.420   109294379.74308  20798028.600    85164489.03348
  20107181.880   105664013.45309  20107179.120    82335562.78448
  21923531.180   115208929.90909  21923525.980    89773196.20546
 15 01 15 00 03 30.0000000  0  8G02G12G14G21G24G25G29G31
  23952769.560   125872668.68508  23952763.120    98082586.37345
  22879114.400   120230661.42507  22879114.960    93686271.50846
  23057466.640   121167820.00906  23057467.400    94416465.74845
  23530004.140   123651028.01607  23530003.140    96351451.79044
  24464239.700   128560523.21307  24464239.360   100177048.51744
  20801078.840   109310413.58708  20801079.700    85176982.92748
  20109322.560   105675262.27108  20109319.820    82344328.11848
  21910433.000   115140097.46209  21910427.120    89719560.52445
 15 01 15 00 04  0.0000000  0  8G02G12G14G21G24G25G29G31
  23965420.020   125939146.36608  23965413.620    98134387.17245
  22891103.740   120293662.58708  22891104.100    93735363.30046
  23070100.000   121234211.83806  23070101.580    94468199.60145
  23512373.600   123558379.78307  23512372.720    96279258.43045
  24484879.020   128668985.78107  24484879.040   100261564.67744
  20804173.780   109326676.56608  20804174.420    85189655.36848
  20111540.800   105686920.27608  20111538.140    82353412.30048
  21897402.200   115071619.16609  21897395.640    89666200.79745
 15 01 15 00 04 30.0000000  0  8G02G12G14G21G24G25G29G31
  23978137.860   126005979.22407  23978131.860    98186464.71345
  22903118.000   120356793.49608  22903117.840    93784556.19846
  23082788.740   121300894.67306  23082791.060    94520160.21945
  23494767.580   123465859.64507  23494766.920    96207164.89744
  24505537.520   128777547.26508  24505537.520   100346157.97944
  20807312.060   109343167.91308  20807312.600    85202505.77548
  20113836.080   105698984.55508  20113833.720    82362813.05548
  21884438.940   115003495.91309  21884431.920    89613117.73646
 15 01 15 00 05  0.0000000  0  8G02G12G14G21G24G25G29G31
  23990922.340   126073162.83707  23990916.880    98238815.55645
  22915156.600   120420051.88108  22915155.740    93833848.43846
  23095532.160   121367863.12407  23095534.820    94572343.35243
  23477185.940   123373467.37407  23477184.960    96135170.95144
  24526214.160   128886202.97908  24526213.720   100430824.74543
  20810493.360   109359885.72808  20810493.800    85215532.63848
  20116207.780   105711451.02308  20116205.780    82372527.19248
  21871543.220   114935727.86909  21871536.120    89560311.46046
 15 01 15 00 05 30.0000000  0  8G02G12G14G21G24G25G29G31
  24003773.640   126140697.71207  24003768.700    98291440.10245
  22927219.640   120483439.94208  22927218.200    93883241.69846
  23108330.160   121435116.25606  23108332.780    94624748.37544
  23459629.580   123281207.89007  23459628.640    96063280.47744
  24546908.860   128994953.41308  24546908.180   100515565.31344
  20813718.240   109376832.62908  20813718.600    85228738.00048
  20118656.320   105724320.34208  20118654.560    82382555.22148
  21858715.840   114868319.54009  21858709.060    89507785.49346
 15 01 15 00 06  0.0000000  0  8G02G12G14G21G24G25G29G31
  24016692.040   126208585.01407  24016687.660    98344339.30445
  22939307.960   120546961.45808  22939305.840    93932738.99546
  23121182.700   121502654.65206  23121184.780    94677375.64444
  23442099.500   123189087.07106  23442098.320    95991498.04744
  24567621.700   129103799.69108  24567621.260   100600380.51044
  20816987.440   109394012.43808  20816987.760    85242124.84848
  20121182.240   105737594.42008  20121180.380    82392898.65048
  21845957.860   114801276.52309  21845951.620    89455544.20046
 15 01 15 00 06 30.0000000  0  8G02G12G14G21G24G25G29G31
  24029676.940   126276821.77007  24029672.960    98397510.79045
  22951421.060   120610615.08008  22951418.640    93982339.17346
  23134088.760   121570473.73807  23134090.120    94730221.67343
  23424595.820   123097105.76806  23424594.620    95919824.37244
  24588352.160   129212738.32408  24588352.180   100685267.64244
  20820300.820   109411424.35409  20820301.160    85255692.56548
  20123784.920   105751270.63908  20123782.720    82403555.43648
  21833269.520   114734599.76109  21833263.860    89403588.30846
 15 01 15 00 07  0.0000000  0  8G02G12G14G21G24G25G29G31
  24042727.400   126345403.40207  24042723.900    98450951.00245
  22963558.840   120674398.62708  22963556.080    94032040.64446
  23147047.340   121638568.47707  23147047.900    94783282.43944
  23407118.440   123005264.10706  23407117.640    95848259.44544
  24609099.300   129321764.81007  24609099.460   100770223.23145
  20823658.180   109429066.64409  20823658.400    85269439.80148
  20126463.380   105765345.04808  20126460.920    82414522.50848
  21820650.860   114668289.19009  21820645.700    89351917.76246
 15 01 15 00 07 30.0000000  0  8G02G12G14G21G24G25G29G31
  24055843.320   126414329.27507  24055840.220    98504659.47845
  22975721.380   120738313.59508  22975718.460    94081844.49546
  23160058.000   121706936.70207  23160057.780    94836556.37444
  23389668.140   122913565.58306  23389668.240    95776806.14044
  24629862.940   129430878.49107  24629863.100   100855246.78844
  20827059.680   109446940.76609  20827059.820    85283367.69148
  20129217.380   105779817.09308  20129214.800    82425799.43248
  21808102.600   114602348.25409  21808097.740    89300535.23846
 15 01 15 00 08  0.0000000  0  8G02G12G14G21G24G25G29G31
  24069023.700   126483594.46507  24069021.000    98558632.34445
  22987908.480   120802357.39308  22987905.460    94131748.75745
  23173119.700   121775572.63307  23173118.400    94890038.89343
  23372245.280   122822009.94007  23372245.880    95705464.11544
  24650642.140   129540073.85507  24650642.300   100940333.92944
  20830504.880   109465044.45309  20830504.880    85297474.45048
  20132046.120   105794682.81608  20132043.700    82437383.11648
  21795624.660   114536776.66709  21795619.920    89249440.50246
 15 01 15 00 08 30.0000000  0  8G02G12G14G21G24G25G29G31
  24082268.860   126553199.88007  24082266.420    98612870.33145
  23000120.680   120866532.79008  23000117.480    94181755.55445
  23186232.280   121844476.17208  23186229.620    94943729.98744
  23354850.960   122730602.45807  23354851.620    95634237.55744
  24671437.280   129649351.76108  24671437.300   101025485.42345
  20833994.380   109483381.03509  20833994.280    85311762.69348
  20134949.920   105809943.41008  20134947.880    82449274.47848
  21783217.900   114471579.22909  21783213.060    89198637.30746
 15 01 15 00 09  0.0000000  0  8G02G12G14G21G24G25G29G31
  24095577.980   126623141.50907  24095575.880    98667370.29845
  23012357.560   120930838.07308  23012354.160    94231863.55845
  23199394.680   121913642.09208  23199390.720    94997625.49744
  23337485.000   122639343.41207  23337485.480    95563126.64344
  24692247.640   129758708.64708  24692247.500   101110698.46444
  20837527.860   109501948.93009  20837527.760    85326231.17948
  20137928.280   105825595.59108  20137926.760    82461470.98148
  21770882.440   114406756.18309  21770877.260    89148125.83346
 15 01 15 00 09 30.0000000  0  8G02G12G14G21G24G25G29G31
  24108951.520   126693420.79507  24108949.580    98722133.36445
  23024619.920   120995276.46408  23024616.460    94282075.28745
  23212606.920   121983070.78008  23212602.220    95051725.76744
  23320148.360   122548238.60407  23320148.620    95492135.92244
  24713073.100   129868145.03108  24713072.340   101195973.45244
  20841106.080   109520752.18009  20841106.060    85340883.06048
  20140981.580   105841641.16608  20140980.440    82473974.02048
  21758619.360   114342313.38909  21758613.800    89097910.66246
 15 01 15 00 10  0.0000000  0  8G02G12G14G21G24G25G29G31
  24122388.460   126764031.74507  24122386.420    98777154.87745
  23036906.960   121059844.31708  23036903.640    94332387.85945
  23225867.740   122052755.24108  23225862.660    95106025.33744
  23302840.860   122457286.65007  23302840.660    95421264.31944
  24733912.600   129977655.47508  24733910.640   101281306.19843
  20844728.320   109539787.30309  20844728.520    85355715.62048
  20144108.680   105858074.34308  20144107.840    82486779.08148
  21746428.340   114278249.14609  21746422.540    89047990.47146
 15 01 15 00 10 30.0000000  0  8G02G12G14G21G24G25G29G31
  24135888.960   126834975.82707  24135886.480    98832435.97245
  23049219.360   121124545.08608  23049215.940    94382804.06245
  23239177.120   122122695.92708  23239172.260    95160524.53844
  23285563.500   122366493.01607  23285562.980    95350516.07445
  24754766.220   130087240.92608  24754763.340   101366697.42243
  20848395.380   109559057.99109  20848395.720    85370731.74048
  20147309.820   105874896.92208  20147309.180    82499887.57848
  21734310.360   114214569.11809  21734304.380    88998369.66846
 15 01 15 00 11  0.0000000  0  8G02G12G14G21G24G25G29G31
  24149452.060   126906248.67307  24149449.100    98887973.25045
  23061556.500   121189376.77708  23061553.160    94433322.24245
  23252534.200   122192887.82508  23252529.800    95215219.50144
  23268316.480   122275858.10007  23268315.560    95279891.50944
  24775633.260   130196897.46208  24775631.360   101452144.04744
  20852106.980   109578562.68909  20852107.400    85385930.19348
  20150584.280   105892105.56608  20150583.940    82513296.90948
  21722265.400   114151273.18209  21722259.260    88949048.15646
 15 01 15 00 11 30.0000000  0  8G02G12G14G21G24G25G29G31
  24163078.040   126977852.76907  24163074.680    98943768.60545
  23073919.480   121254343.93708  23073916.020    94483945.97444
  23265939.200   122263332.10607  23265935.440    95270111.13244
  23251101.060   122185388.93407  23251099.840    95209396.12045
  24796514.000   130306626.79907  24796513.480   101537647.27244
  20855864.040   109598306.28009  20855864.500    85401314.79848
  20153932.620   105909702.90908  20153932.500    82527009.11848
  21710294.660   114088368.06709  21710288.560    88900031.17645
 15 01 15 00 12  0.0000000  0  7G02G12G14G21G25G29G31
  24176765.840   127049781.84007  24176761.980    98999817.20244
  23086307.460   121319442.64408  23086303.480    94534672.27644
  23279390.560   122334020.91207  23279387.560    95325193.26944
  23233916.780   122095083.29608  23233915.340    95139028.12545
  20859665.800   109618285.07609  20859666.400    85416882.68348
  20157353.900   105927683.10208  20157353.940    82541019.65048
  21698397.800   114025851.76109  21698391.840    88851317.16346
 15 01 15 00 12 30.0000000  0  7G02G12G14G21G25G29G31
  24190515.880   127122038.23807  24190511.620    99056120.87145
  23098721.220   121384677.21408  23098716.640    94585504.42743
  23292888.520   122404956.11806  23292886.720    95380467.40545
  23216764.940   122004947.90508  23216763.000    95068792.80944
  20863513.280   109638503.90909  20863513.900    85432637.62848
  20160848.820   105946049.38508  20160848.880    82555331.04848
  21686576.300   113963731.07509  21686570.720    88802911.43046
 15 01 15 00 13  0.0000000  0  7G02G12G14G21G25G29G31
  24204327.780   127194619.68707  24204323.060    99112677.83244
  23111160.940   121450047.74308  23111155.520    94636442.54443
  23306432.140   122476134.48304  23306432.060    95435931.00744
  23199645.840   121914985.26607  23199643.620    94998692.08945
  20867406.520   109658962.96609  20867407.020    85448579.74448
  20164417.100   105964799.62508  20164416.920    82569941.61848
  21674830.700   113902008.01609  21674825.580    88754815.53246
 15 01 15 00 13 30.0000000  0  7G02G12G14G21G25G29G31
  24218200.320   127267519.27607  24218195.060    99169482.67445
  23123625.400   121515549.44008  23123619.760    94687482.84043
  23320020.520   122547547.78305  23320021.860    95491577.61745
  23182558.980   121825192.58808  23182556.460    94928723.81544
  20871344.620   109679657.85009  20871344.920    85464705.62147
  20168057.320   105983927.19508  20168056.780    82584846.21648
  21663160.420   113840679.44509  21663155.780    88707027.03747
 15 01 15 00 14  0.0000000  0  7G02G12G14G21G25G29G31
  24232132.340   127340731.20907  24232126.800    99226530.91744
  23136113.860   121581178.22708  23136108.640    94738622.15544
  23333653.280   122619189.21606  23333654.620    95547402.02445
  23165504.240   121735569.06208  23165501.460    94858887.31344
  20875326.980   109700585.56309  20875327.000    85481012.91447
  20171768.440   106003426.71608  20171767.440    82600040.63848
  21651565.180   113779744.16909  21651560.940    88659545.00447
 15 01 15 00 14 30.0000000  0  7G02G12G14G21G25G29G31
  24246124.440   127414258.56907  24246118.780    99283824.94544
  23148627.640   121646940.13008  23148623.280    94789865.17344
  23347330.500   122691060.61007  23347331.360    95603405.66545
  23148482.880   121646121.68208  23148479.940    94789188.07444
  20879354.760   109721751.53009  20879354.440    85497505.87747
  20175551.120   106023302.22208  20175549.680    82615528.03948
  21640046.220   113719209.52409  21640042.240    88612375.14647
 15 01 15 00 15  0.0000000  0  7G02G12G14G21G25G29G31
  24260176.300   127488100.14407  24260170.760    99341363.80244
  23161166.740   121712835.65008  23161162.660    94841212.30344
  23361051.440   122763160.14607  23361051.520    95659587.09345
  23131495.640   121556853.38308  23131492.360    94719628.36344
  20883428.180   109743156.98409  20883427.620    85514185.44247
  20179405.200   106043552.62209  20179403.300    82631307.57348
  21628603.980   113659078.41009  21628600.140    88565519.74148
 15 01 15 00 15 30.0000000  0  7G02G12G14G21G25G29G31
  24274287.620   127562254.62507  24274282.320    99399146.46944
  23173731.600   121778866.16908  23173728.000    94892664.67645
  23374815.380   122835486.05607  23374814.660    95715944.89945
  23114543.040   121467768.01107  23114539.900    94650211.21744
  20887547.480   109764803.70209  20887546.820    85531053.00247
  20183330.460   106064177.22209  20183328.180    82647378.68948
  21617239.080   113599354.20709  21617235.280    88518981.39348
 15 01 15 00 16  0.0000000  0  7G02G12G14G21G25G29G31
  24288458.120   127636720.76307  24288452.940    99457172.01145
  23186322.280   121845032.43308  23186319.160    94944222.72045
  23388621.620   122908035.23108  23388620.260    95772476.67945
  23097625.980   121378868.71807  23097623.020    94580939.05144
  20891712.940   109786692.79609  20891712.140    85548109.43047
  20187326.720   106085175.48209  20187324.180    82663740.96348
  21605951.980   113540039.59409  21605948.180    88472762.22447
 15 01 15 00 16 30.0000000  0  7G02G12G14G21G25G29G31
  24302686.840   127711493.64107  24302681.740    99515436.53844
  23198938.500   121911331.40608  23198935.500    94995884.26645
  23402469.060   122980801.79908  23402467.380    95829177.86845
  23080744.100   121290154.68908  23080741.420    94511811.29144
  20895924.080   109808821.91609  20895923.080    85565352.89647
  20191393.080   106106542.88509  20191390.340    82680390.87948
  21594742.620   113481134.05709  21594738.800    88426861.79548
 15 01 15 00 17  0.0000000  0  7G02G12G14G21G25G29G31
  24316973.680   127786572.09407  24316968.500    99573939.20644
  23211580.260   121977764.80208  23211577.360    95047650.51445
  23416357.420   123053783.99408  23416355.440    95886047.07445
  23063898.260   121201629.48308  23063895.940    94442830.65044
  20900181.100   109831192.57009  20900180.040    85582784.58347
  20195529.440   106128278.43709  20195526.500    82697327.66048
  21583611.600   113422640.68809  21583607.820    88381282.55948
 15 01 15 00 17 30.0000000  0  7G02G12G14G21G25G29G31
  24331318.420   127861954.66608  24331313.240    99632678.87444
  23224247.940   122044332.79608  23224244.960    95099521.65945
  23430286.180   123126978.89808  23430284.220    95943082.02345
  23047088.960   121113295.84508  23047086.620    94373999.29744
  20904484.160   109853805.71809  20904483.260    85600405.21847
  20199735.620   106150381.38109  20199732.460    82714550.73448
  21572559.500   113364562.17809  21572555.840    88336026.58547
 15 01 15 00 18  0.0000000  0  7G02G12G14G21G25G29G31
  24345720.060   127937636.01308  24345714.840    99691651.35344
  23236940.400   122111032.10807  23236937.380    95151495.07344
  23444254.100   123200380.10608  23444252.120    96000277.73545
  23030315.940   121025152.67008  23030313.560    94305316.33045
  20908832.740   109876658.39909  20908832.080    85618212.48547
  20204010.620   106172846.69509  20204007.280    82732056.17348
  21561586.140   113306897.47509  21561582.580    88291093.06348
 15 01 15 00 18 30.0000000  0  7G02G12G14G21G25G29G31
  24360179.160   128013619.49308  24360173.920    99750859.25744
  23249659.020   122177868.71508  23249655.540    95203575.54744
  23458261.740   123273990.33308  23458259.740    96057636.31945
  23013580.620   120937208.16408  23013578.180    94236788.17645
  20913228.020   109899756.89909  20913227.540    85636211.30247
  20208355.180   106195678.01909  20208351.640    82749846.82948
  21550692.940   113249654.11909  21550689.480    88246487.86947
 15 01 15 00 19  0.0000000  0  7G02G12G14G21G25G29G31
  24374694.720   128089899.91707  24374689.600    99810298.51444
  23262403.200   122244839.86507  23262399.040    95255760.84344
  23472307.980   123347803.77807  23472305.860    96115153.26444
  22996882.980   120849461.73908  22996880.560    94168414.38644
  20917669.680   109923098.84709  20917669.360    85654399.82547
  20212768.460   106218870.81309  20212764.760    82767919.15148
  21539879.760   113192831.22409  21539876.320    88202210.29647
 15 01 15 00 19 30.0000000  0  7G02G12G14G21G25G29G31
  24389266.400   128166475.52107  24389261.380    99869967.78944
  23275173.180   122311945.94508  23275169.080    95308051.27744
  23486392.180   123421817.08206  23486389.640    96172825.96144
  22980223.480   120761915.93508  22980221.040    94100196.89545
  20922157.820   109946684.83109  20922157.560    85672778.49547
  20217250.300   106242424.28909  20217246.580    82786272.52548
  21529147.040   113136431.05409  21529143.480    88158262.13247
 15 01 15 00 20  0.0000000  0  7G02G12G14G21G25G29G31
  24403893.920   128243344.43207  24403888.960    99929865.61244
  23287968.780   122379187.56307  23287964.600    95360447.29844
  23500513.800   123496027.77306  23500510.540    96230652.42843
  22963602.640   120674573.50708  22963600.040    94032137.90344
  20926692.560   109970515.93909  20926692.380    85691348.17747
  20221800.420   106266336.82909  20221796.800    82804905.67748
  21518495.440   113080456.69909  21518491.560    88114645.77147
 15 01 15 00 20 30.0000000  0  7G02G12G14G21G25G29G31
  24418576.460   128320502.05608  24418571.460    99989988.42744
  23300789.720   122446561.79508  23300784.500    95412946.75144
  23514671.660   123570429.94806  23514667.440    96288628.15744
  22947020.360   120587434.10908  22947017.500    93964237.09244
  20931273.560   109994589.79209  20931273.380    85710107.02247
  20226418.060   106290603.72609  20226414.600    82823814.94848
  21507924.740   113024906.95709  21507920.200    88071360.26147
 15 01 15 00 21  0.0000000  0  7G02G12G14G21G25G29G31
  24433314.560   128397951.26808  24433309.260   100050338.46444
  23313636.800   122514073.87908  23313631.360    95465553.56844
  23528866.140   123645025.62505  23528861.740    96346754.69244
  22930478.180   120500504.75008  22930474.900    93896499.96244
  20935901.920   110018911.90909  20935901.600    85729059.31547
  20231103.960   106315228.93809  20231100.660    82843003.43148
  21497436.380   112969789.35209  21497431.020    88028411.47447
 15 01 15 00 21 30.0000000  0  7G02G12G14G21G25G29G31
  24448107.240   128475686.61607  24448101.400   100110911.45544
  23326509.480   122581720.10108  23326503.880    95518264.88144
  23543096.080   123719808.17206  23543092.820    96405026.80043
  22913975.900   120413784.72608  22913971.960    93828925.91544
  20940577.060   110043479.52309  20940576.620    85748202.89847
  20235857.220   106340207.31209  20235853.900    82862467.09248
  21487029.980   112915102.37809  21487023.840    87985798.24247
 15 01 15 00 22  0.0000000  0  7G02G12G14G21G25G29G31
  24462953.980   128553706.18107  24462947.460   100171705.89044
  23339408.120   122649501.66608  23339402.200    95571081.70144
  23557361.120   123794774.98206  23557359.360    96463442.44443
  22897514.120   120327276.85508  22897509.580    93761517.19244
  20945299.080   110068293.54109  20945298.480    85767538.47347
  20240677.480   106365537.57109  20240674.200    82882204.95848
  21476706.000   112860848.72809  21476699.300    87943522.63947
 15 01 15 00 22 30.0000000  0  7G02G12G14G21G25G29G31
  24477854.300   128632007.05007  24477846.800   100232719.53044
  23352332.240   122717417.90008  23352325.860    95624003.40743
  23571660.560   123869922.01006  23571660.440    96521998.50343
  22881093.060   120240982.41408  22881088.220    93694274.77545
  20950067.840   110093353.54109  20950067.060    85787065.73247
  20245564.120   106391216.95809  20245560.940    82902214.88548
  21466464.640   112807029.38409  21466457.700    87901585.48247
 15 01 15 00 23  0.0000000  0  7G02G12G14G21G25G29G31
  24492807.940   128710588.01007  24492799.620   100293951.43643
  23365282.240   122785469.63208  23365275.080    95677030.76944
  23585994.080   123945246.90505  23585994.840    96580693.16345
  22864713.200   120154904.71508  22864708.560    93627201.26045
  20954883.720   110118660.95609  20954882.640    85806785.78247
  20250516.880   106417244.48409  20250513.900    82922496.07648
  21456306.500   112753647.49109  21456299.640    87859989.18847
 15 01 15 00 23 30.0000000  0  7G02G12G14G21G25G29G31
  24507814.100   128789444.65507  24507805.260   100355398.16644
  23378257.420   122853654.40008  23378250.600    95730161.72544
  23600360.820   124020744.78105  23600361.680    96639522.63545
  22848374.440   120069043.63108  22848370.180    93560296.55845
  20959746.540   110144214.06509  20959744.900    85826697.29347
  20255535.080   106443616.53809  20255532.400    82943045.74348
  21446231.460   112700702.53809  21446224.920    87818733.37847
 15 01 15 00 24  0.0000000  0  7G02G12G14G21G25G29G31
  24522872.720   128868577.11507  24522863.980   100417059.81844
  23391258.280   122921974.75408  23391252.220    95783398.35244
  23614760.700   124096414.42006  23614761.100    96698485.93945
  22832077.820   119983404.18908  22832074.180    93493564.56845
  20964656.740   110170015.89809  20964654.580    85846802.62347
  20260618.980   106470333.80309  20260616.480    82963864.39748
  21436240.420   112648199.35809  21436234.380    87777821.80747
 15 01 15 00 24 30.0000000  0  7G02G12G14G21G25G29G31
  24537983.440   128947983.94607  24537974.900   100478935.25044
  23404285.200   122990431.98208  23404279.600    95836741.63944
  23629193.100   124172253.79305  23629192.680    96757581.50444
  22815823.920   119897989.29508  22815820.720    93427007.55445
  20969614.400   110196067.56809  20969612.000    85867102.62247
  20265768.580   106497395.96709  20265766.060    82984951.80248
  21426333.860   112596140.39709  21426328.400    87737256.37947
 15 01 15 00 25  0.0000000  0  7G02G12G14G21G25G29G31
  24553146.040   129027663.71006  24553137.740   100541023.33344
  23417338.140   123059026.87508  23417333.140    95890192.15544
  23643657.420   124248260.57706  23643656.380    96816807.48945
  22799613.260   119812801.55908  22799610.360    93360627.53045
  20974619.720   110222370.13009  20974617.260    85887598.11847
  20270983.560   106524801.51809  20270980.940    83006306.77048
  21416512.340   112544528.54909  21416507.420    87697039.34248
 15 01 15 00 25 30.0000000  0  7G02G12G14G21G25G29G31
  24568359.720   129107611.77607  24568351.960   100603320.52244
  23430416.900   123127756.60908  23430412.640    95943747.77345
  23658152.400   124324428.34906  23658150.660    96876158.92445
  22783445.860   119727840.74708  22783443.060    93294424.33845
  20979672.340   110248921.43309  20979670.040    85908287.44847
  20276263.060   106552545.90609  20276260.320    83027925.78248
  21406775.660   112493362.70209  21406771.260    87657169.85948
 15 01 15 00 26  0.0000000  0  7G02G12G14G21G25G29G31
  24583624.460   129187827.69807  24583617.060   100665826.39344
  23443521.640   123196622.97408  23443517.720    95997409.82745
  23672677.860   124400756.27307  23672675.220    96935635.13244
  22767322.500   119643111.27708  22767319.440    93228401.39945
  20984772.800   110275724.04009  20984770.740    85929172.59647
  20281607.260   106580629.54609  20281604.440    83049809.14848
  21397124.640   112442647.28509  21397120.760    87617651.35048
 15 01 15 00 26 30.0000000  0  7G02G12G14G21G25G29G31
  24598939.980   129268310.83907  24598933.020   100728540.52545
  23456652.800   123265627.78808  23456649.100    96051179.80445
  23687233.380   124477242.60207  23687230.080    96995234.87545
  22751243.780   119558616.56308  22751240.320    93162561.38145
  20989921.400   110302779.80509  20989919.580    85950255.00647
  20287016.000   106609051.68709  20287013.180    83071956.27748
  21387559.900   112392385.34809  21387556.440    87578486.21748
 15 01 15 00 27  0.0000000  0  7G02G12G14G21G25G29G31
  24614305.300   129349056.61407  24614298.880   100791459.30445
  23469809.840   123334768.81008  23469806.500    96105055.91245
  23701817.960   124553882.29707  23701813.920    97054954.08344
  22735209.700   119474356.78808  22735205.900    93096904.44245
  20995117.820   110330086.98709  20995116.300    85971533.32448
  20292488.340   106637808.27609  20292485.680    83094364.01148
  21378081.540   112342576.87109  21378078.340    87539674.42548
 15 01 15 00 27 30.0000000  0  7G02G12G14G21G25G29G31
  24629720.400   129430064.81707  24629714.680   100854582.57744
  23482993.140   123404048.13908  23482990.200    96159039.74845
  23716431.300   124630674.03807  23716426.460    97114791.79944
  22719221.000   119390336.47008  22719216.960    93031434.07044
  21000362.540   110357647.94809  21000361.320    85993009.38948
  20298024.460   106666900.77809  20298022.060    83117033.50548
  21368690.240   112293225.59109  21368687.160    87501218.89448
 15 01 15 00 28  0.0000000  0  7G02G12G14G21G25G29G31
  24645185.060   129511334.42607  24645180.060   100917909.55245
  23496202.980   123473466.36908  23496199.920    96213131.85145
  23731072.900   124707615.58708  23731067.780    97174746.19644
  22703278.240   119306558.28208  22703274.080    92966152.38044
  21005655.840   110385464.30409  21005654.900    86014684.46248
  20303624.060   106696327.82509  20303621.980    83139963.66248
  21359386.520   112244334.51109  21359383.460    87463121.95348
 15 01 15 00 28 30.0000000  0  7G02G12G14G21G25G29G31
  24660698.080   129592858.45307  24660693.920   100981434.78045
  23509438.520   123543019.81708  23509435.040    96267329.30344
  23745741.420   124784699.24808  23745736.460    97234811.38443
  22687381.200   119223020.50208  22687377.000    92901058.02644
  21010996.920   110413532.04509  21010996.260    86036555.42048
  20309286.200   106726083.47109  20309284.360    83163149.88748
  21350169.900   112195901.00709  21350166.780    87425381.57448
 15 01 15 00 29  0.0000000  0  7G02G12G14G21G25G29G31
  24676259.200   129674635.87506  24676255.920   101045157.43244
  23522700.240   123612709.41708  23522696.440    96321632.87845
  23760436.440   124861922.88307  23760431.920    97294985.66144
  22671530.640   119139726.17008  22671526.400    92836153.38045
  21016386.100   110441852.54009  21016385.680    86058623.33248
  20315010.820   106756166.70709  20315009.040    83186591.37248
  21341040.940   112147927.96909  21341037.760    87387999.99348
 15 01 15 00 29 30.0000000  0  7G02G12G14G21G25G29G31
  24691869.300   129756670.93306  24691866.980   101109080.87044
  23535989.220   123682541.31808  23535984.960    96376047.32444
  23775158.580   124939289.60406  23775154.760    97355271.38544
  22655728.200   119056683.76308  22655723.900    92771445.03444
  21021824.620   110470432.72309  21021824.360    86080893.58848
  20320798.680   106786581.67209  20320796.820    83210291.34748
  21332001.300   112100423.97809  21331997.940    87350983.90048
 15 01 15 00 30  0.0000000  0  7G02G12G14G21G25G29G31
  24707527.160   129838957.59505  24707526.240   101173200.31044
  23549304.520   123752511.94008  23549299.660    96430569.86145
  23789906.480   125016792.95805  23789903.420    97415663.59344
  22639973.580   118973891.77008  22639968.880    92706931.80945
  21027311.840   110499269.24909  21027311.640    86103363.60148
  20326648.900   106817323.74309  20326646.880    83234246.22448
  21323050.540   112053386.81009  21323047.040    87314331.56348
 15 01 15 00 30 30.0000000  0  7G02G12G14G21G25G29G31
  24723232.240   129921491.39506  24723232.200   101237512.33145
  23562645.900   123822619.12109  23562640.620    96485198.82145
  23804678.940   125094427.62006  23804676.340    97476158.10043
  22624266.600   118891350.05008  22624261.640    92642613.59245
  21032847.520   110528360.34509  21032847.360    86126031.96748
  20332560.500   106848388.49909  20332558.340    83258452.51748
  21314188.500   112006815.94709  21314185.040    87278042.56748
 15 01 15 00 31  0.0000000  0  7G02G12G14G21G25G29G31
  24738982.200   130004259.77006  24738982.700   101302007.16345
  23576011.260   123892852.68808  23576005.920    96539926.25245
  23819473.540   125172180.04506                                
  22608605.700   118809050.55908  22608600.620    92578484.14345
  21038429.820   110557696.27909  21038429.660    86148891.12948
  20338531.240   106879764.25509  20338528.980    83282901.14848
  21305413.580   111960703.21609  21305410.340    87242110.57748
 15 01 15 00 31 30.0000000  0  7G02G12G14G21G25G29G31
  24754779.540   130087274.89207  24754779.780   101366694.29945
  23589403.120   123963226.44908  23589398.100    96594762.91045
  23834293.220   125250061.08506  23834291.100    97597427.91043
  22592993.980   118727009.98008  22592988.860    92514556.43145
  21044061.560   110587291.67909  21044061.440    86171952.47948
  20344563.480   106911463.36509  20344561.020    83307601.74948
  21296728.780   111915064.75109  21296725.900    87206548.14348
 15 01 15 00 32  0.0000000  0  7G02G12G14G21G25G29G31
  24770624.180   130170537.09007  24770623.660   101431573.94345
  23602822.240   124033743.95708  23602817.620    96649711.60345
  23849138.160   125328070.43107  23849135.020    97658214.28441
  22577432.300   118645233.31708  22577427.380    92450834.38345
  21049743.320   110617149.82109  21049743.300    86195218.54948
  20350657.320   106943486.24009  20350654.580    83332554.64348
  21288135.020   111869905.07909  21288132.400    87171358.79248
 15 01 15 00 32 30.0000000  0  7G02G12G14G21G25G29G31
  24786512.880   130254029.30607  24786511.240   101496632.80445
  23616265.660   124104389.94508  23616261.380    96704760.39645
  23864004.620   125406190.29307  23864001.740    97719086.90043
  22561918.300   118563707.40708  22561913.740    92387307.70845
  21055472.440   110647256.11909  21055472.380    86218677.98148
  20356809.660   106975816.87409  20356806.700    83357747.34048
  21279629.860   111825210.76809  21279627.260    87136532.06247
 15 01 15 00 33  0.0000000  0  7G02G12G14G21G25G29G31
  24802447.040   130337759.88907  24802444.340   101561877.41845
  23629735.380   124175174.84208  23629731.740    96759917.42445
  23878893.540   125484427.54207  23878890.340    97780050.90843
  22546454.440   118482445.06508  22546450.260    92323986.43345
  21061250.860   110677621.34109  21061250.660    86242339.18348
  20363022.100   107008463.65808  20363019.060    83383186.39148
  21271215.680   111780994.20909  21271212.800    87102077.60047
 15 01 15 00 33 30.0000000  0  6G12G14G21G25G29G31
  23643228.540   124246082.91708  23643225.500    96815170.45745
  23893801.120   125562763.16008  23893797.760    97841091.62143
  22531038.200   118401432.32408  22531034.160    92260859.63444
  21067075.680   110708230.19909  21067075.320    86266190.22248
  20369291.300   107041409.17308  20369288.340    83408858.21648
  21262889.700   111737241.14109  21262886.340    87067984.29047
 15 01 15 00 34  0.0000000  0  6G12G14G21G25G29G31
  23656752.360   124317153.48808  23656750.040    96870550.08844
  23908734.180   125641233.94908  23908730.680    97902237.65943
  22515677.460   118320711.06708  22515673.540    92197959.97645
  21072954.460   110739122.67909  21072953.960    86290262.28548
  20375624.460   107074690.95208  20375621.740    83434792.07048
  21254659.800   111693993.01809  21254655.880    87034284.45147
 15 01 15 00 34 30.0000000  0  6G12G14G21G25G29G31
  23670301.980   124388360.45608  23670300.140    96926036.00244
  23923687.180   125719810.63108  23923683.200    97963466.21243
  22500367.780   118240257.33308  22500363.620    92135268.74445
  21078882.260   110770273.13409  21078881.520    86314535.35448
  20382016.320   107108281.37508  20382013.820    83460966.41448
  21246521.320   111651225.63209  21246516.920    87000959.19447
 15 01 15 00 35  0.0000000  0  6G12G14G21G25G29G31
  23683877.560   124459702.75208  23683876.120    96981627.40844
  23938659.280   125798488.73808  23938654.840    98024773.74843
  22485109.160   118160072.02908  22485104.720    92072786.70845
  21084859.000   110801680.81509  21084857.900    86339008.86248
  20388466.380   107142177.63108  20388464.040    83487379.08348
  21238474.380   111608939.18209  21238469.760    86968008.69947
 15 01 15 00 35 30.0000000  0  6G12G14G21G25G29G31
  23697479.840   124531185.91408  23697478.680    97037328.54044
  23953650.960   125877270.53008  23953645.920    98086162.13742
  22469902.920   118080162.55608  22469898.340    92010519.58845
  21090885.740   110833351.47409  21090884.220    86363687.29348
  20394975.300   107176383.08008  20394972.900    83514032.68948
  21230520.400   111567141.00809  21230515.800    86935438.68947
 15 01 15 00 36  0.0000000  0  6G12G14G21G25G29G31
  23711107.300   124602801.13508  23711106.020    97093132.57644
  23968660.160   125956143.99907  23968654.440    98147621.97043
  22454747.760   118000522.25008  22454743.260    91948462.22945
  21096960.880   110865276.64209  21096958.920    86388564.03947
  20401540.960   107210886.62108  20401538.400    83540918.58048
  21222658.040   111525823.85409  21222653.500    86903243.49647
 15 01 15 00 36 30.0000000  0  6G12G14G21G25G29G31
  23724760.600   124674549.85608  23724758.540    97149040.69944
  23983686.600   126035107.91407  23983680.800    98209152.25143
  22439644.400   117921155.15208  22439640.300    91886617.77844
  21103084.820   110897458.67109  21103082.700    86413640.94547
  20408163.520   107245689.29608  20408160.840    83568037.55248
  21214887.980   111484991.34509  21214883.440    86871425.95347
 15 01 15 00 37  0.0000000  0  6G12G14G21G25G29G31
  23738440.520   124746437.46108  23738437.940    97205056.99244
  23998730.640   126114164.36507  23998725.160    98270754.58744
  22424594.340   117842068.48708  22424590.660    91824991.83644
  21109258.600   110929903.07309  21109256.560    86438922.28347
  20414843.420   107280793.87108  20414840.900    83595391.76648
  21207211.360   111444649.94108  21207206.760    86839991.08847
 15 01 15 00 37 30.0000000  0  6G12G14G21G25G29G31
  23752147.240   124818465.25308  23752144.400    97261182.51944
  24013791.880   126193311.60806  24013787.140    98332427.70543
  22409598.320   117763265.63008  22409595.020    91763587.04145
  21115482.720   110962611.69409  21115480.860    86464409.52047
  20421580.780   107316200.53708  20421578.560    83622981.35948
  21199628.720   111404802.98008  21199624.160    86808941.50947
 15 01 15 00 38  0.0000000  0  6G12G14G21G25G29G31
  23765880.700   124890632.64408  23765877.520    97317416.83844
  24028869.520   126272545.90806  24028865.660    98394168.65744
  22394656.580   117684748.02708  22394653.420    91702404.50444
  21121757.220   110995584.38809  21121755.420    86490102.53847
  20428375.200   107351906.20408  20428373.260    83650803.94548
  21192140.220   111365451.52008  21192135.900    86778278.02347
 15 01 15 00 38 30.0000000  0  6G12G14G21G25G29G31
  23779641.420   124962943.19108  23779638.200    97373762.72944
  24043963.540   126351867.54706  24043960.600    98455977.62045
  22379770.380   117606521.43508  22379767.180    91641448.76144
  21128082.800   111028825.02209  21128080.940    86516004.33847
  20435227.100   107387912.70108  20435225.240    83678860.95748
  21184746.860   111326600.53808  21184743.000    86748004.52647
 15 01 15 00 39  0.0000000  0  6G12G14G21G25G29G31
  23793428.780   125035394.27608  23793426.080    97430218.07545
  24059073.040   126431270.53706  24059070.980    98517849.92243
  22364939.620   117528584.73208  22364935.900    91580718.85044
  21134458.920   111062331.08409  21134456.900    86542112.94347
  20442135.580   107424215.86008  20442133.580    83707149.12548
  21177448.340   111288248.77708  21177445.200    86718120.02748
 15 01 15 00 39 30.0000000  0  6G12G14G21G25G29G31
  23807242.200   125107982.50908  23807239.940    97486780.31445
  24074197.080   126510748.70207  24074195.420    98579780.90044
  22350164.040   117450937.23508  22350159.900    91520214.28844
  21140884.960   111096099.89509  21140882.780    86568426.30047
  20449099.480   107460810.14808  20449097.300    83735664.14948
  21170244.400   111250394.47808  21170242.180    86688623.16048
 15 01 15 00 40  0.0000000  0  6G12G14G21G25G29G31
  23821082.040   125180709.83208  23821080.120    97543450.94945
  24089335.480   126590301.33107  24089334.060    98641769.86643
  22335444.380   117373583.11508  22335439.980    91459938.35344
  21147361.480   111130134.35009  21147359.160    86594946.65347
  20456119.220   107497697.27608  20456116.800    83764407.36348
  21163136.020   111213041.88808  21163134.540    86659517.26348
 15 01 15 00 40 30.0000000  0  6G12G14G21G25G29G31
  23834947.880   125253574.75908  23834946.240    97600228.80645
  24104487.160   126669923.37707  24104485.800    98703812.95744
  22320780.480   117296522.15808  22320775.940    91399890.86245
  21153888.140   111164432.76809  21153885.960    86621672.68547
  20463193.940   107534872.71309  20463191.220    83793375.23448
  21156123.260   111176190.38708  21156122.120    86630801.81348
 15 01 15 00 41  0.0000000  0  6G12G14G21G25G29G31
  23848839.760   125326577.62808  23848838.560    97657114.12745
  24119651.660   126749612.46908  24119649.880    98765908.27143
  22306172.960   117219757.38308  22306168.480    91340074.15045
  21160465.180   111198996.12709  21160463.320    86648605.15647
  20470323.380   107572335.07309  20470320.200    83822566.68148
  21149206.580   111139842.36008  21149205.420    86602478.68048
 15 01 15 00 41 30.0000000  0  6G12G14G21G25G29G31
  23862757.720   125399718.08408  23862756.880    97714106.68245
  24134828.200   126829364.59808  24134825.840    98828052.79141
  22291621.920   117143290.07708  22291617.620    91280489.25945
  21167092.680   111233824.12709  21167091.100    86675743.84747
  20477507.020   107610082.47909  20477503.400    83851980.24848
  21142386.040   111103998.41808  21142384.640    86574548.35348
 15 01 15 00 42  0.0000000  0  6G12G14G21G25G29G31
  23876701.320   125472994.10108  23876700.680    97771204.86445
  24150015.860   126909175.20507  24150012.420    98890242.89742
  22277127.420   117067120.64308  22277123.360    91221136.47745
  21173770.480   111268915.71409  21173769.120    86703087.94048
  20484744.080   107648111.41309  20484740.000    83881613.19448
  21135661.580   111068658.68508  21135659.740    86547010.90648
 15 01 15 00 42 30.0000000  0  6G12G14G21G25G29G31
  23890671.260   125546409.27708  23890670.740    97828411.48844
  24165214.780   126989045.24107  24165209.880    98952479.26243
  22262690.600   116991255.05908  22262686.820    91162020.46145
  21180499.300   111304275.19009  21180498.040    86730640.76448
  20492034.880   107686424.09709  20492030.400    83911467.22848
  21129034.120   111033828.29208  21129031.680    86519870.34548
 15 01 15 00 43  0.0000000  0  6G12G14G21G25G29G31
  23904667.380   125619961.49908  23904667.060    97885724.91845
  24180423.820   127068968.70707  24180418.760    99014757.28443
  22248311.180   116915692.27108  22248307.920    91103140.42246
  21187278.660   111339899.84209  21187277.460    86758400.23848
  20499378.540   107725015.26509  20499373.780    83941538.28048
  21122503.300   110999505.75508  21122500.340    86493125.52448
 15 01 15 00 43 30.0000000  0  6G12G14G21G25G29G31
  23918689.940   125693651.41408  23918689.860    97943145.61945
  24195642.600   127148943.57607  24195638.140    99077075.29042
  22233990.060   116840435.73008  22233987.180    91044498.99245
  21194108.820   111375791.55309  21194107.720    86786367.79148
  20506775.260   107763885.16709  20506770.380    83971826.52448
  21116069.720   110965694.09808  21116066.280    86466778.79048
 15 01 15 00 44  0.0000000  0  6G12G14G21G25G29G31
  23932738.660   125767477.49208  23932738.500    98000672.40645
  24210870.220   127228965.02507  24210865.920    99139429.62342
  22219727.220   116765485.31108  22219724.520    90986096.09345
  21200989.400   111411948.69609  21200988.500    86814542.16748
  20514224.340   107803030.24209  20514219.460    84002329.17147
  21109733.180   110932392.74908  21109729.380    86440829.68948
 15 01 15 00 44 30.0000000  0  6G12G14G21G25G29G31
  23946814.560   125841445.94208  23946814.220    98058310.14145
  24226107.320   127309036.52106  24226103.540    99201822.88243
  22205524.340   116690849.86408  22205521.760    90927938.63045
  21207921.840   111448378.25209  21207921.080    86842928.83048
  20521726.600   107842454.85508  20521721.840    84033049.65347
  21103495.200   110899609.80708  21103491.080    86415284.54348
 15 01 15 00 45  0.0000000  0  6G12G14G21G25G29G31
  23960916.280   125915550.52308  23960915.840    98116053.94244
  24241352.180   127389149.04006  24241348.240    99264248.15443
  22191380.520   116616524.89608  22191377.780    90870023.08544
  21214904.980   111485074.46209  21214904.380    86871523.26548
  20529280.320   107882151.17208  20529275.960    84063981.83648
  21097354.680   110867340.13709  21097350.380    86390139.34648
 15 01 15 00 45 30.0000000  0  6G12G14G21G25G29G31
  23975044.820   125989796.18408  23975044.280    98173907.69545
  24256605.100   127469304.31206  24256601.340    99326706.72744
  22177297.040   116542517.24908  22177294.060    90812354.79945
  21221939.780   111522042.57209  21221939.340    86900329.57048
  20536886.040   107922122.67808  20536882.440    84095128.43747
  21091313.020   110835590.39209  21091308.520    86365399.29647
 15 01 15 00 46  0.0000000  0  6G12G14G21G25G29G31
  23989199.880   126064181.11108  23989199.240    98231869.95045
  24271865.200   127549497.61406  24271861.940    99389194.93043
  22163274.140   116468827.40008  22163270.740    90754934.14844
  21229026.000   111559281.49809  21229025.700    86929346.91148
  20544543.520   107962365.76808  20544540.540    84126486.67547
  21085370.180   110804360.23909  21085365.500    86341064.09948
 15 01 15 00 46 30.0000000  0  6G12G14G21G25G29G31
  24003384.540   126138721.49308  24003383.960    98289953.32546
  24287135.000   127629742.03706  24287133.240    99451751.97044
  22149315.280   116395473.39308  22149311.500    90697775.18745
  21236166.840   111596807.45909  21236166.620    86958587.90148
  20552255.680   108002894.56208  20552252.860    84158067.54947
  21079529.460   110773666.94309  21079524.620    86317147.23147
 15 01 15 00 47  0.0000000  0  6G12G14G21G25G29G31
  24017591.340   126213377.78508  24017590.660    98348127.04545
  24302406.720   127709995.32806  24302405.280    99514286.99043
  22135413.400   116322417.89708  22135409.420    90640848.83145
  21243354.880   111634581.94709  21243354.720    86988022.55348
  20560014.620   108043668.30808  20560011.720    84189839.30647
  21073783.740   110743473.08609  21073778.780    86293619.54447
 15 01 15 00 47 30.0000000  0  6G12G14G21G25G29G31
  24031824.400   126288171.75608  24031823.520    98406408.04745
  24317684.020   127790276.35007  24317682.520    99576843.54243
  22121572.880   116249684.25508  22121568.880    90584173.25345
  21250594.360   111672626.70909  21250594.240    87017667.80348
  20567824.000   108084707.25308  20567821.100    84221817.70447
  21068137.320   110713801.67409  21068132.400    86270498.94947
 15 01 15 00 48  0.0000000  0  6G12G14G21G25G29G31
  24046084.520   126363108.06308  24046083.420    98464799.97845
  24332966.780   127870586.07707  24332965.380    99639422.53844
  22107794.840   116177278.91808  22107790.920    90527753.51645
  21257886.260   111710946.50909  21257886.180    87047527.37848
  20575684.160   108126013.88108  20575681.480    84254004.68547
  21062591.200   110684657.56309  21062586.400    86247789.24747
 15 01 15 00 48 30.0000000  0  6G12G14G21G25G29G31
  24060371.120   126438184.22208  24060369.780    98523300.87145
  24348254.060   127950919.96507  24348252.680    99702020.35844
  22094079.220   116105202.19108  22094075.580    90471589.85445
  21265230.360   111749539.92109  21265230.280    87077600.17048
  20583594.540   108167583.99408  20583592.120    84286396.98547
  21057145.340   110656040.69109  21057140.740    86225490.38747
 15 01 15 00 49  0.0000000  0  6G12G14G21G25G29G31
  24074683.820   126513397.85708  24074682.420    98581908.87045
  24363544.800   128031272.60507  24363543.320    99764632.79344
  22080425.960   116033453.70208  22080422.540    90415681.95045
  21272626.240   111788405.02009  21272626.160    87107884.65548
  20591554.820   108209414.40208  20591552.280    84318992.11247
  21051799.680   110627950.23809  21051795.220    86203601.70647
 15 01 15 00 49 30.0000000  0  6G12G14G21G25G29G31
  24089023.040   126588750.81708  24089021.380    98640625.45045
  24378838.660   128111642.19007  24378837.380    99827258.38844
  22066835.740   115962036.50708  22066832.440    90360032.18545
  21280074.160   111827543.44109  21280074.100    87138382.12048
  20599564.800   108251504.67209  20599561.820    84351789.74147
  21046554.740   110600388.79409  21046550.360    86182125.24547
 15 01 15 00 50  0.0000000  0  6G12G14G21G25G29G31
  24103387.920   126664238.47708  24103385.820    98699446.99745
  24394134.480   128192021.90906  24394132.780    99889891.90943
  22053308.180   115890948.13708  22053304.760    90304638.64245
  21287573.360   111866951.63009  21287573.340    87169089.78748
  20607623.160   108293848.86009  20607619.660    84384785.22147
  21041409.880   110573353.10209  21041405.440    86161058.46747
 15 01 15 00 50 30.0000000  0  6G12G14G21G25G29G31
  24117779.660   126739869.05507  24117777.460    98758379.94045
  24409433.060   128272416.62305  24409431.280    99952537.04944
  22039845.080   115820198.57508  22039841.380    90249509.11745
  21295125.460   111906637.80309  21295125.380    87200014.08248
  20615730.900   108336453.29009  20615726.900    84417983.48047
  21036366.900   110546852.35509  21036362.260    86140408.51747
 15 01 15 00 51  0.0000000  0  5G12G21G25G29G31
  24132198.280   126815642.27906  24132196.360    98817423.95044
  22026446.640   115749789.18908  22026442.760    90194644.67045
  21302730.520   111946602.15309  21302730.380    87231155.12648
  20623887.520   108379315.85508  20623883.300    84451382.88646
  21031426.060   110520887.94509  21031421.140    86120176.50347
 15 01 15 00 51 30.0000000  0  5G12G21G25G29G31
  24146644.460   126891559.38207  24146643.260    98876580.10245
  22013113.720   115679724.41908  22013109.840    90140048.75145
  21310388.840   111986846.76209  21310388.660    87262514.55748
  20632093.060   108422436.57708  20632088.880    84484983.44047
  21026587.740   110495462.58109  21026582.620    86100364.53147
 15 01 15 00 52  0.0000000  0  6G12G14G21G25G29G31
  24161106.260   126967556.83807  24161105.560    98935798.89545
  24455329.060   128513614.44905  24455324.120   100140462.73144
  21999834.460   115609941.99408  21999830.540    90085672.85545
  21318088.340   112027308.42009  21318088.160    87294043.11648
  20640335.280   108465750.45508  20640331.360    84518734.51447
  21021840.080   110470513.76109  21021834.800    86080923.89247
 15 01 15 00 52 30.0000000  0  6G12G14G21G25G29G31
  24175603.480   127043739.98306  24175603.100    98995162.35245
  24470630.420   128594022.55805  24470625.460   100203118.46043
  21986629.380   115540549.10308  21986625.420    90031600.49045
  21325849.180   112068093.01309  21325849.120    87325823.31248
  20648634.060   108509361.12508  20648630.460    84552716.85847
  21017203.320   110446148.40808  21017198.100    86061937.90347
 15 01 15 00 53  0.0000000  0  6G12G14G21G25G29G31
  24190128.880   127120072.99206  24190129.060    99054642.51645
  24485932.980   128674438.47906  24485929.860   100265780.20543
  21973492.120   115471512.00008  21973488.160    89977805.34645
  21333664.640   112109164.73609  21333664.780    87357827.24648
  20656982.260   108553231.13308  20656978.880    84586901.29647
  21012670.800   110422331.37608  21012665.880    86043379.17747
 15 01 15 00 53 30.0000000  0  6G12G14G21G25G29G31
  24204678.600   127196531.27507  24204678.680    99114220.39945
  24501231.760   128754834.97806  24501229.640   100328426.79444
  21960418.340   115402807.98108  21960414.540    89924269.74346
  21341530.200   112150499.80709  21341530.540    87390036.37048
  20665374.780   108597334.36008  20665371.640    84621267.45347
  21008238.220   110399039.70008  21008233.700    86025229.80747
 15 01 15 00 54  0.0000000  0  6G12G14G21G25G29G31
  24219254.240   127273123.90808  24219254.080    99173902.99944
  24516528.100   128835218.23104  24516526.760   100391063.08344
  21947410.080   115334447.89208  21947406.300    89871002.14746
  21349447.700   112192107.56709  21349448.220    87422457.99148
  20673812.880   108641677.96808  20673810.060    84655820.90847
  21003907.500   110376283.55208  21003903.420    86007497.74947
 15 01 15 00 54 30.0000000  0  5G12G21G25G29G31
  24233857.500   127349861.84108  24233857.120    99233698.82145
  21934469.680   115266444.56708  21934465.980    89818012.54946
  21357419.280   112233999.38909  21357419.880    87455100.95248
  20682298.320   108686271.41608  20682295.940    84690569.03547
  20999680.960   110354074.89508  20999677.400    85990192.30047
 15 01 15 00 55  0.0000000  0  5G12G21G25G29G31
  24248484.680   127426726.38507  24248484.060    99293593.26745
  21921593.900   115198780.95908  21921590.180    89765287.67246
  21365441.560   112276156.92309  21365442.060    87487950.96648
  20690827.560   108731094.69808  20690825.540    84725496.25747
  20995555.320   110332396.28908  20995552.300    85973299.87847
 15 01 15 00 55 30.0000000  0  5G12G21G25G29G31
  24263139.480   127503739.22906  24263139.020    99353603.13345
  21908787.260   115131480.95708  21908783.580    89712846.12546
  21373518.740   112318602.44109  21373519.020    87521025.37548
  20699404.680   108776168.27008  20699402.860    84760618.52147
  20991534.980   110311270.45308  20991532.380    85956838.17547
 15 01 15 00 56  0.0000000  0  5G12G21G25G29G31
  24277819.180   127580882.39107  24277818.700    99413714.60145
  21896046.740   115064528.72308  21896042.940    89660675.56546
  21381647.560   112361318.73209  21381647.540    87554310.78748
  20708025.720   108821472.17208  20708024.060    84795920.24947
  20987616.800   110290680.92208  20987614.460    85940794.36047
 15 01 15 00 56 30.0000000  0  5G12G21G25G29G31
  24292523.860   127658154.63208  24292522.820    99473926.76944
