     2.11           OBSERVATION DATA    G                   RINEX VERSION / TYPE
SPIDER V4,0,0,3554                      2015 03 16 01:36    PGM / RUN BY / DATE 
ABKD                                                        MARKER NAME         
ABKD                                                        MARKER NUMBER       
                                                            OBSERVER / AGENCY   
496503              LEICA GRX1200+GNSS  8.20/4.007          REC # / TYPE / VERS 
10301028            LEIAR25         NONE                    ANT # / TYPE        
  5126847.8297   206786.8373  3776118.0908                  APPROX POSITION XYZ 
        0.0000        0.0000        0.0000                  ANTENNA: DELTA H/E/N
     1     1                                                WAVELENGTH FACT L1/2
     4    C1    L1    P2    L2                              # / TYPES OF OBSERV 
    30.000                                                  INTERVAL            
  2015    03    01    00    00    0.0000000     GPS         TIME OF FIRST OBS   
  2015    03    01    23    59   30.0000000     GPS         TIME OF LAST OBS    
    16                                                      LEAP SECONDS        
    30                                                      # OF SATELLITES     
   G 1   822   822   822   822                              PRN / # OF OBS      
   G 2   930   929   929   929                              PRN / # OF OBS      
   G 3   829   828   827   827                              PRN / # OF OBS      
   G 4   837   836   836   836                              PRN / # OF OBS      
   G 5   666   666   666   666                              PRN / # OF OBS      
   G 6   736   736   736   736                              PRN / # OF OBS      
   G 7   703   703   703   703                              PRN / # OF OBS      
   G 9   784   784   783   783                              PRN / # OF OBS      
   G10   774   774   773   773                              PRN / # OF OBS      
   G11   787   787   787   787                              PRN / # OF OBS      
   G12   808   808   807   807                              PRN / # OF OBS      
   G13   811   811   811   811                              PRN / # OF OBS      
   G14   936   936   936   936                              PRN / # OF OBS      
   G15   724   723   723   723                              PRN / # OF OBS      
   G16   686   686   685   685                              PRN / # OF OBS      
   G17   934   934   934   934                              PRN / # OF OBS      
   G18   933   933   933   933                              PRN / # OF OBS      
   G19   772   772   772   772                              PRN / # OF OBS      
   G20   789   789   789   789                              PRN / # OF OBS      
   G21   708   708   708   708                              PRN / # OF OBS      
   G22   789   788   782   782                              PRN / # OF OBS      
   G23   716   716   715   715                              PRN / # OF OBS      
   G24   829   828   828   828                              PRN / # OF OBS      
   G25   846   846   845   845                              PRN / # OF OBS      
   G27   820   820   820   820                              PRN / # OF OBS      
   G28   910   910   909   909                              PRN / # OF OBS      
   G29   737   737   734   734                              PRN / # OF OBS      
   G30   689   689   688   688                              PRN / # OF OBS      
   G31   785   784   783   783                              PRN / # OF OBS      
   G32   736   736   734   734                              PRN / # OF OBS      
BIT 2 OF LLI FLAGS DATA COLLECTED UNDER A/S CONDITION       COMMENT             
SNR is mapped to RINEX snr flag value [2-9]                 COMMENT             
Lx:     = 25dBHz -> 1; 26-27dBHz -> 2; 28-31dBHz -> 3       COMMENT             
       32-35dBHz -> 4; 36-38dBHz -> 5; 39-41dBHz -> 6       COMMENT             
       42-44dBHz -> 7; 45-48dBHz -> 8; >=49dBHz -> 9        COMMENT             
                                                            END OF HEADER       
 15 03 01 00 00  0.0000000  0  7G16G18G21G22G27G29G31
  21429302.840   112611781.63409  21429299.520    87749443.87048
  22670556.560   119134640.47509  22670553.920    92832205.41146
  21410487.160   112512879.16309  21410483.460    87672363.15148
  23908069.640   125637751.52308  23908068.100    97899541.94746
  22576421.400   118639966.78408  22576421.480    92446738.28347
  24266913.180   127523473.03607  24266912.100    99368926.57043
  23118107.400   121486442.24008  23118105.500    94664743.40447
 15 03 01 00 00 30.0000000  0  7G16G18G21G22G27G29G31
  21417009.980   112547182.57309  21417006.680    87699106.95748
  22659347.360   119075736.43309  22659344.860    92786306.16946
  21418389.860   112554407.55909  21418386.020    87704722.94448
  23890378.440   125544783.11208  23890376.820    97827099.15645
  22564488.440   118577258.77708  22564488.700    92397874.94047
  24281563.360   127600459.99407  24281562.120    99428916.30943
  23136088.920   121580934.50709  23136087.060    94738373.60147
 15 03 01 00 01  0.0000000  0  7G16G18G21G22G27G29G31
  21404774.540   112482885.39609  21404771.320    87649005.26848
  22648196.700   119017140.32309  22648194.380    92740646.87946
  21426355.460   112596266.78009  21426351.560    87737340.51548
  23872691.300   125451837.37308  23872689.660    97754674.16945
  22552579.920   118514679.63608  22552580.380    92349112.00647
  24296216.860   127677463.98906  24296215.800    99488919.48043
  23154100.480   121675584.84709  23154098.740    94812126.92947
 15 03 01 00 01 30.0000000  0  7G16G18G21G22G27G29G31
  21392595.340   112418883.68309  21392592.240    87599133.81648
  22637103.680   118958846.43009  22637101.360    92695223.09746
  21434382.040   112638446.86908  21434378.140    87770208.11948
  23855007.200   125358908.45808  23855005.640    97682262.37746
  22540694.280   118452220.85708  22540694.840    92300442.85647
  24310871.820   127754476.37904  24310870.960    99548929.04043
  23172140.020   121770382.24008  23172138.320    94885994.88347
 15 03 01 00 02  0.0000000  0  6G16G18G21G22G27G31
  21380475.180   112355191.97009  21380472.120    87549503.92448
  22626070.980   118900869.15009  22626068.540    92650046.01746
  21442471.740   112680958.90508  21442467.860    87803334.38148
  23837328.920   125266010.74508  23837327.560    97609874.77246
  22528833.940   118389894.81508  22528834.520    92251877.13747
  23190209.240   121865335.82509  23190207.420    94959984.52646
 15 03 01 00 02 30.0000000  0  6G16G18G21G22G27G31
  21368411.180   112291795.17309  21368408.040    87500103.82648
  22615095.660   118843193.54409  22615093.240    92605104.00646
  21450621.040   112723784.17008  21450617.220    87836704.71348
  23819653.840   125173130.40008  23819652.880    97537500.64946
  22516995.660   118327684.54908  22516996.140    92203401.64248
  23208304.360   121960425.63408  23208302.480    95034080.31847
 15 03 01 00 03  0.0000000  0  7G16G18G21G22G27G29G31
  21356405.160   112228702.93609  21356401.960    87450941.04848
  22604179.700   118785829.69209  22604177.360    92560404.93046
  21458830.940   112766928.00608  21458827.280    87870323.28548
  23801984.080   125080277.39408  23801983.400    97465147.98646
  22505180.880   118265597.39509  22505181.200    92155022.07947
  24354854.160   127985616.48104  24354855.880    99729040.02443
  23226426.140   122055656.02908  23226424.400    95108285.61947
 15 03 01 00 03 30.0000000  0  7G16G18G21G22G27G29G31
  21344457.020   112165914.69709  21344453.720    87402015.14848
  22593322.960   118728777.14409  22593320.740    92515948.41946
  21467100.640   112810386.01408  21467097.160    87904186.66848
  23784319.600   124987451.11008  23784319.040    97392815.97246
  22493389.140   118203630.66609  22493389.320    92106736.34447
  24369516.800   128062672.24804                                
  23244573.580   122151021.58508  23244572.100    95182596.31346
 15 03 01 00 04  0.0000000  0  6G16G18G21G22G27G31
  21332568.000   112103437.03409  21332564.520    87353331.26548
  22582526.700   118672042.23809  22582524.520    92471739.43447
  21475430.640   112854160.65708  21475427.300    87938296.77248
  23766661.740   124894658.85808  23766661.140    97320510.45646
  22481621.140   118141788.81708  22481621.320    92058547.93247
  23262746.960   122246523.71208  23262745.700    95257013.47547
 15 03 01 00 04 30.0000000  0  6G16G18G21G22G27G31
  21320738.380   112041271.31709  21320734.760    87304890.44748
  22571791.260   118615627.11809  22571789.120    92427779.60846
  21483820.480   112898249.67708  21483817.220    87972651.84948
  23749010.840   124801902.42908  23749009.960    97248232.69946
  22469876.560   118080071.07908  22469876.960    92010456.21948
  23280945.600   122342158.45208  23280944.540    95331533.98947
 15 03 01 00 05  0.0000000  0  6G16G18G21G22G27G31
  21308969.040   111979422.77909  21308965.400    87256696.78348
  22561117.600   118559536.95008  22561115.420    92384073.01346
  21492270.440   112942654.61608  21492267.200    88007253.09448
  23731367.980   124709188.22008  23731366.860    97175988.07546
  22458156.160   118018480.91008  22458156.820    91962463.89448
  23299169.500   122437926.16908  23299168.700    95406158.07546
 15 03 01 00 05 30.0000000  0  6G16G18G21G22G27G31
  21297258.900   111917885.60209  21297255.360    87208745.74148
  22550504.720   118503766.19409  22550502.460    92340615.30747
  21500778.640   112987365.54008  21500775.320    88042092.77148
  23713732.000   124616510.89008  23713730.740    97103772.24846
  22446458.660   117957010.26209  22446459.360    91914564.70948
  23317416.620   122533815.98108  23317416.000    95480877.33747
 15 03 01 00 06  0.0000000  0  6G16G18G21G22G27G31
  21285608.920   111856664.63309  21285605.540    87161041.09548
  22539953.620   118448319.75009  22539951.200    92297410.30546
  21509345.240   113032383.16208  21509341.780    88077171.43548
  23696103.940   124523875.65508  23696102.500    97031589.23946
  22434784.640   117895661.94209  22434785.120    91866760.85948
  23335686.940   122629827.52008  23335686.440    95555691.41847
 15 03 01 00 06 30.0000000  0  6G16G18G21G22G27G31
  21274020.260   111795765.95009  21274016.960    87113587.57648
  22529465.420   118393203.81309  22529462.960    92254462.84846
  21517970.760   113077710.33909  21517967.220    88112491.30548
  23678485.100   124431288.78508  23678483.380    96959443.92746
  22423134.640   117834439.82509  22423134.840    91819055.34448
  23353980.760   122725961.86808  23353980.200    95630601.18247
 15 03 01 00 07  0.0000000  0  6G16G18G21G22G27G31
  21262493.520   111735192.80709  21262490.280    87066387.72748
  22519040.720   118338421.67109  22519038.280    92211775.47946
  21526655.000   113123345.95509  21526651.400    88148051.51748
  23660876.240   124338754.54008  23660874.320    96887339.73846
  22411508.780   117773345.07209  22411508.780    91771449.07148
  23372297.760   122822216.99408  23372296.840    95705605.02347
 15 03 01 00 07 30.0000000  0  6G16G18G21G22G27G31
  21251028.480   111674944.45309  21251025.460    87019440.96648
  22508679.280   118283972.16809  22508676.860    92169347.32746
  21535397.040   113169285.26009  21535393.400    88183848.37848
  23643277.240   124246272.36108  23643275.120    96815276.06146
  22399906.480   117712374.83909  22399906.420    91723939.83048
  23390636.660   122918587.19008  23390635.580    95780698.53447
 15 03 01 00 08  0.0000000  0  6G16G18G21G22G27G31
  21239625.360   111615021.19209  21239622.460    86972747.52648
  22498381.460   118229856.54809  22498378.900    92127179.31846
  21544196.180   113215524.47709  21544192.500    88219878.94348
  23625688.260   124153843.33108  23625685.900    96743253.85845
  22388327.580   117651527.55409  22388327.500    91676526.39748
  23408996.540   123015067.65408  23408995.500    95855877.92946
 15 03 01 00 08 30.0000000  0  6G16G18G21G22G27G31
  21228284.500   111555425.16109  21228281.700    86926309.06748
  22488147.540   118176076.95709  22488144.960    92085273.18246
  21553052.140   113262062.67708  21553048.460    88256142.46548
  23608109.700   124061469.57408  23608107.200    96671274.65746
  22376772.140   117590803.21509  22376772.180    91629208.75548
  23427376.880   123111655.74808  23427375.880    95931141.22947
 15 03 01 00 09  0.0000000  0  6G16G18G21G22G27G31
  21217006.940   111496161.52009  21217004.200    86880129.61248
  22477978.520   118122638.43309  22477975.980    92043632.78647
  21561965.140   113308900.90008  21561961.480    88292639.78248
  23590542.820   123969157.07208  23590540.340    96599343.14246
  22365240.660   117530204.89409  22365240.880    91581989.31948
  23445777.480   123208351.31708  23445776.700    96006488.22147
 15 03 01 00 09 30.0000000  0  6G16G18G21G22G27G31
  21205792.800   111437230.95009  21205790.160    86834209.69648
  22467874.420   118069541.43109  22467872.020    92002258.52747
  21570934.500   113356035.44108  21570930.880    88329367.98248
  23572987.860   123876906.84808  23572985.580    96527460.11146
  22353732.800   117469731.01009  22353733.160    91534866.84148
  23464197.600   123305149.98208  23464197.060    96081915.56646
 15 03 01 00 10  0.0000000  0  6G16G18G21G22G27G31
  21194642.740   111378637.20009  21194640.160    86788552.23748
  22457836.120   118016789.94809  22457833.720    91961153.50247
  21579960.180   113403466.15409  21579956.680    88366326.96648
  23555445.700   123784723.62808  23555443.720    96455629.28446
  22342248.940   117409383.43609  22342249.220    91487842.80048
  23482637.220   123402050.43708  23482636.700    96157422.24446
 15 03 01 00 10 30.0000000  0  6G16G18G21G22G27G31
  21183557.060   111320381.46909  21183554.420    86743158.15648
  22447863.800   117964384.73209  22447861.260    91920318.28747
  21589041.740   113451190.21809  21589038.260    88403514.53748
  23537916.540   123692608.96008  23537914.960    96383851.86046
  22330788.920   117349161.34408  22330789.000    91440916.51648
  23501095.540   123499048.92708  23501095.060    96233005.34046
 15 03 01 00 11  0.0000000  0  6G16G18G21G22G27G31
  21172535.760   111262463.97809  21172533.020    86698027.65248
  22437957.540   117912326.92909  22437954.900    91879753.78647
  21598178.500   113499204.24808  21598175.000    88440928.07248
  23520400.620   123600563.77708  23520399.060    96312128.56646
  22319352.500   117289062.98808  22319352.480    91394086.65648
  23519571.500   123596140.45008  23519571.140    96308660.93347
 15 03 01 00 11 30.0000000  0  7G16G18G19G21G22G27G31
  21161578.980   111204885.78209  21161576.180    86653161.53848
  22428117.500   117860617.15909  22428114.800    91839460.48447
  24541241.920   128965095.13007  24541240.420   100492280.84045
  21607369.920   113547505.32809  21607366.360    88478565.28448
  23502898.260   123508589.44408  23502896.560    96240460.46646
  22307939.460   117229086.99509  22307939.500    91347352.14948
  23538064.340   123693320.78108  23538064.080    96384385.74546
 15 03 01 00 12  0.0000000  0  7G16G18G19G21G22G27G31
  21150686.260   111147644.20909  21150683.440    86608557.72748
  22418343.240   117809253.29409  22418340.540    91799436.71746
  24525854.260   128884233.43408  24525853.520   100429271.79745
  21616614.820   113596087.57409  21616611.200    88516421.57548
  23485409.260   123416684.06608  23485407.020    96168846.08646
  22296548.960   117169229.25009  22296549.080    91300709.78948
  23556572.840   123790583.02108  23556572.680    96460174.36446
 15 03 01 00 12 30.0000000  0  7G16G18G19G21G22G27G31
  21139861.760   111090761.10209  21139858.980    86564233.23248
  22408638.920   117758257.03509  22408636.160    91759699.39547
  24510484.520   128803465.87207  24510484.420   100366336.12645
  21625916.480   113644968.14308  21625912.820    88554510.32648
  23467937.800   123324870.16508  23467934.980    96097302.98346
  22285184.600   117109509.33809  22285184.820    91254174.81548
  23575100.120   123887943.53108  23575100.000    96536039.57846
 15 03 01 00 13  0.0000000  0  7G16G18G19G21G22G27G31
  21129103.280   111034224.86309  21129100.580    86520179.02648
  22399002.260   117707616.36009  22398999.420    91720239.14946
  24495130.120   128722778.62308  24495130.200   100303463.01045
  21635272.000   113694131.88508  21635268.360    88592819.72948
  23450481.720   123233136.94908  23450478.400    96025822.71946
  22273843.780   117049913.74409  22273844.000    91207736.71448
  23593642.980   123985385.52608  23593642.600    96611968.24146
 15 03 01 00 13 30.0000000  0  7G16G18G19G21G22G27G31
  21118410.740   110978035.07609  21118408.100    86476394.78248
  22389433.200   117657330.97809  22389430.440    91681055.74747
  24479790.560   128642169.16407  24479790.640   100240650.54345
  21644680.560   113743574.57208  21644677.000    88631346.48848
  23433040.820   123141484.13008  23433037.300    95954405.11246
  22262526.160   116990439.86408  22262526.340    91161393.46048
  23612200.400   124082903.87308  23612199.720    96687956.39846
 15 03 01 00 14  0.0000000  0  7G16G18G19G21G22G27G31
  21107785.440   110922199.01009  21107782.860    86432886.18448
  22379933.060   117607407.88109  22379930.500    91642154.66947
  24464466.920   128561642.63807  24464466.540   100177902.65846
  21654142.660   113793298.35108  21654139.200    88670092.28648
  23415616.600   123049919.68608  23415613.140    95883056.35646
  22251232.760   116931092.93309  22251232.940    91115149.13148
  23630772.620   124180500.35508  23630771.720    96764005.45546
 15 03 01 00 14 30.0000000  0  7G16G18G19G21G22G27G31
  21097226.460   110866711.42709  21097223.900    86389649.10748
  22370501.040   117557842.33409  22370498.640    91603532.17147
  24449157.940   128481191.81808  24449156.960   100115213.78745
  21663656.760   113843295.20008  21663653.360    88709050.85548
  23398208.220   122958439.03008  23398204.960    95811772.89046
  22239962.280   116871865.68509  22239962.380    91068998.05348
  23649357.700   124278164.80608  23649356.680    96840107.45046
 15 03 01 00 15  0.0000000  0  7G16G18G19G21G22G27G31
  21086735.160   110811579.58909  21086732.660    86346689.23948
  22361138.400   117508641.22409  22361135.980    91565193.66647
  24433864.540   128400822.40107  24433862.740   100052588.33746
  21673223.460   113893568.47408  21673220.160    88748224.82948
  23380817.220   122867049.99508  23380814.300    95740560.80747
  22228715.660   116812763.64109  22228715.700    91022944.55448
  23667956.140   124375899.77308  23667955.140    96916264.39046
 15 03 01 00 15 30.0000000  0  7G16G18G19G21G22G27G31
  21076312.640   110756809.06009  21076310.140    86304010.91548
  22351846.280   117459810.45909  22351843.740    91527143.74047
  24418587.100   128320537.44808  24418584.580    99990028.74946
  21682843.060   113944119.64509  21682839.740    88787615.34648
  23363444.840   122775758.83608  23363442.140    95669424.99246
  22217493.480   116753790.22009  22217493.560    90976991.26748
  23686568.060   124473705.69008  23686567.180    96992476.57746
 15 03 01 00 16  0.0000000  0  7G16G18G19G21G22G27G31
  21065959.160   110702401.01109  21065956.580    86261615.04548
  22342624.800   117411350.80009  22342622.200    91489382.99447
  24403325.460   128240336.44008  24403322.360    99927534.53245
  21692515.180   113994946.60009  21692511.800    88827220.75548
  23346091.520   122684567.31508  23346088.740    95598366.79546
  22206295.480   116694944.65809  22206295.660    90931137.59948
  23705192.840   124571578.81808  23705192.080    97068741.12746
 15 03 01 00 16 30.0000000  0  7G16G18G19G21G22G27G31
  21055675.560   110648359.91109  21055672.820    86219505.10948
  22333474.680   117363266.50809  22333472.100    91451914.74147
  24388080.080   128160221.56108  24388076.640    99865107.46645
  21702239.520   114046048.06808  21702236.120    88867040.07448
  23328758.160   122593480.38708  23328755.120    95527390.10346
  22195122.200   116636229.28009  22195122.380    90885385.38748
  23723830.260   124669518.26208  23723829.480    97145057.34846
 15 03 01 00 17  0.0000000  0  7G16G18G19G21G22G27G31
  21045461.420   110594683.88809  21045458.580    86177679.64748
  22324395.660   117315556.01209  22324393.100    91414737.75047
  24372850.220   128080188.69208  24372846.860    99802744.28845
  21712015.240   114097419.81309  21712011.920    88907069.99148
  23311444.400   122502496.71608  23311441.260    95456493.88346
  22183973.120   116577640.34809  22183973.180    90839731.70048
  23742478.960   124767517.34508  23742478.240    97221420.02846
 15 03 01 00 17 30.0000000  0  7G16G18G19G21G22G27G31
  21035317.420   110541376.86609  21035314.540    86136141.71648
  22315388.500   117268223.04409  22315385.860    91377854.93747
  24357636.300   128000240.07307  24357632.820    99740446.72445
  21721842.460   114149062.11609  21721839.120    88947310.74148
  23294151.160   122411621.10408  23294147.940    95385681.83746
  22172848.600   116519179.96509  22172848.540    90794178.19048
  23761138.760   124865575.10108  23761138.260    97297828.39546
 15 03 01 00 18  0.0000000  0  7G16G18G19G21G22G27G31
  21025243.400   110488437.71509  21025240.480    86094890.44048
  22306452.800   117221266.21209  22306450.220    91341265.22747
  24342437.740   127920372.54607  24342434.520    99678212.35145
  21731720.100   114200969.33609  21731716.720    88987757.91748
  23276878.520   122320853.26708  23276875.220    95314953.77346
  22161747.900   116460845.02509  22161747.760    90748722.42548
  23779808.620   124963685.40208  23779808.340    97374277.71446
 15 03 01 00 18 30.0000000  0  7G16G18G19G21G22G27G31
  21015240.760   110435873.56309  21015237.800    86053931.37948
  22297590.100   117174692.99009  22297587.520    91304974.43947
  24327255.420   127840591.45907  24327252.880    99616045.38145
  21741648.900   114253145.13509  21741645.380    89028414.38248
  23259627.900   122230200.99908  23259624.640    95244315.76346
  22150672.040   116402640.77209  22150671.800    90703368.48748
  23798489.020   125061850.59908  23798488.960    97450769.83046
 15 03 01 00 19  0.0000000  0  7G16G18G19G21G22G27G31
  21005309.860   110383685.83709  21005306.780    86013265.62048
  22288800.560   117128504.31509  22288798.060    91268983.29147
  24312089.300   127760895.86407  24312087.580    99553945.03645
  21751628.280   114305586.68209  21751624.580    89069277.92048
  23242399.680   122139665.75008  23242396.320    95173768.92346
  22139620.900   116344566.46909  22139620.740    90658115.80548
  23817179.220   125160066.87108  23817179.320    97527301.75446
 15 03 01 00 19 30.0000000  0  7G16G18G19G21G22G27G31
  20995449.820   110331870.49709  20995446.640    85972890.05348
  22280083.400   117082695.90009  22280081.000    91233288.44547
  24296938.520   127681279.96407  24296937.380    99491906.76146
  21761656.600   114358285.88809  21761652.820    89110342.24548
  23225193.040   122049244.39908  23225189.680    95103310.83146
  22128593.260   116286616.22109  22128593.240    90612959.79948
  23835877.480   125258325.48208  23835877.720    97603866.71946
 15 03 01 00 20  0.0000000  0  7G16G18G19G21G22G27G31
  20985661.240   110280431.03309  20985657.980    85932807.35648
  22271439.340   117037271.27109  22271437.040    91197892.65647
  24281803.340   127601744.85308  24281802.340    99429931.41245
  21771733.920   114411242.73509  21771730.140    89151607.29848
  23208008.760   121958941.06608  23208005.500    95032944.69846
  22117589.380   116228791.54209  22117589.540    90567901.63848
  23854583.360   125356624.67008  23854583.760    97680463.28246
 15 03 01 00 20 30.0000000  0  7G16G18G19G21G22G27G31
  20975945.020   110229371.97309  20975941.720    85893021.07948
  22262869.180   116992234.67409  22262866.880    91162799.21447
  24266684.340   127522293.47008  24266683.480    99368021.33446
  21781860.240   114464457.50508  21781856.600    89193073.33448
  23190847.960   121868761.16508  23190844.720    94962674.74846
  22106610.020   116171095.16809  22106610.180    90522943.44748
  23873296.720   125454964.24308  23873297.460    97757091.34046
 15 03 01 00 21  0.0000000  0  7G16G18G19G21G22G27G31
  20966301.460   110178694.56809  20966298.100    85853532.20348
  22254373.180   116947587.69009  22254370.900    91128009.38847
  24251581.180   127442925.34508  24251580.220    99306176.15245
  21792035.300   114517928.31108  21792031.780    89234738.88947
  23173711.120   121778706.74208  23173707.780    94892502.57847
  22095655.020   116113526.57209  22095655.180    90478084.83248
  23892017.080   125553340.64508  23892018.000    97833748.08346
 15 03 01 00 21 30.0000000  0  7G16G18G19G21G22G27G31
  20956730.980   110128401.15409  20956727.540    85814342.53848
  22245951.760   116903332.36209  22245949.380    91093524.73747
  24236493.900   127363640.47308  24236492.340    99244395.82945
  21802258.640   114571652.69808  21802255.220    89276602.03848
  23156598.760   121688780.62208  23156595.220    94822430.38447
  22084724.400   116056086.11309  22084724.540    90433326.05348
  23910744.060   125651751.22408  23910744.980    97910431.47146
 15 03 01 00 22  0.0000000  0  7G16G18G19G21G22G27G31
  20947233.900   110078493.57209  20947230.460    85775453.51348
  22237605.020   116859469.84709  22237602.540    91059346.18247
  24221422.440   127284438.80408  24221420.300    99182680.33446
  21812530.120   114625629.70609  21812526.720    89318662.02747
  23139511.300   121598985.36708  23139507.600    94752460.14146
  22073818.120   115998773.72909  22073818.280    90388667.07348
  23929476.920   125750192.73908  23929477.940    97987138.93446
 15 03 01 00 22 30.0000000  0  7G16G18G19G21G22G27G31
  20937810.620   110028974.20909  20937807.200    85736867.00248
  22229333.480   116816002.76409  22229330.920    91025475.75647
  24206366.780   127205320.38208  24206364.180    99121029.73545
  21822849.300   114679857.26309  21822845.880    89360917.25648
  23122449.180   121509323.81808  23122445.620    94682594.10346
  22062936.260   115941589.88109  22062936.600    90344108.26348
  23948215.140   125848662.69508  23948216.400    98063868.56946
 15 03 01 00 23  0.0000000  0  7G16G18G19G21G22G27G31
  20928461.940   109979846.83009  20928458.500    85698585.93148
  22221137.900   116772934.92109  22221135.300    90991916.41547
  24191327.280   127126287.26308  24191324.180    99059445.58945
  21833216.220   114734335.56409  21833212.820    89403367.88148
  23105413.300   121419800.55708  23105409.940    94612835.81546
  22052079.280   115884536.45209  22052079.700    90299651.06448
  23966958.700   125947160.20508  23966959.940    98140619.68546
 15 03 01 00 23 30.0000000  0  7G16G18G19G21G22G27G31
  20919188.220   109931113.15509  20919184.780    85660611.64748
  22213018.580   116730267.85809  22213015.980    90958669.37547
  24176303.880   127047339.47307  24176300.720    98997927.92046
  21843630.380   114789062.08109  21843627.040    89446011.90848
  23088404.260   121330418.37608  23088401.060    94543187.44846
  22041247.160   115827613.52409  22041247.640    90255295.56448
  23985707.000   126045682.02808  23985708.000    98217389.73246
 15 03 01 00 24  0.0000000  0  7G16G18G19G21G22G27G31
  20909990.100   109882776.75809  20909986.740    85622946.92548
  22204976.100   116688004.60109  22204973.500    90925736.99047
  24161296.720   126968478.57707  24161293.900    98936477.95646
  21854091.760   114844036.70509  21854088.440    89488849.25848
  23071422.760   121241181.30808  23071419.620    94473652.14847
  22030440.260   115770822.70509  22030440.660    90211043.00748
  24004459.860   126144226.66008  24004460.360    98294177.55346
 15 03 01 00 24 30.0000000  0  7G16G18G19G21G22G27G31
  20900867.440   109834837.04509  20900864.140    85585591.30448
  22197010.360   116646144.56709  22197007.740    90893118.79647
  24146305.620   126889702.03207  24146303.440    98875093.71946
  21864599.600   114899255.67708  21864596.360    89531877.01948
  23054468.840   121152089.19408  23054465.740    94404229.80846
  22019658.000   115714161.56209  22019658.400    90166891.50048
  24023215.920   126242788.66608  24023216.000    98370978.88245
 15 03 01 00 25  0.0000000  0  7G16G18G19G21G22G27G31
  20891820.340   109787294.31109  20891817.080    85548545.02248
  22189121.360   116604687.64809  22189118.760    90860814.71547
  24131330.280   126811007.95008  24131328.700    98813773.77346
  21875153.060   114954714.46209  21875149.840    89575091.63448
  23037542.840   121063143.27908  23037539.720    94334921.39247
  22008900.120   115657628.64009  22008900.440    90122839.89248
  24041974.520   126341363.64808  24041974.280    98447790.31546
 15 03 01 00 25 30.0000000  0  7G16G18G19G21G22G27G31
  20882848.720   109740148.09809  20882845.440    85511807.71548
  22181308.960   116563633.24009  22181306.360    90828824.28847
  24116370.540   126732393.77008  24116369.200    98752516.06946
  21885751.440   115010409.20709  21885748.160    89618490.12248
  23020644.760   120974343.56108  23020641.660    94265726.90147
  21998166.220   115601221.51509  21998166.440    90078886.30748
  24060734.520   126439946.04308  24060734.320    98524607.54946
 15 03 01 00 26  0.0000000  0  7G16G18G19G21G22G27G31
  20873953.560   109693403.44909  20873950.260    85475383.31548
  22173574.080   116522986.21609  22173571.520    90797151.29747
  24101427.060   126653863.61008  24101425.580    98691323.85046
  21896395.040   115066341.58108  21896391.700    89662073.77848
  23003775.860   120885696.53008  23003772.640    94196651.37647
  21987456.980   115544943.69009  21987457.120    90035033.47948
  24079495.980   126538536.63108  24079495.960    98601431.11346
 15 03 01 00 26 30.0000000  0  7G16G18G19G21G22G27G31
  20865135.660   109647064.99509  20865132.420    85439275.42548
  22165917.520   116482750.75909  22165915.000    90765799.01547
  24086499.980   126575419.41508  24086498.200    98630198.60146
  21907083.940   115122512.14808  21907080.580    89705843.03548
  22986937.000   120797207.03508  22986933.600    94127698.60347
  21976772.760   115488797.65809  21976772.900    89991283.34548
  24098258.700   126637134.49108  24098259.000    98678260.33446
 15 03 01 00 27  0.0000000  0  7G16G18G19G21G22G27G31
  20856395.740   109601136.50509  20856392.580    85403486.99448
  22158340.000   116442930.27009  22158337.440    90734770.08547
  24071589.380   126497063.11008  24071587.640    98569141.82846
  21917817.940   115178919.98608  21917814.640    89749797.17347
  22970128.840   120708879.66309  22970125.400    94058872.16847
  21966114.040   115432785.68809  21966114.200    89947637.67648
  24117022.720   126735739.33308  24117023.180    98755095.00346
 15 03 01 00 27 30.0000000  0  7G16G18G19G21G22G27G31
  20847734.440   109555621.25909  20847731.280    85368020.56248
  22150842.220   116403528.65009  22150839.600    90704067.53647
  24056695.460   126418796.39107  24056693.600    98508154.85646
  21928597.240   115235565.95209  21928594.000    89793936.87348
  22953352.240   120620718.51108  22953348.760    93990175.23547
  21955481.120   115376909.34009  21955481.300    89904097.69048
  24135787.600   126834349.25108  24135788.320    98831933.59146
 15 03 01 00 28  0.0000000  0  7G16G18G19G21G22G27G31
  20839150.900   109510514.32309  20839147.680    85332872.29248
  22143423.080   116364540.25209  22143420.340    90673686.97247
  24041817.100   126340611.97908  24041815.140    98447232.04646
  21939420.200   115292440.89609  21939416.940    89838254.98747
  22936606.380   120532719.20609  22936602.920    93921604.41847
  21944872.680   115321161.71209  21944872.740    89860657.99748
  24154551.720   126932954.34308  24154552.580    98908768.40646
 15 03 01 00 28 30.0000000  0  7G16G18G19G21G22G27G31
  20830645.580   109465818.41709  20830642.240    85298044.32848
  22136082.900   116325967.13509  22136080.120    90643630.03147
  24026954.580   126262510.91608  24026952.280    98386374.19445
  21950286.500   115349543.56709  21950283.180    89882750.57547
  22919892.080   120444885.41309  22919888.580    93853162.58347
  21934288.780   115265543.87709  21934288.800    89817319.46248
  24173314.700   127031552.84908  24173315.620    98985598.12946
 15 03 01 00 29  0.0000000  0  7G16G18G19G21G22G27G31
  20822219.360   109421538.36109  20822215.940    85263540.38848
  22128822.520   116287813.90409  22128819.820    90613900.26347
  24012108.660   126184496.23608  24012105.920    98325583.62046
  21961196.480   115406875.77809  21961193.140    89927425.01047
  22903210.360   120357222.62708  22903206.860    93784853.99547
  21923730.200   115210058.97409  21923730.300    89774084.49948
  24192076.340   127130144.73208  24192077.340    99062422.60045
 15 03 01 00 29 30.0000000  0  7G16G18G19G21G22G27G31
  20813871.480   109377670.01109  20813868.040    85229357.25648
  22121641.180   116250076.43309  22121638.620    90584494.46447
  23997278.300   126106562.13408  23997275.340    98264855.86345
  21972148.520   115464428.82709  21972145.200    89972271.52748
  22886560.600   120269727.68708  22886557.160    93716676.19747
  21913196.000   115154701.14609  21913196.020    89730948.55348
  24210835.020   127228721.25708  24210836.160    99139235.09045
 15 03 01 00 30  0.0000000  0  7G16G18G19G21G22G27G31
  20805603.820   109334223.18509  20805600.420    85195502.58348
  22114540.680   116212764.00209  22114538.300    90555419.85547
  23982464.900   126028716.17808  23982461.560    98204196.75246
  21983143.740   115522208.85609  21983140.380    90017294.91147
  22869944.820   120182410.87909  22869941.320    93648637.18847
  21902687.540   115099478.37709  21902687.460    89687917.85348
  24229591.720   127327287.34907  24229593.040    99216039.45346
 15 03 01 00 30 30.0000000  0  7G16G18G19G21G22G27G31
  20797416.100   109291196.08709  20797412.700    85161974.97248
  22107520.780   116175874.74309  22107518.480    90526674.98847
  23967667.660   125950955.29208  23967664.420    98143603.94646
  21994181.160   115580210.65309  21994177.700    90062491.09448
  22853362.740   120095271.34309  22853359.240    93580736.31747
  21892204.180   115044387.47009  21892204.020    89644989.90048
  24248345.260   127425836.86008  24248346.720    99292830.93846
 15 03 01 00 31  0.0000000  0  7G16G18G19G21G22G27G31
  20789309.560   109248595.45109  20789306.160    85128779.67548
  22100582.740   116139415.16609  22100580.440    90498264.95247
  23952887.320   125873283.84208  23952884.220    98083080.82745
  22005261.300   115638436.92709  22005257.760    90107862.20848
  22836815.760   120008316.84408  22836812.360    93512979.62247
  21881746.680   114989433.24709  21881746.520    89602168.45248
  24267096.140   127524371.65508  24267097.560    99369611.00746
 15 03 01 00 31 30.0000000  0  7G16G18G19G21G22G27G31
  20781283.580   109206418.26609  20781280.120    85095914.33648
  22093725.840   116103381.93609  22093723.520    90470187.13047
  23938123.020   125795697.15308  23938119.960    98022623.73845
  22016383.060   115696881.76809  22016379.500    90153403.62847
  22820303.560   119921545.11509  22820300.200    93445365.35547
  21871314.240   114934611.11109  21871314.180    89559449.93048
  24285842.860   127622883.79008  24285844.000    99446373.41346
 15 03 01 00 32  0.0000000  0  7G16G18G19G21G22G27G31
  20773338.320   109164665.75909  20773334.860    85063379.91648
  22086950.200   116067775.51109  22086947.700    90442441.89447
  23923374.620   125718194.48708  23923371.640    97962232.14045
  22027545.800   115755542.01609  22027542.220    90199112.90847
  22803826.460   119834957.83209  22803823.040    93377894.81347
  21860906.800   114879920.52009  21860907.040    89516833.91548
  24304584.600   127721369.90708  24304585.580    99523115.60545
 15 03 01 00 32 30.0000000  0  7G16G18G19G21G22G27G31
  20765474.940   109123343.93009  20765471.560    85031181.08148
  22080256.880   116032601.91609  22080254.220    90415033.90647
  23908643.080   125640780.23408  23908640.160    97901909.40745
  22038749.900   115814419.86209  22038746.300    90244991.73047
  22787385.840   119748562.01209  22787382.280    93310573.45247
  21850525.260   114825365.95009  21850525.820    89474323.87948
  24323321.580   127819831.58608  24323322.600    99599838.77046
 15 03 01 00 33  0.0000000  0  7G16G18G19G21G22G27G31
  20757694.300   109082456.50409  20757690.940    84999320.74948
  22073646.460   115997864.14509  22073643.760    90387965.53247
  23893928.640   125563456.37608  23893925.800    97841657.11846
  22049995.320   115873515.35808  22049991.760    90291040.15747
  22770982.540   119662362.31709  22770978.940    93243404.92447
  21840170.080   114770949.51109  21840170.680    89431921.47848
  24342053.600   127918267.58408  24342054.760    99676541.94246
 15 03 01 00 33 30.0000000  0  7G16G18G19G21G22G27G31
  20749995.800   109042000.55309  20749992.480    84967796.63148
  22067118.440   115963559.31109  22067115.700    90361234.51047
  23879230.420   125486218.01207  23879227.780    97781471.44946
  22061280.940   115932822.30908  22061277.500    90337253.35347
  22754616.180   119576356.70109  22754612.620    93176387.61947
  21829840.300   114716666.61609  21829840.860    89389623.14248
  24360779.160   128016670.59508  24360780.740    99753219.41447
 15 03 01 00 34  0.0000000  0  7G16G18G19G21G22G27G31
  20742379.800   109001977.85909  20742376.480    84936610.11248
  22060673.000   115929688.58109  22060670.240    90334841.74847
  23864548.600   125409065.70408  23864546.120    97721352.82946
  22072606.540   115992339.13508  22072603.200    90383630.08248
  22738287.220   119490547.73409  22738283.720    93109523.54647
  21819536.140   114662517.62409  21819536.500    89347429.14948
  24379497.720   128115037.77308  24379499.780    99829868.93846
 15 03 01 00 34 30.0000000  0  7G16G18G19G21G22G27G31
  20734846.360   108962389.20409  20734843.040    84905761.81648
  22054310.320   115896252.76109  22054307.620    90308787.88147
  23849883.080   125331997.90508  23849880.480    97661300.08746
  22083971.560   116052062.67408  22083968.240    90430167.90347
  22721996.000   119404936.99709  22721992.440    93042813.94447
  21809257.420   114608501.58009  21809257.520    89305338.74848
  24398208.620   128213365.12808  24398211.080    99906487.44146
 15 03 01 00 35  0.0000000  0  7G16G18G19G21G22G27G31
  20727395.860   108923236.84109  20727392.580    84875253.47948
  22048030.740   115863253.62709  22048028.060    90283074.29047
  23835233.900   125255015.44308  23835230.980    97601313.82446
  22095375.700   116111991.29509  22095372.300    90476865.52247
  22705743.120   119319527.48909  22705739.460    92976261.14947
  21799004.140   114554619.17909  21799004.100    89263352.48448
  24416911.640   128311650.40008  24416914.280    99983073.16945
 15 03 01 00 35 30.0000000  0  7G16G18G19G21G22G27G31
  20720029.660   108884527.60009  20720026.460    84845090.43648
  22041835.500   115830697.41009  22041832.940    90257705.82247
  23820601.840   125178123.32208  23820598.980    97541397.95246
  22106819.480   116172128.37409  22106816.080    90523725.56847
  22689530.020   119234326.73209  22689526.200    92909870.99947
  21788777.260   114500875.70209  21788777.180    89221474.46848
  24435607.260   128409895.65108  24435609.840   100059627.69345
 15 03 01 00 36  0.0000000  0  7G16G18G19G21G22G27G31
  20712747.760   108846261.37509  20712744.620    84815272.59548
  22035724.500   115798583.73409  22035721.980    90232682.18247
  23805986.520   125101319.29508  23805983.880    97481550.71346
  22118302.180   116232470.05909  22118298.800    90570745.04747
  22673356.840   119149335.92709  22673352.940    92843644.45747
  21778576.420   114447269.46109  21778576.240    89179703.38848
  24454294.460   128508096.54808  24454297.000   100136147.68645
 15 03 01 00 36 30.0000000  0  7G16G18G19G21G22G27G31
  20705549.920   108808436.48909  20705546.800    84785798.65348
  22029697.320   115766910.40809  22029694.760    90208001.67447
  23791387.340   125024600.17308  23791384.900    97421769.64846
  22129822.840   116293011.20209  22129819.460    90617919.94847
  22657223.360   119064554.11709  22657219.440    92777580.77147
  21768401.040   114393797.21609  21768400.740    89138036.71348
  24472972.060   128606246.63208  24472974.340   100212628.15145
 15 03 01 00 37  0.0000000  0  7G16G18G19G21G22G27G31
  20698437.660   108771060.98509  20698434.500    84756674.88248
  22023755.380   115735685.19709  22023752.780    90183670.36647
  23776805.720   124947972.74808  23776803.260    97362060.01246
  22141382.320   116353756.43009  22141378.860    90665253.88747
  22641131.340   118979990.40409  22641127.460    92711687.03047
  21758252.440   114340465.72109  21758252.100    89096479.72548
  24491640.620   128704349.60508  24491642.740   100289071.88045
 15 03 01 00 37 30.0000000  0  7G16G18G19G21G22G27G31
  20691409.760   108734128.87209  20691406.560    84727896.60948
  22017897.560   115704901.96409  22017894.840    90159683.44547
  23762240.120   124871429.10808  23762237.400    97302415.67646
  22152978.820   116414696.36509  22152975.300    90712739.54547
  22625079.780   118895639.44709  22625075.940    92645959.06447
  21748129.160   114287267.38609  21748128.740    89055026.49648
  24510298.140   128802394.96408  24510300.180   100365470.72244
 15 03 01 00 38  0.0000000  0  7G16G18G19G21G22G27G31
  20684467.460   108697646.55809  20684464.200    84699468.83448
  22012124.940   115674566.64109  22012122.180    90136045.54847
  23747691.280   124794974.18308  23747688.300    97242840.46946
  22164612.840   116475833.83108  22164609.340    90760379.11847
  22609070.160   118811508.75909  22609066.340    92580402.74247
  21738032.140   114234207.38509  21738031.660    89013681.05848
  24528945.020   128900384.64408  24528947.040   100441826.14045
 15 03 01 00 38 30.0000000  0  7G16G18G19G21G22G27G31
  20677611.980   108661620.20009  20677608.560    84671396.34348
  22006438.620   115644684.52809  22006435.780    90112760.79547
  23733160.020   124718612.00108  23733157.080    97183337.54846
  22176284.920   116537171.35409  22176281.520    90808174.57847
  22593103.780   118727605.11009  22593099.920    92515023.33747
  21727962.180   114181289.97409  21727961.680    88972446.73548
  24547581.540   128998320.07307  24547583.640   100518139.26345
 15 03 01 00 39  0.0000000  0  7G16G18G19G21G22G27G31
  20670842.300   108626044.68409  20670838.700    84643675.17148
  22000837.600   115615250.48309  22000834.580    90089825.19647
  23718645.220   124642336.09408  23718642.140    97123901.83046
  22187993.460   116598700.12108  22187990.080    90856119.04947
  22577179.840   118643924.56109  22577175.940    92449817.76547
  21717918.160   114128508.82909  21717917.620    88931318.57848
  24566206.020   129096191.92707  24566208.280   100594402.82645
 15 03 01 00 39 30.0000000  0  7G16G18G19G21G22G27G31
  20664158.500   108590921.04109  20664154.920    84616306.09248
  21995321.900   115586264.78809  21995318.700    90067238.94847
  23704146.880   124566146.15108  23704143.500    97064533.11346
  22199737.960   116660417.80908  22199734.600    90904210.74247
  22561298.620   118560468.96509  22561294.820    92384787.47347
  21707900.060   114075863.62609  21707899.640    88890296.35648
  24584817.700   129193996.69708  24584820.200   100670614.16445
 15 03 01 00 40  0.0000000  0  7G16G18G19G21G22G27G31
  20657561.500   108556253.90109  20657558.020    84589292.74048
  21989892.300   115557731.72709  21989889.040    90045005.41247
  23689665.380   124490044.77508  23689661.660    97005233.40446
  22211518.600   116722325.61608  22211515.280    90952450.57347
  22545461.300   118477244.13509  22545457.620    92319937.01447
  21697908.480   114023357.56309  21697908.160    88849382.56048
  24603416.860   129291735.01008  24603419.540   100746773.77745
 15 03 01 00 40 30.0000000  0  7G16G18G19G21G22G27G31
  20651051.660   108522045.33609  20651048.340    84562636.70948
  21984549.020   115529652.76409  21984545.800    90023125.71147
  23675200.700   124414032.41008  23675196.900    96946003.07346
  22223335.080   116784421.75308  22223331.760    91000837.15547
  22529668.500   118394252.61309  22529664.720    92255268.33747
  21687943.440   113970990.98809  21687943.060    88808577.44848
  24622002.700   129389403.77507  24622005.680   100822879.12846
 15 03 01 00 41  0.0000000  0  7G16G18G19G21G22G27G31
  20644630.480   108488302.61409  20644627.280    84536343.68148
  21979293.540   115502035.25309  21979290.380    90001605.58547
  23660753.880   124338114.45008  23660750.180    96886846.28446
  22235188.120   116846710.06108  22235184.820    91049373.48747
  22513921.660   118311502.77309  22513917.900    92190788.00547
  21678006.140   113918770.13409  21678005.620    88767885.89848
  24640575.920   129487006.13208  24640579.000   100898932.80945
 15 03 01 00 41 30.0000000  0  7G16G18G19G21G22G27G31
  20638296.360   108455017.17209  20638293.220    84510406.97148
  21974124.060   115474869.78309  21974120.920    89980437.69747
  23646323.200   124262281.24008  23646319.580    96827755.52446
  22247075.580   116909178.98809  22247072.260    91098050.55547
  22498219.320   118228986.91409  22498215.540    92126489.98447
  21668094.620   113866684.97109  21668094.120    88727300.07348
  24659134.080   129584529.16408  24659137.300   100974924.71045
 15 03 01 00 42  0.0000000  0  7G16G18G19G21G22G27G31
  20632050.680   108422196.49809  20632047.700    84484832.42048
  21969042.000   115448163.48609  21969038.820    89959627.61147
  23631909.820   124186538.67708  23631906.340    96768735.40746
  22258998.220   116971832.67708  22258994.840    91146871.60647
  22482563.240   118146713.92109  22482559.460    92062381.20747
  21658210.080   113814741.74909  21658209.740    88686824.84848
  24677677.820   129681976.56108  24677681.240   101050857.71045
 15 03 01 00 42 30.0000000  0  7G16G18G19G21G22G27G31
  20625893.500   108389840.98509  20625890.740    84459620.33248
  21964047.280   115421916.32509  21964044.220    89939175.28947
  23617513.460   124110885.91508  23617510.160    96709785.27046
  22270955.360   117034667.85608  22270951.980    91195834.06347
  22466953.760   118064685.17609  22466949.920    91998462.75447
  21648352.420   113762939.48809  21648352.180    88646459.46448
  24696206.360   129779344.43608  24696209.960   101126728.83245
 15 03 01 00 43  0.0000000  0  6G16G18G19G21G22G27
  20619822.320   108357936.96309  20619819.620    84434760.05548
  21959137.200   115396114.11209  21959134.240    89919069.68447
  23603131.180   124035307.29808  23603127.820    96650892.88946
  22282943.860   117097667.65409  22282940.520    91244924.80547
  22451388.220   117982887.14909  22451384.080    91934724.09647
  21638518.740   113711263.33709  21638518.500    88606192.35648
 15 03 01 00 43 30.0000000  0  6G16G18G19G21G22G27
  20613843.460   108326517.93109  20613840.740    84410277.70148
  21954318.000   115370789.38609  21954315.100    89899336.15647
  23588769.040   123959834.63708  23588765.520    96592083.08046
  22294969.380   117160861.83609  22294965.980    91294167.01047
  22435873.280   117901355.34009  22435868.840    91871192.86447
  21628715.160   113659745.12909  21628714.820    88566048.32048
 15 03 01 00 44  0.0000000  0  6G16G18G19G21G22G27
  20607954.060   108295569.05909  20607951.360    84386161.69248
  21949586.940   115345927.58209  21949584.060    89879963.32447
  23574424.060   123884452.25608  23574420.300    96533343.61646
  22307028.500   117224232.55809  22307025.060    91343546.78047
  22420406.240   117820075.66909  22420401.800    91807858.09547
  21618938.600   113608369.03309  21618938.200    88526015.01748
 15 03 01 00 44 30.0000000  0  6G16G18G19G21G22G27
  20602154.720   108265093.42709  20602152.000    84362414.45348
  21944944.420   115321531.12809  21944941.540    89860953.11647
  23560096.580   123809161.69508  23560092.760    96474675.68946
  22319121.080   117287779.26108  22319117.660    91393063.67947
  22404987.880   117739052.16609  22404983.640    91744722.94547
  21609189.460   113557137.10709  21609189.040    88486094.05648
 15 03 01 00 45  0.0000000  0  6G16G18G19G21G22G27
  20596445.080   108235089.04709  20596442.360    84339034.41148
  21940389.920   115297597.17909  21940387.020    89842303.30447
  23545785.880   123733958.64808  23545782.100    96416075.98446
  22331246.140   117351496.82409  22331242.780    91442713.71347
  22389617.920   117658283.24309  22389613.900    91681786.16947
  21599467.140   113506045.66809  21599466.640    88446282.56448
 15 03 01 00 45 30.0000000  0  6G16G18G19G21G22G27
  20590825.920   108205559.94709  20590823.160    84316024.72448
  21935924.100   115274129.14409  21935921.240    89824016.53847
  23531492.420   123658845.88808  23531488.840    96357546.59746
  22343403.820   117415386.07408  22343400.500    91492497.53447
  22374297.460   117577774.46009  22374293.540    91619052.08947
  21589772.120   113455097.51309  21589771.480    88406582.71948
 15 03 01 00 46  0.0000000  0  6G16G18G19G21G22G27
  20585298.260   108176511.70009  20585295.460    84293389.72548
  21931547.920   115251132.33709  21931545.160    89806096.95447
  23517216.900   123583827.81808  23517213.580    96299091.00946
  22355594.540   117479448.80809  22355591.220    91542416.53347
  22359027.820   117497532.37609  22359023.920    91556525.82947
  21580105.180   113404297.28209  21580104.540    88366998.14048
 15 03 01 00 46 30.0000000  0  6G16G18G19G21G22G27
  20579861.840   108147942.69209  20579858.940    84271128.16248
  21927260.940   115228604.79009  21927258.340    89788543.04347
  23502958.760   123508901.39408  23502955.820    96240706.80546
  22367817.460   117543680.71509  22367814.180    91592467.34947
  22343808.900   117417556.42409  22343804.940    91494206.94847
  21570465.740   113353642.18509  21570465.260    88327526.64848
 15 03 01 00 47  0.0000000  0  6G16G18G19G21G22G27
  20574516.720   108119853.71309  20574513.780    84249240.64648
  21923063.460   115206547.15209  21923060.860    89771355.28547
  23488717.980   123434066.69308  23488715.440    96182394.10946
  22380072.160   117608079.66409  22380068.820    91642648.34247
  22328641.080   117337849.12909  22328637.180    91432097.41947
  21560854.000   113303132.36309  21560853.660    88288168.36848
 15 03 01 00 47 30.0000000  0  6G16G18G19G21G22G27
  20569263.220   108092246.48209  20569260.360    84227728.51748
  21918955.500   115184959.89509  21918952.860    89754534.06047
  23474494.520   123359322.87908  23474491.940    96124152.22246
  22392358.100   117672642.76408  22392354.700    91692957.23547
  22313524.660   117258412.10809  22313520.800    91370198.47247
  21551269.840   113252767.41209  21551269.580    88248922.96448
 15 03 01 00 48  0.0000000  0  6G16G18G19G21G22G27
  20564101.200   108065120.30909  20564098.420    84206591.24248
  21914936.900   115163841.92009  21914934.200    89738078.51947
  23460288.160   123284668.24208  23460285.320    96065979.84647
  22404674.640   117737366.80308  22404671.240    91743391.55347
  22298459.800   117179246.09909  22298456.020    91308510.73747
  21541712.920   113202545.91609  21541712.720    88209789.36148
 15 03 01 00 48 30.0000000  0  6G16G18G19G21G22G27
  20559031.540   108038479.36509  20559028.820    84185832.05548
  21911008.280   115143196.67509  21911005.480    89721991.31747
  23446099.420   123210105.75808  23446096.180    96007879.26246
  22417022.020   117802253.01708  22417018.640    91793952.22347
  22283447.560   117100356.25109  22283443.760    91247038.16947
  21532183.780   113152470.88009  21532183.700    88170769.87148
 15 03 01 00 49  0.0000000  0  6G16G18G19G21G22G27
  20554055.080   108012327.81809  20554052.380    84165454.22248
  21907170.400   115123028.44309  21907167.580    89706275.82647
  23431928.780   123135638.31308  23431925.440    95949852.73146
  22429400.440   117867302.27908  22429397.160    91844639.94847
  22268488.920   117021748.27209  22268485.080    91185785.24147
  21522683.140   113102545.63109  21522683.280    88131867.09448
 15 03 01 00 49 30.0000000  0  6G16G18G19G21G22G27
  20549171.460   107986663.95909  20549168.680    84145456.41648
  21903422.820   115103334.50309  21903419.940    89690929.92047
  23417775.560   123061262.65908  23417772.380    95891897.73147
  22441808.960   117932509.56808  22441805.760    91895450.81847
  22253583.740   116943421.34809  22253579.820    91124751.31147
  21513210.560   113052767.14709  21513210.760    88093078.68148
 15 03 01 00 50  0.0000000  0  6G16G18G19G21G22G27
  20544381.260   107961490.83909  20544378.380    84125840.99548
  21899765.900   115084117.09109  21899762.960    89675955.32747
  23403640.140   122986980.66208  23403637.220    95834015.70447
  22454247.620   117997875.07008  22454244.500    91946384.96347
  22238732.820   116865379.49709  22238728.800    91063939.51647
  21503766.460   113003137.56209  21503766.560    88054406.29848
 15 03 01 00 50 30.0000000  0  6G16G18G19G21G22G27
  20539684.840   107936810.72009  20539681.920    84106609.73648
  21896200.020   115065378.50909  21896197.120    89661353.85447
  23389522.760   122912793.36108  23389519.980    95776207.47947
  22466716.200   118063397.54608  22466713.060    91997441.42747
  22223936.840   116787626.15309  22223932.820    91003352.54848
  21494350.980   112953658.16409  21494350.840    88015850.94348
 15 03 01 00 51  0.0000000  0  6G16G18G19G21G22G27
  20535081.320   107912618.82809  20535078.340    84087758.90948
  21892724.140   115047113.08909  21892721.340    89647121.06847
  23375422.320   122838694.59108  23375419.560    95718468.24447
  22479213.220   118129069.40909  22479210.040    92048614.29547
  22209195.060   116710157.37609  22209191.020    90942987.30447
  21484962.980   112904323.04009  21484962.600    87977408.00948
 15 03 01 00 51 30.0000000  0  6G16G18G19G21G22G27
  20530572.160   107888922.94509  20530569.200    84069294.58348
  21889339.880   115029328.34309  21889337.060    89633262.84447
  23361340.020   122764691.01108  23361336.920    95660803.18046
  22491739.520   118194895.22009  22491736.220    92099907.13247
  22194509.120   116632982.38009  22194505.080    90882850.98247
  21475603.660   112855139.08209  21475603.100    87939082.86448
 15 03 01 00 52  0.0000000  0  6G16G18G19G21G22G27
  20526157.400   107865723.06209  20526154.420    84051216.75648
  21886046.840   115012023.14109  21886044.000    89619778.29147
  23347275.500   122690781.29208  23347271.880    95603211.26046
  22504294.400   118260871.03209  22504291.040    92151316.84747
  22179879.260   116556102.26509  22179875.340    90822944.44047
  21466272.880   112806105.28109  21466272.240    87900874.71848
 15 03 01 00 52 30.0000000  0  6G16G18G19G21G22G27
  20521837.280   107843020.61009  20521834.260    84033526.53148
  21882845.240   114995198.79609  21882842.420    89606668.42447
  23333228.720   122616965.44308  23333224.780    95545692.48146
  22516877.800   118326996.85609  22516874.420    92202843.46147
  22165306.140   116479519.93609  22165302.280    90763269.92948
  21456970.740   112757222.17909  21456970.100    87862784.00748
 15 03 01 00 53  0.0000000  0  6G16G18G19G21G22G27
  20517612.380   107820818.60009  20517609.340    84016226.26049
  21879735.480   114978857.20709  21879732.760    89593934.73047
  23319200.200   122543245.85608  23319196.200    95488248.68947
  22529489.600   118393271.97609  22529486.220    92254486.39147
  22150790.380   116403239.02709  22150786.500    90703830.30048
  21447697.620   112708491.73609  21447697.000    87824812.25048
 15 03 01 00 53 30.0000000  0  6G16G18G19G21G22G27
  20513482.780   107799117.21109  20513479.720    83999316.09149
  21876717.680   114962998.56309  21876714.980    89581577.36247
  23305189.740   122469621.01408  23305186.020    95430878.74746
  22542129.220   118459693.56508  22542125.820    92306243.47747
  22136332.220   116327261.01409  22136328.320    90644626.69348
  21438453.320   112659913.33909  21438452.840    87786958.96248
 15 03 01 00 54  0.0000000  0  6G16G18G19G21G22G27
  20509448.580   107777917.03709  20509445.560    83982796.47048
  21873791.720   114947622.39809  21873788.960    89569595.94147
  23291197.100   122396089.96208  23291193.680    95373581.86446
  22554796.140   118526259.03908  22554792.800    92358112.65947
  22121932.020   116251587.57909  22121928.140    90585660.41847
  21429237.880   112611486.52209  21429237.560    87749223.79048
 15 03 01 00 54 30.0000000  0  6G16G18G19G21G22G27
  20505509.640   107757217.82009  20505506.660    83966667.21448
  21870957.520   114932728.39809  21870954.680    89557990.24947
  23277222.280   122322652.07308  23277218.980    95316357.58047
  22567489.860   118592965.43708  22567486.540    92410091.67547
  22107590.040   116176219.90509  22107586.200    90526932.40448
  21420051.200   112563210.54709  21420050.980    87711606.17048
 15 03 01 00 55  0.0000000  0  6G16G18G19G21G22G27
  20501667.020   107737025.12509  20501664.080    83950932.65648
  21868215.900   114918321.43709  21868213.120    89546764.06047
  23263266.060   122249311.91808  23263262.660    95259209.47146
  22580210.880   118659815.25308  22580207.580    92462182.43247
  22093307.520   116101164.74209  22093303.680    90468447.90348
  21410894.160   112515090.09309  21410893.960    87674109.73648
 15 03 01 00 55 30.0000000  0  6G16G18G19G21G22G27
  20497920.540   107717337.42209  20497917.600    83935591.59048
  21865566.420   114904399.01609  21865563.760    89535915.42947
  23249327.880   122176066.50308  23249324.500    95202135.18547
  22592958.340   118726803.91208  22592955.020    92514381.39047
  22079084.240   116026421.29009  22079080.340    90410206.29548
  21401766.260   112467122.61309  21401766.000    87636732.49748
 15 03 01 00 56  0.0000000  0  6G16G18G19G21G22G27
  20494271.400   107698160.98009  20494268.420    83920648.90848
  21863010.320   114890966.86409  21863007.700    89525448.82347
  23235408.500   122102920.60308  23235405.340    95145138.44747
  22605732.820   118793934.64608  22605729.620    92566691.04047
  22064921.740   115951997.24209  22064917.760    90352213.56747
  21392668.440   112419313.46109  21392668.140    87599478.63448
 15 03 01 00 56 30.0000000  0  6G16G18G19G21G22G27
  20490718.740   107679491.54909  20490715.760    83906101.30848
  21860546.660   114878020.21009  21860544.000    89515360.53747
  23221507.120   122029869.53008  23221504.180    95088215.58247
  22618533.160   118861200.92108  22618530.020    92619106.32847
  22050819.540   115877889.82309  22050815.420    90294467.57547
  21383599.800   112371657.86509  21383599.500    87562344.41948
 15 03 01 00 57  0.0000000  0  6G16G18G19G21G22G27
  20487262.940   107661330.94609  20487259.960    83891950.18248
  21858175.640   114865560.16609  21858172.880    89505651.42047
  23207623.880   121956913.75708  23207621.160    95031366.96547
  22631359.020   118928601.31508  22631355.960    92671626.10347
  22036778.100   115804101.84109  22036773.960    90236970.48148
  21374560.560   112324156.87909  21374560.340    87525330.68048
 15 03 01 00 57 30.0000000  0  6G16G18G19G21G22G27
  20483904.260   107643680.89709  20483901.280    83878196.90248
  21855897.440   114853587.94709  21855894.620    89496322.43347
  23193759.040   121884054.00908  23193756.340    94974593.18247
  22644210.180   118996134.63208  22644207.220    92724249.46547
  22022798.000   115730636.20409  22022793.920    90179724.57548
