     2.11           OBSERVATION DATA    G                   RINEX VERSION / TYPE
SPIDER V4,0,0,3554                      2015 03 17 00:01    PGM / RUN BY / DATE 
ABZH                                                        MARKER NAME         
ABZH                                                        MARKER NUMBER       
                                                            OBSERVER / AGENCY   
462405              LEICA GRX1200PRO    8.20/2.127          REC # / TYPE / VERS 
103261              LEIAT504                                ANT # / TYPE        
  5106694.6829   270584.9059  3799508.1083                  APPROX POSITION XYZ 
        0.0770        0.0000        0.0000                  ANTENNA: DELTA H/E/N
     1     1                                                WAVELENGTH FACT L1/2
     4    C1    L1    P2    L2                              # / TYPES OF OBSERV 
    30.000                                                  INTERVAL            
  2015    03    01    00    00    0.0000000     GPS         TIME OF FIRST OBS   
  2015    03    01    23    59   30.0000000     GPS         TIME OF LAST OBS    
    16                                                      LEAP SECONDS        
    30                                                      # OF SATELLITES     
   G 1   818   818   818   818                              PRN / # OF OBS      
   G 2   918   918   910   910                              PRN / # OF OBS      
   G 3   836   836   836   836                              PRN / # OF OBS      
   G 4   834   834   833   833                              PRN / # OF OBS      
   G 5   662   662   662   662                              PRN / # OF OBS      
   G 6   790   790   786   786                              PRN / # OF OBS      
   G 7   652   652   652   652                              PRN / # OF OBS      
   G 9   786   786   786   786                              PRN / # OF OBS      
   G10   770   770   770   770                              PRN / # OF OBS      
   G11   784   784   784   784                              PRN / # OF OBS      
   G12   811   811   811   811                              PRN / # OF OBS      
   G13   807   807   806   806                              PRN / # OF OBS      
   G14   919   919   913   913                              PRN / # OF OBS      
   G15   720   720   720   720                              PRN / # OF OBS      
   G16   681   681   679   679                              PRN / # OF OBS      
   G17   923   923   923   923                              PRN / # OF OBS      
   G18   914   914   914   914                              PRN / # OF OBS      
   G19   767   767   767   767                              PRN / # OF OBS      
   G20   785   785   785   785                              PRN / # OF OBS      
   G21   705   705   703   703                              PRN / # OF OBS      
   G22   769   769   768   768                              PRN / # OF OBS      
   G23   733   733   733   733                              PRN / # OF OBS      
   G24   828   828   828   828                              PRN / # OF OBS      
   G25   831   831   831   831                              PRN / # OF OBS      
   G27   816   816   816   816                              PRN / # OF OBS      
   G28   882   882   879   879                              PRN / # OF OBS      
   G29   745   745   745   745                              PRN / # OF OBS      
   G30   697   697   697   697                              PRN / # OF OBS      
   G31   822   822   822   822                              PRN / # OF OBS      
   G32   745   745   745   745                              PRN / # OF OBS      
BIT 2 OF LLI FLAGS DATA COLLECTED UNDER A/S CONDITION       COMMENT             
SNR is mapped to RINEX snr flag value [2-9]                 COMMENT             
Lx:     = 25dBHz -> 1; 26-27dBHz -> 2; 28-31dBHz -> 3       COMMENT             
       32-35dBHz -> 4; 36-38dBHz -> 5; 39-41dBHz -> 6       COMMENT             
       42-44dBHz -> 7; 45-48dBHz -> 8; >=49dBHz -> 9        COMMENT             
                                                            END OF HEADER       
 15 03 01 00 00  0.0000000  0  7G16G18G21G22G27G29G31
  21442522.960   112681261.44809  21442522.140    87803559.48647
  22642868.120   118989119.28908  22642868.020    92718816.53944
  21380440.900   112354987.87308  21380440.040    87549344.30147
  23918648.460   125693378.07306  23918649.120    97942889.50743
  22622147.780   118880227.72808  22622150.720    92633974.61746
  24198723.940   127165131.94406  24198724.680    99089711.65343
  23163594.840   121725487.37107  23163595.260    94851021.21745
 15 03 01 00 00 30.0000000  0  7G16G18G21G22G27G29G31
  21430156.560   112616276.14009  21430155.960    87752921.61047
  22631523.760   118929505.17808  22631523.920    92672364.02345
  21388151.640   112395507.80408  21388150.760    87580918.26947
  23900826.420   125599721.54106  23900826.860    97869909.98644
  22610003.460   118816408.73808  22610006.320    92584245.56645
  24213366.080   127242076.74906  24213366.860    99149668.58744
  23181581.160   121820006.11008  23181581.660    94924672.06444
 15 03 01 00 01  0.0000000  0  7G16G18G21G22G27G29G31
  21417848.100   112551595.27709  21417847.680    87702520.94446
  22620237.920   118870198.27208  22620238.240    92626150.87844
  21395925.020   112436356.81608  21395924.100    87612748.66247
  23883008.540   125506085.86607  23883008.740    97796946.87944
  22597882.560   118752713.33608  22597885.480    92534612.79646
  24228012.120   127319042.22906  24228012.840    99209641.65043
  23199596.200   121914676.21507  23199596.880    94998440.85245
 15 03 01 00 01 30.0000000  0  7G16G18G21G22G27G29G31
  21405597.100   112487216.08109  21405596.760    87652355.34346
  22609010.100   118811196.42108  22609010.420    92580175.42744
  21403759.780   112477528.60208  21403758.880    87644830.57447
  23865194.280   125412469.24807  23865194.380    97723999.01844
  22585784.280   118689136.69008  22585787.220    92485072.59345
  24242661.080   127396023.18907  24242661.620    99269626.77843
  23217638.740   122009490.99108  23217639.640    95072322.74045
 15 03 01 00 02  0.0000000  0  7G16G18G21G22G27G29G31
  21393404.200   112423142.20909  21393403.920    87602427.66146
  22597841.080   118752503.15008  22597841.300    92534440.43044
  21411656.000   112519023.38408  21411655.120    87677164.16647
  23847384.120   125318875.28007  23847384.020    97651068.97144
  22573709.000   118625680.34508  22573711.800    92435626.12946
  24257313.340   127473021.37406  24257313.860    99329625.30043
  23235708.360   122104447.81606  23235709.280    95146315.19444
 15 03 01 00 02 30.0000000  0  7G16G18G21G22G27G29G31
  21381270.160   112359377.01209  21381269.820    87552740.49046
  22586731.480   118694121.95608  22586731.580    92488948.61644
  21419613.580   112560840.86508  21419612.720    87709749.21447
  23829578.600   125225306.35207  23829578.340    97578157.60043
  22561656.780   118562345.76408  22561659.600    92386274.54045
  24271968.940   127550037.91806  24271969.500    99389638.16142
  23253804.800   122199545.50507  23253805.740    95220417.49244
 15 03 01 00 03  0.0000000  0  7G16G18G21G22G27G29G31
  21369194.960   112295921.07209  21369194.540    87503294.31746
  22575681.460   118636053.83508  22575681.560    92443700.74844
  21427631.840   112602977.37608  21427630.960    87742582.85747
  23811778.360   125131764.97307  23811778.080    97505267.91744
  22549627.320   118499131.27408  22549630.120    92337016.51045
  24286627.760   127627070.90806  24286628.460    99449663.80643
  23271926.920   122294778.73508  23271927.920    95294625.14645
 15 03 01 00 03 30.0000000  0  7G16G18G21G22G27G29G31
  21357178.840   112232775.79309  21357178.340    87454090.21047
  22564691.280   118578300.25408  22564691.380    92398697.97944
  21435710.300   112645430.42008  21435709.440    87775663.14047
  23793983.720   125038253.50406  23793983.560    97432401.82443
  22537620.580   118436036.06008  22537623.200    92287851.43145
  24301289.620   127704119.47006  24301290.280    99509701.60842
  23290074.320   122390143.81007  23290075.200    95368935.24044
 15 03 01 00 04  0.0000000  0  7G16G18G21G22G27G29G31
  21345222.700   112169945.45109  21345222.160    87405131.50647
  22553761.740   118520865.27508  22553761.780    92353943.48744
  21443849.120   112688200.20508  21443848.240    87808990.25047
  23776195.620   124944776.61207  23776195.540    97359563.10043
  22525636.980   118373062.34508  22525639.600    92238781.05145
  24315954.820   127781185.73506  24315955.560    99569753.18343
  23308247.000   122485640.58208  23308247.700    95443348.11045
 15 03 01 00 04 30.0000000  0  7G16G18G21G22G27G29G31
  21333326.240   112107428.71409  21333325.660    87356417.16646
  22542892.640   118463748.30808  22542892.660    92309436.77145
  21452047.240   112731281.77608  21452046.420    87842560.29947
  23758413.800   124851332.88506  23758413.720    97286750.17944
  22513675.880   118310206.69008  22513678.640    92189802.64345
  24330622.760   127858265.71506  24330623.380    99629815.49743
  23326443.440   122581262.56608  23326444.000    95517858.67544
 15 03 01 00 05  0.0000000  0  7G16G18G21G22G27G29G31
  21321491.080   112045234.30309  21321490.500    87307953.99447
  22532085.840   118406957.97808  22532085.800    92265184.58444
  21460305.600   112774680.12408  21460304.920    87876377.18847
  23740640.000   124757931.79507  23740639.960    97213970.64144
  22501738.500   118247476.02008  22501741.520    92140921.64146
  24345294.520   127935366.60706  24345295.220    99689894.02044
  23344664.320   122677013.10107  23344664.800    95592469.31844
 15 03 01 00 05 30.0000000  0  7G16G18G21G22G27G29G31
  21309716.840   111983360.05909  21309716.240    87259740.29846
  22521340.820   118350492.40608  22521340.820    92221185.45644
  21468623.080   112818389.04508  21468622.500    87910436.08147
  23722873.780   124664571.42607  23722874.020    97141222.75844
  22489824.060   118184866.04008  22489827.260    92092134.67645
  24359969.300   128012484.06106  24359970.300    99749985.52844
  23362908.160   122772885.21207  23362908.780    95667174.73245
 15 03 01 00 06  0.0000000  0  7G16G18G21G22G27G29G31
  21298003.960   111921808.61709  21298003.340    87211778.13947
  22510658.000   118294354.29708  22510658.080    92177441.49744
  21476999.400   112862407.03208  21476998.860    87944735.80747
  23705115.940   124571254.85507  23705116.240    97068508.89344
  22477932.640   118122377.32607  22477936.080    92043442.21046
  24374647.280   128089618.23605  24374648.620    99810089.98844
  23381174.640   122868876.47208  23381175.480    95741973.03545
 15 03 01 00 06 30.0000000  0  7G16G18G21G22G27G29G31
  21286352.360   111860579.24309  21286351.740    87164066.94347
  22500037.380   118238542.97508  22500037.500    92133952.18444
  21485433.780   112906730.10108  21485433.340    87979273.25947
  23687366.340   124477981.74106  23687366.640    96995828.84543
  22466063.920   118060006.93908  22466067.460    91994841.96846
  24389327.920   128166766.03006  24389329.400    99870205.11344
  23399462.720   122964981.09207  23399463.700    95816859.86844
 15 03 01 00 07  0.0000000  0  7G16G18G21G22G27G29G31
  21274763.160   111799677.93309  21274762.580    87116611.39147
  22489480.220   118183064.47508  22489480.260    92090722.20345
  21493926.580   112951359.95008  21493926.140    88014049.75347
  23669626.200   124384758.80406  23669626.600    96923187.89244
  22454218.600   117997758.82108  22454221.920    91946336.97045
  24404011.900   128243931.17805  24404013.680    99930333.75743
  23417772.620   123061199.44808  23417773.580    95891835.09644
 15 03 01 00 07 30.0000000  0  7G16G18G21G22G27G29G31
  21263236.440   111739104.93109  21263235.900    87069411.66147
  22478986.440   118127918.61408  22478986.260    92047751.41844
  21502477.040   112996292.73708  21502476.540    88049062.31647
  23651895.840   124291586.77107  23651896.260    96850586.57444
  22442396.120   117935631.07508  22442399.320    91897925.77846
  24418698.960   128321111.73206  24418700.920    99990474.40843
  23436103.360   123157526.88908  23436103.980    95966895.33544
 15 03 01 00 08  0.0000000  0  7G16G18G21G22G27G29G31
  21251772.800   111678863.31909  21251772.280    87022470.15047
  22468556.680   118073109.39508  22468556.300    92005042.96044
  21511084.960   113041527.56508  21511084.420    88084310.21547
  23634176.060   124198469.32107  23634176.420    96778027.79944
  22430596.880   117873624.98808  22430599.940    91849609.37346
  24433389.100   128398308.55006  24433391.020   100050627.73343
  23454454.480   123253961.24407  23454454.800    96042038.79144
 15 03 01 00 08 30.0000000  0  7G16G18G21G22G27G29G31
  21240373.020   111618957.03209  21240372.460    86975789.93446
  22458191.660   118018640.78708  22458191.420    91962599.90845
  21519750.560   113087065.23708  21519749.900    88119794.11047
  23616467.600   124105410.64107  23616467.580    96705514.75243
  22418821.100   117811742.36008  22418824.000    91801389.17346
  24448082.540   128475523.66005  24448084.400   100110795.35843
  23472825.760   123350501.71308  23472825.800    96117264.85344
 15 03 01 00 09  0.0000000  0  7G16G18G21G22G27G29G31
  21229036.980   111559385.94209  21229036.380    86929370.91547
  22447891.380   117964512.51808  22447891.260    91920422.04444
  21528473.040   113132901.56708  21528472.220    88155510.72447
  23598770.520   124012411.31707  23598770.100    96633047.95744
  22407068.380   117749981.02908  22407071.160    91753263.49546
  24462779.100   128552754.71706  24462781.060   100170975.32944
  23491216.240   123447143.24207  23491216.120    96192569.80944
 15 03 01 00 09 30.0000000  0  7G16G18G21G22G27G29G31
  21217764.840   111500150.79809  21217764.280    86883213.67147
  22437655.880   117910725.06008  22437655.900    91878509.77244
  21537251.620   113179032.88808  21537250.700    88191457.19446
  23581084.820   123919472.39107  23581084.360    96560628.25344
  22395338.460   117688339.44708  22395341.080    91705231.12046
  24477478.580   128629999.82906  24477479.960   100231166.32743
  23509624.800   123543881.18007  23509624.920    96267949.89644
 15 03 01 00 10  0.0000000  0  7G16G18G21G22G27G29G31
  21206557.880   111441257.77909  21206557.300    86837323.01847
  22427486.480   117857284.84108  22427486.540    91836868.06544
  21546086.720   113225461.51008  21546085.760    88227635.32847
  23563411.900   123826600.99007  23563411.320    96488261.12044
  22383632.040   117626821.97408  22383634.620    91657295.45546
  24492181.380   128707263.22805  24492182.740   100291371.54244
  23528051.860   123640716.52507  23528052.240    96343405.81244
 15 03 01 00 10 30.0000000  0  7G16G18G21G22G27G29G31
  21195416.460   111382709.02709  21195415.840    86791700.62747
  22417383.500   117804193.57808  22417383.480    91795498.27444
  21554978.080   113272185.56208  21554977.000    88264043.67547
  23545752.220   123733799.60707  23545751.560    96415948.53244
  22371949.300   117565428.70308  22371951.860    91609456.57845
  24506887.460   128784544.72605  24506889.280   100351590.85441
  23546496.960   123737646.60607  23546497.780    96418935.47344
 15 03 01 00 11  0.0000000  0  7G16G18G21G22G27G29G31
  21184339.800   111324500.71809  21184339.220    86746343.51047
  22407346.400   117751448.35908  22407346.280    91754398.10844
  21563924.240   113319197.66108  21563923.060    88300676.46947
  23528105.200   123641065.11807  23528104.420    96343688.06744
  22360289.140   117504153.89408  22360291.640    91561709.99546
  24521596.180   128861838.56506  24521598.040   100411819.78943
  23564958.520   123834662.51907  23564959.640    96494532.17044
 15 03 01 00 11 30.0000000  0  7G16G18G21G22G27G29G31
  21173329.440   111266640.88009  21173328.920    86701257.93747
  22397376.560   117699056.69308  22397376.480    91713573.46644
  21572926.000   113366501.79308  21572924.700    88337536.82147
  23510472.500   123548405.78407  23510471.720    96271486.15543
  22348652.580   117443003.13008  22348655.040    91514060.08646
  24536308.120   128939150.00806  24536309.920   100472062.44543
  23583437.100   123931766.73007  23583438.280    96570197.58644
 15 03 01 00 12  0.0000000  0  7G16G18G21G22G27G29G31
  21162385.460   111209129.95609  21162384.960    86656444.24447
  22387474.360   117647019.66108  22387474.200    91673025.14144
  21581982.820   113414095.27808  21581981.420    88374622.65147
  23492854.360   123455822.89507  23492853.880    96199343.80144
  22337039.420   117381975.52208  22337041.800    91466506.13746
  24551023.240   129016478.32006  24551024.840   100532318.25043
  23601931.920   124028955.47407  23601933.040    96645928.78844
 15 03 01 00 12 30.0000000  0  6G16G18G21G22G27G31
  21151500.360   111151928.34809  21151499.820    86611871.56747
  22377632.040   117595297.44208  22377631.820    91632722.12445
  21591086.240   113461933.77108  21591084.860    88411899.39347
  23475243.400   123363277.45607  23475243.160    96127230.62244
  22325441.680   117321029.13508  22325443.960    91419015.47046
  23620434.220   124126183.66707  23620435.320    96721690.68944
 15 03 01 00 13  0.0000000  0  6G16G18G21G22G27G31
  21140693.560   111095138.64309  21140693.000    86567619.86346
  22367868.980   117543992.21308  22367868.880    91592744.05444
  21600255.000   113510116.38908  21600253.760    88449444.27446
  23457659.180   123270872.82507  23457659.160    96055227.17944
  22313878.520   117260264.72608  22313880.900    91371666.61146
  23638962.460   124223548.78807  23638963.540    96797559.28743
 15 03 01 00 13 30.0000000  0  7G16G18G19G21G22G27G31
  21129951.740   111038689.86209  21129951.100    86523633.79247
  22358171.720   117493033.06408  22358171.700    91553035.62844
  24540866.300   128963120.90206  24540867.340   100490757.33744
  21609475.020   113558568.25508  21609473.860    88487198.96747
  23440088.280   123178538.18707  23440088.320    95983278.26044
  22302336.140   117199609.09408  22302338.560    91324402.51146
  23657502.220   124320974.90507  23657503.200    96873475.26444
 15 03 01 00 14  0.0000000  0  7G16G18G19G21G22G27G31
  21119281.240   110982615.91909  21119280.580    86479939.82747
  22348546.700   117442453.71308  22348546.820    91513623.16845
  24525417.160   128881935.87805  24525418.660   100427496.36343
  21618751.820   113607318.27108  21618750.760    88525185.98447
  23422537.240   123086308.13107  23422537.300    95911410.81344
  22290820.560   117139094.18408  22290823.040    91277248.08246
  23676058.960   124418490.67707  23676060.080    96949461.14544
 15 03 01 00 14 30.0000000  0  7G16G18G19G21G22G27G31
  21108673.300   110926870.75509  21108672.680    86436502.04547
  22338985.200   117392208.50608  22338985.420    91474471.07745
  24509977.280   128800797.13106  24509978.820   100364271.44844
  21628076.040   113656317.55608  21628075.060    88563367.23747
  23404997.500   122994137.24007  23404997.680    95839589.47644
  22279322.600   117078671.93308  22279325.100    91230165.84446
  23694623.060   124516045.16407  23694624.600    97025477.21645
 15 03 01 00 15  0.0000000  0  7G16G18G19G21G22G27G31
  21098136.060   110871497.00609  21098135.460    86393353.67547
  22329495.360   117342339.77208  22329495.740    91435612.35045
  24494553.800   128719745.84505  24494555.200   100301114.69144
  21637455.080   113705604.89408  21637454.160    88601772.94647
  23387477.400   122902068.68707  23387477.520    95767847.86644
  22267850.080   117018383.28408  22267852.480    91183187.70246
  23713201.860   124613676.40807  23713203.900    97101553.15844
 15 03 01 00 15 30.0000000  0  7G16G18G19G21G22G27G31
  21087668.080   110816487.46909  21087667.400    86350489.09847
  22320075.940   117292840.57308  22320076.300    91397041.56945
  24479145.100   128638772.24406  24479146.400   100238018.45443
  21646886.760   113755168.92508  21646885.920    88640394.25947
  23369975.580   122810096.00507  23369975.640    95696180.96844
  22256401.120   116958218.83208  22256403.500    91136306.34046
  23731792.920   124711371.87107  23731795.120    97177679.12044
 15 03 01 00 16  0.0000000  0  7G16G18G19G21G22G27G31
  21077269.140   110761840.83009  21077268.460    86307907.31947
  22310726.600   117243709.21708  22310726.860    91358757.41944
  24463750.600   128557873.32206  24463751.640   100174980.38443
  21656370.220   113805005.10908  21656369.400    88679227.65347
  23352491.880   122718218.38107  23352491.760    95624588.12944
  22244975.160   116898175.39608  22244977.560    91089519.28046
  23750395.060   124809125.40207  23750397.420    97253850.34544
 15 03 01 00 16 30.0000000  0  7G16G18G19G21G22G27G31
  21066940.760   110707564.72209  21066940.020    86265614.24547
  22301448.680   117194953.10608  22301448.800    91320765.65645
  24448371.320   128477054.43606  24448372.180   100112004.75943
  21665905.840   113855115.34008  21665904.980    88718274.57947
  23335027.760   122626443.90307  23335027.480    95553075.68544
  22233573.240   116838258.49308  22233575.720    91042830.81046
  23769008.640   124906939.26407  23769011.180    97330068.58044
 15 03 01 00 17  0.0000000  0  7G16G18G19G21G22G27G31
  21056683.140   110653660.16009  21056682.340    86223610.68547
  22292242.380   117146573.54208  22292242.420    91283067.31945
  24433007.020   128396314.33206  24433008.080   100049090.48243
  21675493.340   113905498.29508  21675492.500    88757534.01847
  23317583.600   122534774.20807  23317583.100    95481644.83845
  22222195.280   116778467.30908  22222197.780    90996240.30646
  23787633.020   125004809.61707  23787635.480    97406330.88244
 15 03 01 00 17 30.0000000  0  7G16G18G19G21G22G27G31
  21046495.980   110600126.17909  21046495.260    86181895.89847
  22283107.500   117098569.39208  22283107.440    91245661.49245
  24417657.320   128315650.44906  24417658.140    99986235.60043
  21685131.900   113956149.35908  21685131.080    88797002.37546
  23300159.240   122443209.10907  23300158.640    95410295.51244
  22210840.840   116718799.05608  22210843.280    90949745.59645
  23806267.120   125102730.66607  23806269.360    97482632.68843
 15 03 01 00 18  0.0000000  0  7G16G18G19G21G22G27G31
  21036380.900   110546971.09009  21036380.200    86140476.35047
  22274045.580   117050948.67608  22274045.400    91208554.47945
  24402323.100   128235069.03406  24402323.940    99923444.97143
  21694822.200   114007072.38408  21694821.360    88836682.64446
  23282756.460   122351757.79207  23282755.960    95339034.84844
  22199510.900   116659260.12408  22199513.320    90903351.65246
  23824911.460   125200705.57607  23824913.560    97558976.48544
 15 03 01 00 18 30.0000000  0  7G16G18G19G21G22G27G31
  21026336.760   110494188.72609  21026336.100    86099347.23747
  22265055.580   117003705.56808  22265055.280    91171741.67845
  24387003.120   128154562.18206  24387003.840    99860712.47044
  21704562.420   114058257.69408  21704561.660    88876567.29546
  23265374.300   122260414.71807  23265373.860    95267858.51544
  22188204.000   116599842.45008  22188206.400    90857052.19046
  23843564.060   125298723.42207  23843565.960    97635353.68444
 15 03 01 00 19  0.0000000  0  7G16G18G19G21G22G27G31
  21016365.800   110441791.00609  21016365.240    86058517.85347
  22256139.540   116956851.48508  22256139.280    91135232.01545
  24371698.940   128074139.45006  24371699.880    99798045.48844
  21714354.000   114109713.00708  21714353.300    88916662.33446
  23248014.980   122169191.83707  23248014.540    95196775.84945
  22176922.020   116540555.83608  22176924.500    90810854.86646
  23862226.280   125396790.85007  23862227.940    97711769.55044
 15 03 01 00 19 30.0000000  0  7G16G18G19G21G22G27G31
  21006466.160   110389768.37009  21006465.660    86017980.73047
  22247295.600   116910376.60008  22247295.380    91099017.83045
  24356408.800   127993789.43306  24356409.780    99735435.20943
  21724194.380   114161424.68708  21724193.680    88956957.14146
  23230676.900   122078080.48707  23230676.420    95125780.05344
  22165662.800   116481388.87908  22165665.340    90764750.76846
  23880895.180   125494893.70507  23880896.640    97788213.05744
 15 03 01 00 20  0.0000000  0  7G16G18G19G21G22G27G31
  20996639.540   110338129.43809  20996639.120    85977742.60447
  22238525.480   116864289.59508  22238525.340    91063105.90245
  24341133.760   127913518.43706  24341134.580    99672886.47444
  21734084.480   114213397.88108  21734083.920    88997455.71546
  23213361.720   121987089.90007  23213361.360    95054878.38744
  22154427.660   116422348.29808  22154430.180    90718745.14546
  23899571.320   125593035.37607  23899572.680    97864686.84443
 15 03 01 00 20 30.0000000  0  7G16G18G19G21G22G27G31
  20986886.520   110286877.46109  20986886.200    85937806.00647
  22229829.720   116818593.41708  22229829.660    91027498.52845
  24325873.920   127833328.18006  24325874.860    99610400.65244
  21744024.180   114265631.62208  21744023.700    89038157.32246
  23196070.400   121896224.22207  23196070.220    94984074.06444
  22143216.880   116363435.53808  22143219.440    90672839.12746
  23918254.400   125691214.35207  23918255.860    97941189.81244
 15 03 01 00 21  0.0000000  0  7G16G18G19G21G22G27G31
  20977206.680   110236009.76309  20977206.400    85898168.83947
  22221207.900   116773285.72108  22221207.880    90992193.85644
  24310628.600   127753214.22406  24310629.640    99547974.29144
  21754012.460   114318120.10408  21754011.940    89079057.42946
  23178802.620   121805481.59107  23178802.460    94913365.57344
  22132029.560   116304646.17708  22132032.180    90627029.26846
  23936942.780   125789423.13507  23936944.740    98017715.93843
 15 03 01 00 21 30.0000000  0  7G16G18G19G21G22G27G31
  20967600.920   110185531.46409  20967600.660    85858835.10147
  22212660.900   116728371.31108  22212660.900    90957195.62345
  24295398.420   127673179.28005  24295399.440    99485609.51843
  21764049.260   114370863.63408  21764048.780    89120156.26546
  23161559.300   121714867.53007  23161559.160    94842757.31444
  22120866.460   116245983.38608  22120869.080    90581318.02446
  23955636.740   125887661.97906  23955639.200    98094265.61944
 15 03 01 00 22  0.0000000  0  7G16G18G19G21G22G27G31
  20958070.620   110135449.47809  20958070.260    85819810.17547
  22204189.940   116683856.44908  22204190.040    90922508.74445
  24280184.080   127593228.52605  24280185.200    99423310.30945
  21774135.400   114423866.39708  21774134.900    89161457.11046
  23144341.860   121624389.64807  23144341.660    94772255.14444
  22109728.480   116187452.20908  22109730.920    90535709.34246
  23974336.960   125985932.60907  23974339.660    98170840.12744
 15 03 01 00 22 30.0000000  0  7G16G18G19G21G22G27G31
  20948614.400   110085756.80909  20948614.040    85781088.61947
  22195793.760   116639734.34908  22195793.840    90888127.90945
  24264984.060   127513352.58405  24264985.140    99361069.46443
  21784268.760   114477116.90608  21784268.120    89202951.00546
  23127149.240   121534041.50007  23127148.800    94701854.06544
  22098613.760   116129043.75908  22098616.040    90490196.28546
  23993041.120   126084222.98607  23993043.800    98247429.91344
 15 03 01 00 23  0.0000000  0  6G16G18G21G22G27G31
  20939234.180   110036463.13709  20939233.760    85742677.95747
  22187474.160   116596014.67408  22187474.260    90854060.65345
  21794450.380   114530621.31508  21794449.640    89244642.73846
  23109983.340   121443833.49507  23109982.720    94631562.19444
  22087523.900   116070765.88408  22087526.100    90444784.97146
  24011749.980   126182538.06507  24011752.700    98324038.88643
 15 03 01 00 23 30.0000000  0  7G16G18G19G21G22G27G31
  20929926.880   109987552.79509  20929926.460    85704566.00747
  22179228.120   116552681.66708  22179228.320    90820294.68845
  24234629.040   127353827.62706  24234629.020    99236752.63544
  21804676.560   114584359.72308  21804675.700    89286516.81646
  23092841.240   121353751.03107  23092840.660    94561368.14944
  22076455.600   116012601.22808  22076457.740    90399461.88946
  24030459.720   126280857.47207  24030462.420    98400651.27144
 15 03 01 00 24  0.0000000  0  7G16G18G19G21G22G27G31
  20920699.300   109939061.45909  20920698.900    85666780.55647
  22171062.360   116509770.35908  22171062.600    90786857.32545
  24219475.640   127274199.00705  24219475.600    99174704.42944
  21814953.320   114638364.10708  21814952.460    89328598.13346
  23075729.880   121263830.26107  23075729.360    94491300.08944
  22065415.280   115954583.62108  22065417.460    90354253.38746
  24049176.080   126379211.64907  24049178.780    98477290.64144
 15 03 01 00 24 30.0000000  0  7G16G18G19G21G22G27G31
  20911546.320   109890962.02709  20911545.840    85629300.47347
  22162971.700   116467253.73808  22162971.960    90753727.49945
  24204335.920   127194640.47906  24204336.020    99112710.88844
  21825274.980   114692604.25808  21825274.000    89370863.18246
  23058644.180   121174044.54307  23058643.680    94421337.25644
  22054397.300   115896684.12308  22054399.600    90309136.92446
  24067892.960   126477568.62407  24067895.780    98553932.18844
 15 03 01 00 25  0.0000000  0  7G16G18G19G21G22G27G31
  20902470.560   109843268.30509  20902469.940    85592136.53647
  22154958.680   116425145.10208  22154958.920    90720915.61145
  24189211.820   127115163.66706  24189212.060    99050781.00943
  21835643.120   114747089.14108  21835642.060    89413318.91446
  23041586.940   121084408.52307  23041586.500    94351491.08844
  22043404.080   115838914.78308  22043406.400    90264121.87846
  24086612.100   126575937.49907  24086614.940    98630582.92844
 15 03 01 00 25 30.0000000  0  7G16G18G19G21G22G27G31
  20893472.060   109795980.39309  20893471.300    85555288.80047
  22147023.360   116383444.51408  22147023.440    90688421.66145
  24174102.980   127035766.60806  24174103.120    98988913.28744
  21846057.220   114801815.49308  21846056.140    89455962.82346
  23024558.300   120994922.81508  23024557.920    94281762.01844
  22032435.240   115781273.80408  22032437.640    90219206.85746
  24105332.480   126674313.55206  24105335.620    98707239.32344
 15 03 01 00 26  0.0000000  0  7G16G18G19G21G22G27G31
  20884551.340   109749101.57209  20884550.600    85518759.85347
  22139166.260   116342155.01708  22139166.340    90656248.05845
  24159009.700   126956451.59506  24159009.940    98927109.43943
  21856517.240   114856783.22408  21856516.160    89498794.80546
  23007559.160   120905592.15007  23007558.800    94212153.77745
  22021491.240   115723762.95408  22021493.700    90174393.24447
  24124054.080   126772695.64607  24124057.320    98783900.45943
 15 03 01 00 26 30.0000000  0  7G16G18G19G21G22G27G31
  20875708.260   109702630.77109  20875707.520    85482548.84547
  22131387.040   116301275.11908  22131387.120    90624393.60845
  24143931.380   126877214.94606  24143931.700    98865366.72444
  21867022.240   114911987.25108  21867021.260    89541810.92546
  22990589.280   120816415.62708  22990589.040    94142665.66544
  22010571.440   115666379.07808  22010573.900    90129678.56647
  24142775.660   126871077.11707  24142778.680    98860561.06744
 15 03 01 00 27  0.0000000  0  7G16G18G19G21G22G27G31
  20866943.920   109656573.82409  20866943.200    85446660.31347
  22123686.900   116260810.27408  22123686.800    90592862.56845
  24128868.740   126798060.68807  24128869.040    98803688.19444
  21877572.360   114967428.67608  21877571.520    89585012.02046
  22973650.040   120727399.90308  22973649.960    94073302.83144
  21999676.620   115609126.49908  21999679.160    90085066.19646
  24161497.580   126969459.78407  24161500.380    98937222.57244
 15 03 01 00 27 30.0000000  0  7G16G18G19G21G22G27G31
  20858257.480   109610926.51809  20858256.780    85411090.97847
  22116065.040   116220756.84308  22116064.860    90561652.12145
  24113820.820   126718983.00107  24113821.060    98742069.30943
  21888166.380   115023100.92708  21888165.640    89628392.98246
  22956740.740   120638541.57608  22956740.680    94004062.63845
  21988805.560   115551999.35808  21988808.260    90040551.56346
  24180217.880   127067834.26107  24180220.440    99013877.72043
 15 03 01 00 28  0.0000000  0  7G16G18G19G21G22G27G31
  20849651.200   109565700.58209  20849650.540    85375849.99147
  22108523.520   116181125.93508  22108523.440    90530770.91645
  24098789.020   126639991.35706  24098789.420    98680517.47744
  21898805.780   115079011.51108  21898805.060    89671959.66546
  22939863.720   120549852.92307  22939863.740    93934954.66844
  21977960.260   115495007.40808  21977962.980    89996142.27846
  24198937.820   127166207.35006  24198940.220    99090531.79744
 15 03 01 00 28 30.0000000  0  7G16G18G19G21G22G27G31
  20841123.820   109520889.27909  20841123.260    85340932.10447
  22101061.020   116141910.07808  22101060.960    90500213.11645
  24083772.160   126561077.25907  24083772.320    98619026.06944
  21909488.480   115135149.76308  21909487.740    89715703.75346
  22923017.920   120461328.17708  22923017.980    93865974.39245
  21967139.180   115438142.34608  21967141.880    89951831.87746
  24217655.340   127264567.73806  24217657.820    99167175.90944
 15 03 01 00 29  0.0000000  0  7G16G18G19G21G22G27G31
  20832676.520   109476498.46209  20832676.020    85306341.85347
  22093678.500   116103114.92808  22093678.500    90469983.15045
  24068770.900   126482244.86707  24068771.020    98557598.31544
  21920215.080   115191518.51808  21920214.340    89759627.45046
  22906204.580   120372973.80507  22906204.620    93797126.89945
  21956342.980   115381408.34408  21956345.640    89907623.57246
  24236370.800   127362916.55707  24236373.400    99243810.99444
 15 03 01 00 29 30.0000000  0  7G16G18G19G21G22G27G31
  20824309.600   109432529.99309  20824309.080    85272080.70947
  22086376.360   116064742.38108  22086376.480    90440082.48445
  24053785.220   126403494.41907  24053785.340    98496234.38244
  21930985.060   115248115.11108  21930984.360    89803728.67946
  22889424.280   120284792.73607  22889424.220    93728414.42845
  21945571.720   115324805.58708  21945574.400    89863517.57346
  24255083.540   127461250.97007  24255086.020    99320434.87443
 15 03 01 00 30  0.0000000  0  7G16G18G19G21G22G27G31
  20816023.360   109388985.39509  20816022.780    85238149.85147
  22079154.900   116026793.40208  22079155.040    90410511.87445
  24038814.980   126324825.18507  24038815.000    98434933.73844
  21941798.040   115304937.43308  21941797.380    89848005.81246
  22872677.300   120196786.86408  22872677.200    93659838.48444
  21934825.440   115268333.83908  21934828.120    89819513.63946
  24273792.900   127559567.64606  24273795.660    99397044.89144
 15 03 01 00 30 30.0000000  0  7G16G18G19G21G22G27G31
  20807818.700   109345869.56309  20807818.120    85204553.10747
  22072014.880   115989272.83008  22072015.020    90381275.07445
  24023860.680   126246240.76407  24023860.800    98373699.20844
  21952654.200   115361986.95508  21952653.600    89892459.96646
  22855964.840   120108962.04508  22855964.520    93591403.61745
  21924104.800   115211996.57408  21924107.460    89775614.50746
  24292498.980   127657867.03906  24292502.320    99473641.48044
 15 03 01 00 31  0.0000000  0  7G16G18G19G21G22G27G31
  20799694.800   109303177.89709  20799694.140    85171286.86547
  22064955.500   115952175.82108  22064955.580    90352368.33745
  24008921.420   126167734.25207  24008921.260    98312525.37044
  21963551.940   115419255.06808  21963551.400    89937084.46146
  22839286.100   120021314.70308  22839285.560    93523107.03845
  21913408.560   115155787.35108  21913411.220    89731815.12646
  24311199.900   127756139.76006  24311203.620    99550217.33044
 15 03 01 00 31 30.0000000  0  7G16G18G19G21G22G27G31
  20791652.620   109260916.07609  20791652.060    85138355.58348
  22057977.840   115915507.74708  22057977.840    90323795.83045
  23993997.660   126089309.65607  23993997.480    98251415.33844
  21974491.820   115476744.59908  21974491.360    89981881.49046
  22822642.380   119933851.30108  22822641.700    93454953.80244
  21902737.460   115099710.32408  21902740.160    89688118.77047
  24329895.880   127854386.80206  24329899.880    99626773.23544
 15 03 01 00 32  0.0000000  0  7G16G18G19G21G22G27G31
  20783693.220   109219089.09709  20783692.680    85105763.12947
  22051082.440   115879272.84808  22051082.560    90295560.87545
  23979090.020   126010970.02306  23979090.080    98190371.54843
  21985473.940   115534456.15008  21985473.540    90026851.53646
  22806034.680   119846577.22308  22806033.880    93386948.09645
  21892092.140   115043768.70008  21892094.800    89644527.91546
  24348586.900   127952608.15006  24348591.260    99703309.06544
 15 03 01 00 32 30.0000000  0  7G16G18G19G21G22G27G31
  20775816.480   109177696.70709  20775815.960    85073509.32348
  22044269.460   115843470.88308  22044269.660    90267663.25645
  23964198.020   125932713.55806  23964198.040    98129392.58744
  21996497.500   115592385.70608  21996497.140    90071991.44646
  22789463.140   119759493.25808  22789462.240    93319090.50245
  21881472.200   114987960.77808  21881474.840    89601041.24746
  24367272.240   128050799.27306  24367276.520    99779821.43344
 15 03 01 00 33  0.0000000  0  7G16G18G19G21G22G27G31
  20768022.760   109136740.63409  20768022.280    85041595.49447
  22037539.100   115808102.84708  22037539.380    90240103.76145
  23949321.820   125854540.23105  23949321.900    98068478.36241
  22007562.100   115650531.32008  22007561.860    90117299.69846
  22772928.280   119672602.03208  22772927.260    93251383.09845
  21870877.720   114932286.68308  21870880.360    89557658.86246
  24385951.280   128148957.23206  24385955.280    99856307.93744
 15 03 01 00 33 30.0000000  0  7G16G18G19G21G22G27G31
  20760312.040   109096220.39809  20760311.560    85010021.27848
  22030891.260   115773168.30108  22030891.520    90212882.05445
  23934460.940   125776447.60905  23934461.220    98007627.07244
  22018667.260   115708889.26708  22018666.940    90162773.42146
  22756430.160   119585903.98108  22756429.100    93183826.22045
  21860308.400   114876744.34208  21860310.980    89514379.13046
  24404623.040   128247076.74006  24404626.920    99932764.48945
 15 03 01 00 34  0.0000000  0  7G16G18G19G21G22G27G31
  20752684.680   109056138.46709  20752684.240    84978788.60648
  22024326.400   115738669.09808  22024326.420    90185999.56645
  23919615.720   125698437.03806  23919616.460    97946839.66643
  22029812.700   115767458.68708  22029812.220    90208411.93046
  22739969.400   119499402.35808  22739968.300    93116422.42444
  21849764.380   114821334.83308  21849766.920    89471202.90847
  24423287.040   128345155.92306  24423290.860   100009189.56543
 15 03 01 00 34 30.0000000  0  7G16G18G19G21G22G27G31
  20745140.560   109016493.84809  20745140.240    84947896.69648
  22017844.160   115704604.27408  22017844.020    90159455.56645
  23904785.780   125620505.12506  23904786.700    97886113.58543
  22040997.460   115826234.67408  22040996.920    90254211.39446
  22723545.940   119413096.92708  22723544.780    93049171.50245
  21839245.080   114766055.44108  21839247.620    89428128.06546
  24441942.180   128443188.88306  24441945.740   100085578.63043
 15 03 01 00 35  0.0000000  0  7G16G18G19G21G22G27G31
  20737681.900   108977298.53809  20737681.560    84917354.89148
  22011446.700   115670985.36308  22011446.520    90133259.03545
  23889972.620   125542662.60005  23889973.940    97825457.16244
  22052223.040   115885225.36408  22052222.440    90300178.15946
  22707162.300   119327000.48308  22707161.060    92982083.40945
  21828752.580   114710916.68508  21828755.140    89385162.81547
  24460589.940   128541183.09206  24460593.240   100161937.51143
 15 03 01 00 35 30.0000000  0  7G16G18G19G21G22G27G31
  20730307.700   108938546.89809  20730307.340    84887158.81248
  22005132.940   115637806.12008  22005132.600    90107405.09845
  23875174.980   125464901.90606  23875176.540    97764864.46144
  22063487.800   115944421.64908  22063487.180    90346305.13046
  22690817.460   119241108.05108  22690816.320    92915154.30845
  21818285.500   114655911.37708  21818288.000    89342301.55347
  24479228.460   128639128.35106  24479231.980   100238258.20743
 15 03 01 00 36  0.0000000  0  7G16G18G19G21G22G27G31
  20723018.160   108900240.29809  20723017.720    84857309.51048
  21998903.020   115605067.65108  21998902.580    90081894.61045
  23860393.060   125387222.30806  23860394.440    97704334.94344
  22074791.160   116003821.22508  22074790.540    90392590.49846
  22674511.940   119155422.28508  22674510.840    92848386.23945
  21807843.720   114601039.37408  21807846.140    89299544.16247
  24497857.020   128737021.62906  24497860.800   100314538.40344
 15 03 01 00 36 30.0000000  0  7G16G18G19G21G22G27G31
  20715814.100   108862382.66609  20715813.660    84827810.05648
  21992757.660   115572773.36708  21992757.200    90056730.24945
  23845627.120   125309626.27007  23845628.100    97643870.57644
  22086133.340   116063424.54608  22086132.560    90439034.64946
  22658246.620   119069947.87008  22658245.540    92781782.84745
  21797427.720   114546303.04508  21797430.060    89256892.49647
  24516475.660   128834862.14006  24516479.460   100390777.55543
 15 03 01 00 37  0.0000000  0  7G16G18G19G21G22G27G31
  20708695.540   108824974.43309  20708695.140    84798660.78548
  21986696.880   115540923.47208  21986696.500    90031912.16845
  23830876.980   125232113.04207  23830877.880    97583470.71544
  22097513.800   116123228.65008  22097512.760    90485635.24946
  22642021.800   118984686.28308  22642020.840    92715345.30645
  21787037.460   114491701.62408  21787039.640    89214345.95246
  24535083.520   128932646.06606  24535087.520   100466972.57244
 15 03 01 00 37 30.0000000  0  7G16G18G19G21G22G27G31
  20701663.440   108788020.26709  20701663.020    84769865.32948
  21980721.500   115509522.44108  21980721.180    90007443.85245
  23816143.040   125154685.31507  23816144.060    97523137.49144
  22108932.720   116183234.86208  22108931.560    90532393.32846
  22625838.580   118899642.81408  22625837.660    92649077.73445
  21776673.440   114437238.19008  21776675.540    89171906.92947
  24553680.620   129030373.70606  24553684.780   100543123.71044
 15 03 01 00 38  0.0000000  0  7G16G18G19G21G22G27G31
  20694717.860   108751520.90009  20694717.420    84741424.27048
  21974831.460   115478570.54008  21974831.220    89983325.51445
  23801425.180   125077342.42007  23801426.140    97462870.37244
  22120389.520   116243440.32908  22120388.240    90579306.67346
  22609697.220   118814819.36808  22609696.080    92582981.57945
  21766335.560   114382912.30008  21766337.640    89129575.06547
  24572266.300   129128041.12006  24572270.700   100619227.98243
 15 03 01 00 38 30.0000000  0  7G16G18G19G21G22G27G31
  20687858.880   108715476.75409  20687858.420    84713337.92348
  21969026.820   115448067.34508  21969026.620    89959556.80345
  23786723.180   125000082.66007  23786724.100    97402668.03544
  22131883.620   116303841.89408  22131882.200    90626372.82146
  22593597.900   118730216.90008  22593596.620    92517057.62945
  21756023.560   114328722.49508  21756025.660    89087349.25347
  24590839.800   129225644.06006  24590844.120   100695282.03043
 15 03 01 00 39  0.0000000  0  7G16G18G19G21G22G27G31
  20681087.220   108679891.33009  20681086.660    84685609.02148
  21963308.200   115418016.33508  21963308.120    89936140.44645
  23772037.460   124922908.21307  23772038.300    97342532.18044
  22143414.960   116364439.33108  22143413.460    90673591.59146
  22577541.540   118645840.10608  22577540.160    92451309.55245
  21745737.980   114274671.11308  21745739.840    89045231.30946
  24609400.880   129323181.79606  24609405.320   100771285.22644
 15 03 01 00 39 30.0000000  0  7G16G18G19G21G22G27G31
  20674403.180   108644766.20309  20674402.600    84658238.79048
  21957675.760   115388418.34108  21957675.660    89913077.08945
  23757368.020   124845819.34107  23757368.580    97282463.00944
  22154983.260   116425230.94008  22154981.740    90720961.66846
  22561528.640   118561691.39108  22561527.140    92385739.16145
  21735478.760   114220758.42508  21735480.540    89003221.43047
  24627948.920   129420651.44506  24627953.680   100847235.40544
 15 03 01 00 40  0.0000000  0  7G16G18G19G21G22G27G31
  20667806.800   108610102.01809  20667806.320    84631227.73948
  21952129.680   115359273.67808  21952129.500    89890366.98845
  23742714.520   124768814.70007  23742714.980    97222459.46345
  22166587.980   116486213.94508  22166586.540    90768480.88046
  22545559.480   118477772.62608  22545557.860    92320347.97145
  21725245.740   114166983.70708  21725247.580    88961319.07047
  24646483.200   129518049.47606  24646488.440   100923129.79843
 15 03 01 00 40 30.0000000  0  7G16G18G19G21G22G27G31
  20661299.000   108575903.18809  20661298.560    84604579.30248
  21946670.560   115330586.17608  21946670.480    89868013.11645
  23728077.580   124691897.09607  23728077.960    97162523.70645
  22178229.160   116547388.89808  22178227.820    90816149.66746
  22529635.020   118394088.63808  22529633.240    92255139.71645
  21715039.480   114113349.65108  21715041.500    88919526.31347
  24665003.600   129615375.47606  24665009.520   100998968.15044
 15 03 01 00 41  0.0000000  0  7G16G18G19G21G22G27G31
  20654879.480   108542168.47209  20654879.020    84578292.51648
  21941298.200   115302354.66508  21941298.340    89846014.55445
  23713456.620   124615063.45807  23713456.920    97102653.39444
  22189905.920   116608751.23508  22189904.660    90863964.45446
  22513755.100   118310639.31308  22513753.400    92190114.34245
  21704859.540   114059854.06608  21704861.680    88877841.45546
  24683509.500   129712623.91406  24683516.000   101074746.03943
 15 03 01 00 41 30.0000000  0  7G16G18G19G21G22G27G31
  20648549.000   108508901.04709  20648548.380    84552369.83748
  21936013.180   115274581.46408  21936013.360    89824373.10845
  23698852.000   124538315.92007  23698852.320    97042850.18944
  22201618.360   116670301.06208  22201617.180    90911925.35646
  22497920.580   118227428.71708  22497918.960    92125274.96345
  21694706.180   114006498.65808  21694708.500    88836265.83547
  24702000.600   129809793.49806  24702006.900   101150462.45244
 15 03 01 00 42  0.0000000  0  6G16G18G19G21G22G27
  20642306.800   108476097.93309  20642306.140    84526808.97848
  21930814.760   115247263.26408  21930814.940    89803086.22845
  23684262.720   124461649.85306  23684263.300    96983110.48044
  22213365.340   116732032.14508  22213364.280    90960027.49445
  22482131.200   118144455.24108  22482129.560    92060620.34545
  21684578.780   113953279.28708  21684581.240    88794796.21247
 15 03 01 00 42 30.0000000  0  6G16G18G19G21G22G27
  20636154.920   108443769.52809  20636154.220    84501618.00848
  21925704.840   115220410.02508  21925705.000    89782161.65545
  23669690.860   124385074.49506  23669691.460    96923441.42444
  22225148.060   116793951.24008  22225147.180    91008276.12345
  22466389.100   118061730.26508  22466387.520    91996159.37245
  21674479.020   113900205.02408  21674481.540    88753439.66047
 15 03 01 00 43  0.0000000  0  6G16G18G19G21G22G27
  20630093.100   108411914.60909  20630092.400    84476796.00048
  21920683.000   115194020.05108  21920683.100    89761598.06045
  23655135.540   124308586.75806  23655136.140    96863840.62044
  22236965.720   116856053.96408  22236964.960    91056667.85546
  22450694.040   117979252.76408  22450692.600    91931891.24745
  21664406.480   113847273.51608  21664408.980    88712194.35047
 15 03 01 00 43 30.0000000  0  6G16G18G19G21G22G27
  20624121.280   108380532.79309  20624120.620    84452342.64548
  21915749.000   115168091.97408  21915749.060    89741394.37645
  23640596.520   124232184.49306  23640597.220    96804306.43544
  22248817.520   116918336.18708  22248816.940    91105199.43746
  22435046.420   117897024.26608  22435045.140    91867817.12945
  21654360.760   113794482.75408  21654363.180    88671058.70947
 15 03 01 00 44  0.0000000  0  6G16G18G19G21G22G27
  20618238.960   108349621.07909  20618238.300    84428255.59548
  21910902.420   115142623.07508  21910902.460    89721548.50245
  23626073.240   124155863.95806  23626073.800    96744835.91944
  22260702.440   116980791.95508  22260701.860    91153866.26946
  22419445.700   117815042.59908  22419444.560    91803935.36445
  21644341.080   113741828.78308  21644343.520    88630029.68047
 15 03 01 00 44 30.0000000  0  6G16G18G19G21G22G27
  20612448.160   108319190.38009  20612447.520    84404543.36248
  21906145.260   115117623.61208  21906145.220    89702068.42645
  23611567.240   124079634.58206  23611567.820    96685436.45645
  22272621.740   117043428.54608  22272621.180    91202673.98646
  22403894.280   117733319.61108  22403893.180    91740255.17545
  21634349.300   113689321.54108  21634351.780    88589114.96847
 15 03 01 00 45  0.0000000  0  6G16G18G19G21G22G27
  20606748.160   108289236.62009  20606747.520    84381202.77048
  21901476.520   115093088.69208  21901476.260    89682950.33145
  23597077.480   124003489.94006  23597077.720    96626103.02044
  22284574.040   117106238.79308  22284573.540    91251617.03146
  22388391.460   117651851.61808  22388390.260    91676773.65845
  21624384.300   113636955.27808  21624386.840    88548310.11147
 15 03 01 00 45 30.0000000  0  6G16G18G19G21G22G27
  20601139.960   108259765.22509  20601139.280    84358238.04548
  21896897.060   115069023.11808  21896896.640    89664197.95445
  23582604.520   123927434.26606  23582604.600    96566838.91444
  22296559.840   117169224.95208  22296559.360    91300697.14546
  22372938.440   117570645.61308  22372937.280    91613496.28845
  21614446.880   113584734.28308  21614449.440    88507618.43647
 15 03 01 00 46  0.0000000  0  6G16G18G19G21G22G27
  20595623.140   108230774.06709  20595622.420    84335647.53448
  21892406.360   115045424.51708  21892405.860    89645809.45245
  23568148.000   123851464.36506  23568147.820    96507641.63844
  22308578.080   117232381.15808  22308577.600    91349909.76146
  22357534.960   117489700.42808  22357533.840    91550422.17745
  21604536.580   113532655.52608  21604539.080    88467037.60947
 15 03 01 00 46 30.0000000  0  6G16G18G19G21G22G27
  20590199.020   108202270.22109  20590198.300    84313436.74348
  21888005.740   115022299.60208  21888005.260    89627790.06345
  23553708.680   123775585.78606  23553708.620    96448515.51744
  22320629.540   117295711.79808  22320629.060    91399258.29746
  22342182.700   117409024.24408  22342181.520    91487557.65546
  21594654.560   113480724.92108  21594656.880    88426572.22547
 15 03 01 00 47  0.0000000  0  6G16G18G19G21G22G27
  20584866.360   108174247.10309  20584865.700    84291600.54948
  21883693.960   114999641.66008  21883693.580    89610134.54245
  23539285.400   123699791.33707  23539285.340    96389454.94345
  22332712.440   117359207.39808  22332711.900    91448735.38446
  22326880.700   117328612.16708  22326879.560    91424898.93045
  21584799.360   113428935.34808  21584801.620    88386216.73047
 15 03 01 00 47 30.0000000  0  6G16G18G19G21G22G27
  20579626.780   108146712.99809  20579626.180    84270145.40248
  21879472.360   114977457.74108  21879472.240    89592848.38146
  23524879.340   123624086.77407  23524879.040    96330464.43544
  22344827.440   117422871.67208  22344826.920    91498343.89745
  22311630.500   117248472.36108  22311629.380    91362452.38145
  21574972.160   113377292.95608  21574974.360    88345975.92447
 15 03 01 00 48  0.0000000  0  6G16G18G19G21G22G27
  20574480.320   108119668.18909  20574479.780    84249071.52148
  21875340.960   114955747.78908  21875341.020    89575931.54645
  23510490.160   123548471.40107  23510489.740    96271543.42544
  22356974.080   117486702.41808  22356973.620    91548082.13046
  22296432.600   117168606.65708  22296431.340    91300219.40045
  21565172.900   113325797.38709  21565175.080    88305849.52947
 15 03 01 00 48 30.0000000  0  6G16G18G19G21G22G27
  20569426.880   108093112.26409  20569426.380    84228378.59348
  21871299.620   114934510.61408  21871299.640    89559383.11245
  23496117.740   123472943.74307  23496117.320    96212690.75144
  22369151.720   117550696.32108  22369151.380    91597947.49545
  22281286.980   117089015.52408  22281285.620    91238200.37945
  21555401.300   113274447.11108  21555403.380    88265836.34947
 15 03 01 00 49  0.0000000  0  6G16G18G19G21G22G27
  20564466.820   108067046.98409  20564466.380    84208067.98448
  21867348.660   114913748.10308  21867348.620    89543204.54845
  23481762.160   123397504.18207  23481761.660    96153906.72944
  22381360.100   117614851.86508  22381359.840    91647938.81746
  22266194.160   117009702.32008  22266192.760    91176397.92546
  21545657.500   113223243.11009  21545659.560    88225937.14447
 15 03 01 00 49 30.0000000  0  6G16G18G19G21G22G27
  20559600.800   108041475.78709  20559600.340    84188142.37848
  21863488.520   114893462.75908  21863488.440    89527397.79845
  23467423.700   123322154.73507  23467422.960    96095192.88944
  22393599.340   117679169.22708  22393599.100    91698056.23646
  22251155.040   116930671.34008  22251153.500    91114815.38445
  21535941.920   113172187.53909  21535944.080    88186153.61547
 15 03 01 00 50  0.0000000  0  6G16G18G19G21G22G27
  20554828.380   108016396.68709  20554827.940    84168600.22348
  21859718.640   114873651.72508  21859718.540    89511960.64446
  23453101.840   123246892.19407  23453100.940    96036546.81644
  22405868.500   117743643.55908  22405868.300    91748295.96145
  22236169.480   116851921.60908  22236167.840    91053452.00845
  21526254.040   113121277.56009  21526256.240    88146483.51447
 15 03 01 00 50 30.0000000  0  6G16G18G19G21G22G27
  20550151.100   107991817.50709  20550150.680    84149447.61048
  21856040.520   114854322.93708  21856040.400    89496899.25746
  23438797.660   123171723.26507  23438796.800    95977973.69044
  22418168.340   117808279.22108  22418168.140    91798661.41045
  22221239.100   116773462.12408  22221237.420    90992314.79145
  21516595.140   113070520.05809  21516597.380    88106932.22847
 15 03 01 00 51  0.0000000  0  6G16G18G19G21G22G27
  20545568.200   107967734.24409  20545567.760    84130681.43448
  21852453.240   114835471.44108  21852453.100    89482209.80045
  23424510.400   123096642.55807  23424509.540    95919469.30544
  22430497.560   117873069.47308  22430497.280    91849147.30446
  22206363.320   116695289.72708  22206361.640    90931401.27445
  21506964.380   113019909.96209  21506966.540    88067495.80047
 15 03 01 00 51 30.0000000  0  6G16G18G19G21G22G27
  20541080.400   107944150.57209  20541079.960    84112304.53948
  21848957.420   114817100.69608  21848957.200    89467894.94045
  23410240.380   123021652.69507  23410239.460    95861035.70044
  22442856.280   117938014.74308  22442855.800    91899753.99845
  22191543.180   116617409.51808  22191541.540    90870715.43146
  21497362.180   112969450.06309  21497364.300    88028176.41847
 15 03 01 00 52  0.0000000  0  6G16G18G19G21G22G27
  20536688.320   107921070.01009  20536687.920    84094319.68148
  21845553.520   114799213.13308  21845553.300    89453956.59245
  23395987.880   122946755.93807  23395987.180    95802674.65445
  22455244.380   118003114.66908  22455243.820    91950481.21345
  22176779.500   116539826.17708  22176777.840    90810260.91846
  21487789.100   112919142.99409  21487791.220    87988976.11747
 15 03 01 00 52 30.0000000  0  6G16G18G19G21G22G27
  20532391.980   107898492.70109  20532391.660    84076726.97948
  21842241.540   114781808.75008  21842241.340    89440394.73746
  23381752.700   122871950.96506  23381752.380    95744385.13545
  22467661.660   118068368.02608  22467661.000    92001327.96845
  22162072.660   116462541.30308  22162070.960    90750038.97845
  21478244.980   112868988.04209  21478247.080    87949894.35347
 15 03 01 00 53  0.0000000  0  6G16G18G19G21G22G27
  20528190.980   107876416.16609  20528190.640    84059524.48648
  21839020.860   114764884.01508  21839020.720    89427206.64846
  23367534.500   122797234.79706  23367534.340    95686164.80044
  22480106.980   118133768.61408  22480106.300    92052289.45345
  22147422.260   116385553.02908  22147420.500    90690048.14345
  21468729.120   112818981.71009  21468731.240    87910928.40247
 15 03 01 00 53 30.0000000  0  6G16G18G19G21G22G27
  20524086.120   107854844.75709  20524085.680    84042715.59648
  21835892.300   114748443.30308  21835892.140    89414395.71845
  23353333.760   122722610.11906  23353333.540    95628015.76645
  22492580.600   118199317.81108  22492579.780    92103366.74545
  22132829.320   116308867.04508  22132827.660    90630292.88046
  21459242.080   112769127.61708  21459244.300    87872081.07847
 15 03 01 00 54  0.0000000  0  6G16G18G19G21G22G27
  20520077.660   107833779.89309  20520077.160    84026301.41648
  21832855.920   114732486.94508  21832855.600    89401962.19845
  23339150.500   122648076.86606  23339150.280    95569937.94545
  22505082.220   118265013.91008  22505081.320    92154558.50145
  22118294.460   116232485.85308  22118292.800    90570775.10946
  21449784.040   112719426.20408  21449786.380    87833352.72447
 15 03 01 00 54 30.0000000  0  6G16G18G19G21G22G27
  20516165.160   107813219.61909  20516164.660    84010280.41948
  21829911.300   114717012.97308  21829910.900    89389904.56846
  23324984.220   122573632.71507  23324983.780    95511929.58145
  22517611.000   118330852.26608  22517609.900    92205861.11345
  22103817.500   116156408.96008  22103815.860    90511494.45445
  21440354.660   112669875.06109  21440357.020    87794741.46247
 15 03 01 00 55  0.0000000  0  6G16G18G19G21G22G27
  20512349.900   107793170.56609  20512349.440    83994657.79048
  21827059.620   114702027.34008  21827059.220    89378227.46446
  23310835.960   122499283.39607  23310835.320    95453995.10844
  22530167.460   118396836.49308  22530166.200    92257277.38845
  22089399.920   116080644.18608  22089398.320    90452457.00946
  21430955.100   112620479.99709  21430957.320    87756251.82147
 15 03 01 00 55 30.0000000  0  6G16G18G19G21G22G27
  20508631.660   107773631.34809  20508631.240    83979432.42448
  21824300.420   114687527.68808  21824300.020    89366929.04046
  23296705.280   122425026.05307  23296704.500    95396132.29645
  22542750.840   118462962.19708  22542749.560    92308803.89845
  22075041.620   116005190.92608  22075040.080    90393662.29646
  21421584.880   112571238.68109  21421586.940    87717881.98047
 15 03 01 00 56  0.0000000  0  6G16G18G19G21G22G27
  20505010.920   107754604.55909  20505010.560    83964606.36548
  21821634.120   114673516.13208  21821633.740    89356010.95745
  23282592.260   122350861.87406  23282591.460    95338342.07044
  22555361.040   118529228.96108  22555359.740    92360440.34045
  22060743.320   115930053.16208  22060741.820    90335113.43446
  21412244.200   112522152.84709  21412246.160    87679633.29347
 15 03 01 00 56 30.0000000  0  6G16G18G19G21G22G27
  20501488.040   107736091.79409  20501487.700    83950180.83648
  21819060.980   114659993.74409  21819060.500    89345474.04345
  23268497.140   122276792.00406  23268496.560    95280625.34044
  22567997.920   118595636.14008  22567996.680    92412186.18645
  22046505.660   115855234.00908  22046504.140    90276812.82246
  21402933.260   112473223.56909  21402935.180    87641506.60147
