     2.11           OBSERVATION DATA    G                   RINEX VERSION / TYPE
SPIDER V4,0,0,3554                      2015 03 16 01:47    PGM / RUN BY / DATE 
ADJF                                                        MARKER NAME         
ADJF                                                        MARKER NUMBER       
                                                            OBSERVER / AGENCY   
496631              LEICA GRX1200+GNSS  8.20/4.007          REC # / TYPE / VERS 
103293              LEIAT504                                ANT # / TYPE        
  5273000.2084   285396.0090  3566759.2257                  APPROX POSITION XYZ 
        0.0480        0.0000        0.0000                  ANTENNA: DELTA H/E/N
     1     1                                                WAVELENGTH FACT L1/2
     4    C1    L1    P2    L2                              # / TYPES OF OBSERV 
    30.000                                                  INTERVAL            
  2015    03    01    00    00    0.0000000     GPS         TIME OF FIRST OBS   
  2015    03    01    23    59   30.0000000     GPS         TIME OF LAST OBS    
    16                                                      LEAP SECONDS        
    30                                                      # OF SATELLITES     
   G 1   834   834   834   834                              PRN / # OF OBS      
   G 2   932   932   932   932                              PRN / # OF OBS      
   G 3   854   854   853   853                              PRN / # OF OBS      
   G 4   853   853   853   853                              PRN / # OF OBS      
   G 5   667   667   667   667                              PRN / # OF OBS      
   G 6   760   760   760   760                              PRN / # OF OBS      
   G 7   657   657   657   657                              PRN / # OF OBS      
   G 9   799   799   799   799                              PRN / # OF OBS      
   G10   781   781   781   781                              PRN / # OF OBS      
   G11   796   796   796   796                              PRN / # OF OBS      
   G12   828   828   828   828                              PRN / # OF OBS      
   G13   822   822   822   822                              PRN / # OF OBS      
   G14   936   929   925   925                              PRN / # OF OBS      
   G15   721   718   718   718                              PRN / # OF OBS      
   G16   687   687   687   687                              PRN / # OF OBS      
   G17   935   935   935   935                              PRN / # OF OBS      
   G18   929   927   928   927                              PRN / # OF OBS      
   G19   778   778   778   778                              PRN / # OF OBS      
   G20   797   797   797   797                              PRN / # OF OBS      
   G21   722   722   722   722                              PRN / # OF OBS      
   G22   728   720   718   715                              PRN / # OF OBS      
   G23   741   741   741   741                              PRN / # OF OBS      
   G24   838   824   824   820                              PRN / # OF OBS      
   G25   861   861   861   861                              PRN / # OF OBS      
   G27   831   830   830   830                              PRN / # OF OBS      
   G28   897   897   897   897                              PRN / # OF OBS      
   G29   763   763   763   763                              PRN / # OF OBS      
   G30   704   704   704   704                              PRN / # OF OBS      
   G31   811   810   809   809                              PRN / # OF OBS      
   G32   755   754   754   754                              PRN / # OF OBS      
BIT 2 OF LLI FLAGS DATA COLLECTED UNDER A/S CONDITION       COMMENT             
SNR is mapped to RINEX snr flag value [2-9]                 COMMENT             
Lx:     = 25dBHz -> 1; 26-27dBHz -> 2; 28-31dBHz -> 3       COMMENT             
       32-35dBHz -> 4; 36-38dBHz -> 5; 39-41dBHz -> 6       COMMENT             
       42-44dBHz -> 7; 45-48dBHz -> 8; >=49dBHz -> 9        COMMENT             
                                                            END OF HEADER       
 15 03 01 00 00  0.0000000  0  7G16G18G21G22G27G29G31
  21591604.240   113464674.46909  21591602.320    88414039.04148
  22492334.620   118198115.97908  22492333.460    92102454.92446
  21458821.860   112766880.11209  21458819.420    87870291.98649
  23653696.900   124300985.70407  23653696.100    96857929.45945
  22700963.900   119294459.23308  22700965.660    92956756.11747
  24267130.160   127524614.90307  24267129.820    99369820.65545
  22931071.520   120503569.14808  22931070.900    93898872.07647
 15 03 01 00 00 30.0000000  0  7G16G18G21G22G27G29G31
  21578631.320   113396501.26109  21578629.380    88360917.06848
  22481929.760   118143438.49408  22481928.760    92059849.12447
  21467396.420   112811939.68409  21467393.980    87905403.33749
  23636274.920   124209434.43108  23636274.280    96786591.17147
  22689520.840   119234325.24208  22689522.460    92909898.49047
  24281026.900   127597641.45807  24281026.400    99426724.44645
  22948421.200   120594741.86708  22948420.720    93969915.59947
 15 03 01 00 01  0.0000000  0  7G16G18G21G22G27G29G31
  21565710.160   113328600.15709  21565708.200    88308007.13148
  22471586.280   118089083.29408  22471585.400    92017494.45447
  21476029.100   112857304.78209  21476026.640    87940752.76548
  23618860.660   124117924.45407  23618860.380    96715285.39246
  22678098.000   119174297.37708  22678099.360    92863123.56147
  24294925.380   127670677.26506  24294924.640    99483635.44845
  22965803.820   120686087.56308  22965803.380    94041093.82247
 15 03 01 00 01 30.0000000  0  7G16G18G21G22G27G29G31
  21552841.000   113260972.37809  21552839.080    88255310.17048
  22461304.520   118035052.14208  22461303.660    91975392.28647
  21484719.480   112902972.93909  21484716.980    87976338.33948
  23601454.560   124026456.78107  23601454.000    96644012.36645
  22666695.080   119114374.61208  22666696.400    92816430.53247
  24308825.360   127743721.17307  24308824.680    99540552.72846
  22983218.740   120777602.90208  22983218.220    94112404.20447
 15 03 01 00 02  0.0000000  0  7G16G18G21G22G27G29G31
  21540024.760   113193622.44309  21540022.820    88202829.70348
  22451085.240   117981349.28208  22451084.340    91933545.93847
  21493467.680   112948945.10609  21493465.180    88012160.80448
  23584057.400   123935036.27407  23584056.660    96572775.86346
  22655312.500   119054559.15508  22655313.980    92769821.12248
  24322727.100   127816775.92506  24322726.700    99597478.46545
  23000665.860   120869287.18008  23000665.340    94183846.32047
 15 03 01 00 02 30.0000000  0  7G16G18G21G22G27G29G31
  21527260.680   113126546.54209  21527258.640    88150562.77848
  22440927.660   117927970.97008  22440926.820    91891952.48847
  21502272.280   112995213.64709  21502269.760    88048214.21548
  23566668.700   123843660.19108  23566667.840    96501573.93546
  22643949.240   118994845.16508  22643950.860    92723290.79348
  24336629.720   127889835.57207  24336629.520    99654408.00045
  23018143.420   120961131.49508  23018142.840    94255413.14347
 15 03 01 00 03  0.0000000  0  7G16G18G21G22G27G29G31
  21514549.240   113059747.39509  21514547.120    88098511.49348
  22430832.420   117874920.14708  22430831.520    91850614.20647
  21511132.980   113041776.88409  21511130.400    88084497.24948
  23549289.180   123752331.14507  23549288.260    96430408.45346
  22632605.380   118935232.84408  22632607.040    92676839.65847
  24350533.380   127962900.34707  24350533.180    99711341.57345
  23035650.960   121053133.22208  23035650.440    94327102.67347
 15 03 01 00 03 30.0000000  0  7G16G18G21G22G27G29G31
  21501891.640   112993231.15609  21501889.540    88046680.67548
  22420800.660   117822202.95008  22420799.660    91809535.90847
  21520050.140   113088636.91309  21520047.580    88121011.56148
  23531919.880   123661055.52307  23531919.060    96359284.33145
  22621281.600   118875726.00508  22621283.160    92630470.73048
  24364438.880   128035974.21906  24364438.460    99768282.25145
  23053188.580   121145293.44308  23053188.100    94398915.75748
 15 03 01 00 04  0.0000000  0  7G16G18G21G22G27G29G31
  21489288.000   112926998.63809  21489285.940    87995070.93448
  22410832.480   117769819.87308  22410831.440    91768717.95147
  21529023.120   113135790.35409  21529020.580    88157754.50048
  23514561.300   123569834.94108  23514560.280    96288202.93545
  22609977.600   118816323.22608  22609979.080    92584182.87947
  24378345.760   128109056.13706  24378345.620    99825229.14645
  23070755.460   121237607.68408  23070755.020    94470848.85447
 15 03 01 00 04 30.0000000  0  7G16G18G21G22G27G29G31
  21476737.680   112861046.29309  21476735.600    87943679.50248
  22400927.280   117717767.89308  22400926.240    91728157.99147
  21538050.540   113183229.82509  21538048.020    88194720.31948
  23497212.780   123478666.48408  23497211.700    96217162.02446
  22598692.260   118757018.59208  22598693.680    92537971.52547
  24392253.220   128182139.78807  24392253.200    99882177.42645
  23088349.940   121330067.06708  23088349.540    94542895.07747
 15 03 01 00 05  0.0000000  0  7G16G18G21G22G27G29G31
  21464242.680   112795384.74909  21464240.560    87892514.67048
  22391087.120   117666057.50308  22391086.120    91687864.20947
  21547133.680   113230962.15009  21547131.180    88231914.33348
  23479876.400   123387561.61608  23479875.420    96146170.80646
  22587427.260   118697820.81208  22587428.600    92491843.40547
  24406162.740   128255234.46506  24406162.640    99939134.25145
  23105973.100   121422677.16608  23105972.800    94615058.67047
 15 03 01 00 05 30.0000000  0  7G16G18G21G22G27G29G31
  21451803.040   112730014.04909  21451800.940    87841576.46548
  22381312.000   117614688.82508  22381311.040    91647836.69247
  21556271.800   113278983.12909  21556269.300    88269333.27348
  23462552.400   123296521.44208  23462551.280    96075230.22346
  22576182.160   118638727.52308  22576183.500    92445796.73448
  24420073.840   128328338.03906  24420073.920    99996098.05046
  23123623.940   121515432.87308  23123623.860    94687335.69647
 15 03 01 00 06  0.0000000  0  7G16G18G21G22G27G29G31
  21439418.180   112664931.44609  21439416.140    87790862.75948
  22371601.420   117563659.02808  22371600.440    91608073.24147
  21565463.500   113327285.72809  21565461.020    88306971.65648
  23445240.140   123205542.76608  23445238.820    96004337.38747
  22564956.040   118579733.75708  22564957.180    92399827.60047
  24433985.740   128401445.32807  24433985.640   100053064.75746
  23141301.000   121608326.30008  23141300.940    94759720.06947
 15 03 01 00 06 30.0000000  0  7G16G18G21G22G27G29G31
  21427089.240   112600142.64509  21427087.200    87740377.99048
  22361956.380   117512973.77408  22361955.320    91568578.26747
  21574709.220   113375872.24609  21574706.780    88344831.28348
  23427940.780   123114632.21808  23427939.540    95933497.87746
  22553749.480   118520842.83408  22553750.480    92353938.61447
  24447899.120   128474559.84706  24447898.920   100110037.10645
  23159004.440   121701357.98208  23159004.340    94832212.19447
 15 03 01 00 07  0.0000000  0  7G16G18G21G22G27G29G31
  21414817.200   112535652.55309  21414815.100    87690125.96948
  22352377.800   117462637.90008  22352376.700    91529355.54047
  21584009.020   113424743.13609  21584006.640    88382912.49148
  23410655.360   123023795.09608  23410654.140    95862715.57345
  22542562.900   118462057.34008  22542563.860    92308131.77347
  24461814.440   128547684.31707  24461814.200   100167017.14545
  23176734.120   121794527.50108  23176733.960    94904811.69147
 15 03 01 00 07 30.0000000  0  7G16G18G21G22G27G29G31
  21402601.760   112471460.07109  21402599.700    87640105.85948
  22342865.340   117412649.66908  22342864.260    91490403.69047
  21593361.960   113473893.11209  21593359.560    88421211.16648
  23393383.760   122933030.93108  23393382.380    95791990.20046
  22531395.740   118403373.86808  22531396.740    92262404.40847
  24475730.960   128620815.49806  24475730.300   100224002.51144
  23194488.880   121887828.61208  23194488.780    94977513.70747
 15 03 01 00 08  0.0000000  0  7G16G18G21G22G27G29G31
  21390443.720   112407569.23709  21390441.700    87590320.80648
  22333419.940   117363013.91708  22333418.840    91451726.51847
  21602767.960   113523322.01209  21602765.600    88459727.19648
  23376126.780   122842344.39208  23376125.320    95721325.52846
  22520248.420   118344794.53408  22520249.640    92216758.21948
  24489648.940   128693955.27906  24489648.440   100280994.51145
  23212268.440   121981260.15808  23212268.340    95050317.34747
 15 03 01 00 08 30.0000000  0  7G16G18G21G22G27G29G31
  21378343.460   112343981.72909  21378341.380    87540772.09048
  22324041.860   117313732.16008  22324040.720    91413325.17047
  21612226.740   113573028.27609  21612224.380    88498459.33748
  23358884.780   122751737.18308  23358883.460    95650722.71146
  22509120.820   118286318.58308  22509122.200    92171192.57048
  24503568.560   128767103.51806  24503568.220   100337993.10844
  23230072.180   122074818.76008  23230071.880    95123219.94347
 15 03 01 00 09  0.0000000  0  7G16G18G21G22G27G29G31
  21366301.060   112280698.33209  21366298.960    87491460.35748
  22314731.360   117264804.91609  22314730.040    91375200.06547
  21621737.640   113623008.40609  21621735.240    88537404.89548
  23341658.100   122661210.44808  23341656.780    95580182.50246
  22498012.660   118227944.63208  22498014.160    92125706.44448
  24517489.620   128840258.74807  24517489.200   100394997.20045
  23247899.240   122168500.02708  23247898.980    95196218.10247
 15 03 01 00 09 30.0000000  0  7G16G18G21G22G27G29G31
  21354317.840   112217726.01509  21354315.760    87442391.01948
  22305489.600   117216238.73209  22305488.160    91337356.31247
  21631301.160   113673264.85409  21631298.680    88576565.75748
  23324447.940   122570771.51108  23324446.660    95509710.62646
  22486924.740   118169677.10108  22486926.160    92080303.21648
  24531412.740   128913425.55807  24531412.880   100452010.23546
  23265749.980   122262305.59008  23265749.860    95269313.11446
 15 03 01 00 10  0.0000000  0  7G16G18G21G22G27G29G31
  21342393.180   112155061.40709  21342391.140    87393561.45148
  22296315.840   117168030.31409  22296314.440    91299791.32947
  21640915.820   113723790.21709  21640913.280    88615936.17048
  23307254.180   122480418.42308  23307253.000    95439305.83946
  22475856.040   118111510.71408  22475857.300    92034978.84647
  24545337.000   128986598.51406  24545337.440   100509028.11745
  23283622.800   122356227.09208  23283622.880    95342498.47947
 15 03 01 00 10 30.0000000  0  7G16G18G21G22G27G29G31
  21330527.980   112092709.38609  21330525.920    87344975.45548
  22287210.940   117120183.93909  22287209.620    91262508.46347
  21650581.800   113774585.21409  21650579.240    88655516.67548
  23290077.640   122390155.85808  23290076.600    95368971.56147
  22464807.020   118053448.04008  22464808.020    91989735.30647
  24559262.860   129059780.45606  24559263.380   100566052.95345
  23301517.740   122450264.19908  23301517.820    95415773.92447
 15 03 01 00 11  0.0000000  0  6G16G18G21G22G27G31
  21318725.560   112030687.48909  21318723.560    87296646.71348
  22278178.380   117072717.86509  22278177.100    91225521.94347
  21660301.740   113825663.64109  21660299.140    88695318.05148
  23272921.740   122300001.68308  23272920.740    95298721.50246
  22453780.580   117995504.26608  22453781.500    91944584.34947
  23319436.940   122544429.17408  23319436.940    95489148.98846
 15 03 01 00 11 30.0000000  0  6G16G18G21G22G27G31
  21306980.760   111968968.39309  21306978.820    87248553.91348
  22269212.920   117025604.14409  22269211.600    91188809.98347
  21670069.600   113876994.02409  21670067.020    88735315.75248
  23255781.400   122209929.35808  23255780.240    95228535.32046
  22442771.080   117937649.57608  22442772.080    91899502.80048
  23337374.240   122638689.22108  23337373.980    95562598.11746
 15 03 01 00 12  0.0000000  0  6G16G18G21G22G27G31
  21295295.920   111907564.21309  21295294.000    87200706.49948
  22260316.900   116978855.25109  22260315.460    91152382.29747
  21679887.060   113928585.10609  21679884.520    88775516.58748
  23238659.140   122119951.24808  23238658.000    95158422.33746
  22431780.580   117879894.50508  22431781.760    91854498.87848
  23355331.100   122733052.41608  23355330.860    95636127.71547
 15 03 01 00 12 30.0000000  0  6G16G18G21G22G27G31
  21283672.180   111846481.10009  21283670.240    87153109.26848
  22251491.460   116932477.04609  22251489.920    91116243.46147
  21689754.400   113980438.23509  21689751.880    88815921.61348
  23221556.220   122030074.65008  23221555.260    95088388.55846
  22420809.860   117822242.84908  22420811.080    91809575.58348
  23373307.640   122827518.96708  23373307.540    95709737.79447
 15 03 01 00 13  0.0000000  0  6G16G18G21G22G27G31
  21272110.400   111785723.59109  21272108.440    87105765.75948
  22242737.300   116886473.44609  22242735.660    91080396.52247
  21699671.760   114032554.23009  21699669.300    88856531.47848
  23204473.600   121940304.89208  23204472.720    95018438.18146
  22409859.220   117764696.87308  22409860.480    91764734.60048
  23391303.740   122922088.38108  23391303.760    95783428.06847
 15 03 01 00 13 30.0000000  0  6G16G18G21G22G27G31
  21260610.520   111725291.23709  21260608.500    87058675.60348
  22234054.280   116840843.87309  22234052.540    91044841.02347
  21709638.300   114084928.66209  21709635.860    88897342.71048
  23187411.140   121850641.36908  23187410.280    94948570.58747
  22398928.120   117707253.77608  22398929.380    91719973.78848
  23409318.300   123016755.10408  23409318.480    95857194.12147
 15 03 01 00 14  0.0000000  0  6G16G18G21G22G27G31
  21249172.760   111665185.17409  21249170.640    87011839.71848
  22225442.560   116795589.07409  22225440.820    91009577.57447
  21719653.260   114137557.45609  21719650.800    88938352.16448
  23170369.220   121761085.84008  23170368.300    94878787.15546
  22388016.400   117649912.48708  22388017.660    91675292.31748
  23427350.620   123111514.75008  23427351.020    95931032.58247
 15 03 01 00 14 30.0000000  0  7G16G18G19G21G22G27G31
  21237798.160   111605411.09009  21237796.020    86965262.51248
  22216903.240   116750714.97009  22216901.540    90974610.76947
  24543583.540   128977409.93506  24543582.120   100501868.55545
  21729717.100   114190443.32109  21729714.640    88979561.92248
  23153349.040   121671644.68508  23153348.160    94809092.88147
  22377124.700   117592676.48008  22377125.940    91630692.86448
  23445400.760   123206368.01608  23445401.120    96004943.99246
 15 03 01 00 15  0.0000000  0  7G16G18G19G21G22G27G31
  21226479.060   111545928.83609  21226476.920    86918912.70248
  22208428.600   116706180.93809  22208426.960    90939908.94447
  24528980.020   128900667.31507  24528978.900   100442069.20645
  21739821.460   114243542.10709  21739818.980    89020937.58848
  23136342.960   121582277.94308  23136342.080    94739456.51847
  22366244.980   117535503.65908  22366246.160    91586142.62648
  23463460.220   123301269.91908  23463460.460    96078893.30046
 15 03 01 00 15 30.0000000  0  7G16G18G19G21G22G27G31
  21215232.080   111486825.72109  21215229.980    86872858.33248
  22200035.280   116662074.33009  22200033.760    90905540.18347
  24514398.840   128824042.22106  24514397.880   100382361.38745
  21749982.100   114296936.79109  21749979.620    89062543.83348
  23119367.940   121493073.79808  23119367.020    94669946.89047
  22355393.540   117478479.04608  22355394.660    91541707.91048
  23481544.560   123396302.50008  23481544.780    96152944.44846
 15 03 01 00 16  0.0000000  0  7G16G18G19G21G22G27G31
  21204048.020   111428053.18809  21204045.960    86827061.55648
  22191714.020   116618346.05809  22191712.500    90871466.22147
  24499830.300   128747484.16106  24499829.720   100322705.84645
  21760189.200   114350575.48409  21760186.720    89104340.20948
  23102414.680   121403984.27208  23102413.840    94600526.65146
  22344560.660   117421551.88608  22344561.840    91497349.11648
  23499643.460   123491412.11008  23499643.780    96227055.56646
 15 03 01 00 16 30.0000000  0  7G16G18G19G21G22G27G31
  21192928.860   111369621.58509  21192926.780    86781530.44048
  22183466.600   116575005.96709  22183465.120    90837694.74447
  24485275.960   128671000.87706  24485275.400   100263108.53746
  21770443.580   114404462.56809  21770441.060    89146330.14048
  23085485.340   121315020.50208  23085484.540    94531204.67546
  22333747.880   117364730.22508  22333749.000    91453072.51448
  23517758.100   123586603.66708  23517758.460    96301230.57247
 15 03 01 00 17  0.0000000  0  7G16G18G19G21G22G27G31
  21181874.280   111311529.62209  21181872.280    86736263.98748
  22175292.840   116532052.91809  22175291.380    90804224.85847
  24470735.160   128594588.72007  24470734.540   100203566.68945
  21780744.480   114458594.27809  21780741.980    89188510.68948
  23068579.660   121226181.32908  23068578.620    94461979.88247
  22322954.520   117308010.69908  22322955.600    91408875.50348
  23535887.080   123681870.88108  23535887.500    96375464.48847
 15 03 01 00 17 30.0000000  0  7G16G18G19G21G22G27G31
  21170884.480   111253777.92209  21170882.540    86691262.66948
  22167192.740   116489487.12809  22167191.360    90771056.73147
  24456207.740   128518246.36606  24456207.160   100144079.17945
  21791091.340   114512967.42109  21791088.840    89230879.37048
  23051697.800   121137467.68908  23051696.320    94392852.74746
  22312180.320   117251391.90108  22312181.360    91364756.98848
  23554029.640   123777209.37708  23554030.160    96449753.94446
 15 03 01 00 18  0.0000000  0  7G16G18G19G21G22G27G31
  21159961.360   111196376.42909  21159959.400    86646534.24148
  22159168.220   116447318.07809  22159166.920    90738197.74947
  24441694.940   128441981.49906  24441694.060   100084652.03345
  21801485.160   114567587.33209  21801482.660    89273440.33148
  23034841.720   121048890.37208  23034840.180    94323831.78847
  22301426.740   117194881.64008  22301427.800    91320723.04148
  23572186.680   123872623.97008  23572187.120    96524102.73546
 15 03 01 00 18 30.0000000  0  7G16G18G19G21G22G27G31
  21149103.820   111139319.60809  21149101.800    86602074.38349
  22151218.200   116405540.32509  22151216.840    90705643.67247
  24427195.440   128365786.55706  24427194.540   100025279.45745
  21811924.160   114622444.79709  21811921.700    89316186.39848
  23018010.740   120960444.54308  23018009.300    94254913.22947
  22290692.360   117138472.29508  22290693.440    91276767.74048
  23590356.180   123968104.09708  23590356.720    96598502.53547
 15 03 01 00 19  0.0000000  0  7G16G18G19G21G22G27G31
  21138313.120   111082614.12609  21138311.100    86557888.30348
  22143343.800   116364159.85309  22143342.280    90673399.17147
  24412709.960   128289665.56005  24412709.320    99965964.49345
  21822408.820   114677542.10909  21822406.360    89359119.36148
  23001206.080   120872136.83608  23001204.840    94186102.27047
  22279978.000   117082168.19208  22279979.180    91232894.47548
  23608538.440   124063651.10208  23608539.100    96672954.46046
 15 03 01 00 19 30.0000000  0  7G16G18G19G21G22G27G31
  21127588.840   111026257.76209  21127586.860    86513974.25948
  22135544.440   116323173.95309  22135542.800    90641462.12447
  24398237.820   128213614.30306  24398237.240    99906703.86545
  21832937.880   114732872.84309  21832935.500    89402234.21048
  22984427.460   120783965.80108  22984426.120    94117397.78746
  22269282.820   117025964.96808  22269284.020    91189099.79548
  23626732.100   124159257.98008  23626732.700    96747453.07846
 15 03 01 00 20  0.0000000  0  7G16G18G19G21G22G27G31
  21116932.640   110970259.11809  21116930.640    86470338.95948
  22127821.820   116282591.05309  22127820.040    90609839.10247
  24383780.080   128137638.83206  24383779.620    99847502.30846
  21843512.320   114788441.94509  21843509.980    89445534.80348
  22967676.580   120695940.65708  22967675.060    94048806.96447
  22258608.100   116969869.05908  22258609.300    91145388.71848
  23644937.720   124254927.88208  23644938.440    96822000.81446
 15 03 01 00 20 30.0000000  0  7G16G18G19G21G22G27G31
  21106344.120   110914616.07809  21106342.060    86426980.75249
  22120175.380   116242408.54509  22120173.540    90578528.07847
  24369336.020   128061735.14106  24369335.520    99788356.65946
  21854130.900   114844242.90709  21854128.600    89489016.06148
  22950953.360   120608060.09508  22950951.800    93980328.79047
  22247953.020   116913876.38808  22247954.160    91101758.09248
  23663153.980   124350653.86308  23663154.740    96896592.24047
 15 03 01 00 21  0.0000000  0  7G16G18G19G21G22G27G31
  21095823.820   110859331.69709  21095821.760    86383902.01749
  22112605.740   116202629.59809  22112603.900    90547531.51247
  24354905.780   127985904.23606  24354905.080    99729267.74045
  21864793.560   114900275.49509  21864791.280    89532677.80648
  22934258.340   120520327.80008  22934256.720    93911966.15447
  22237317.800   116857988.04308  22237318.900    91058208.73448
  23681380.540   124446433.95308  23681381.420    96971225.82046
 15 03 01 00 21 30.0000000  0  7G16G18G19G21G22G27G31
  21085372.280   110804408.75609  21085370.240    86341104.93749
  22105113.320   116163256.42609  22105111.520    90516851.14947
  24340489.360   127910146.44406  24340488.640    99670235.79345
  21875499.880   114956537.53609  21875497.660    89576518.35648
  22917592.140   120432747.03508  22917590.500    93843721.57847
  22226702.500   116802204.60608  22226703.640    91014741.15048
  23699616.900   124542265.97208  23699617.760    97045899.87146
 15 03 01 00 22  0.0000000  0  7G16G18G19G21G22G27G31
  21074989.400   110749846.28509  21074987.340    86298588.72849
  22097697.760   116124287.19309  22097696.020    90486485.52347
  24326086.380   127834458.57806  24326085.540    99611258.31345
  21886249.140   115013025.10609  21886246.920    89620534.63348
  22900954.700   120345317.32008  22900952.980    93775594.67347
  22216106.640   116746522.98408  22216107.800    90971352.87048
  23717861.980   124638143.60308  23717862.900    97120609.51345
 15 03 01 00 22 30.0000000  0  7G16G18G19G21G22G27G31
  21064676.640   110695652.26309  21064674.560    86256359.62049
  22090360.520   116085729.84409  22090358.900    90456440.85047
  24311697.680   127758846.01406  24311696.760    99552339.54645
  21897041.920   115069741.58409  21897039.740    89664729.27748
  22884347.600   120258047.10108  22884345.860    93707592.06247
  22205531.340   116690949.10208  22205532.380    90928048.55548
  23736116.400   124734069.72508  23736117.300    97195356.91547
 15 03 01 00 23  0.0000000  0  7G16G18G19G21G22G27G31
  21054433.900   110641826.29909  21054431.840    86214417.32449
  22083101.540   116047583.77809  22083099.960    90426716.66747
  24297322.780   127683306.44306  24297322.200    99493477.67445
  21907877.440   115126682.87309  21907875.300    89709099.11348
  22867770.900   120170936.65708  22867769.120    93639713.95147
  22194976.040   116635480.40608  22194977.020    90884826.21748
  23754378.980   124830039.16907  23754379.920    97270138.06647
 15 03 01 00 23 30.0000000  0  7G16G18G19G21G22G27G31
  21044260.720   110588365.84309  21044258.680    86172759.83449
  22075920.240   116009846.05509  22075918.740    90397310.66147
  24282961.120   127607835.37006  24282960.600    99434669.11346
  21918754.440   115183842.01709  21918752.300    89753638.69248
  22851224.320   120083984.41708  22851222.460    93571959.10347
  22184439.880   116580112.56408  22184440.860    90841682.46748
  23772648.300   124926044.40208  23772649.440    97344947.10646
 15 03 01 00 24  0.0000000  0  7G16G18G19G21G22G27G31
  21034158.580   110535278.71509  21034156.580    86131393.24749
  22068818.000   115972523.66809  22068816.580    90368228.30447
  24268613.580   127532438.28907  24268612.900    99375918.26045
  21929673.660   115241222.96909  21929671.500    89798351.10748
  22834709.440   119997198.48908  22834707.480    93504333.84547
  22173923.920   116524851.18108  22173924.980    90798621.68648
  23790924.860   125022087.97108  23790926.140    97419786.03146
 15 03 01 00 24 30.0000000  0  7G16G18G19G21G22G27G31
  21024127.600   110482565.48909  21024125.580    86090318.01649
  22061794.800   115935616.99209  22061793.460    90339469.87447
  24254279.800   127457113.67807  24254279.160    99317223.86246
  21940634.600   115298823.03909  21940632.400    89843234.27348
  22818226.440   119910579.86808  22818224.440    93436838.94947
  22163427.940   116469694.81708  22163429.040    90755642.73248
  23809207.900   125118165.39308  23809209.000    97494651.34446
 15 03 01 00 25  0.0000000  0  7G16G18G19G21G22G27G31
  21014168.420   110430229.65809  21014166.440    86049536.85349
  22054851.260   115899128.85009  22054849.960    90311037.56847
  24239960.020   127381862.55506  24239959.220    99258586.70946
  21951636.940   115356640.66109  21951634.700    89888286.95248
  22801776.040   119824132.81608  22801774.000    93369477.73347
  22152952.220   116414644.95008  22152953.300    90712746.74548
  23827497.200   125214275.28608  23827498.080    97569541.96146
 15 03 01 00 25 30.0000000  0  7G16G18G19G21G22G27G31
  21004281.360   110378272.87809  21004279.400    86009051.06149
  22047987.600   115863060.55109  22047986.300    90282932.41847
  24225654.000   127306684.21206  24225653.260    99200006.30146
  21962680.340   115414674.02209  21962678.060    89933507.74548
  22785358.640   119737859.31508  22785356.600    93302251.75147
  22142496.780   116359701.07608  22142497.800    90669933.35448
  23845792.040   125310414.10808  23845793.000    97644455.10946
 15 03 01 00 26  0.0000000  0  7G16G18G19G21G22G27G31
  20994466.500   110326695.57109  20994464.540    85968860.96049
  22041203.840   115827412.04609  22041202.500    90255154.38747
  24211361.560   127231577.81806  24211360.800    99141481.95745
  21973764.220   115472919.99709  21973761.940    89978894.21348
  22768974.580   119651761.21008  22768972.520    93235162.43947
  22132061.260   116304861.90708  22132062.260    90627201.56048
  23864091.560   125406577.82807  23864092.700    97719387.66546
 15 03 01 00 26 30.0000000  0  7G16G18G19G21G22G27G31
  20984724.720   110275502.28209  20984722.740    85928970.08849
  22034500.720   115792187.18309  22034499.340    90227706.45247
  24197083.140   127156545.01606  24197082.280    99083014.92745
  21984888.640   115531378.90109  21984886.340    90024446.58948
  22752624.800   119565843.05708  22752622.620    93168213.33547
  22121646.020   116250129.61108  22121647.040    90584553.03248
  23882395.520   125502765.20708  23882396.840    97794338.60746
 15 03 01 00 27  0.0000000  0  7G16G18G19G21G22G27G31
  20975056.020   110224692.95509  20975054.060    85889378.41449
  22027878.120   115757385.29309  22027876.720    90200588.11747
  24182818.360   127081583.68806  24182817.420    99024603.57045
  21996052.640   115590045.81209  21996050.340    90070161.05548
  22736309.360   119480105.51108  22736307.140    93101404.97747
  22111250.760   116195502.45908  22111251.800    90541986.45548
  23900703.180   125598971.99208  23900704.620    97869304.67346
 15 03 01 00 27 30.0000000  0  7G16G18G19G21G22G27G31
  20965460.900   110174270.32809  20965458.940    85850088.05949
  22021336.640   115723009.48109  22021335.200    90173801.78247
  24168567.280   127006694.72107  24168566.340    98966248.63545
  22007256.260   115648920.93609  22007253.960    90116037.76548
  22720028.960   119394552.00908  22720026.780    93034740.02147
  22100875.640   116140981.25508  22100876.760    90499502.43948
  23919014.120   125695195.58507  23919015.620    97944283.84145
 15 03 01 00 28  0.0000000  0  7G16G18G19G21G22G27G31
  20955939.840   110124236.75609  20955937.840    85811100.86749
  22014876.560   115689061.13009  22014875.020    90147348.54447
  24154329.960   126931877.81706  24154329.300    98907949.84545
  22018499.100   115708002.22709  22018496.760    90162075.12948
  22703784.120   119309185.31708  22703781.900    92968220.63147
  22090520.760   116086566.18608  22090521.940    90457101.14848
  23937327.740   125791433.17007  23937329.000    98019273.90146
 15 03 01 00 28 30.0000000  0  7G16G18G19G21G22G27G31
  20946493.080   110074593.61909  20946491.040    85772417.91349
  22008497.920   115655540.66409  22008496.280    90121228.71547
  24140106.340   126857132.47806  24140105.460    98849706.80845
  22029780.620   115767286.94708  22029778.260    90208271.00448
  22687575.260   119224007.64208  22687573.020    92901848.52247
  22080186.040   116032256.73708  22080187.180    90414782.13948
  23955643.320   125887681.60707  23955644.760    98094272.39646
 15 03 01 00 29  0.0000000  0  7G16G18G19G21G22G27G31
  20937121.260   110025344.45909  20937119.260    85734041.95349
  22002201.300   115622451.17709  22002199.520    90095444.71947
  24125896.640   126782460.15907  24125895.800    98791520.68945
  22041100.920   115826775.47209  22041098.560    90254625.69148
  22671403.180   119139023.09808  22671400.940    92835626.90647
  22069871.680   115978054.57508  22069872.800    90372546.74848
  23973960.760   125983939.41607  23973962.460    98169278.22346
 15 03 01 00 29 30.0000000  0  7G16G18G19G21G22G27G31
  20927824.720   109976490.85409  20927822.720    85695974.21849
  21995986.880   115589793.96709  21995985.040    90069997.55947
  24111700.800   126707860.51306  24111699.980    98733391.18746
  22052459.360   115886464.68509  22052457.020    90301136.75548
  22655268.320   119054234.10008  22655266.100    92769557.65647
  22059577.640   115923959.29708  22059578.740    90330394.62748
  23992279.360   126080203.35207  23992281.200    98244288.84946
 15 03 01 00 30  0.0000000  0  7G16G18G19G21G22G27G31
  20918603.980   109928035.50909  20918601.980    85658216.80749
  21989854.980   115557570.93809  21989853.220    90044888.71847
  24097518.840   126633333.77607  24097517.960    98675318.49745
  22063855.780   115946353.47108  22063853.460    90347803.32348
  22639171.200   118969643.64908  22639168.940    92703643.11247
  22049304.020   115869971.64308  22049305.120    90288326.37648
  24010598.680   126176471.00608  24010600.560    98319302.33946
 15 03 01 00 30 30.0000000  0  7G16G18G19G21G22G27G31
  20909458.960   109879978.14109  20909457.020    85620769.52649
  21983805.560   115525781.50009  21983803.900    90020117.74747
  24083350.440   126558878.11607  24083349.360    98617301.21745
  22075289.440   116006437.94609  22075287.140    90394622.39148
  22623111.940   118885252.27808  22623109.580    92637883.70447
  22039050.560   115816089.57308  22039051.620    90246340.36448
  24028917.720   126272737.43607  24028919.740    98394314.90846
 15 03 01 00 31  0.0000000  0  7G16G18G19G21G22G27G31
  20900390.960   109832325.53009  20900389.060    85583637.62949
  21977839.800   115494431.93409  21977838.280    89995689.52447
  24069196.260   126484497.64007  24069195.140    98559342.48045
  22086760.860   116066720.69409  22086758.520    90441595.95048
  22607092.080   118801067.67108  22607089.640    92572285.39747
  22028818.140   115762317.84609  22028819.180    90204440.31048
  24047236.820   126369004.36807  24047238.920    98469327.83445
 15 03 01 00 31 30.0000000  0  7G16G18G19G21G22G27G31
  20891399.380   109785074.44209  20891397.420    85546818.60449
  21971957.000   115463518.35509  21971955.660    89971601.03348
  24055055.420   126410187.16406  24055054.400    98501438.30545
  22098268.860   116127195.47709  22098266.440    90488719.14548
  22591111.100   118717087.16708  22591108.640    92506846.13447
  22018605.820   115708651.47609  22018606.840    90162622.38148
  24065554.520   126465263.59808  24065556.760    98544334.76246
 15 03 01 00 32  0.0000000  0  7G16G18G19G21G22G27G31
  20882485.260   109738230.52809  20882483.280    85510316.86349
  21966158.080   115433045.39809  21966156.880    89947855.89248
  24040928.440   126335950.09707  24040927.440    98443591.33445
  22109813.600   116187863.37409  22109811.180    90535992.82148
  22575170.080   118633316.75708  22575167.700    92441570.57947
  22008414.200   115655094.06308  22008415.280    90120889.35748
  24083870.860   126561515.86308  24083873.320    98619336.22846
 15 03 01 00 32 30.0000000  0  7G16G18G19G21G22G27G31
  20873648.960   109691795.57309  20873647.000    85474133.78949
  21960443.380   115403014.56509  21960442.160    89924455.25548
  24026815.420   126261786.40707  24026814.640    98385801.54446
  22121394.700   116248722.21009  22121392.240    90583415.28548
  22559269.560   118549759.06808  22559267.120    92376460.78047
  21998243.280   115601645.70108  21998244.440    90079241.33348
  24102185.340   126657758.36407  24102187.940    98694330.08646
 15 03 01 00 33  0.0000000  0  7G16G18G19G21G22G27G31
  20864890.200   109645768.11809  20864888.240    85438268.24849
  21954812.380   115373423.39209  21954811.060    89901397.21348
  24012715.780   126187692.58007  24012714.960    98328066.18245
  22133011.140   116309766.68109  22133008.660    90630982.39148
  22543409.400   118466413.39408  22543406.800    92311516.16647
  21988092.440   115548303.02108  21988093.560    90037675.63348
  24120496.880   126753984.76107  24120499.420    98769311.48146
 15 03 01 00 33 30.0000000  0  7G16G18G19G21G22G27G31
  20856210.000   109600153.50409  20856207.980    85402724.39749
  21949266.120   115344276.98609  21949264.580    89878685.74348
  23998630.100   126113671.78507  23998629.080    98270387.70445
  22144663.280   116370998.71409  22144660.740    90678695.65548
  22527590.660   118383285.85108  22527587.980    92246741.53747
  21977962.440   115495069.50409  21977963.380    89996194.97648
  24138805.300   126850195.64007  24138807.980    98844280.77846
 15 03 01 00 34  0.0000000  0  7G16G18G19G21G22G27G31
  20847608.300   109554951.50209  20847606.280    85367502.06449
  21943804.300   115315574.20909  21943802.540    89856319.95847
  23984557.940   126039722.16107  23984556.620    98212764.70046
  22156350.380   116432414.55809  22156347.800    90726552.14348
  22511813.480   118300376.83808  22511810.980    92182137.19847
  21967852.940   115441943.32309  21967853.740    89954797.95648
  24157109.900   126946386.03208  24157112.540    98919234.15246
 15 03 01 00 34 30.0000000  0  7G16G18G19G21G22G27G31
  20839086.720   109510170.28609  20839084.680    85332607.61249
  21938428.380   115287322.97209  21938426.440    89834306.02047
  23970500.320   125965849.36307  23970499.000    98155201.55146
  22168073.200   116494018.31409  22168070.700    90774555.05348
  22496079.640   118217695.16708  22496077.200    92117709.99948
  21957765.000   115388930.67508  21957765.800    89913489.40048
  24175411.260   127042559.17407  24175413.920    98994174.13646
 15 03 01 00 35  0.0000000  0  7G16G18G19G21G22G27G31
  20830644.640   109465806.68009  20830642.600    85298038.57549
  21933137.580   115259519.33109  21933135.540    89812640.86147
  23956456.360   125892048.52507  23956455.140    98097694.49746
  22179830.380   116555802.74108  22179827.900    90822698.75048
  22480388.560   118135238.26008  22480386.120    92053457.94447
  21947697.660   115336026.60208  21947698.540    89872265.44648
  24193707.680   127138707.21606  24193710.580    99069094.61645
 15 03 01 00 35 30.0000000  0  7G16G18G19G21G22G27G31
  20822282.240   109421861.69609  20822280.180    85263795.73049
  21927931.980   115232163.41109  21927929.880    89791324.57448
  23942425.900   125818318.51007  23942424.780    98040242.61846
  22191621.440   116617765.26308  22191618.960    90870981.21948
  22464740.580   118053007.64708  22464737.960    91989382.20947
  21937650.780   115283230.36108  21937651.860    89831125.53548
  24211998.540   127234826.22907  24212001.860    99143992.46246
 15 03 01 00 36  0.0000000  0  7G16G18G19G21G22G27G31
  20814000.480   109378340.73709  20813998.460    85229883.30149
  21922812.420   115205259.98109  21922810.400    89770360.87747
  23928409.460   125744662.32407  23928408.320    97982848.26645
  22203446.640   116679907.33208  22203444.240    90919403.59848
  22449136.880   117971009.84408  22449134.180    91925487.88947
  21927625.160   115230545.53509  21927626.320    89790072.43648
  24230284.000   127330916.81507  24230287.060    99218868.15645
 15 03 01 00 36 30.0000000  0  7G16G18G19G21G22G27G31
  20805799.360   109335243.66309  20805797.400    85196301.17349
  21917778.780   115178808.18509  21917776.880    89749749.10248
  23914406.820   125671078.08107  23914405.700    97925509.95246
  22215305.320   116742225.21608  22215302.920    90967962.97148
  22433577.480   117889245.31808  22433574.880    91861775.35147
  21917620.440   115177970.21409  21917621.480    89749104.64748
  24248562.960   127426974.20707  24248566.000    99293717.96745
 15 03 01 00 37  0.0000000  0  7G16G18G19G21G22G27G31
  20797679.260   109292572.53109  20797677.340    85163050.94649
  21912831.320   115152809.45609  21912829.540    89729490.36948
  23900417.960   125597566.23607  23900416.740    97868228.08945
  22227197.220   116804717.38308  22227194.740    91016658.15048
  22418063.060   117807716.94808  22418060.460    91798246.81847
  21907636.700   115125504.98009  21907637.540    89708222.65748
  24266835.260   127522995.72407  24266838.320    99368539.82846
 15 03 01 00 37 30.0000000  0  7G16G18G19G21G22G27G31
  20789640.380   109250328.17109  20789638.440    85130133.26549
  21907970.160   115127264.16909  21907968.440    89709584.96148
  23886442.540   125524125.45707  23886441.320    97811001.58446
  22239121.760   116867381.14808  22239119.240    91065487.04148
  22402593.900   117726426.12108  22402591.340    91734903.39147
  21897673.620   115073148.81009  21897674.340    89667425.65148
  24285100.200   127618977.66707  24285103.320    99443330.89546
 15 03 01 00 38  0.0000000  0  7G16G18G19G21G22G27G31
  20781683.840   109208516.30209  20781681.900    85097552.59249
  21903196.220   115102177.27109  21903194.520    89690036.74147
  23872481.480   125450759.67607  23872480.220    97753833.52246
  22251079.340   116930218.44508  22251076.800    91114451.15748
  22387171.180   117645379.46408  22387168.600    91671750.21947
  21887732.120   115020905.97709  21887732.840    89626716.97148
  24303357.640   127714921.32507  24303360.880    99518092.17046
 15 03 01 00 38 30.0000000  0  7G16G18G19G21G22G27G31
  20773809.300   109167135.06609  20773807.360    85065307.47949
  21898508.920   115077545.73009  21898507.240    89670843.34847
  23858533.860   125377464.69307  23858532.580    97696720.63446
  22263068.840   116993223.65308  22263066.320    91163546.10648
  22371794.580   117564575.52208  22371792.040    91608786.18248
  21877811.420   114968772.50709  21877812.280    89586093.51648
  24321606.340   127810819.53407  24321609.700    99592818.01545
 15 03 01 00 39  0.0000000  0  7G16G18G19G21G22G27G31
  20766017.800   109126190.31509  20766015.820    85033402.48349
  21893909.320   115053375.07309  21893907.720    89652009.08548
  23844600.460   125304244.64907  23844599.220    97639666.13946
  22275090.700   117056398.73108  22275088.160    91212773.42648
  22356465.520   117484021.17008  22356462.900    91546016.62448
  21867912.440   114916752.79509  21867913.340    89545558.69748
  24339846.760   127906673.64107  24339850.280    99667509.48845
 15 03 01 00 39 30.0000000  0  7G16G18G19G21G22G27G31
  20758309.420   109085682.32609  20758307.380    85001837.81649
  21889397.280   115029664.50009  21889395.740    89633533.32248
  23830681.080   125231098.20507  23830679.860    97582668.99846
  22287144.260   117119740.48508  22287141.700    91262130.62148
  22341184.120   117403717.30208  22341181.580    91483442.24748
  21858034.860   114864845.54409  21858035.760    89505111.50648
  24358077.860   128002479.64307  24358081.440    99742163.61446
 15 03 01 00 40  0.0000000  0  7G16G18G19G21G22G27G31
  20750683.960   109045610.25009  20750681.900    84970612.82449
  21884972.520   115006412.49209  21884971.020    89615414.89048
  23816775.080   125158022.21007  23816773.740    97525726.74246
  22299228.640   117183244.43308  22299226.140    91311614.20048
  22325950.480   117323664.11408  22325947.880    91421063.20048
  21848178.140   114813048.24909  21848179.020    89464749.99448
  24376298.760   128098231.88607  24376302.300    99816775.76546
 15 03 01 00 40 30.0000000  0  7G16G18G19G21G22G27G31
  20743143.040   109005982.42209  20743140.980    84939733.99249
  21880636.480   114983626.49509  21880635.000    89597659.57648
  23802883.760   125085023.06407  23802882.300    97468844.35446
  22311344.680   117246914.91308  22311342.340    91361227.53547
  22310766.160   117243870.16909  22310763.520    91358886.16147
  21838343.520   114761367.28709  21838344.340    89424479.12348
  24394510.080   128193933.60406  24394513.700    99891348.53745
 15 03 01 00 41  0.0000000  0  7G16G18G19G21G22G27G31
  20735685.580   108966793.19709  20735683.520    84909196.93849
  21876388.020   114961300.60109  21876386.460    89580262.79247
  23789005.580   125012093.00407  23789004.040    97412015.81445
  22323490.700   117310742.70708  22323488.360    91410963.46247
  22295630.260   117164330.76609  22295627.600    91296907.47147
  21828529.740   114709795.73009  21828530.540    89384293.51348
  24412709.980   128289574.99707  24412713.380    99965874.40745
 15 03 01 00 41 30.0000000  0  7G16G18G19G21G22G27G31
  20728312.700   108928048.47709  20728310.620    84879006.25249
  21872228.020   114939439.59009  21872226.420    89563228.25248
  23775141.400   124939236.59107  23775139.860    97355244.64646
  22335667.180   117374730.55208  22335664.880    91460824.10248
  22280544.040   117085052.51808  22280541.460    91235132.28048
  21818737.640   114658337.87709  21818738.440    89344196.50648
  24430898.740   128385157.37706  24430902.340   100040354.27345
 15 03 01 00 42  0.0000000  0  7G16G18G19G21G22G27G31
  20721024.520   108889749.05109  20721022.500    84849162.54549
  21868156.500   114918043.48509  21868154.820    89546555.97748
  23761291.080   124866452.61807  23761289.380    97298529.93046
  22347873.600   117438875.71408  22347871.360    91510807.32948
  22265507.900   117006037.36409  22265505.280    91173562.08147
  21808967.000   114606992.99809  21808967.920    89304187.52848
  24449075.480   128480677.22407  24449078.980   100114785.56846
 15 03 01 00 42 30.0000000  0  7G16G18G19G21G22G27G31
  20713821.660   108851897.74309  20713819.640    84819668.02749
  21864173.840   114897114.43109  21864172.060    89530247.64048
  23747454.760   124793742.42107  23747453.120    97241872.73746
  22360109.760   117503177.20308  22360107.560    91560912.37147
  22250522.520   116927288.94709  22250519.920    91112199.73848
  21799218.060   114555762.26409  21799219.020    89264267.50348
  24467239.960   128576132.90907  24467243.400   100189166.90844
 15 03 01 00 43  0.0000000  0  7G16G18G19G21G22G27G31
  20706704.540   108814497.16609  20706702.540    84790524.71749
  21860280.440   114876654.17609  21860278.620    89514304.59648
  23733632.540   124721106.39007  23733631.060    97185273.29346
  22372375.560   117567634.30408  22372373.340    91611138.65948
  22235588.440   116848809.81909  22235585.760    91051047.21948
  21789491.120   114504646.97809  21789492.040    89224437.42048
  24485391.620   128671521.86905  24485395.260   100263496.24243
 15 03 01 00 43 30.0000000  0  7G16G18G19G21G22G27G31
  20699673.360   108777548.16909  20699671.360    84761733.29249
  21856476.140   114856662.24809  21856474.300    89498726.48248
  23719824.180   124648543.31807  23719822.860    97128730.73346
  22384670.380   117632243.88608  22384668.060    91661483.77947
  22220706.080   116770602.55709  22220703.340    90990106.55048
  21779785.960   114453646.03709  21779786.820    89184696.43748
  24503529.980   128766840.87407  24503533.380   100337771.06245
 15 03 01 00 44  0.0000000  0  7G16G18G19G21G22G27G31
  20692728.260   108741051.30409  20692726.260    84733294.17649
  21852761.040   114837139.15509  21852759.220    89483513.68948
  23706029.680   124576052.71307  23706028.300    97072244.59446
  22396993.760   117697003.40108  22396991.420    91711945.71947
  22205875.680   116692668.39509  22205872.980    90929378.68248
  21770102.460   114402758.78509  21770103.280    89145044.04548
  24521654.240   128862085.58007  24521657.980   100411987.92745
 15 03 01 00 44 30.0000000  0  7G16G18G19G21G22G27G31
  20685869.720   108705009.29109  20685867.680    84705209.49149
  21849135.460   114818086.66909  21849133.720    89468667.60948
  23692249.140   124503635.43407  23692247.620    97015815.60946
  22409345.460   117761911.72308  22409343.120    91762523.61747
  22191097.860   116615010.68109  22191095.140    90868866.22548
  21760440.860   114351986.69009  21760441.680    89105481.39248
  24539764.140   128957254.70105  24539767.960   100486145.83945
 15 03 01 00 45  0.0000000  0  7G16G18G19G21G22G27G31
  20679098.220   108669424.65009  20679096.160    84677481.20049
  21845599.640   114799506.10209  21845597.900    89454189.25648
  23678482.480   124431291.35507  23678480.900    96959443.66546
  22421725.300   117826968.09008  22421722.920    91813216.87447
  22176373.220   116537632.20009  22176370.500    90808571.35348
  21750801.260   114301330.33409  21750802.120    89066008.92148
  24557859.220   129052346.04707  24557862.980   100560243.31146
 15 03 01 00 45 30.0000000  0  7G16G18G19G21G22G27G31
  20672415.100   108634304.59109  20672413.020    84650114.92649
  21842154.800   114781403.68909  21842153.140    89440083.49348
  23664730.720   124359026.10407  23664729.220    96903133.13746
  22434134.000   117892176.37508  22434131.660    91864028.51647
  22161703.320   116460541.45509  22161700.600    90748500.69648
  21741184.800   114250795.49009  21741185.680    89026631.13748
  24575939.800   129147362.17806  24575943.580   100634282.03346
 15 03 01 00 46  0.0000000  0  7G16G18G19G21G22G27G31
  20665816.660   108599629.55709  20665814.600    84623095.42149
  21838797.140   114763759.28509  21838795.520    89426334.61748
  23650989.960   124286818.74007  23650988.620    96846867.73146
  22446567.120   117957513.05308  22446564.760    91914940.19747
  22147084.580   116383719.68609  22147081.780    90688639.62348
  21731587.520   114200361.43809  21731588.400    88987331.89248
  24594002.960   129242347.45607  24594004.560   100708324.73044
 15 03 01 00 46 30.0000000  0  7G16G18G19G21G22G27G31
  20659308.700   108565430.19409  20659306.660    84596446.56549
  21835532.340   114746602.84209  21835530.740    89412965.97448
  23637265.700   124214698.09207  23637264.380    96790669.88946
  22459029.960   118023005.90008  22459027.660    91965973.56747
  22132522.960   116307198.37909  22132520.140    90629012.67848
  21722014.960   114150057.38309  21722015.760    88948133.94548
  24612051.100   129337192.08107  24612053.460   100782229.91945
 15 03 01 00 47  0.0000000  0  7G16G18G19G21G22G27G31
  20652889.200   108531695.72509  20652887.160    84570159.96949
  21832358.260   114729923.08109  21832356.620    89399968.77448
  23623555.820   124142652.45507  23623554.480    96734530.48446
  22471519.960   118088641.04608  22471517.660    92017117.83447
  22118016.760   116230968.25409  22118013.920    90569612.62948
  21712464.940   114099871.73909  21712465.680    88909028.26548
  24630082.000   129431949.10406  24630085.080   100856066.82546
 15 03 01 00 47 30.0000000  0  7G16G18G19G21G22G27G31
  20646558.040   108498425.41709  20646556.000    84544235.04649
  21829274.480   114713717.72109  21829272.800    89387341.23148
  23609859.560   124070678.19307  23609858.120    96678446.67746
  22484035.980   118154413.02608  22484033.660    92068368.71147
  22103565.820   116155028.25409  22103562.980    90510438.65148
  21702936.860   114049801.36109  21702937.580    88870012.40948
  24648095.500   129526613.00307  24648098.980   100929831.19145
 15 03 01 00 48  0.0000000  0  7G16G18G19G21G22G27G31
  20640315.780   108465622.20609  20640313.800    84518674.10549
  21826281.400   114697988.92209  21826279.640    89375085.04048
  23596177.220   123998776.96707  23596175.580    96622419.79046
  22496578.040   118220322.07708  22496575.740    92119726.39748
  22089170.940   116079382.58109  22089167.960    90451494.01348
  21693431.060   113999848.27109  21693431.780    88831087.95048
  24666091.320   129621182.41406  24666094.360   101003521.81145
 15 03 01 00 48 30.0000000  0  7G16G18G19G21G22G27G31
  20634163.240   108433290.19909  20634161.220    84493480.33149
  21823379.600   114682739.72809  21823377.800    89363202.56648
  23582509.300   123926951.40707  23582507.660    96566451.88947
  22509146.380   118286369.20808  22509144.120    92171191.67747
  22074832.980   116004036.02709  22074829.960    90392782.46048
  21683948.100   113950015.18009  21683948.840    88792256.98848
  24684069.220   129715656.80606  24684072.160   101077138.40445
 15 03 01 00 49  0.0000000  0  6G16G18G19G21G22G27
  20628098.340   108401418.87109  20628096.320    84468645.53049
  21820567.000   114667959.33909  21820565.200    89351685.40048
  23568853.420   123855189.34207  23568851.840    96510533.47247
  22521738.320   118352540.39608  22521736.160    92222753.62847
  22060550.160   115928979.40609  22060547.120    90334296.82848
  21674485.760   113900290.44209  21674486.560    88753510.46048
 15 03 01 00 49 30.0000000  0  6G16G18G19G21G22G27
  20622125.520   108370031.44009  20622123.500    84444187.79349
  21817847.760   114653669.68709  21817846.020    89340550.61648
  23555213.700   123783512.14007  23555212.040    96454681.16946
  22534357.660   118418855.43108  22534355.460    92274427.67447
  22046327.040   115854236.58009  22046323.980    90276055.71248
  21665048.200   113850695.77409  21665048.980    88714865.28448
 15 03 01 00 50  0.0000000  0  6G16G18G19G21G22G27
  20616242.960   108339118.27109  20616240.940    84420099.62049
  21815219.840   114639859.91609  21815218.100    89329789.78148
  23541587.980   123711908.70807  23541586.320    96398886.37146
  22547001.980   118485301.62308  22546999.760    92326203.93047
  22032161.960   115779798.68709  22032158.840    90218052.22248
  21655633.320   113801220.38209  21655634.080    88676313.06048
 15 03 01 00 50 30.0000000  0  6G16G18G19G21G22G27
  20610451.200   108308682.35909  20610449.140    84396383.31949
  21812683.740   114626532.73409  21812682.000    89319404.97148
  23527976.540   123640380.57307  23527974.720    96343150.20146
  22559671.120   118551878.29008  22559668.920    92378081.83047
  22018055.640   115705669.65909  22018052.480    90160289.38748
  21646241.480   113751866.04609  21646242.200    88637855.13548
 15 03 01 00 51  0.0000000  0  6G16G18G19G21G22G27
  20604750.240   108278723.69609  20604748.160    84373038.90849
  21810239.240   114613686.85409  21810237.500    89309395.21248
  23514379.120   123568925.94307  23514377.200    96287471.31946
  22572364.560   118618582.47308  22572362.320    92430059.10847
  22004008.220   115631850.06109  22004005.120    90102767.66748
  21636872.420   113702631.39809  21636873.120    88599490.49948
 15 03 01 00 51 30.0000000  0  6G16G18G19G21G22G27
  20599140.440   108249244.06109  20599138.380    84350067.77049
  21807886.560   114601323.45609  21807884.820    89299761.41548
  23500795.840   123497545.26207  23500793.780    96231850.04246
  22585081.920   118685412.55108  22585079.640    92482134.48347
  21990020.260   115558342.88709  21990017.160    90045489.40548
  21627526.300   113653517.10009  21627527.000    88561219.64648
 15 03 01 00 52  0.0000000  0  6G16G18G19G21G22G27
  20593622.540   108220247.43209  20593620.520    84327472.99049
  21805626.180   114589445.05009  21805624.460    89290505.53148
  23487227.040   123426240.85807  23487224.940    96176288.22446
  22597823.180   118752368.38808  22597820.900    92534307.85147
  21976092.640   115485152.99709  21976089.520    89988458.36748
  21618203.560   113604525.93409  21618204.340    88523044.73248
 15 03 01 00 52 30.0000000  0  6G16G18G19G21G22G27
  20588197.020   108191736.18509  20588195.000    84305256.43649
  21803458.420   114578053.48909  21803456.700    89281629.00248
  23473672.780   123355013.34007  23473670.700    96120786.30946
  22610588.540   118819450.79708  22610586.240    92586579.84847
  21962226.040   115412283.97909  21962222.900    89931677.35948
  21608904.480   113555659.12009  21608905.280    88484966.72648
 15 03 01 00 53  0.0000000  0  6G16G18G19G21G22G27
  20582863.600   108163708.76309  20582861.560    84283416.88949
  21801382.720   114567145.77509  21801380.980    89273129.49548
  23460132.660   123283860.20907  23460130.660    96065342.36646
  22623376.940   118886654.30308  22623374.700    92638946.20247
  21948420.280   115339734.66209  21948417.140    89875145.46948
  21599628.560   113506913.83909  21599629.300    88446983.42748
 15 03 01 00 53 30.0000000  0  6G16G18G19G21G22G27
  20577622.480   108136166.62009  20577620.480    84261955.47749
  21799399.280   114556723.01909  21799397.580    89265007.87748
  23446606.660   123212780.99607  23446604.840    96009956.03847
  22636188.040   118953977.18008  22636185.900    92691405.56647
  21934675.860   115267507.55009  21934672.700    89818864.64548
  21590375.880   113458290.48109  21590376.540    88409095.13349
 15 03 01 00 54  0.0000000  0  6G16G18G19G21G22G27
  20572474.400   108109113.36109  20572472.460    84240875.01949
  21797508.500   114546787.37609  21797506.840    89257265.83048
  23433095.160   123141777.50808  23433093.320    95954628.69646
  22649021.920   119021419.70808  22649019.800    92743958.17647
  21920993.600   115195607.07509  21920990.460    89762838.34848
  21581146.820   113409791.39609  21581147.440    88371303.68148
 15 03 01 00 54 30.0000000  0  6G16G18G19G21G22G27
  20567419.600   108082550.21109  20567417.640    84220176.45449
  21795710.600   114537339.65809  21795708.980    89249903.98248
  23419598.200   123070850.14207  23419596.240    95899360.67246
  22661878.260   119088980.22108  22661876.160    92796602.71547
  21907373.980   115124035.69109  21907370.840    89707068.47348
  21571941.440   113361417.01009  21571942.080    88333609.36348
 15 03 01 00 55  0.0000000  0  6G16G18G19G21G22G27
  20562457.820   108056475.93109  20562455.880    84199858.83549
  21794005.120   114528377.57609  21794003.560    89242920.56048
  23406115.220   122999996.42807  23406113.180    95844150.05546
  22674756.220   119156654.26808  22674754.140    92849335.72447
  21893816.960   115052793.07809  21893813.800    89651554.79448
  21562759.380   113313165.02809  21562760.040    88296010.42348
 15 03 01 00 55 30.0000000  0  6G16G18G19G21G22G27
  20557590.540   108030898.11509  20557588.620    84179928.07249
  21792393.300   114519907.35709  21792391.720    89236320.40248
  23392647.240   122929222.18607  23392645.040    95789001.34647
  22687656.620   119224446.23308  22687654.520    92902160.61347
  21880324.020   114981887.29409  21880320.840    89596303.58148
  21553601.820   113265041.83509  21553602.460    88258511.85448
 15 03 01 00 56  0.0000000  0  6G16G18G19G21G22G27
  20552817.300   108005814.39609  20552815.360    84160382.31749
  21790874.520   114511925.76009  21790872.820    89230100.98748
