     2.11           OBSERVATION DATA    G                   RINEX VERSION / TYPE
SPIDER V4,0,0,3554                      2015 03 16 01:28    PGM / RUN BY / DATE 
AKET                                                        MARKER NAME         
AKET                                                        MARKER NUMBER       
                                                            OBSERVER / AGENCY   
496661              LEICA GRX1200+GNSS  8.20/4.007          REC # / TYPE / VERS 
10271023            LEIAR25         NONE                    ANT # / TYPE        
  5151584.4739   350346.6892  3733756.9574                  APPROX POSITION XYZ 
        0.0480        0.0000        0.0000                  ANTENNA: DELTA H/E/N
     1     1                                                WAVELENGTH FACT L1/2
     4    C1    L1    P2    L2                              # / TYPES OF OBSERV 
    30.000                                                  INTERVAL            
  2015    03    01    00    00    0.0000000     GPS         TIME OF FIRST OBS   
  2015    03    01    23    59   30.0000000     GPS         TIME OF LAST OBS    
    16                                                      LEAP SECONDS        
    30                                                      # OF SATELLITES     
   G 1    64    64    64    64                              PRN / # OF OBS      
   G 2   858   858   858   858                              PRN / # OF OBS      
   G 3   217   217   216   216                              PRN / # OF OBS      
   G 4   202   202   202   202                              PRN / # OF OBS      
   G 5   594   594   590   590                              PRN / # OF OBS      
   G 6   562   562   560   560                              PRN / # OF OBS      
   G 7   573   573   573   573                              PRN / # OF OBS      
   G 9   512   512   512   512                              PRN / # OF OBS      
   G10   585   585   585   585                              PRN / # OF OBS      
   G11   111   111   111   111                              PRN / # OF OBS      
   G12   781   781   781   781                              PRN / # OF OBS      
   G13   758   758   749   749                              PRN / # OF OBS      
   G14   467   467   467   467                              PRN / # OF OBS      
   G15   650   650   648   648                              PRN / # OF OBS      
   G16   550   550   550   550                              PRN / # OF OBS      
   G17   477   477   476   476                              PRN / # OF OBS      
   G18   776   775   775   775                              PRN / # OF OBS      
   G19   317   317   317   317                              PRN / # OF OBS      
   G20   536   536   531   531                              PRN / # OF OBS      
   G21   608   608   608   608                              PRN / # OF OBS      
   G22   396   396   396   396                              PRN / # OF OBS      
   G23   327   327   327   327                              PRN / # OF OBS      
   G24   771   769   770   769                              PRN / # OF OBS      
   G25   768   768   768   768                              PRN / # OF OBS      
   G27   498   497   497   497                              PRN / # OF OBS      
   G28   519   519   519   519                              PRN / # OF OBS      
   G29   667   667   667   667                              PRN / # OF OBS      
   G30   624   624   624   624                              PRN / # OF OBS      
   G31   528   528   528   528                              PRN / # OF OBS      
   G32    44    44    42    42                              PRN / # OF OBS      
BIT 2 OF LLI FLAGS DATA COLLECTED UNDER A/S CONDITION       COMMENT             
SNR is mapped to RINEX snr flag value [2-9]                 COMMENT             
Lx:     = 25dBHz -> 1; 26-27dBHz -> 2; 28-31dBHz -> 3       COMMENT             
       32-35dBHz -> 4; 36-38dBHz -> 5; 39-41dBHz -> 6       COMMENT             
       42-44dBHz -> 7; 45-48dBHz -> 8; >=49dBHz -> 9        COMMENT             
                                                            END OF HEADER       
 15 03 01 00 00  0.0000000  0  6G16G18G21G27G29G31
  21516394.720   113069452.28209  21516392.000    88106067.27048
  22549114.440   118496410.98909  22549112.200    92334851.74447
  21375586.740   112329475.26109  21375582.920    87529449.66248
  22705443.080   119317963.99808  22705443.480    92975061.81347
  24146681.220   126891651.76607  24146680.080    98876598.87746
  23121936.860   121506572.93508  23121935.160    94680429.00946
 15 03 01 00 00 30.0000000  0  6G16G18G21G27G29G31
  21503695.200   113002716.15609  21503692.520    88054065.10048
  22537987.300   118437937.26309  22537985.040    92289287.82947
  21383427.440   112370677.83509  21383423.520    87561555.54948
  22693334.800   119254335.39808  22693335.440    92925481.13147
  24161016.840   126966986.12608  24161016.140    98935300.90846
  23139680.220   121599815.37308  23139678.620    94753085.54946
 15 03 01 00 01  0.0000000  0  6G16G18G21G27G29G31
  21491051.660   112936273.78709  21491048.940    88002291.83148
  22526919.440   118379775.39809  22526917.180    92243966.91547
  21391328.400   112412197.51009  21391324.500    87593908.53548
  22681247.500   119190816.71008  22681248.200    92875986.08447
  24175356.360   127042340.06808  24175355.740    98994018.20746
  23157452.420   121693209.20408  23157450.840    94825859.85146
 15 03 01 00 01 30.0000000  0  6G16G18G21G27G29G31
  21478463.820   112870123.91509  21478460.980    87950746.47348
  22515910.740   118321924.73309  22515908.500    92198888.49847
  21399288.680   112454029.41608  21399284.840    87626504.80948
  22669180.500   119127404.61408  22669181.260    92826574.09647
  24189698.980   127117709.94908  24189698.100    99052747.93546
  23175252.460   121786748.81908  23175250.820    94898747.76946
 15 03 01 00 02  0.0000000  0  6G16G18G21G27G29G31
  21465932.780   112804272.57409  21465929.840    87899433.74648
  22504962.360   118264391.08609  22504960.200    92154057.11146
  21407308.780   112496176.11909  21407305.120    87659346.38248
  22657134.560   119064102.93008  22657135.340    92777248.14947
  24204045.480   127193099.86008  24204044.220    99111493.28746
  23193080.440   121880435.09008  23193078.900    94971750.06646
 15 03 01 00 02 30.0000000  0  6G16G18G21G27G29G31
  21453459.340   112738724.00509  21453456.260    87848356.93748
  22494075.160   118207178.79709  22494073.080    92109476.13447
  21415388.920   112538638.11708  21415385.420    87692433.65048
  22645110.080   119000913.94508  22645110.740    92728010.01047
  24218396.080   127268511.87108  24218394.700    99170255.85646
  23210936.160   121974267.27208  23210934.600    95044866.16745
 15 03 01 00 03  0.0000000  0  6G16G18G21G27G29G31
  21441043.480   112673477.96309  21441040.340    87797515.87148
  22483249.140   118150287.96509  22483247.040    92065145.63946
  21423528.280   112581410.88708  21423524.820    87725763.07348
  22633106.500   118937835.04608  22633107.120    92678857.67847
  24232750.300   127343943.21508  24232749.060    99229033.47646
  23228818.500   122068239.63908  23228817.080    95118091.49545
 15 03 01 00 03 30.0000000  0  6G16G18G21G27G29G31
  21428685.780   112608537.24109  21428682.580    87746912.71548
  22472484.940   118093721.37809  22472482.720    92021067.79646
  21431726.640   112624493.26309  21431723.120    87759333.75248
  22621124.020   118874866.88308  22621124.720    92629791.61048
  24247108.260   127419394.37808  24247107.080    99287826.57646
  23246727.040   122162349.79707  23246725.660    95191424.19644
 15 03 01 00 04  0.0000000  0  6G16G18G21G27G29G31
  21416386.620   112543904.06409  21416383.300    87696549.20148
  22461782.700   118037480.96908  22461780.380    91977244.12546
  21439983.620   112667883.34409  21439980.040    87793144.19948
  22609162.620   118812009.50408  22609163.480    92580811.86948
  24261469.920   127494865.56108  24261468.940    99346635.26146
  23264661.200   122256594.94008  23264659.800    95264862.12745
 15 03 01 00 04 30.0000000  0  6G16G18G21G27G29G31
  21404146.720   112479582.12809  21404143.200    87646428.21048
  22451143.300   117981571.08109  22451141.080    91933678.00146
  21448299.180   112711581.09509  21448295.480    87827194.37848
  22597222.600   118749264.35609  22597223.520    92531919.57947
  24275835.300   127570357.81307  24275834.500    99405460.32145
  23282620.660   122350973.34908  23282619.260    95338403.93145
 15 03 01 00 05  0.0000000  0  6G16G18G21G27G29G31
  21391966.380   112415573.17409  21391962.600    87596551.10948
  22440567.180   117925993.32409  22440565.060    91890370.69146
  21456672.860   112755584.55009  21456669.020    87861482.77248
  22585303.900   118686631.40408  22585304.880    92483114.71247
  24290204.620   127645871.33008  24290204.180    99464301.94745
  23300604.860   122445481.64307  23300603.400    95412046.85644
 15 03 01 00 05 30.0000000  0  6G16G18G21G27G29G31
  21379844.640   112351872.60909  21379840.720    87546914.30748
  22430053.420   117870743.32909  22430051.320    91847318.77947
  21465102.920   112799884.95608  21465098.980    87896002.56348
  22573405.220   118624103.81308  22573406.340    92434391.95347
  24304576.940   127721399.27508  24304576.740    99523154.84546
  23318611.920   122540110.05006  23318610.360    95485783.30545
 15 03 01 00 06  0.0000000  0  6G16G18G21G27G29G31
  21367781.980   112288482.89709  21367778.060    87497519.72848
  22419602.540   117815823.50709  22419600.420    91804524.14647
  21473589.040   112844480.56608  21473585.140    87930752.38748
  22561526.740   118561681.94808  22561527.820    92385751.57548
  24318952.260   127796941.60808  24318951.800    99582019.02246
  23336641.340   122634856.00906  23336639.620    95559611.28244
 15 03 01 00 06 30.0000000  0  6G16G18G21G27G29G31
  21355780.560   112225415.01209  21355776.680    87448375.92248
  22409216.660   117761244.87709  22409214.380    91761995.34746
  21482132.760   112889379.10908  21482129.020    87965738.25648
  22549670.020   118499374.50308  22549671.020    92337200.36448
  24333332.120   127872506.99508  24333331.520    99640901.12545
  23354694.220   122729725.29806  23354692.540    95633535.30845
 15 03 01 00 07  0.0000000  0  6G16G18G21G27G29G31
  21343840.460   112162669.22409  21343836.580    87399483.10248
  22398895.720   117707007.64809  22398893.260    91719732.57347
  21490733.340   112934576.43108  21490729.780    88000956.93848
  22537834.800   118437179.64508  22537835.600    92288736.86348
  24347716.020   127948093.51208  24347715.160    99699799.70645
  23372769.660   122824712.58406  23372768.160    95707551.05745
 15 03 01 00 07 30.0000000  0  6G16G18G21G27G29G31
  21331960.740   112100240.97109  21331956.900    87350837.71448
  22388638.720   117653106.72609  22388636.220    91677731.88147
  21499389.180   112980063.88708  21499385.800    88036401.71348
  22526019.700   118375090.59709  22526020.380    92240355.83248
  24362102.700   128023694.35008  24362101.620    99758709.43346
  23390865.820   122919808.45205  23390864.400    95781651.36144
 15 03 01 00 08  0.0000000  0  6G16G18G21G27G29G31
  21320143.340   112038140.38609  21320139.540    87302447.65048
  22378447.840   117599553.13209  22378445.320    91636001.81547
  21508101.460   113025847.54008  21508098.180    88072077.27948
  22514226.280   118313115.66208  22514226.920    92192063.71548
  24376493.540   128099317.44508  24376492.360    99817636.47546
  23408983.760   123015018.44905  23408982.620    95855840.77444
 15 03 01 00 08 30.0000000  0  5G16G18G21G27G29
  21308388.180   111976366.87109  21308384.320    87254312.44148
  22368322.960   117546346.18209  22368320.380    91594541.85747
  21516869.500   113071923.59109  21516866.160    88107980.68748
  22502454.000   118251251.97109  22502454.640    92143858.28148
  24390888.140   128174960.34308  24390886.740    99876578.96446
 15 03 01 00 09  0.0000000  0  5G16G18G21G27G29
  21296695.740   111914922.84209  21296691.900    87206433.99548
  22358264.440   117493488.09009  22358261.900    91553353.76047
  21525692.900   113118290.37708  21525689.360    88144110.64648
  22490703.020   118189499.91009  22490703.600    92095739.83948
  24405286.460   128250623.14008  24405284.860    99935536.93345
 15 03 01 00 09 30.0000000  0  5G16G18G21G27G29
  21285066.580   111853811.65909  21285062.980    87158814.89848
  22348272.820   117440981.88509  22348270.300    91512439.84747
  21534571.400   113164946.75208  21534567.680    88180466.25148
  22478973.420   118127860.45909  22478973.940    92047709.10448
  24419688.520   128326306.61808  24419686.800    99994511.06345
 15 03 01 00 10  0.0000000  0  5G16G18G21G27G29
  21273500.860   111793034.23809  21273497.620    87111455.87148
  22338348.360   117388828.63809  22338345.800    91471800.98147
  21543504.440   113211889.74509  21543500.560    88217045.19248
  22467265.060   118066332.66909  22467265.460    91999765.39748
  24434094.220   128402009.71308  24434092.520   100053500.46546
 15 03 01 00 10 30.0000000  0  5G16G18G21G27G29
  21261999.000   111732592.27109  21261996.100    87064358.23848
  22328491.280   117337029.48809  22328488.780    91431438.04047
  21552491.500   113259116.93508  21552487.520    88253845.59648
  22455577.900   118004916.06909  22455578.140    91951908.33848
  24448503.440   128477731.91007  24448502.240   100112504.72145
 15 03 01 00 11  0.0000000  0  5G16G18G21G27G29
  21250561.100   111672485.71609  21250558.320    87017521.96848
  22318701.720   117285585.27609  22318699.260    91391351.66647
  21561531.960   113306624.68909  21561527.920    88290864.61548
  22443911.540   117943608.68609  22443911.700    91904136.38048
  24462915.900   128553471.07608  24462915.100   100171522.20246
 15 03 01 00 11 30.0000000  0  5G16G18G21G27G29
  21239188.360   111612721.55909  21239185.500    86970952.49948
  22308980.920   117234502.41409  22308978.480    91351546.86547
  21570626.380   113354415.92108  21570622.340    88328104.52748
  22432266.840   117882415.01009  22432266.960    91856453.01848
  24477332.620   128629231.55108  24477331.860   100230556.32846
 15 03 01 00 12  0.0000000  0  5G16G18G21G27G29
  21227880.780   111553300.01209  21227877.740    86924650.00348
  22299329.000   117183781.58109  22299326.520    91312024.16747
  21579774.120   113402487.58209  21579770.160    88365562.95448
  22420643.500   117821333.77509  22420643.580    91808857.28248
  24491753.280   128705012.28908  24491752.500   100289606.21346
 15 03 01 00 12 30.0000000  0  5G16G18G21G27G29
  21216638.360   111494221.19809  21216635.240    86878614.57148
  22289746.020   117133422.67609  22289743.520    91272783.48247
  21588974.340   113450835.05208  21588970.400    88403236.30748
  22409041.080   117760362.77808  22409041.240    91761347.46748
  24506177.400   128780810.77308  24506176.560   100348669.95746
 15 03 01 00 13  0.0000000  0  5G16G18G21G27G29
  21205461.840   111435488.68509  21205458.880    86832848.99048
  22280232.460   117083428.73909  22280229.960    91233827.19047
  21598227.000   113499458.34209  21598223.100    88441124.57748
  22397459.860   117699503.67809  22397460.080    91713924.80948
  24520605.320   128856628.48308  24520604.160   100407748.67145
 15 03 01 00 13 30.0000000  0  5G16G18G21G27G29
  21194352.100   111377107.13809  21194349.440    86787356.87148
  22270789.260   117033804.45309  22270786.700    91195158.92847
  21607532.320   113548358.23608  21607528.440    88479228.38148
  22385900.420   117638758.86008  22385900.620    91666591.20948
  24535037.320   128932467.90708  24535035.760   100466844.32245
 15 03 01 00 14  0.0000000  0  5G16G18G21G27G29
  21183308.740   111319074.44909  21183306.360    86742136.60248
  22261415.940   116984547.37709  22261413.320    91156776.80647
  21616888.900   113597527.47709  21616885.020    88517542.06948
  22374362.020   117578124.14108  22374362.260    91619343.41048
  24549472.560   129008324.81708  24549470.600   100525953.61545
 15 03 01 00 14 30.0000000  0  4G16G18G21G27
  21172332.280   111261392.79409  21172330.000    86697189.86048
  22252112.980   116935660.04209  22252110.400    91118682.79247
  21626296.660   113646965.39609  21626292.820    88556065.11648
  22362844.640   117517599.68509  22362844.880    91572181.52348
 15 03 01 00 15  0.0000000  0  4G16G18G21G27
  21161419.800   111204046.71009  21161417.340    86652504.61648
  22242877.340   116887126.57109  22242874.860    91080864.53347
  21635751.860   113696652.62609  21635748.060    88594782.42248
  22351345.000   117457168.24109  22351345.180    91525092.11548
 15 03 01 00 15 30.0000000  0  4G16G18G21G27
  21150582.300   111147094.19909  21150579.440    86608126.05248
  22233720.160   116839005.16509  22233717.640    91043367.35847
  21645264.680   113746642.96109  21645261.000    88633735.93448
  22339873.660   117396885.58709  22339873.860    91478118.65348
 15 03 01 00 16  0.0000000  0  5G16G18G19G21G27
  21139811.700   111090493.81709  21139808.600    86564021.86348
  22224633.480   116791253.90609  22224630.880    91006158.59547
  24547286.320   128996858.72908  24547284.420   100517025.99157
  21654826.700   113796891.66809  21654823.080    88672890.76248
  22328422.300   117336708.30509  22328422.480    91431227.30448
 15 03 01 00 16 30.0000000  0  5G16G18G19G21G27
  21129115.340   111034284.47109  21129112.340    86520222.38048
  22215624.580   116743911.35509  22215621.880    90969268.32447
  24532084.900   128916985.08007  24532084.540   100454787.06845
  21664444.260   113847431.85609  21664440.560    88712272.72148
  22316997.920   117276673.15609  22316998.100    91384446.69148
 15 03 01 00 17  0.0000000  0  5G16G18G19G21G27
  21118480.020   110978395.79709  21118477.180    86476672.76648
  22206680.040   116696907.37409  22206677.300    90932641.85447
  24516889.720   128837138.03007  24516888.360   100392568.55544
  21674103.460   113898190.78709  21674099.640    88751825.12148
  22305586.820   117216707.83909  22305586.960    91337720.50448
 15 03 01 00 17 30.0000000  0  5G16G18G19G21G27
  21107913.660   110922868.73009  21107910.840    86433404.93248
  22197807.620   116650282.61109  22197804.920    90896310.90547
  24501707.760   128757356.71407  24501706.720   100330401.34946
  21683811.380   113949205.67309  21683807.440    88791576.97648
  22294196.480   117156851.45809  22294196.580    91291079.20148
 15 03 01 00 18  0.0000000  0  5G16G18G19G21G27
  21097420.540   110867726.30309  21097417.520    86390436.81148
  22189011.640   116604059.76009  22189008.880    90860293.12647
  24486542.420   128677661.95508  24486542.040   100268301.81946
  21693571.520   114000495.03509  21693567.480    88831542.69348
  22282830.960   117097125.01609  22282830.900    91244539.14548
 15 03 01 00 18 30.0000000  0  5G16G18G19G21G27
  21086997.740   110812954.07209  21086994.580    86347757.15948
  22180289.440   116558224.56309  22180286.600    90824577.39247
  24471390.320   128598037.54405  24471387.480   100206256.63643
  21703380.400   114052040.85009  21703376.400    88871708.25648
  22271487.100   117037512.09109  22271486.820    91198087.55848
 15 03 01 00 19  0.0000000  0  5G16G18G19G21G27
  21076644.840   110758549.58309  21076641.640    86305364.05548
  22171640.420   116512773.99509  22171637.580    90789161.39347
  24456250.860   128518478.64308  24456248.720   100144262.91246
  21713236.660   114103836.42108  21713232.780    88912068.44748
  22260163.980   116978008.11609  22260163.500    91151720.85548
 15 03 01 00 19 30.0000000  0  5G16G18G19G21G27
  21066365.740   110704532.53209  21066362.480    86263272.85248
  22163068.300   116467727.44509  22163065.520    90754060.19647
  24441126.880   128439002.71107  24441124.480   100082333.71943
  21723143.340   114155897.36908  21723139.680    88952635.39748
  22248864.860   116918630.85009  22248864.380    91105452.89748
 15 03 01 00 20  0.0000000  0  5G16G18G19G21G27
  21056155.560   110650877.25909  21056152.260    86221463.55548
  22154568.240   116423059.18609  22154565.480    90719253.78347
  24426014.060   128359582.29407  24426012.120   100020447.73046
  21733095.000   114208194.44408  21733091.500    88993386.36348
  22237584.500   116859352.66309  22237584.080    91059262.14048
 15 03 01 00 20 30.0000000  0  5G16G18G19G21G27
  21046020.840   110597618.53909  21046017.560    86179963.26848
  22146146.640   116378803.57909  22146143.880    90684768.91547
  24410917.420   128280249.81308  24410915.540    99958630.36944
  21743097.460   114260758.16809  21743094.060    89034345.10448
  22226329.280   116800206.44709  22226328.900    91013174.21148
 15 03 01 00 21  0.0000000  0  5G16G18G19G21G27
  21035955.620   110544725.76109  21035952.500    86138748.11048
  22137797.820   116334930.25009  22137795.000    90650581.91147
  24395831.820   128200973.33408  24395830.160    99896856.54847
  21753144.320   114313554.73409  21753140.920    89075485.27748
  22215093.000   116741159.82109  22215092.580    90967163.88348
 15 03 01 00 21 30.0000000  0  5G16G18G19G21G27
  21025965.740   110492229.00209  21025962.760    86097841.54048
  22129527.420   116291468.87309  22129524.600    90616715.91347
  24380761.520   128121780.07507  24380760.260    99835147.77945
  21763240.320   114366609.39409  21763236.980    89116826.55848
  22203881.040   116682240.82309  22203880.660    90921253.00448
 15 03 01 00 22  0.0000000  0  5G16G18G19G21G27
  21016046.760   110440104.34209  21016043.720    86057224.92848
  22121330.700   116248394.78509  22121327.880    90583151.70747
  24365702.880   128042644.74307  24365701.580    99773483.84746
  21773380.400   114419895.39809  21773377.100    89158348.11248
  22192688.420   116623423.59909  22192688.040    90875421.43648
 15 03 01 00 22 30.0000000  0  5G16G18G19G21G27
  21006201.160   110388365.16809  21006198.000    86016908.69548
  22113210.220   116205721.44509  22113207.420    90549899.77947
  24350658.340   127963557.69408  24350655.860    99711857.40846
  21783566.200   114473421.62109  21783562.920    89200056.85748
  22181517.380   116564719.60109  22181517.120    90829678.09848
 15 03 01 00 23  0.0000000  0  5G16G18G19G21G27
  20996437.320   110337055.86909  20996434.160    85976927.41548
  22105174.460   116163493.18909  22105171.700    90516994.65047
  24335631.680   127884601.76606  24335630.920    99650333.42145
  21793805.440   114527228.86209  21793802.100    89241984.56748
  22170375.940   116506171.28509  22170375.760    90784056.05248
 15 03 01 00 23 30.0000000  0  5G16G18G19G21G27
  20986742.640   110286109.93109  20986739.560    85937229.28848
  22097210.720   116121643.23209  22097207.940    90484384.31247
  24320614.940   127805688.94007  24320614.820    99588842.95447
  21804084.600   114581246.29609  21804081.180    89284076.06448
  22159251.140   116447710.43209  22159251.020    90738502.17748
 15 03 01 00 24  0.0000000  0  5G16G18G19G21G27
  20977124.020   110235563.57709  20977121.020    85897842.51648
  22089325.680   116080207.12009  22089322.880    90452096.45347
  24305612.800   127726852.87507  24305611.920    99527412.28844
  21814409.900   114635506.41908  21814406.440    89326356.67948
  22148149.560   116389371.30909  22148149.460    90693043.13948
 15 03 01 00 24 30.0000000  0  6G16G18G19G21G22G27
  20967580.260   110185410.85309  20967577.220    85858762.47548
  22081518.240   116039178.84309  22081515.480    90420126.39047
  24290623.800   127648085.88907  24290623.640    99466035.67246
  21824779.600   114690000.13308  21824776.240    89368819.30548
  22966014.560   120687224.70305  22966011.380    94041982.69843
  22137069.680   116331146.07509  22137069.580    90647672.87048
 15 03 01 00 25  0.0000000  0  6G16G18G19G21G22G27
  20958113.960   110135665.36609  20958110.800    85819999.76648
  22073790.900   115998571.45009  22073788.160    90388484.29047
  24275650.040   127569399.24007  24275649.580    99404721.50845
  21835195.420   114744736.10108  21835192.100    89411470.71148
  22949045.560   120598050.81505  22949040.980    93972496.58944
  22126013.760   116273046.55309  22126013.540    90602400.53748
 15 03 01 00 25 30.0000000  0  6G16G18G19G21G22G27
  20948719.660   110086298.44809  20948716.440    85781532.03848
  22066138.120   115958356.07109  22066135.400    90357147.64447
  24260686.220   127490762.27108  24260685.420    99343446.04545
  21845651.220   114799682.28708  21845647.940    89454285.91748
  22932102.520   120509013.98005  22932097.540    93903117.32244
  22114975.900   116215042.09409  22114975.580    90557202.27448
 15 03 01 00 26  0.0000000  0  6G16G18G19G21G22G27
  20939404.020   110037344.49009  20939400.860    85743386.10148
  22058566.420   115918566.80809  22058563.640    90326143.04247
  24245738.020   127412208.04608  24245736.700    99282235.00646
  21856152.940   114854869.65808  21856149.740    89497289.05347
  22915192.300   120420150.04506  22915187.360    93833872.75744
  22103962.220   116157165.50108  22103961.960    90512103.64048
 15 03 01 00 26 30.0000000  0  6G16G18G19G21G22G27
  20930164.840   109988792.04609  20930161.660    85705553.03448
  22051073.520   115879191.65809  22051070.780    90295461.11647
  24230802.900   127333722.56207  24230801.300    99221077.58244
  21866697.560   114910282.66208  21866694.440    89540468.00948
  22898312.700   120331447.65306  22898307.980    93764754.08044
  22092970.240   116099403.18609  22092970.140    90467094.07148
 15 03 01 00 27  0.0000000  0  6G16G18G19G21G22G27
  20921004.360   109940653.31909  20921001.120    85668042.34448
  22043661.700   115840242.33109  22043659.000    90265111.01047
  24215882.740   127255315.98608  24215880.680    99159981.64446
  21877286.560   114965928.73708  21877283.540    89583828.58748
  22881466.320   120242919.75106  22881461.740    93695771.40044
  22082002.140   116041765.77609  22082002.080    90422181.82448
 15 03 01 00 27 30.0000000  0  6G16G18G19G21G22G27
  20911920.560   109892917.88009  20911917.320    85630845.91048
  22036329.020   115801708.93509  22036326.240    90235084.99947
  24200975.100   127176976.33407  24200973.020    99098937.89946
  21887917.480   115021795.09008  21887914.580    89627360.79948
  22864651.280   120154556.74006  22864646.880    93626917.14844
  22071055.460   115984241.13309  22071055.600    90377357.45048
 15 03 01 00 28  0.0000000  0  6G16G18G19G21G22G27
  20902914.560   109845591.84809  20902911.400    85593968.48948
  22029076.540   115763596.73709  22029073.700    90205387.19947
  24186081.060   127098707.27906  24186078.560    99037949.05245
  21898590.640   115077883.46808  21898587.900    89671066.03148
  22847868.820   120066365.11607  22847864.360    93558196.47844
  22060131.080   115926833.33909  22060131.340    90332624.12648
 15 03 01 00 28 30.0000000  0  6G16G18G19G21G22G27
  20893988.940   109798687.63209  20893985.760    85557419.75348
  22021906.420   115725917.40809  22021903.640    90176026.69747
  24171202.280   127020519.43208  24171199.820    98977023.56546
  21909307.700   115134202.40008  21909305.140    89714950.89348
  22831121.540   119978358.28007  22831117.120    93489619.77445
  22049230.980   115869553.18709  22049231.300    90287990.26048
 15 03 01 00 29  0.0000000  0  6G16G18G19G21G22G27
  20885142.100   109752196.81209  20885138.880    85521193.14448
  22014816.920   115688662.17509  22014814.220    90146996.66947
  24156336.980   126942402.50508  24156334.760    98916153.40646
  21920066.560   115190740.33408  21920064.080    89759006.41848
  22814407.980   119890528.36107  22814403.580    93421180.92546
  22038353.160   115812390.47508  22038353.520    90243447.91548
 15 03 01 00 29 30.0000000  0  6G16G18G19G21G22G27
  20876373.980   109706119.52809  20876370.740    85485288.77748
  22007808.100   115651831.11909  22007805.500    90118297.16947
  24141484.980   126864354.98107  24141482.360    98855337.18045
  21930866.420   115247492.86208  21930863.760    89803229.16048
  22797728.260   119802876.47407  22797723.900    93352880.80445
  22027497.420   115755343.68609  22027497.780    90198995.89448
 15 03 01 00 30  0.0000000  0  6G16G18G19G21G22G27
  20867684.760   109660457.37209  20867681.580    85449707.87648
  22000880.140   115615425.16109  22000877.720    90089928.91047
  24126646.380   126786376.27708  24126644.020    98794574.63046
  21941706.780   115304457.87209  21941703.860    89847617.47848
  22781082.760   119715404.55907  22781078.540    93284720.93445
  22016663.740   115698412.52909  22016663.960    90154633.96848
 15 03 01 00 30 30.0000000  0  6G16G18G19G21G22G27
  20859076.980   109615222.97209  20859073.800    85414460.29448
  21994035.540   115579456.74709  21994033.080    90061901.58347
  24111822.700   126708477.27608  24111820.040    98733874.15446
  21952589.260   115361644.51608  21952586.160    89892178.49548
  22764474.140   119628126.14208  22764469.800    93216711.83746
  22005854.280   115641608.13609  22005854.340    90110370.82548
 15 03 01 00 31  0.0000000  0  6G16G18G19G21G22G27
  20850549.660   109570411.22209  20850546.440    85379542.06048
  21987273.220   115543920.45609  21987270.720    90034210.97847
  24097012.860   126630650.75808  24097010.240    98673230.25146
  21963512.080   115419043.65208  21963508.860    89936905.09148
  22747901.600   119541037.04308  22747897.320    93148850.24946
  21995067.660   115584923.55009  21995067.580    90066201.04148
 15 03 01 00 31 30.0000000  0  6G16G18G19G21G22G27
  20842103.320   109526025.45809  20842100.180    85344955.75948
  21980593.720   115508819.17309  21980591.180    90006859.33347
  24082216.940   126552898.15108  24082214.420    98612643.86446
  21974475.320   115476655.69408  21974472.060    89981797.58748
  22731365.900   119454141.34508  22731361.620    93081139.38146
  21984304.180   115528360.44309  21984303.960    90022125.92548
 15 03 01 00 32  0.0000000  0  6G16G18G19G21G22G27
  20833738.340   109482067.34709  20833735.280    85310702.68048
  21973997.100   115474153.69309  21973994.580    89979847.28347
  24067434.860   126475219.12907  24067432.480    98552114.80745
  21985478.540   115534477.87108  21985475.260    90026853.81748
  22714867.320   119367441.00608  22714863.160    93013580.73446
  21973563.880   115471918.71109  21973563.360    89978145.36748
 15 03 01 00 32 30.0000000  0  6G16G18G19G21G22G27
  20825455.440   109438540.02509  20825452.240    85276785.29548
  21967483.940   115439927.05009  21967481.340    89953177.18547
  24052667.160   126397615.18008  24052665.000    98491644.35546
  21996521.620   115592509.50708  21996518.260    90072073.26948
  22698406.700   119280940.17108  22698402.660    92946177.54446
  21962846.900   115415599.93009  21962846.240    89934260.62548
 15 03 01 00 33  0.0000000  0  6G16G18G19G21G22G27
  20817255.060   109395446.38209  20817251.780    85243205.83748
  21961054.700   115406141.29809  21961052.060    89926850.63647
  24037913.900   126320087.36308  24037911.200    98431233.02846
  22007604.400   115650749.76708  22007600.960    90117455.27348
  22681984.740   119194642.59308  22681980.720    92878932.73846
  21952153.520   115359405.36409  21952152.780    89890472.65348
 15 03 01 00 33 30.0000000  0  6G16G18G19G21G22G27
  20809136.140   109352781.30609  20809132.880    85209960.32848
  21954708.340   115372791.23409  21954705.820    89900863.60747
  24023173.720   126242628.51308  24023171.560    98370875.66746
  22018725.300   115709190.23108  22018721.800    90162993.29548
  22665600.580   119108543.93708  22665596.680    92811842.92946
  21941482.440   115303328.20509  21941481.620    89846776.19348
 15 03 01 00 34  0.0000000  0  6G16G18G19G21G22G27
  20801100.260   109310552.71109  20801097.080    85177054.92748
  21948446.360   115339884.08109  21948443.760    89875221.67647
  24008447.980   126165245.27808  24008445.740    98310577.05346
  22029885.180   115767835.44408  22029881.520    90208690.85548
  22649255.880   119022652.88108  22649252.000    92744914.89147
  21930834.820   115247374.93409  21930833.940    89803176.24748
 15 03 01 00 34 30.0000000  0  6G16G18G19G21G22G27
  20793147.420   109268760.16809  20793144.280    85144489.31348
  21942268.540   115307419.31109  21942265.940    89849924.47648
  23993736.160   126087934.79708  23993734.060    98250335.20346
  22041083.180   115826681.03108  22041079.400    90254544.55448
  22632950.800   118936969.72508  22632946.880    92678148.85047
  21920210.300   115191543.34309  21920209.480    89759671.14048
 15 03 01 00 35  0.0000000  0  6G16G18G19G21G22G27
  20785278.380   109227407.77909  20785275.140    85112266.67848
  21936175.600   115275400.42709  21936172.980    89824974.72148
  23979038.560   126010699.70407  23979036.200    98190152.05546
  22052319.280   115885727.13808  22052315.460    90300554.50147
  22616686.320   118851499.23008  22616682.300    92611548.50546
  21909609.400   115135835.99109  21909608.840    89716262.81448
 15 03 01 00 35 30.0000000  0  6G16G18G19G21G22G27
  20777493.340   109186496.74209  20777489.940    85080387.95248
  21930167.580   115243827.92409  21930164.880    89800372.79147
  23964355.380   125933539.35308  23964353.320    98130027.18046
  22063593.060   115944971.52808  22063589.220    90346718.94847
  22600462.660   118766243.22108  22600458.620    92545115.30547
  21899032.000   115080252.47709  21899031.780    89672951.01048
 15 03 01 00 36  0.0000000  0  6G16G18G19G21G22G27
  20769792.820   109146030.27309  20769789.320    85048855.64948
  21924245.020   115212704.59009  21924242.240    89776120.86147
  23949686.380   125856454.63308  23949684.100    98069961.18746
  22074904.440   116004413.61708  22074900.620    90393037.44547
  22584280.600   118681206.10008  22584276.560    92478852.67347
  21888478.440   115024794.38609  21888478.620    89629736.94148
 15 03 01 00 36 30.0000000  0  6G16G18G19G21G22G27
  20762176.800   109106008.19309  20762173.300    85017669.61748
  21918407.800   115182029.67909  21918404.980    89752218.35648
  23935031.520   125779443.87507  23935029.440    98009952.91546
  22086252.720   116064049.70608  22086248.920    90439507.11547
  22568140.300   118596388.46208  22568136.240    92412761.05547
  21877948.480   114969460.00509  21877949.000    89586619.24648
 15 03 01 00 37  0.0000000  0  6G16G18G19G21G22G27
  20754645.140   109066429.53609  20754641.680    84986829.11148
  21912655.700   115151801.83509  21912652.800    89728664.20847
  23920390.460   125702504.76108  23920388.520    97950000.41046
  22097637.120   116123875.43408  22097633.420    90486124.55947
  22552041.780   118511790.18708  22552037.620    92346840.39147
  21867441.700   114914247.03909  21867442.420    89543596.18048
 15 03 01 00 37 30.0000000  0  6G16G18G19G21G22G27
  20747199.780   109027304.12909  20747196.400    84956341.77448
  21906990.440   115122030.55309  21906987.460    89705465.82347
  23905764.440   125625645.07808  23905762.480    97890109.81346
  22109058.840   116183897.17808  22109055.280    90532894.73047
  22535987.040   118427421.75308  22535982.700    92281098.81046
  21856959.700   114859163.68709  21856960.340    89500674.10048
 15 03 01 00 38  0.0000000  0  6G16G18G19G21G22G27
  20739839.640   108988626.15409  20739836.280    84926203.09848
  21901410.760   115092709.47309  21901407.840    89682618.25347
  23891152.160   125548857.52507  23891149.780    97830275.42346
  22120516.080   116244105.52508  22120512.660    90579810.32347
  22519975.120   118343278.41508  22519970.700    92215532.63247
  21846501.060   114804202.91309  21846501.560    89457847.53948
 15 03 01 00 38 30.0000000  0  6G16G18G19G21G22G27
  20732566.040   108950402.85709  20732562.640    84896418.71648
  21895917.920   115063844.84109  21895915.000    89660126.35447
  23876554.620   125472147.19207  23876552.140    97770501.22046
  22132009.500   116304504.08308  22132006.200    90626874.12948
  22504007.460   118259367.88708  22504003.000    92150147.86646
  21836066.780   114749370.01509  21836067.140    89415120.62848
 15 03 01 00 39  0.0000000  0  6G16G18G19G21G22G27
  20725378.500   108912632.02709  20725375.100    84866986.90048
  21890511.480   115035434.32909  21890508.560    89637988.31447
  23861971.180   125395510.39508  23861968.820    97710784.31946
  22143538.020   116365086.87308  22143534.860    90674081.47548
  22488083.880   118175689.09308  22488079.420    92084943.66246
  21825656.240   114694661.57009  21825656.400    89372490.68548
 15 03 01 00 39 30.0000000  0  6G16G18G19G21G22G27
  20718277.460   108875316.14609  20718274.100    84837909.58848
  21885191.800   115007479.54809  21885188.960    89616205.39047
  23847401.880   125318948.14908  23847399.260    97651125.47346
  22155101.460   116425853.06308  22155098.400    90721431.74748
  22472205.040   118092245.25508  22472200.580    92019922.52646
  21815269.620   114640078.66509  21815269.540    89329958.57048
 15 03 01 00 40  0.0000000  0  6G16G18G19G21G22G27
  20711263.980   108838460.46209  20711260.620    84809190.87948
  21879959.800   114979985.28109  21879956.880    89594781.30247
  23832847.280   125242463.72008  23832844.900    97591527.31546
  22166700.180   116486804.38809  22166697.200    90768926.27748
  22456372.120   118009042.76908  22456367.620    91955089.46246
  21804907.600   114585625.11509  21804907.280    89287527.24848
 15 03 01 00 40 30.0000000  0  6G16G18G19G21G22G27
  20704337.300   108802060.52609  20704333.880    84780827.29748
  21874814.480   114952946.37409  21874811.460    89573712.02847
  23818306.620   125166051.01108  23818304.200    97531984.96546
  22178332.600   116547932.55308  22178329.580    90816558.59548
  22440584.320   117926077.55908  22440579.860    91890441.28146
  21794569.020   114531294.74009  21794568.540    89245191.90448
 15 03 01 00 41  0.0000000  0  6G16G18G19G21G22G27
  20697500.060   108766130.62709  20697496.700    84752829.98148
  21869758.500   114926377.03609  21869755.420    89553008.65947
  23803781.640   125089722.19108  23803779.940    97472508.12046
  22190000.720   116609248.39109  22189997.600    90864337.16247
  22424844.560   117843364.93308  22424840.020    91825989.92746
  21784256.340   114477100.73709  21784255.800    89202962.82948
 15 03 01 00 41 30.0000000  0  6G16G18G19G21G22G27
  20690749.920   108730658.80309  20690746.700    84725189.59748
  21864789.420   114900264.38609  21864786.360    89532661.14847
  23789270.180   125013464.27708  23789268.440    97413086.38347
  22201701.680   116670736.91208  22201698.380    90912250.27747
  22409150.720   117760893.74408  22409146.240    91761726.70046
  21773966.980   114423029.72509  21773966.420    89160829.57748
 15 03 01 00 42  0.0000000  0  6G16G18G19G21G22G27
  20684088.240   108695651.93309  20684085.160    84697911.50648
  21859908.500   114874614.78909  21859905.420    89512674.46447
  23774773.120   124937282.41108  23774771.080    97353723.95446
  22213436.180   116732401.59709  22213432.600    90960300.67347
  22393504.400   117678672.15509  22393499.980    91697657.96847
  21763702.020   114369087.27409  21763701.540    89118796.50748
 15 03 01 00 42 30.0000000  0  6G16G18G19G21G22G27
  20677514.980   108661109.57609  20677512.100    84670995.39048
  21855115.500   114849427.30209  21855112.380    89493047.85847
  23760290.500   124861175.03908  23760288.680    97294419.56946
  22225203.440   116794238.40409  22225199.600    91008485.19147
  22377905.700   117596700.69909  22377901.340    91633784.14547
  21753461.180   114315271.57009  21753460.760    89076862.21648
 15 03 01 00 43  0.0000000  0  6G16G18G19G21G22G27
  20671031.300   108627037.39409  20671028.420    84644445.64248
  21850411.380   114824706.93209  21850408.280    89473785.25147
  23745822.820   124785145.63208  23745820.440    97235175.82346
  22237003.900   116856249.73509  22236999.860    91056805.69347
  22362355.660   117514985.06608  22362351.320    91570109.67947
  21743245.380   114261587.10509  21743244.920    89035030.18848
 15 03 01 00 43 30.0000000  0  6G16G18G19G21G22G27
  20664638.600   108593442.90909  20664635.500    84618268.11548
  21845797.300   114800460.08509  21845794.220    89454891.62247
  23731370.800   124709199.88008  23731368.640    97175997.45245
  22248838.280   116918439.32209  22248834.100    91105265.08747
  22346856.060   117433534.64908  22346851.760    91506641.85846
  21733055.640   114208039.69409  21733055.080    88993304.94348
 15 03 01 00 44  0.0000000  0  6G16G18G19G21G22G27
  20658335.340   108560318.56609  20658332.180    84592456.94448
  21841271.840   114776679.37809  21841268.880    89436361.23047
  23716932.980   124633329.40708  23716931.240    97116877.65647
  22260704.500   116980796.64509  22260700.320    91153855.19947
  22331405.700   117352342.67709  22331401.460    91443375.43047
  21722890.260   114154620.78509  21722889.640    88951679.84148
 15 03 01 00 44 30.0000000  0  6G16G18G19G21G22G27
  20652121.120   108527662.36409  20652117.940    84567010.56448
  21836834.600   114753362.08409  21836831.800    89418191.93147
  23702509.080   124557530.74208  23702506.500    97057813.71846
  22272601.500   117043315.99909  22272597.480    91202571.56847
  22316004.340   117271407.97109  22316000.180    91380309.46247
  21712748.660   114101327.32609  21712748.040    88910152.49148
 15 03 01 00 45  0.0000000  0  6G16G18G19G21G22G27
  20645997.920   108495484.91209  20645994.680    84541937.22148
  21832487.420   114730517.81209  21832484.600    89400391.22647
  23688100.500   124481811.96808  23688097.860    96998812.17646
  22284530.660   117106004.82309  22284526.880    91251419.98447
  22300654.020   117190741.44509  22300649.880    91317452.46147
  21702632.620   114048168.22809  21702632.180    88868729.83048
 15 03 01 00 45 30.0000000  0  6G16G18G19G21G22G27
  20639966.940   108463791.98009  20639963.560    84517241.43148
  21828231.240   114708151.56109  21828228.320    89382962.99347
  23673707.440   124406177.47808  23673705.120    96939876.28747
  22296492.540   117168865.70209  22296489.060    91300402.47647
  22285356.100   117110350.35409  22285352.040    91254810.09447
  21692543.080   113995148.02609  21692542.800    88827415.39748
 15 03 01 00 46  0.0000000  0  6G16G18G19G21G22G27
  20634026.800   108432576.09209  20634023.220    84492917.37148
  21824064.620   114686255.51309  21824061.680    89365901.14747
  23659328.720   124330618.70908  23659326.060    96880999.39546
  22308485.020   117231887.38208  22308481.800    91349510.26947
  22270109.380   117030228.14209  22270105.300    91192377.24247
  21682478.400   113942258.31409  21682478.300    88786202.64548
 15 03 01 00 46 30.0000000  0  6G16G18G19G21G22G27
  20628177.200   108401835.96809  20628173.560    84468964.03248
  21819987.140   114664827.88209  21819984.160    89349204.31147
  23644964.180   124255132.87308  23644961.460    96822179.31646
  22320507.360   117295065.81509  22320504.360    91398740.20447
  22254913.740   116950374.46708  22254909.540    91130153.65147
  21672438.160   113889496.56009  21672438.060    88745089.60648
 15 03 01 00 47  0.0000000  0  6G16G18G19G21G22G27
  20622419.480   108371578.94309  20622415.860    84445387.13548
  21816000.060   114643875.74809  21815997.160    89332877.99948
  23630614.760   124179726.48007  23630611.840    96763421.11046
  22332560.440   117358405.42208  22332557.440    91448095.73847
  22239770.880   116870798.33008  22239766.580    91068146.32647
  21662423.620   113836869.52409  21662423.440    88704081.54648
 15 03 01 00 47 30.0000000  0  6G16G18G19G21G22G27
  20616753.560   108341804.93909  20616750.180    84422186.60748
  21812103.160   114623397.67709  21812100.320    89316921.08548
  23616280.060   124104396.91808  23616276.900    96704722.79346
  22344643.300   117421901.52708  22344640.280    91497573.21047
  22224680.780   116791499.48209  22224676.480    91006355.06347
  21652434.300   113784374.93309  21652433.940    88663176.69348
 15 03 01 00 48  0.0000000  0  6G16G18G19G21G22G27
  20611180.500   108312519.04209  20611177.320    84399366.42548
  21808297.420   114603398.23909  21808294.540    89301337.12347
  23601960.680   124029148.05308  23601957.700    96646087.39547
  22356756.400   117485556.63808  22356753.360    91547174.58247
  22209644.700   116712484.40109  22209640.400    90944784.92147
  21642471.000   113732017.18809  21642470.460    88622378.46948
 15 03 01 00 48 30.0000000  0  6G16G18G19G21G22G27
  20605701.040   108283724.57409  20605697.960    84376929.17548
  21804583.280   114583879.91509  21804580.240    89286128.05048
  23587657.020   123953982.16908  23587653.700    96587516.60647
  22368899.880   117549371.17708  22368896.840    91596900.17847
  22194663.380   116633757.26609  22194659.080    90883439.14647
  21632534.120   113679798.44509  21632533.520    88581688.55148
 15 03 01 00 49  0.0000000  0  6G16G18G19G21G22G27
  20600313.540   108255413.38309  20600310.560    84354868.51348
  21800959.140   114564834.51009  21800956.020    89271287.49847
  23573367.300   123878889.61008  23573364.200    96529003.00346
  22381071.600   117613333.61909  22381068.440    91646741.03247
  22179735.600   116555311.39209  22179731.240    90822312.52947
  21622622.020   113627709.65809  21622621.440    88541099.90248
 15 03 01 00 49 30.0000000  0  6G16G18G19G21G22G27
  20595020.220   108227597.12209  20595017.280    84333193.50448
  21797426.900   114546272.59809  21797423.700    89256823.69047
  23559093.360   123803880.46808  23559090.840    96470554.38747
  22393273.100   117677452.36709  22393269.860    91696703.67847
  22164863.740   116477159.25109  22164859.300    90761414.78647
  21612736.600   113575761.20709  21612736.060    88500620.60648
 15 03 01 00 50  0.0000000  0  6G16G18G19G21G22G27
  20589819.700   108200268.58609  20589816.720    84311898.54548
  21793985.140   114528186.01109  21793981.860    89242730.26547
  23544833.860   123728946.38708  23544830.900    96412164.20047
  22405502.400   117741717.26008  22405499.040    91746780.21447
  22150046.560   116399294.55009  22150042.160    90700741.02747
  21602876.340   113523944.94409  21602875.800    88460244.31848
 15 03 01 00 50 30.0000000  0  6G16G18G19G21G22G27
  20584713.960   108173437.95709  20584710.960    84290991.55948
  21790635.740   114510584.84809  21790632.520    89229015.08348
  23530590.360   123654096.19008  23530587.620    96353839.43447
  22417760.680   117806135.01908  22417757.420    91796975.84647
  22135286.160   116321728.49709  22135281.860    90640299.98248
  21593043.040   113472270.07109  21593042.420    88419978.18948
 15 03 01 00 51  0.0000000  0  6G16G18G19G21G22G27
  20579702.660   108147103.35809  20579699.720    84270471.09548
  21787378.180   114493466.21009  21787374.960    89215675.90748
  23516362.080   123579326.55208  23516359.600    96295577.44447
  22430047.140   117870700.92608  22430044.100    91847286.94447
  22120582.400   116244460.06609  22120578.220    90580090.86448
  21583236.100   113420733.56509  21583235.380    88379819.89148
 15 03 01 00 51 30.0000000  0  6G16G18G19G21G22G27
  20574786.580   108121269.45109  20574783.820    84250340.77648
  21784213.260   114476834.39309  21784209.960    89202716.06647
  23502149.500   123504640.97908  23502147.320    96237380.98846
  22442362.080   117935416.42009  22442359.160    91897714.58747
  22105936.400   116167495.19009  22105932.260    90520118.28347
  21573456.160   113369339.18609  21573455.380    88339772.34248
 15 03 01 00 52  0.0000000  0  6G16G18G19G21G22G27
  20569964.660   108095929.93809  20569961.920    84230595.69348
  21781139.560   114460681.87209  21781136.240    89190129.69048
  23487951.720   123430031.86408  23487949.580    96179244.08546
  22454703.520   118000271.22208  22454700.660    91948250.77847
  22091347.180   116090828.67109  22091343.040    90460378.17147
  21563701.780   113318079.65809  21563700.960    88299829.86048
 15 03 01 00 52 30.0000000  0  6G16G18G19G21G22G27
  20565237.940   108071090.71209  20565235.080    84211240.45648
  21778158.060   114445014.23409  21778154.840    89177921.16547
  23473769.380   123355503.53208  23473767.240    96121170.13247
  22467072.380   118065269.81209  22467069.440    91998899.03047
  22076816.140   116014467.74309  22076811.980    90400876.18747
  21553973.960   113266959.95709  21553973.160    88259996.34248
 15 03 01 00 53  0.0000000  0  6G16G18G19G21G22G27
  20560606.000   108046749.29609  20560602.920    84192273.11948
  21775268.040   114429827.84609  21775264.980    89166087.63147
  23459601.940   123281052.91208  23459599.740    96063156.70447
  22479467.500   118130405.95809  22479464.320    92049654.46147
  22062342.940   115938410.51109  22062338.660    90341610.83947
  21544272.080   113215976.57809  21544271.280    88220269.05648
 15 03 01 00 53 30.0000000  0  6G16G18G19G21G22G27
  20556070.080   108022912.53209  20556066.800    84173699.02448
  21772470.880   114415129.40909  21772467.920    89154634.32047
  23445450.440   123206685.11108  23445447.880    96005207.81647
  22491889.540   118195683.51009  22491886.200    92100520.08147
  22047929.040   115862665.00509  22047924.720    90282588.40347
  21534597.280   113165135.52609  21534596.480    88180652.67448
 15 03 01 00 54  0.0000000  0  6G16G18G19G21G22G27
  20551630.420   107999581.35409  20551627.100    84155518.88048
  21769766.520   114400918.65809  21769763.640    89143561.01347
  23431314.540   123132399.41908  23431311.120    95947322.89846
  22504338.020   118261100.20709  22504334.620    92151494.11647
  22033574.800   115787233.16709  22033570.400    90223810.38747
  21524949.460   113114436.72009  21524948.780    88141147.12848
 15 03 01 00 54 30.0000000  0  6G16G18G19G21G22G27
  20547287.100   107976756.29909  20547283.760    84137733.13148
  21767155.100   114387195.97909  21767152.180    89132868.03347
  23417194.200   123058195.98008  23417190.580    95889502.09047
  22516812.520   118326653.87609  22516809.180    92202574.88347
  22019280.620   115712116.95209  22019276.160    90165278.30447
  21515328.700   113063880.21309  21515328.200    88101752.46148
 15 03 01 00 55  0.0000000  0  6G16G18G19G21G22G27
  20543040.340   107954438.65009  20543036.940    84120342.75348
  21764636.620   114373961.82909  21764633.720    89122555.71747
  23403089.520   122984075.01608  23403086.040    95831745.56447
  22529312.760   118392342.69209  22529309.400    92253760.97347
  22005046.980   115637318.69209  22005042.460    90106993.97647
  21505735.120   113013466.37709  21505734.780    88062468.97148
 15 03 01 00 55 30.0000000  0  6G16G18G19G21G22G27
  20538890.140   107932628.69709  20538886.660    84103347.98948
  21762211.080   114361215.41209  21762208.160    89112623.45448
  23389000.260   122910035.33908  23388996.660    95774052.34047
  22541838.160   118458163.95009  22541834.900    92305050.24947
  21990874.000   115562839.33709  21990869.540    90048958.15447
  21496168.640   112963194.51609  21496168.420    88023296.11148
 15 03 01 00 56  0.0000000  0  6G16G18G19G21G22G27
  20534837.700   107911332.77109  20534834.060    84086753.75648
  21759879.500   114348962.40909  21759876.520    89103075.66747
  23374927.240   122836081.63508  23374923.720    95716426.14047
  22554389.340   118524120.88009  22554386.180    92356445.24747
  21976763.200   115488686.55109  21976758.700    89991176.79748
  21486630.260   112913070.02809  21486630.080    87984238.08648
 15 03 01 00 56 30.0000000  0  6G16G18G19G21G22G27
  20530881.560   107890543.35909  20530877.940    84070554.21548
  21757640.260   114337194.66609  21757637.240    89093906.00448
  23360869.120   122762206.05508  23360865.960    95658860.79847
  22566964.520   118590203.69009  22566961.400    92407938.33547
  21962713.320   115414854.23809  21962708.860    89933645.16448
  21477118.300   112863084.86609  21477118.200    87945288.63448
 15 03 01 00 57  0.0000000  0  6G16G18G19G21G22G27
  20527024.280   107870273.22109  20527020.660    84054759.30248
  21755495.560   114325924.11809  21755492.560    89085123.76548
  23346827.940   122688419.88108  23346824.940    95601365.13247
  22579565.500   118656421.90509  22579562.380    92459536.94547
  21948727.040   115341356.07209  21948722.600    89876373.90248
  21467635.020   112813251.09109  21467635.100    87906457.14048
 15 03 01 00 57 30.0000000  0  6G16G18G19G21G22G27
  20523264.920   107850517.53309  20523261.400    84039365.25549
  21753444.360   114315145.24709  21753441.500    89076724.66948
  23332802.560   122614717.31208  23332799.560    95543934.62447
  22592190.800   118722767.78209  22592187.660    92511235.01647
  21934803.620   115268188.29309  21934799.180    89819360.08748
  21458179.460   112763563.03109  21458179.740    87867739.19948
 15 03 01 00 58  0.0000000  0  6G16G18G19G21G22G27
  20519603.020   107831274.12409  20519599.520    84024370.38748
  21751486.240   114304855.23609  21751483.400    89068706.48847
  23318792.620   122541095.18808  23318789.860    95486566.81946
  22604839.460   118789236.55309  22604836.120    92563028.86247
  21920942.880   115195349.92209  21920938.480    89762602.96248
  21448751.300   112714017.93109  21448751.600    87829132.65348
 15 03 01 00 58 30.0000000  0  6G16G18G19G21G22G27
  20516039.800   107812549.38109  20516036.340    84009779.67449
  21749622.160   114295059.65009  21749619.320    89061073.59147
  23304799.020   122467558.82308  23304796.520    95429265.84347
  22617512.200   118855831.64409  22617508.640    92614921.13647
  21907146.240   115122848.65709  21907141.880    89706108.50748
  21439351.600   112664621.38309  21439351.740    87790641.86548
 15 03 01 00 59  0.0000000  0  6G16G18G19G21G22G27
  20512575.220   107794342.93209  20512571.820    83995592.82749
  21747851.960   114285757.35709  21747849.120    89053825.06147
  23290821.460   122394106.76908  23290818.920    95372030.53647
  22630208.300   118922549.76109  22630204.600    92666909.27347
  21893413.900   115050685.01309  21893409.440    89649877.12048
  21429980.100   112615372.31809  21429980.000    87752265.98649
 15 03 01 00 59 30.0000000  0  6G16G18G19G21G22G27
  20509209.300   107776654.52809  20509205.860    83981809.66349
  21746175.480   114276947.39009  21746172.560    89046960.15447
  23276859.920   122320737.94308  23276856.820    95314860.05547
  22642927.220   118989388.16809  22642923.380    92718991.13547
  21879746.040   114978860.20509  21879741.500    89593909.76648
  21420636.400   112566270.01309  21420636.180    87714004.47848
 15 03 01 01 00  0.0000000  0  6G16G18G19G21G22G27
  20505942.240   107759485.60409  20505938.700    83968431.27949
  21744592.940   114268631.19909  21744590.020    89040480.00147
  23262914.420   122247453.22508  23262910.920    95257755.13447
  22655668.740   119056345.88808  22655664.940    92771165.97547
  21866143.180   114907377.18909  21866138.660    89538208.75448
  21411320.740   112517315.81809  21411320.420    87675858.37148
 15 03 01 01 00 30.0000000  0  6G16G18G19G21G22G27
  20502774.780   107742840.52909  20502771.280    83955461.09648
  21743104.780   114260811.21009  21743101.920    89034386.51947
  23248985.380   122174255.16908  23248982.020    95200717.77546
  22668433.140   119123424.29508  22668429.520    92823434.85647
  21852606.300   114836240.80209  21852601.860    89482777.84448
  21402033.800   112468512.63009  21402033.380    87637829.93148
 15 03 01 01 01  0.0000000  0  6G16G18G19G21G22G27
  20499706.400   107726716.49609  20499702.940    83942896.91749
  21741710.400   114253484.11909  21741707.600    89028677.12048
  23235072.340   122101140.55208  23235069.080    95143745.41247
  22681219.380   119190617.84108  22681216.060    92875793.45547
  21839135.160   114765449.76209  21839130.720    89427616.02748
  21392775.020   112419857.44709  21392774.480    87599916.83248
 15 03 01 01 01 30.0000000  0  6G16G18G19G21G22G27
  20496738.140   107711118.55709  20496734.660    83930742.67748
  21740410.800   114246654.54609  21740407.920    89023355.38247
  23221175.880   122028113.40008  23221172.480    95086841.17647
  22694027.900   119257928.50508  22694024.940    92928243.30447
  21825730.860   114695009.81609  21825726.340    89372727.78848
  21383545.280   112371354.74909  21383544.680    87562122.53848
 15 03 01 01 02  0.0000000  0  6G16G18G19G21G22G27
  20493870.360   107696048.25609  20493866.760    83918999.59148
  21739206.000   114240323.06109  21739203.140    89018421.77747
  23207296.080   121955174.25108  23207292.300    95030005.49247
  22706858.620   119325355.67308  22706855.960    92980783.93847
  21812394.040   114624924.38509  21812389.520    89318115.79548
  21374344.780   112323005.52209  21374344.120    87524447.83848
 15 03 01 01 02 30.0000000  0  6G16G18G19G21G22G27
  20491102.720   107681504.77209  20491099.240    83907667.00248
  21738095.680   114234488.03309  21738092.820    89013875.01448
  23193432.580   121882321.76608  23193428.820    94973237.42047
  22719711.020   119392896.00308  22719708.480    93033412.75947
  21799124.720   114555193.70609  21799120.260    89263780.23048
  21365173.280   112274808.55209  21365172.520    87486891.77848
 15 03 01 01 03  0.0000000  0  6G16G18G19G21G22G27
  20488434.900   107667486.03709  20488431.540    83896743.32148
  21737079.340   114229146.90709  21737076.520    89009713.12048
  23179585.080   121809553.39508  23179581.580    94916534.87647
  22732584.240   119460544.93908  22732581.700    93086126.20347
  21785922.720   114485817.17509  21785918.340    89209720.63848
  21356030.260   112226761.62009  21356029.500    87449452.63648
 15 03 01 01 03 30.0000000  0  6G16G18G19G21G22G27
  20485868.760   107654001.83709  20485865.660    83886236.14248
  21736158.680   114224308.46909  21736155.820    89005942.92248
  23165754.940   121736877.28208  23165751.640    94859904.21847
  22745479.580   119528309.13909  22745476.900    93138929.46047
  21772790.100   114416805.49009  21772785.820    89155945.33648
  21346917.460   112178873.64909  21346916.740    87412137.34548
 15 03 01 01 04  0.0000000  0  6G16G18G19G21G22G27
  20483402.800   107641043.70809  20483399.880    83876138.90049
  21735331.940   114219963.56709  21735329.000    89002557.29248
  23151940.760   121664284.36108  23151937.480    94803338.33647
  22758394.860   119596177.88308  22758391.980    93191814.19747
  21759725.620   114348151.40509  21759721.380    89102448.68148
  21337833.220   112131135.76909  21337832.560    87374939.01649
 15 03 01 01 04 30.0000000  0  6G16G18G19G21G22G27
  20481038.500   107628619.37209  20481035.640    83866457.60149
  21734600.360   114216118.64609  21734597.280    88999561.25648
  23138143.940   121591781.84808  23138140.640    94746842.92947
  22771330.920   119664156.46708  22771327.820    93244784.50647
  21746730.900   114279863.91109  21746726.660    89049237.68848
  21328778.940   112083555.41609  21328778.360    87337863.43549
 15 03 01 01 05  0.0000000  0  6G16G18G19G21G22G27
  20478775.300   107616725.86009  20478772.440    83857189.93848
  21733963.280   114212770.45809  21733960.120    88996952.29747
  23124363.680   121519366.00408  23124360.120    94690415.03747
  22784286.740   119732239.16209  22784283.420    93297835.94847
  21733805.680   114211941.49809  21733801.340    88996311.15848
  21319754.000   112036129.25709  21319753.460    87300908.01348
 15 03 01 01 05 30.0000000  0  6G16G18G19G21G22G27
  20476613.520   107605365.56109  20476610.620    83848337.75748
  21733421.020   114209920.85509  21733417.880    88994731.84148
  23110600.260   121447038.39108  23110596.480    94634055.92847
  22797262.340   119800426.16408  22797258.880    93350968.66547
  21720950.620   114144387.43309  21720946.120    88943671.66148
