     2.11           OBSERVATION DATA    G                   RINEX VERSION / TYPE
SPIDER V4,0,0,3554                      2015 04 17 04:33    PGM / RUN BY / DATE 
CABS                                                        MARKER NAME         
CABS                                                        MARKER NUMBER       
                                                            OBSERVER / AGENCY   
462287              LEICA GRX1200PRO    8.10/2.127          REC # / TYPE / VERS 
103298              LEIAT504                                ANT # / TYPE        
  5116912.3402   671231.6412  3737143.4301                  APPROX POSITION XYZ 
        0.0600        0.0000        0.0000                  ANTENNA: DELTA H/E/N
     1     1                                                WAVELENGTH FACT L1/2
     4    C1    L1    P2    L2                              # / TYPES OF OBSERV 
    30.000                                                  INTERVAL            
  2015    03    01    00    00    0.0000000     GPS         TIME OF FIRST OBS   
  2015    03    01    23    59   30.0000000     GPS         TIME OF LAST OBS    
    16                                                      LEAP SECONDS        
    30                                                      # OF SATELLITES     
   G 1    13    13    13    13                              PRN / # OF OBS      
   G 2   869   869   869   869                              PRN / # OF OBS      
   G 3   116   116   116   116                              PRN / # OF OBS      
   G 4   171   171   171   171                              PRN / # OF OBS      
   G 5   681   681   681   681                              PRN / # OF OBS      
   G 6   556   556   556   556                              PRN / # OF OBS      
   G 7   491   491   491   491                              PRN / # OF OBS      
   G 9   404   404   404   404                              PRN / # OF OBS      
   G10   540   540   540   540                              PRN / # OF OBS      
   G11    75    75    75    75                              PRN / # OF OBS      
   G12   830   830   830   830                              PRN / # OF OBS      
   G13   790   790   790   790                              PRN / # OF OBS      
   G14   516   516   516   516                              PRN / # OF OBS      
   G15   689   689   689   689                              PRN / # OF OBS      
   G16   521   521   521   521                              PRN / # OF OBS      
   G17   454   454   454   454                              PRN / # OF OBS      
   G18   799   799   799   799                              PRN / # OF OBS      
   G19   281   281   281   281                              PRN / # OF OBS      
   G20   486   486   486   486                              PRN / # OF OBS      
   G21   696   696   694   694                              PRN / # OF OBS      
   G22   380   380   380   380                              PRN / # OF OBS      
   G23   218   218   218   218                              PRN / # OF OBS      
   G24   785   785   782   782                              PRN / # OF OBS      
   G25   847   847   847   847                              PRN / # OF OBS      
   G27   460   460   460   460                              PRN / # OF OBS      
   G28   605   605   605   605                              PRN / # OF OBS      
   G29   780   780   780   780                              PRN / # OF OBS      
   G30   655   655   655   655                              PRN / # OF OBS      
   G31   611   611   611   611                              PRN / # OF OBS      
   G32    79    79    79    79                              PRN / # OF OBS      
BIT 2 OF LLI FLAGS DATA COLLECTED UNDER A/S CONDITION       COMMENT             
SNR is mapped to RINEX snr flag value [2-9]                 COMMENT             
Lx:     = 25dBHz -> 1; 26-27dBHz -> 2; 28-31dBHz -> 3       COMMENT             
       32-35dBHz -> 4; 36-38dBHz -> 5; 39-41dBHz -> 6       COMMENT             
       42-44dBHz -> 7; 45-48dBHz -> 8; >=49dBHz -> 9        COMMENT             
                                                            END OF HEADER       
 15 03 01 00 00  0.0000000  0  7G16G18G21G22G27G29G31
  21649828.220   113770642.77308  21649829.860    88652466.68648
  22364436.440   117525947.87908  22364438.760    91578694.17746
  21271522.040   111782826.26908  21271523.120    87103628.84648
  23782867.960   124979853.67206  23782870.620    97386918.42845
  22967350.100   120694247.63407  22967355.100    94047498.75747
  23839505.880   125277877.19107  23839508.960    97619322.49145
  23266820.400   122267979.65107  23266823.680    95273772.42246
 15 03 01 00 00 30.0000000  0  7G16G18G21G22G27G29G31
  21636576.520   113701004.78008  21636578.220    88598203.32948
  22353022.900   117465969.49808  22353025.080    91531957.80646
  21278720.120   111820652.64008  21278721.240    87133103.94048
  23764594.620   124883825.67606  23764597.060    97312091.57445
  22954506.420   120626753.52807  22954511.420    93994905.97347
  23853479.540   125351307.56407  23853482.500    97676540.92846
  23284308.880   122359881.48007  23284312.200    95345384.14946
 15 03 01 00 01  0.0000000  0  7G16G18G21G22G27G29G31
  21623383.080   113631672.93808  21623384.800    88544178.53148
  22341671.420   117406317.34308  22341673.460    91485475.63746
  21285977.460   111858790.46008  21285978.620    87162821.71848
  23746328.360   124787834.70506  23746330.520    97237293.52546
  22941679.920   120559350.00707  22941684.960    93942383.77647
  23867461.880   125424784.20107  23867464.680    97733795.38646
  23301823.920   122451923.05007  23301827.300    95417104.72646
 15 03 01 00 01 30.0000000  0  7G16G18G21G22G27G29G31
  21610248.100   113562648.22808  21610249.860    88490393.06348
  22330382.300   117346992.88008  22330384.200    91439248.80946
  21293293.620   111897237.09108  21293294.760    87192780.12948
  23728069.400   124691882.25006  23728071.360    97162525.51545
  22928870.420   120492035.92707  22928875.520    93889931.27947
  23881452.560   125498305.51506  23881455.240    97791084.73246
  23319364.860   122544100.62107  23319368.280    95488931.29046
 15 03 01 00 02  0.0000000  0  7G16G18G21G22G27G29G31
  21597172.160   113493933.70208  21597173.920    88436849.28948
  22319156.120   117287998.80408  22319157.860    91393279.44246
  21300668.460   111935992.07408  21300669.600    87222978.81548
  23709818.260   124595971.50506  23709820.120    97087790.00345
  22916078.140   120424812.15207  22916083.260    93837549.14547
  23895451.640   125571872.63306  23895454.640    97848409.70045
  23336931.220   122636411.69607  23336934.540    95560861.87346
 15 03 01 00 02 30.0000000  0  7G16G18G21G22G27G29G31
  21584155.120   113425528.72108  21584156.860    88383546.72148
  22307992.740   117229334.47508  22307994.380    91347567.01746
  21308101.120   111975051.04408  21308102.280    87253414.37348
  23691575.020   124500102.78606  23691577.040    97013087.21645
  22903302.580   120357676.12907  22903307.680    93785235.38947
  23909458.760   125645482.65806  23909462.360    97905768.11146
  23354521.840   122728850.62907  23354525.100    95632892.13046
 15 03 01 00 03  0.0000000  0  7G16G18G21G22G27G29G31
  21571197.360   113357435.49608  21571199.140    88330487.08348
  22296892.520   117171002.31808  22296894.160    91302113.42447
  21315591.200   112014411.85908  21315592.420    87284085.12948
  23673340.120   124404278.09507  23673342.340    96938418.75445
  22890543.720   120290627.66707  22890548.760    93732989.86247
  23923474.000   125719135.22206  23923477.920    97963159.69446
  23372136.080   122821414.07707  23372139.280    95705019.33546
 15 03 01 00 03 30.0000000  0  7G16G18G21G22G27G29G31
  21558299.600   113289657.65408  21558301.420    88277673.20348
  22285856.120   117113005.83608  22285857.920    91256921.39247
  21323138.680   112054074.18408  21323139.940    87314990.82948
  23655114.280   124308501.45507  23655116.700    96863787.73846
  22877801.760   120223668.22307  22877806.760    93680813.71047
  23937497.640   125792831.62706  23937501.680    98020585.44545
  23389773.740   122914100.55607  23389776.920    95777242.44246
 15 03 01 00 04  0.0000000  0  7G16G18G21G22G27G29G31
  21545461.620   113222193.73708  21545463.420    88225103.92948
  22274883.120   117055343.19608  22274885.140    91211989.49946
  21330742.500   112094032.41208  21330743.760    87346127.10948
  23636897.440   124212771.80107  23636899.960    96789193.33746
  22865076.100   120156794.21307  22865081.020    93628704.12147
  23951529.260   125866568.23306  23951533.280    98078042.51245
  23407433.560   123006903.37407  23407436.700    95849556.23646
 15 03 01 00 04 30.0000000  0  7G16G18G21G22G27G29G31
  21532684.260   113155048.25408  21532685.980    88172782.78248
  22263974.500   116998019.38808  22263976.820    91167321.63247
  21338402.760   112134287.34208  21338404.040    87377494.57248
  23618690.520   124117094.05107  23618693.040    96714639.35846
  22852367.040   120090007.91507  22852371.960    93576662.87047
  23965569.180   125940346.93106  23965572.980    98135532.36746
  23425115.340   123099821.38907  23425118.480    95921959.76046
 15 03 01 00 05  0.0000000  0  7G16G18G21G22G27G29G31
  21519968.320   113088225.39708  21519969.940    88120713.03548
  22253131.140   116941038.37608  22253133.680    91122920.87246
  21346119.580   112174839.38708  21346120.860    87409093.56448
  23600494.400   124021472.75806  23600496.840    96640129.38546
  22839675.100   120023311.70907  22839680.000    93524691.85147
  23979617.620   126014170.17607  23979621.140    98193056.90745
  23442818.940   123192854.07307  23442822.200    95994452.64346
 15 03 01 00 05 30.0000000  0  7G16G18G21G22G27G29G31
  21507314.320   113021728.06008  21507315.880    88068896.94348
  22242353.680   116884403.13808  22242356.260    91078789.54246
  21353892.740   112215687.29808  21353893.980    87440923.09948
  23582309.760   123925911.45707  23582312.040    96565666.15446
  22827000.460   119956706.23607  22827005.300    93472791.51646
  23993674.580   126088038.76706  23993677.960    98250616.79045
  23460543.860   123285998.74907  23460547.260    96067032.74446
 15 03 01 00 06  0.0000000  0  7G16G18G21G22G27G29G31
  21494722.460   112955557.26008  21494724.000    88017335.29948
  22231642.340   116828114.53008  22231644.740    91034928.31346
  21361721.580   112256827.87208  21361722.780    87472980.68348
  23564136.720   123830411.40607  23564138.800    96491250.63445
  22814342.860   119890190.43607  22814347.660    93420961.05347
  24007739.760   126161951.01206  24007742.900    98308210.72945
  23478289.380   123379251.40307  23478292.900    96139697.00646
 15 03 01 00 06 30.0000000  0  7G16G18G21G22G27G29G31
  21482193.260   112889715.68608  21482194.820    87966030.19148
  22220997.520   116772175.11908  22220999.680    90991339.19346
  21369605.960   112298260.48708  21369607.160    87505265.82748
  23545975.720   123734975.43707  23545977.720    96416885.06145
  22801702.340   119823764.70407  22801707.180    93369200.79347
  24021813.240   126235907.27806  24021816.360    98365838.95145
  23496055.040   123472609.43807  23496058.540    96212443.41546
 15 03 01 00 07  0.0000000  0  7G16G18G21G22G27G29G31
  21469727.060   112824205.37808  21469728.660    87914983.20648
  22210419.560   116716586.81808  22210421.440    90948023.66046
  21377545.480   112339982.79908  21377546.660    87537776.71448
  23527827.280   123639606.25207  23527829.300    96342571.51345
  22789078.980   119757428.98007  22789083.880    93317510.66447
  24035894.960   126309907.31106  24035898.220    98423501.26546
  23513840.100   123566069.50307  23513843.580    96285269.29846
 15 03 01 00 07 30.0000000  0  7G16G18G21G22G27G29G31
  21457324.340   112759028.72109  21457325.980    87864196.21348
  22199908.700   116661351.37908  22199910.420    90904983.08747
  21385539.740   112381993.08008  21385540.940    87570511.98948
  23509692.000   123544306.48307  23509694.080    96268312.06545
  22776472.860   119691183.50607  22776477.780    93265890.86647
  24049984.980   126383951.12807  24049988.240    98481197.67545
  23531643.980   123659628.82807  23531647.420    96358172.57846
 15 03 01 00 08  0.0000000  0  7G16G18G21G22G27G29G31
  21444985.300   112694186.71809  21444986.920    87813669.99148
  22189465.220   116606470.54508  22189466.920    90862218.81347
  21393588.220   112424288.23208  21393589.460    87603469.24348
  23491570.240   123449077.63907  23491572.320    96194107.86145
  22763883.800   119625027.42607  22763888.680    93214340.71847
  24064083.180   126458037.51706  24064086.380    98538927.32445
  23549465.880   123753283.10807  23549469.340    96431149.80646
 15 03 01 00 08 30.0000000  0  7G16G18G21G22G27G29G31
  21432710.360   112629681.43309  21432711.940    87763406.14548
  22179089.500   116551946.18608  22179091.280    90819732.32647
  21401690.660   112466867.17308  21401691.980    87636647.62848
  23473462.520   123353921.90007  23473464.480    96119960.62746
  22751311.740   119558960.59508  22751316.540    93162860.11347
  24078189.480   126532166.67606  24078192.660    98596690.32046
  23567305.160   123847029.36007  23567308.740    96504198.68646
 15 03 01 00 09  0.0000000  0  7G16G18G21G22G27G29G31
  21420500.340   112565517.52409  21420501.900    87713408.30448
  22168782.420   116497782.62708  22168784.300    90777526.97847
  21409847.160   112509730.39008  21409848.560    87670047.52948
  23455369.920   123258844.52707  23455371.600    96045874.45645
  22738757.120   119492985.57408  22738761.920    93111451.04947
  24092304.240   126606340.81906  24092307.400    98654488.31044
  23585161.840   123940866.84907  23585165.440    96577318.63046
 15 03 01 00 09 30.0000000  0  7G16G18G21G22G27G29G31
  21408355.480   112501696.12909  21408357.060    87663677.35148
  22158544.200   116443980.58608  22158546.120    90735603.32447
  21418057.160   112552874.56808  21418058.620    87703666.36048
  23437292.580   123163846.77107  23437293.960    95971850.32945
  22726219.780   119427101.18908  22726224.520    93060112.60547
  24106427.400   126680558.43107  24106430.460    98712320.15844
  23603035.180   124034791.45106  23603038.680    96650506.42046
 15 03 01 00 10  0.0000000  0  7G16G18G21G22G27G29G31
  21396275.940   112438217.72109  21396277.500    87614213.66848
  22148374.960   116390540.51708  22148376.880    90693961.73947
  21426320.060   112596296.21408  21426321.480    87737501.40348
  23419230.720   123068929.96007  23419231.780    95897889.28046
  22713699.400   119361306.00707  22713704.100    93008843.66247
  24120558.800   126754817.96506  24120561.480    98770184.72845
  23620924.240   124128798.44206  23620927.700    96723758.41045
 15 03 01 00 10 30.0000000  0  7G16G18G21G22G27G29G31
  21384262.460   112375086.28909  21384263.980    87565020.35948
  22138275.280   116337465.81808  22138277.100    90652604.84247
  21434635.780   112639995.28608  21434637.140    87771552.62648
  23401184.880   122974098.25207  23401185.800    95823994.54546
  22701196.380   119295601.96407  22701201.040    92957645.73547
  24134698.580   126829121.22106  24134700.700    98828083.37246
  23638828.860   124222886.79107  23638832.300    96797073.82045
 15 03 01 00 11  0.0000000  0  7G16G18G21G22G27G29G31
  21372315.540   112312304.80109  21372317.040    87516099.73148
  22128245.760   116284760.16108  22128247.540    90611535.52047
  21443004.140   112683971.10708  21443005.440    87805819.49648
  23383155.840   122879355.26307  23383156.820    95750168.91846
  22688710.860   119229990.05607  22688715.500    92906519.60647
  24148846.600   126903468.89606  24148848.680    98886016.54446
  23656748.600   124317054.14107  23656752.020    96870450.82945
 15 03 01 00 11 30.0000000  0  7G16G18G21G22G27G29G31
  21360435.840   112249876.53809  21360437.320    87467454.34248
  22118286.860   116232426.14308  22118288.720    90570755.78647
  21451425.000   112728222.88108  21451426.260    87840301.39148
  23365144.160   122784704.30407  23365145.340    95676415.02746
  22676242.980   119164471.09107  22676247.640    92855465.89447
  24163003.180   126977861.66106  24163005.320    98943984.84545
  23674682.960   124411298.16807  23674686.280    96943887.53945
 15 03 01 00 12  0.0000000  0  7G16G18G21G22G27G29G31
  21348623.580   112187802.90009  21348625.080    87419085.28048
  22108398.980   116180465.50608  22108400.960    90530266.99847
  21459898.040   112772748.74108  21459899.260    87874996.86148
  23347150.400   122690147.49807  23347151.800    95602734.49546
  22663792.740   119099045.03807  22663797.400    92804484.58247
  24177168.220   127052299.46406  24177170.680    99001988.25845
  23692631.340   124505616.04906  23692634.660    97017381.81146
 15 03 01 00 12 30.0000000  0  7G16G18G21G22G27G29G31
  21336879.120   112126085.61409  21336880.640    87370993.90448
  22098582.440   116128879.67908  22098584.540    90490070.26647
  21468422.640   112817545.74008  21468423.880    87909903.61148
  23329175.000   122595687.04707  23329176.560    95529129.02346
  22651360.080   119033711.33107  22651364.760    92753575.23347
  24191341.580   127126781.41206  24191344.120    99060026.17945
  23710592.860   124600003.67807  23710596.280    97090930.39846
 15 03 01 00 13  0.0000000  0  7G16G18G21G22G27G29G31
  21325202.960   112064727.12409  21325204.540    87323182.10448
  22088837.600   116077670.41708  22088839.700    90450166.96847
  21476998.600   112862612.69108  21476999.860    87945020.71148
  23311218.620   122501326.06707  23311220.220    95455601.06846
  22638945.100   118968470.47807  22638949.760    92702738.23747
  24205523.360   127201307.75806  24205526.400    99118098.58045
  23728567.100   124694458.30507  23728570.560    97164531.14246
 15 03 01 00 13 30.0000000  0  7G16G18G21G22G27G29G31
  21313595.440   112003729.15009  21313597.020    87275651.22748
  22079164.780   116026839.34408  22079166.820    90410558.35847
  21485625.520   112907947.41908  21485626.780    87980346.46848
  23293281.460   122407066.25407  23293283.120    95382151.92946
  22626547.680   118903321.97207  22626552.320    92651973.19847
  24219713.480   127275878.03506  24219716.860    99176205.31046
  23746553.540   124788976.90206  23746557.100    97238181.81146
 15 03 01 00 14  0.0000000  0  7G16G18G21G22G27G29G31
  21302056.940   111943093.91209  21302058.520    87228403.00348
  22069564.280   115976388.25008  22069566.220    90371245.83847
  21494302.860   112953547.07008  21494304.100    88015878.65948
  23275364.180   122312910.40407  23275365.800    95308783.80246
  22614167.880   118838266.03308  22614172.500    92601280.30247
  24233911.920   127350492.30606  24233915.720    99234346.19845
  23764551.420   124883555.83507  23764555.100    97311879.42946
 15 03 01 00 14 30.0000000  0  7G16G18G21G22G27G29G31
  21290587.580   111882822.28909  21290589.200    87181438.11448
  22060036.320   115926318.25408  22060038.160    90332230.27547
  21503030.200   112999409.63508  21503031.460    88051615.71948
  23257466.940   122218859.89407  23257468.520    95235497.76446
  22601805.500   118773301.50608  22601810.100    92550658.61747
  24248118.500   127425148.37406  24248122.260    99292519.77246
  23782560.080   124978191.03406  23782563.840    97385620.88846
 15 03 01 00 15  0.0000000  0  7G16G18G21G22G27G29G31
  21279188.080   111822918.07809  21279189.780    87134759.52248
  22050581.520   115876632.61908  22050583.260    90293514.22247
  21511807.560   113045534.99408  21511808.820    88087557.55348
  23239590.420   122124918.93106  23239592.120    95162297.08746
  22589460.940   118708430.42108  22589465.520    92500109.76147
  24262333.660   127499848.92906  24262337.140    99350727.89245
  23800579.220   125072881.57006  23800583.040    97459405.51746
 15 03 01 00 15 30.0000000  0  7G16G18G21G22G27G29G31
  21267858.780   111763382.58809  21267860.540    87088368.24348
  22041200.060   115827332.71108  22041201.780    90255098.73447
  21520634.380   113091920.29108  21520635.660    88123701.93448
  23221735.000   122031089.35306  23221737.020    95089183.22846
  22577134.000   118643651.92008  22577138.580    92449633.04347
  24276557.140   127574592.74906  24276560.120    99408969.84645
  23818608.000   125167623.32306  23818612.040    97533230.03446
 15 03 01 00 16  0.0000000  0  7G16G18G21G22G27G29G31
  21256600.540   111704220.24809  21256602.320    87042267.73148
  22031892.720   115778422.40108  22031894.460    90216986.81747
  21529510.860   113138566.67408  21529512.180    88160049.75848
  23203901.780   121937376.06606  23203904.020    95016159.95747
  22564825.200   118578968.51808  22564829.740    92399230.41947
  24290789.380   127649382.08807  24290791.920    99467247.20645
  23836646.400   125262415.71806  23836650.680    97607094.01446
 15 03 01 00 16 30.0000000  0  7G16G18G21G22G27G29G31
  21245413.700   111645432.99409  21245415.480    86996459.49748
  22022659.760   115729903.18908  22022661.540    90179179.65547
  21538436.280   113185470.28008  21538437.640    88196598.01948
  23186091.260   121843781.32807  23186093.520    94943229.06646
  22552534.440   118514380.00208  22552538.960    92348901.73047
  24305030.000   127724216.48107  24305032.660    99525559.55945
  23854693.820   125357255.14506  23854698.300    97680994.60346
 15 03 01 00 17  0.0000000  0  7G16G18G21G22G27G29G31
  21234298.580   111587022.61509  21234300.360    86950944.92548
  22013501.620   115681776.93608  22013503.460    90141678.69147
  21547410.520   113232630.52408  21547411.940    88233346.25548
  23168303.860   121750307.32107  23168305.940    94870392.23546
  22540261.720   118449886.30708  22540266.200    92298646.93647
  24319278.880   127799095.65206  24319281.380    99583906.97544
  23872749.700   125452138.50206  23872754.220    97754929.45146
 15 03 01 00 17 30.0000000  0  7G16G18G21G22G27G29G31
  21223255.340   111528989.77909  21223257.080    86905724.54548
  22004418.380   115634043.90908  22004420.260    90104484.13947
  21556433.040   113280044.37608  21556434.520    88270292.10948
  23150539.800   121656955.40807  23150541.560    94797650.56246
  22528006.780   118385486.26608  22528011.220    92248465.11247
  24333536.080   127874017.99905  24333538.540    99642288.06345
  23890813.240   125547061.59506  23890817.720    97828895.30345
 15 03 01 00 18  0.0000000  0  7G16G18G21G22G27G29G31
  21212285.380   111471342.14509  21212287.080    86860804.32548
  21995411.340   115586711.33208  21995413.220    90067601.63147
  21565504.460   113327714.96708  21565505.920    88307438.02148
  23132800.480   121563733.97407  23132802.000    94725010.55246
  22515770.700   118321185.55708  22515775.160    92198360.69647
  24347802.360   127948988.98906  24347805.020    99700706.93644
  23908884.880   125642026.72306  23908889.080    97902893.90146
 15 03 01 00 18 30.0000000  0  7G16G18G21G22G27G29G31
  21201387.860   111414075.15909  21201389.540    86816180.70648
  21986479.640   115539774.72108  21986481.480    90031027.65947
  21574623.200   113375634.23808  21574624.640    88344777.70448
  23115085.180   121470638.97107  23115086.480    94652469.06546
  22503552.260   118256977.73908  22503556.760    92148328.65947
  24362076.760   128024002.56505  24362079.620    99759159.08844
  23926962.600   125737024.37706  23926966.640    97976917.83846
 15 03 01 00 19  0.0000000  0  7G16G18G21G22G27G29G31
  21190564.080   111357195.54109  21190565.700    86771858.93248
  21977624.380   115493240.11608  21977626.200    89994766.93647
  21583789.780   113423804.63608  21583791.180    88382313.07748
  23097395.100   121377677.03907  23097396.300    94580031.26746
  22491352.380   118192867.39708  22491356.920    92098372.57747
  24376359.980   128099062.45706  24376363.120    99817647.32044
  23945046.740   125832055.87406  23945050.640    98050968.10146
 15 03 01 00 19 30.0000000  0  7G16G18G21G22G27G29G31
  21179813.300   111300699.75309  21179814.900    86727836.25048
  21968844.820   115447103.52908  21968846.680    89958816.36947
  21593002.720   113472218.54508  21593004.080    88420038.19748
  23079729.720   121284845.35607  23079730.960    94507694.96446
  22479170.020   118128849.14108  22479174.620    92048488.24847
  24390650.920   128174163.29106  24390654.540    99876167.27044
  23963135.720   125927112.93106  23963139.600    98125038.31445
 15 03 01 00 20  0.0000000  0  7G16G18G21G22G27G29G31
  21169132.920   111244574.23709  21169134.520    86684102.09448
  21960138.340   115401351.21208  21960140.280    89923165.24047
  21602258.720   113520858.86208  21602260.040    88457939.73848
  23062086.560   121192130.84107  23062087.880    94435449.94946
  22467002.320   118064907.45108  22467006.920    91998663.59447
  24404949.900   128248852.02005  24404951.020    99934184.93144
  23981225.780   126022176.59606  23981229.920    98199113.65446
 15 03 01 00 20 30.0000000  0  7G16G18G21G22G27G29G31
  21158536.220   111188888.47609  21158537.860    86640710.60048
  21951518.100   115356052.16008  21951520.100    89887867.29147
  21611570.200   113569790.81708  21611571.460    88496068.52648
  23044479.020   121099603.78407  23044480.380    94363351.00546
  22454862.080   118001110.00408  22454866.700    91948951.32647
  24419261.460   128324070.46906  24419264.280    99992796.56545
  23999329.360   126117311.47706  23999333.880    98273244.46246
 15 03 01 00 21  0.0000000  0  7G16G18G21G22G27G29G31
  21148008.420   111133564.59509  21148010.040    86597601.08948
  21942969.380   115311128.64608  21942971.320    89852861.97647
  21620921.740   113618933.37608  21620922.980    88534361.42548
  23026892.540   121007186.87807  23026893.760    94291337.89946
  22442734.180   117937377.22108  22442738.760    91899289.43747
  24433577.040   128399301.60405  24433580.060   100051418.25945
  24017430.740   126212434.84006  24017435.560    98347366.30146
 15 03 01 00 21 30.0000000  0  7G16G18G21G22G27G29G31
  21137556.980   111078641.93909  21137558.620    86554804.21848
  21934499.540   115266619.43108  21934501.400    89818179.48947
  21630319.940   113668321.06408  21630321.160    88572845.33148
  23009334.600   120914919.87207  23009335.720    94219441.60346
  22430625.660   117873746.41608  22430630.200    91849707.03147
  24447902.320   128474582.36806  24447905.620   100110078.58045
  24035536.560   126307581.06406  24035541.640    98421506.00545
 15 03 01 00 22  0.0000000  0  7G16G18G21G22G27G29G31
  21127181.520   111024118.32609  21127183.140    86512318.29048
  21926107.980   115222521.51108  21926109.760    89783817.49347
  21639763.840   113717948.89308  21639765.020    88611516.36848
  22991804.980   120822801.06807  22991805.900    94147660.79846
  22418535.760   117810213.56508  22418540.220    91800200.94247
  24462236.460   128549908.66405  24462239.980   100168774.37346
  24053645.360   126402742.46806  24053650.580    98495657.51046
 15 03 01 00 22 30.0000000  0  7G16G18G21G22G27G29G31
  21116883.060   110969999.49609  21116884.680    86470147.77748
  21917795.820   115178840.60608  21917797.560    89749780.44447
  21649253.680   113767818.12608  21649254.800    88650375.51048
  22974304.700   120730836.61207  22974305.560    94076000.24346
  22406465.220   117746782.52808  22406469.580    91750774.19147
  24476579.700   128625284.09406  24476583.620   100227508.36046
  24071757.200   126497920.10706  24071762.560    98569821.73746
 15 03 01 00 23  0.0000000  0  7G16G18G21G22G27G29G31
  21106660.420   110916279.20709  21106662.040    86428287.81448
  21909561.740   115135570.28408  21909563.480    89716063.32447
  21658787.580   113817918.93508  21658788.660    88689415.10048
  22956832.700   120639020.86707  22956833.620    94004455.57646
  22394412.480   117683445.13908  22394416.780    91701420.40947
  24490930.820   128700699.94905  24490934.940   100286273.96145
  24089869.940   126593102.60706  24089875.340    98643989.69946
 15 03 01 00 23 30.0000000  0  7G16G18G21G22G27G29G31
  21096515.040   110862965.08109  21096516.680    86386744.34148
  21901407.180   115092717.82408  21901408.960    89682671.81147
  21668366.140   113868254.67908  21668367.240    88728637.75748
  22939390.640   120547362.38307  22939391.700    93933033.44246
  22382378.700   117620207.42908  22382383.000    91652144.30147
  24505290.940   128776162.21906  24505294.840   100345075.73245
  24107984.180   126688292.81106  24107989.660    98718163.65346
 15 03 01 00 24  0.0000000  0  7G16G18G21G22G27G29G31
  21086446.900   110810056.90009  21086448.560    86345517.18748
  21893331.880   115050282.20108  21893333.800    89649605.11147
  21677988.620   113918821.43908  21677989.800    88768040.42148
  22921978.540   120455861.30307  22921979.820    93861733.94747
  22370363.440   117557067.25308  22370367.800    91602944.19447
  24519659.380   128851668.49405  24519663.320   100403911.72345
  24126098.900   126783485.11106  24126104.460    98792339.19346
 15 03 01 00 24 30.0000000  0  7G16G18G21G22G27G29G31
  21076456.980   110757559.74509  21076458.680    86304610.31348
  21885336.820   115008268.31608  21885338.880    89616867.03947
  21687655.440   113969621.13908  21687656.700    88807624.59948
  22904597.380   120364522.96707  22904598.900    93790561.27846
  22358367.360   117494027.89208  22358371.780    91553822.63947
  24534036.860   128927221.71606  24534040.760   100462784.34045
  24144214.200   126878679.82106  24144219.600    98866516.62945
 15 03 01 00 25  0.0000000  0  7G16G18G21G22G27G29G31
  21066545.020   110705472.11409  21066546.740    86264022.54948
  21877421.620   114966674.02208  21877423.800    89584455.91947
  21697365.400   114020647.42108  21697366.700    88847385.33648
  22887247.040   120273346.69107  22887248.780    93719514.90347
  22346389.880   117431086.09908  22346394.360    91504777.10847
  24548422.660   129002818.33106  24548426.300   100521690.76745
  24162328.760   126973870.44606  24162334.000    98940690.87546
 15 03 01 00 25 30.0000000  0  6G16G18G21G22G27G31
  21056710.200   110653789.75209  21056711.920    86223750.58048
  21869585.460   114925494.74408  21869587.620    89552368.18447
  21707117.000   114071892.64508  21707118.360    88887316.67348
  22869926.820   120182328.45207  22869928.560    93648591.66546
  22334429.800   117368235.67008  22334434.360    91455802.77347
  24180440.720   127069047.74006  24180445.860    99014854.81145
 15 03 01 00 26  0.0000000  0  6G16G18G21G22G27G31
  21046958.420   110602543.70809  21046960.140    86183818.59848
  21861834.200   114884761.12708  21861836.260    89520627.72047
  21716915.520   114123384.48108  21716916.960    88927440.17548
  22852642.920   120091500.69407  22852644.520    93577816.85747
  22322492.760   117305506.18008  22322497.320    91406922.66748
  24198555.120   127164238.22006  24198560.180    99089028.96145
 15 03 01 00 26 30.0000000  0  7G16G18G19G21G22G27G31
  21037285.480   110551711.92109  21037287.180    86144209.41548
  21854163.380   114844450.43108  21854165.400    89489216.81147
  24536300.340   128939129.67606  24536302.080   100472053.04645
  21726755.980   114175096.80208  21726757.480    88967735.48448
  22835391.100   120000841.39307  22835392.420    93507173.30146
  22310574.120   117242873.47008  22310578.660    91358117.98647
  24216666.600   127259413.99406  24216671.660    99163191.56945
 15 03 01 00 27  0.0000000  0  7G16G18G19G21G22G27G31
  21027688.300   110501278.13109  21027689.940    86104910.35448
  21846569.780   114804545.85408  21846571.800    89458122.34747
  24520967.820   128858556.91305  24520969.760   100409269.15245
  21736634.420   114227008.62208  21736635.980    89008186.24748
  22818168.260   119910334.96007  22818169.280    93436648.86946
  22298670.560   117180319.79508  22298675.080    91309374.88247
  24234771.440   127354555.08906  24234776.560    99237327.27546
 15 03 01 00 27 30.0000000  0  7G16G18G19G21G22G27G31
  21018174.800   110451284.32009  21018176.380    86065954.13548
  21839061.460   114765089.73708  21839063.480    89427377.33947
  24505647.880   128778050.37905  24505649.840   100346536.87045
  21746558.360   114279159.54708  21746559.980    89048823.32548
  22800982.520   119820024.02007  22800983.300    93366276.76347
  22286789.700   117117885.48308  22286794.200    91260724.79748
  24252876.540   127449697.74806  24252881.760    99311464.10945
 15 03 01 00 28  0.0000000  0  7G16G18G19G21G22G27G31
  21008742.260   110401716.07409  21008743.800    86027329.52448
  21831635.560   114726066.78408  21831637.620    89396969.84847
  24490337.240   128697593.26106  24490339.440   100283843.10645
  21756524.300   114331530.92008  21756525.920    89089632.18248
  22783831.240   119729894.61507  22783831.940    93296046.10946
  22274928.460   117055554.18608  22274932.960    91212154.98048
  24270978.340   127544822.93106  24270983.720    99385587.43045
 15 03 01 00 28 30.0000000  0  7G16G18G19G21G22G27G31
  20999390.800   110352573.76809  20999392.300    85989036.82048
  21824292.060   114687476.46008  21824294.120    89366899.48047
  24475035.740   128617184.06705  24475038.120   100221186.65844
  21766531.520   114384119.15308  21766533.160    89130610.02148
  22766714.720   119639947.91207  22766715.480    93225957.82846
  22263086.560   116993324.64708  22263091.080    91163664.45548
  24289075.960   127639926.20106  24289081.460    99459693.68546
 15 03 01 00 29  0.0000000  0  7G16G18G19G21G22G27G31
  20990120.800   110303859.53409  20990122.340    85951077.67748
  21817031.200   114649320.47508  21817033.280    89337167.56047
  24459743.500   128536823.22906  24459745.940   100158567.90145
  21776579.900   114436923.37908  21776581.520    89171756.16948
  22749633.540   119550186.58807  22749634.420    93156014.00146
  22251264.140   116931197.38708  22251268.640    91115253.62947
  24307168.920   127735004.91905  24307174.580    99533780.85145
 15 03 01 00 29 30.0000000  0  7G16G18G19G21G22G27G31
  20980932.800   110255576.08709  20980934.380    85913454.21148
  21809853.540   114611601.38608  21809855.600    89307776.07647
  24444460.640   128456511.59405  24444463.040   100095987.46644
  21786669.040   114489941.77108  21786670.620    89213069.19648
  22732588.480   119460614.17708  22732589.400    93086217.36946
  22239461.320   116869173.48008  22239465.880    91066923.34547
  24325256.860   127830056.86606  24325262.600    99607847.16546
 15 03 01 00 30  0.0000000  0  7G16G18G19G21G22G27G31
  20971827.260   110207726.13809  20971828.860    85876168.53948
  21802759.320   114574321.07908  21802761.420    89278726.50147
  24429187.220   128376249.62905  24429189.580   100033445.76144
  21796798.720   114543173.36408  21796800.260    89254548.35348
  22715580.020   119371233.68808  22715580.980    93016570.28647
  22227678.400   116807253.84708  22227682.940    91018674.30048
  24343339.300   127925079.80206  24343345.100    99681890.86245
 15 03 01 00 30 30.0000000  0  7G16G18G19G21G22G27G31
  20962804.560   110160311.32709  20962806.120    85839221.93948
  21795748.880   114537480.96308  21795750.980    89250019.92747
  24413923.260   128296037.59006  24413925.540    99970942.96045
  21806968.620   114596616.39708  21806970.120    89296192.27148
  22698608.620   119282047.58308  22698609.560    92947074.66047
  22215915.380   116745438.75208  22215919.900    90970506.71848
  24361415.740   128020070.83406  24361421.620    99755909.74645
 15 03 01 00 31  0.0000000  0  7G16G18G19G21G22G27G31
  20953864.800   110113332.48209  20953866.300    85802615.04748
  21788822.200   114501081.41308  21788824.400    89221656.65647
  24398668.580   128215873.82706  24398670.660    99908477.76545
  21817178.140   114650267.66608  21817179.620    89337998.44848
  22681674.460   119193057.54608  22681675.460    92877731.83047
  22204172.100   116683727.18608  22204176.580    90922419.81348
  24379485.300   128115026.03606  24379491.200    99829900.80645
 15 03 01 00 31 30.0000000  0  7G16G18G19G21G22G27G31
  20945008.380   110066791.64409  20945009.840    85766349.46348
  21781979.620   114465123.94308  21781981.920    89193637.85447
  24383423.180   128135758.68306  24383425.140    99846050.45844
  21827427.160   114704126.37508  21827428.580    89379966.26748
  22664778.040   119104266.27308  22664779.120    92808543.87047
  22192448.600   116622119.68608  22192453.040    90874413.99148
  24397547.460   128209942.38406  24397553.320    99903861.62345
 15 03 01 00 32  0.0000000  0  7G16G18G19G21G22G27G31
  20936236.200   110020693.51109  20936237.680    85730428.84249
  21775221.860   114429612.26608  21775224.240    89165966.43447
  24368187.480   128055694.77806  24368189.480    99783663.07845
  21837715.700   114758192.79408  21837717.060    89422095.94048
  22647920.300   119015678.71408  22647921.540    92739514.64647
  22180745.440   116560619.19408  22180749.900    90826491.55248
  24415602.180   128304819.62406  24415608.080    99977791.95945
 15 03 01 00 32 30.0000000  0  7G16G18G19G21G22G27G31
  20927548.060   109975037.06909  20927549.580    85694852.39448
  21768548.800   114394545.20208  21768551.120    89138641.45547
  24352961.080   127975679.47906  24352963.020    99721313.57745
  21848042.820   114812462.15208  21848044.180    89464383.74448
  22631101.260   118927294.75808  22631102.600    92670644.07447
  22169062.200   116499223.25608  22169066.640    90778650.58848
  24433648.320   128399652.21206  24433654.280   100051687.40246
 15 03 01 00 33  0.0000000  0  7G16G18G19G21G22G27G31
  20918944.360   109929824.58009  20918945.940    85659621.88148
  21761960.680   114359924.00608  21761962.840    89111663.91447
  24337744.120   127895713.19206  24337745.920    99659002.26045
  21858408.320   114866933.03608  21858409.660    89506828.58248
  22614321.560   118839117.44108  22614322.940    92601934.52347
  22157398.960   116437932.57408  22157403.400    90730891.63848
  24451685.480   128494437.60006  24451691.420   100125546.08245
 15 03 01 00 33 30.0000000  0  7G16G18G19G21G22G27G31
  20910426.080   109885061.08009  20910427.700    85624741.23549
  21755458.380   114325753.59508  21755460.380    89085037.63047
  24322537.000   127815799.02206  24322538.740    99596731.54945
  21868812.500   114921607.24208  21868813.800    89549431.85448
  22597582.320   118751152.57008  22597583.600    92533390.51947
  22145756.440   116376750.58408  22145760.860    90683217.38548
  24469713.720   128589176.19106  24469719.660   100199368.30646
 15 03 01 00 34  0.0000000  0  7G16G18G19G21G22G27G31
  20901993.480   109840747.57309  20901995.100    85590211.23249
  21749041.940   114292034.12408  21749043.760    89058762.74247
  24307339.600   127735936.56906  24307341.480    99534501.13645
  21879254.920   114976482.43808  21879256.200    89592191.74248
  22580883.780   118663401.74608  22580884.940    92465013.30547
  22134134.500   116315676.97208  22134138.900    90635627.57948
  24487732.300   128683864.47606  24487738.280   100273151.32445
 15 03 01 00 34 30.0000000  0  7G16G18G19G21G22G27G31
  20893647.220   109796887.75609  20893648.840    85556034.75249
  21742711.900   114258769.12908  21742713.600    89032841.97747
  24292152.160   127656127.21505  24292154.220    99472312.08245
  21889735.540   115031558.42808  21889736.800    89635108.09248
  22564226.880   118575869.36608  22564227.840    92396806.29946
  22122533.540   116254713.72808  22122537.940    90588123.77848
  24505740.960   128778501.18306  24505747.200   100346894.19445
 15 03 01 00 35  0.0000000  0  7G16G18G19G21G22G27G31
  20885387.120   109753480.39109  20885388.680    85522210.82949
  21736467.860   114225956.65908  21736469.540    89007273.82447
  24276974.260   127576368.20006  24276976.580    99410162.23946
  21900253.380   115086830.06608  21900254.660    89678176.88748
  22547611.440   118488554.77708  22547612.240    92328769.00147
  22110953.060   116193858.13708  22110957.440    90540703.86348
  24523738.600   128873080.37306  24523745.080   100420592.15546
 15 03 01 00 35 30.0000000  0  7G16G18G19G21G22G27G31
  20877213.380   109710527.13209  20877214.940    85488740.75649
  21730310.060   114193597.56908  21730311.800    88982058.95847
  24261806.020   127496659.33006  24261808.480    99348051.48946
  21910808.120   115142295.63608  21910809.380    89721396.80548
  22531037.940   118401460.20208  22531038.620    92260903.14447
  22099393.080   116133110.38708  22099397.460    90493367.97448
  24541724.600   128967598.98106  24541731.380   100494242.88545
 15 03 01 00 36  0.0000000  0  7G16G18G19G21G22G27G31
  20869126.620   109668031.15209  20869128.200    85455627.00449
  21724239.040   114161694.54308  21724240.900    88957199.46347
  24246647.560   127417001.54506  24246650.100    99285980.57044
  21921399.660   115197954.54108  21921400.900    89764767.37448
  22514507.160   118314589.93608  22514507.760    92193212.07447
  22087853.920   116072472.13108  22087858.320    90446117.41048
  24559698.920   129062055.89706  24559705.880   100567845.57545
 15 03 01 00 36 30.0000000  0  7G16G18G19G21G22G27G31
  20861127.100   109625993.46209  20861128.700    85422870.36249
  21718254.880   114130247.87808  21718256.860    88932695.57648
  24231498.800   127337394.36106  24231501.240    99223949.05145
  21932027.520   115253804.38308  21932028.740    89808286.72148
  22498019.360   118227945.63908  22498019.980    92125697.08947
  22076335.540   116011942.90608  22076339.940    90398951.80248
  24577660.840   129156447.44806  24577667.900   100641397.49745
 15 03 01 00 37  0.0000000  0  7G16G18G19G21G22G27G31
  20853215.080   109584415.69209  20853216.740    85390472.10249
  21712357.840   114099258.74408  21712359.860    88908548.20947
  24216359.800   127257838.06606  24216362.040    99161957.19046
  21942691.360   115309843.40108  21942692.620    89851953.47648
  22481574.980   118141529.79908  22481575.720    92058360.11647
  22064838.020   115951523.13808  22064842.420    90351871.49748
  24595609.940   129250770.42706  24595616.880   100714895.80344
 15 03 01 00 37 30.0000000  0  7G16G18G19G21G22G27G31
  20845391.260   109543301.20109  20845392.960    85358434.83249
  21706548.440   114068730.08908  21706550.460    88884759.65748
  24201230.720   127178334.04906  24201232.800    99100006.08145
  21953391.220   115366071.60508  21953392.480    89895767.65748
  22465174.680   118055346.30008  22465175.640    91991204.18447
  22053361.720   115891214.67208  22053366.080    90304877.90948
  24613546.000   129345024.03106  24613552.720   100788340.15145
 15 03 01 00 38  0.0000000  0  7G16G18G19G21G22G27G31
  20837655.980   109502651.77009  20837657.620    85326759.95149
  21700826.840   114038663.01708  21700828.920    88861330.78448
  24186111.580   127098882.54706  24186113.640    99038095.89045
  21964126.720   115422487.20908  21964128.020    89939727.85848
  22448819.080   117969397.91208  22448820.240    91924231.45747
  22041906.720   115831018.10908  22041911.000    90257971.52148
  24631468.300   129439205.25206  24631474.620   100861728.00745
 15 03 01 00 38 30.0000000  0  7G16G18G19G21G22G27G31
  20830009.340   109462468.08809  20830010.900    85295447.99549
  21695192.940   114009057.16108  21695195.160    88838261.30348
  24171002.200   127019482.13806  24171004.120    98976225.52345
  21974897.360   115479087.34908  21974898.680    89983831.85348
  22432508.440   117883685.76908  22432509.720    91857442.80747
  22030472.780   115770932.34908  22030477.040    90211151.47148
  24649376.140   129533310.11006  24649382.120   100935056.46245
 15 03 01 00 39  0.0000000  0  7G16G18G19G21G22G27G31
  20822452.060   109422754.24209  20822453.580    85264502.13749
  21689647.560   113979916.39208  21689649.860    88815554.22447
  24155903.020   126940135.49006  24155904.880    98914397.06145
  21985703.140   115535872.37708  21985704.540    90028079.91448
  22416243.760   117798215.00608  22416245.040    91790842.24947
  22019060.440   115710960.35008  22019064.720    90164420.06348
  24667269.400   129627338.23106  24667275.000   101008324.99245
 15 03 01 00 39 30.0000000  0  7G16G18G19G21G22G27G31
  20814984.060   109383509.62209  20814985.580    85233921.91649
  21684190.420   113951239.14108  21684192.720    88793208.32447
  24140813.720   126860840.63406  24140815.440    98852608.92845
  21996543.400   115592838.46708  21996544.840    90072469.06548
  22400025.160   117712985.69008  22400026.320    91724429.83847
  22007669.440   115651100.23808  22007673.740    90117775.85148
  24685146.960   129721284.21006  24685152.400   101081529.44944
 15 03 01 00 40  0.0000000  0  7G16G18G19G21G22G27G31
  20807606.240   109344738.74809  20807607.720    85203710.84349
  21678822.280   113923029.35608  21678824.580    88771226.68448
  24125734.660   126781600.00106  24125736.400    98790863.05145
  22007418.360   115649986.67808  22007419.800    90117000.13048
  22383853.660   117628003.39808  22383854.580    91658209.92347
  21996300.340   115591355.21708  21996304.660    90071221.31048
  24703009.000   129815148.76006  24703014.360   101154670.47144
 15 03 01 00 40 30.0000000  0  6G16G18G19G21G22G27
  20800317.300   109306434.95209  20800318.740    85173863.72949
  21673541.680   113895279.56608  21673543.980    88749603.48948
  24110664.320   126702405.30006  24110666.040    98729152.93545
  22018326.000   115707306.54708  22018327.400    90161664.95348
  22367728.020   117543261.77008  22367728.620    91592177.54047
  21984951.560   115531716.96308  21984955.900    90024749.96948
 15 03 01 00 41  0.0000000  0  6G16G18G19G21G22G27
  20793120.480   109268615.32909  20793121.880    85144393.88749
  21668351.860   113868006.72808  21668354.140    88728351.93848
  24095605.580   126623271.68906  24095607.320    98667490.43045
  22029268.960   115764811.80708  22029270.280    90206474.24448
  22351651.600   117458778.88808  22351651.880    91526346.76947
  21973626.140   115472201.62608  21973630.500    89978374.40548
 15 03 01 00 41 30.0000000  0  6G16G18G19G21G22G27
  20786014.340   109231272.32709  20786015.740    85115295.44449
  21663251.200   113841202.26608  21663253.400    88707465.35448
  24080556.880   126544190.54706  24080558.720    98605868.80846
  22040245.180   115822491.93508  22040246.420    90251419.78548
  22335623.040   117374547.90808  22335623.120    91460712.29147
  21962322.380   115412800.32608  21962326.800    89932087.69848
 15 03 01 00 42  0.0000000  0  6G16G18G19G21G22G27
  20778999.260   109194408.16109  20779000.740    85086570.12449
  21658239.940   113814867.79108  21658242.080    88686944.99647
  24065518.320   126465162.41806  24065520.180    98544288.48246
  22051254.460   115880345.85808  22051255.620    90296500.75848
  22319642.940   117290572.33608  22319643.060    91395276.81747
  21951040.540   115353514.09808  21951044.940    89885890.67048
 15 03 01 00 42 30.0000000  0  6G16G18G19G21G22G27
  20772075.940   109158026.04209  20772077.500    85058220.42349
  21653318.620   113789005.92208  21653320.660    88666792.90148
  24050490.220   126386189.34506  24050492.080    98482751.05246
  22062296.740   115938373.19508  22062297.860    90341716.85848
  22303712.080   117206856.21908  22303712.500    91330043.51847
  21939780.980   115294344.91408  21939785.360    89839784.83148
 15 03 01 00 43  0.0000000  0  6G16G18G19G21G22G27
  20765244.800   109122128.22009  20765246.400    85030248.09249
  21648487.460   113763618.18108  21648489.460    88647010.25647
  24035472.540   126307271.50106  24035474.520    98421256.66046
  22073371.820   115996573.04408  22073372.920    90387067.38748
  22287831.020   117123401.83908  22287831.800    91265014.15547
  21928543.880   115235293.93608  21928548.260    89793771.10048
 15 03 01 00 43 30.0000000  0  6G16G18G19G21G22G27
  20758505.700   109086714.10009  20758507.320    85002652.67349
  21643746.180   113738702.77308  21643748.140    88627595.66447
  24020464.960   126228406.56106  24020466.960    98359803.52645
  22084478.880   116054941.08308  22084479.980    90432548.96848
  22272000.040   117040210.36008  22272001.140    91200189.65747
  21917328.880   115176359.00208  21917333.240    89747847.79948
 15 03 01 00 44  0.0000000  0  6G16G18G19G21G22G27
  20751859.180   109051786.41209  20751860.800    84975436.29549
  21639095.320   113714262.53608  21639097.260    88608551.33247
  24005467.920   126149596.48906  24005469.840    98298393.13246
  22095617.860   116113477.14908  22095619.040    90478161.47948
  22256219.860   116957285.25108  22256221.120    91135572.71647
  21906136.320   115117541.97008  21906140.640    89702016.36548
 15 03 01 00 44 30.0000000  0  6G16G18G19G21G22G27
  20745305.380   109017345.94709  20745306.980    84948599.56549
  21634534.880   113690297.35408  21634536.780    88589877.17647
  23990481.240   126070840.51606  23990483.040    98237024.88847
  22106788.300   116172178.39408  22106789.560    90523902.69648
  22240490.780   116874628.04708  22240491.980    91071164.54147
  21894966.180   115058842.68308  21894970.460    89656276.67848
 15 03 01 00 45  0.0000000  0  6G16G18G19G21G22G27
  20738844.920   108983396.09309  20738846.540    84922145.13349
  21630065.320   113666809.64208  21630067.160    88571575.07747
  23975505.000   125992139.67206  23975506.740    98175699.62346
  22117990.260   116231045.18308  22117991.560    90569772.91347
  22224813.440   116792242.44408  22224814.380    91006968.01147
  21883818.820   115000263.01008  21883823.100    89610630.20348
 15 03 01 00 45 30.0000000  0  6G16G18G19G21G22G27
  20732478.480   108949940.26409  20732480.140    84896075.65949
  21625687.100   113643801.91708  21625688.920    88553646.99648
  23960539.580   125913496.07806  23960541.360    98114418.96346
  22129223.800   116290077.74708  22129225.120    90615772.30647
  22209188.620   116710133.23708  22209189.320    90942986.85047
  21872694.700   114941805.20008  21872698.940    89565078.68548
 15 03 01 00 46  0.0000000  0  6G16G18G19G21G22G27
  20726206.240   108916979.36309  20726207.880    84870391.83749
  21621400.340   113621274.63308  21621402.120    88536093.28348
  23945584.980   125834909.49506  23945586.800    98053182.73046
  22140488.340   116349273.30408  22140489.700    90661898.70247
  22193616.660   116628302.16408  22193617.120    90879222.40847
  21861593.780   114883469.37708  21861598.020    89519622.22048
 15 03 01 00 46 30.0000000  0  6G16G18G19G21G22G27
  20720028.100   108884512.71309  20720029.680    84845093.15149
  21617204.760   113599226.59608  21617206.540    88518913.00148
  23930640.860   125756377.78206  23930642.680    97991989.25646
  22151783.280   116408628.53308  22151784.640    90708149.52247
  22178097.620   116546749.51008  22178098.000    90815674.92047
  21850515.680   114825253.76008  21850520.000    89474259.42448
 15 03 01 00 47  0.0000000  0  6G16G18G19G21G22G27
  20713944.400   108852542.32509  20713945.900    84820181.16349
  21613100.600   113577659.42308  21613102.500    88502107.42048
  23915707.440   125677902.26406  23915709.240    97930839.55946
  22163108.380   116468142.59008  22163109.800    90754524.09747
  22162632.180   116465478.84708  22162632.660    90752347.17547
  21839460.720   114767159.87908  21839465.160    89428991.49048
 15 03 01 00 47 30.0000000  0  6G16G18G19G21G22G27
  20707956.080   108821073.33609  20707957.560    84795659.87149
  21609088.620   113556576.84908  21609090.660    88485679.44848
  23900785.120   125599485.54806  23900787.000    97869735.67146
  22174463.820   116527816.08808  22174465.260    90801022.91447
  22147221.340   116384495.08208  22147222.000    90689242.98047
  21828429.580   114709190.83908  21828434.020    89383820.83248
 15 03 01 00 48  0.0000000  0  6G16G18G19G21G22G27
  20702062.920   108790104.43509  20702064.360    84771528.25949
  21605168.500   113535976.96808  21605170.660    88469627.60748
  23885873.480   125521125.29706  23885875.520    97808675.79246
  22185848.900   116587645.25208  22185850.340    90847643.03047
  22131865.180   116303798.25608  22131866.000    90626362.36547
  21817421.900   114651344.80108  21817426.260    89338746.01748
 15 03 01 00 48 30.0000000  0  6G16G18G19G21G22G27
  20696264.760   108759635.16409  20696266.240    84747785.97249
  21601340.060   113515858.35908  21601342.240    88453950.78348
  23870972.320   125442819.89506  23870974.460    97747658.68446
  22197263.020   116647626.75808  22197264.460    90894381.85747
  22116563.720   116223388.70908  22116564.640    90563705.60647
  21806437.300   114593620.20708  21806441.600    89293765.83948
 15 03 01 00 49  0.0000000  0  6G16G18G19G21G22G27
  20690562.300   108729668.73908  20690563.820    84724435.51749
  21597603.880   113496224.18808  21597606.020    88438651.44448
  23856082.080   125364571.26306  23856084.080    97686685.79446
  22208706.120   116707760.60408  22208707.580    90941239.38447
  22101317.820   116143271.07908  22101318.840    90501276.30947
  21795476.260   114536019.59508  21795480.520    89248882.26448
 15 03 01 00 49 30.0000000  0  6G16G18G19G21G22G27
  20684956.040   108700208.05408  20684957.640    84701479.14349
  21593960.220   113477076.15308  21593962.260    88423730.91748
  23841202.880   125286380.74705  23841204.720    97625758.19546
  22220178.180   116768046.45508  22220179.620    90988215.36347
  22086128.180   116063448.99308  22086129.240    90439077.31947
  21784539.140   114478544.66308  21784543.380    89204096.62448
 15 03 01 00 50  0.0000000  0  6G16G18G19G21G22G27
  20679446.380   108671254.77409  20679448.000    84678918.15249
  21590409.200   113458414.87808  21590411.100    88409189.68248
  23826334.840   125208248.90905  23826336.520    97564876.30446
  22231678.940   116828483.17308  22231680.380    91035308.89547
  22070995.260   115983924.98808  22070996.300    90377110.59547
  21773626.120   114421196.31408  21773630.320    89159409.62248
 15 03 01 00 50 30.0000000  0  6G16G18G19G21G22G27
  20674033.520   108642810.09709  20674035.160    84656753.46949
  21586950.960   113440241.42008  21586952.720    88395028.56548
  23811477.920   125130175.65606  23811479.500    97504040.07146
  22243208.060   116889068.52708  22243209.400    91082518.25447
  22055919.540   115904701.30008  22055920.420    90315377.88247
  21762737.280   114363974.88908  21762741.420    89114821.51548
 15 03 01 00 51  0.0000000  0  6G16G18G19G21G22G27
  20668717.760   108614875.58709  20668719.420    84634986.32249
  21583585.560   113422556.27408  21583587.240    88381247.93948
  23796632.220   125052161.21806  23796633.800    97443249.67746
  22254765.220   116949801.39508  22254766.520    91129842.55847
  22040901.320   115825780.20008  22040902.080    90253880.95947
  21751872.620   114306880.96808  21751876.800    89070332.76848
 15 03 01 00 51 30.0000000  0  6G16G18G19G21G22G27
  20663499.380   108587452.83909  20663501.060    84613617.94749
  21580313.200   113405360.54208  21580314.880    88367848.68247
  23781797.840   124974206.10606  23781799.400    97382505.52146
  22266350.140   117010680.20308  22266351.440    91177280.58247
  22025941.180   115747164.58808  22025941.860    90192622.08247
  21741032.380   114249915.38508  21741036.620    89025944.02448
 15 03 01 00 52  0.0000000  0  6G16G18G19G21G22G27
  20658378.600   108560543.11109  20658380.320    84592649.32849
  21577133.940   113388654.20908  21577135.720    88354830.77448
  23766974.700   124896310.30806  23766976.340    97321807.55346
  22277962.320   117071702.33208  22277963.580    91224830.28147
  22011039.620   115668856.73208  22011040.240    90131603.00647
  21730216.640   114193078.57708  21730220.940    88981655.62348
 15 03 01 00 52 30.0000000  0  6G16G18G19G21G22G27
  20653355.780   108534148.12609  20653357.540    84572081.80849
  21574048.080   113372438.64608  21574050.000    88342195.27748
  23752162.900   124818474.12606  23752164.620    97261156.05045
  22289601.820   117132868.22308  22289603.100    91272492.00647
  21996197.300   115590859.64908  21996197.860    90070826.08747
  21719425.620   114136371.49208  21719429.900    88937468.30848
 15 03 01 00 53  0.0000000  0  6G16G18G19G21G22G27
  20648431.040   108508268.23808  20648432.760    84551915.65749
  21571055.440   113356712.95208  21571057.540    88329941.50248
  23737362.480   124740697.31806  23737364.160    97200550.82746
  22301267.980   117194174.54408  22301269.320    91320263.15547
  21981414.340   115513174.25508  21981414.900    90010292.04047
  21708659.240   114079793.62008  21708663.460    88893381.67348
 15 03 01 00 53 30.0000000  0  6G16G18G19G21G22G27
  20643604.760   108482905.83108  20643606.460    84532152.74349
  21568156.540   113341479.30808  21568158.740    88318071.15148
  23722573.540   124662980.60306  23722575.140    97139992.40446
  22312960.760   117255620.79108  22312962.140    91368143.33148
  21966691.380   115435804.04908  21966691.960    89950003.59348
  21697917.780   114023346.66208  21697921.920    88849397.04748
 15 03 01 00 54  0.0000000  0  6G16G18G19G21G22G27
  20638877.220   108458062.50908  20638878.920    84512794.30849
  21565351.420   113326738.06208  21565353.560    88306584.47748
  23707796.040   124585324.11706  23707797.500    97079480.93446
  22324679.900   117317205.47408  22324681.360    91416131.38547
  21952028.900   115358751.61408  21952029.440    89889962.75948
  21687201.300   113967031.33208  21687205.400    88805514.99248
 15 03 01 00 54 30.0000000  0  6G16G18G19G21G22G27
  20634248.820   108433740.13508  20634250.500    84493841.80849
  21562640.340   113312490.87008  21562642.380    88295482.78648
  23693030.240   124507729.37706  23693031.680    97019017.55846
  22336425.240   117378927.82508  22336426.760    91464226.71247
  21937427.460   115282020.16908  21937427.960    89830172.04547
  21676510.200   113910849.19308  21676514.260    88761736.71748
 15 03 01 00 55  0.0000000  0  6G16G18G19G21G22G27
  20629719.860   108409940.38908  20629721.580    84475296.55649
  21560023.420   113298738.48408  21560025.360    88284766.65748
  23678276.200   124430197.05206  23678277.680    96958602.81246
  22348196.560   117440786.56908  22348198.080    91512428.31847
  21922887.540   115205612.41008  21922888.000    89770633.55847
  21665844.560   113854801.15508  21665848.660    88718062.93948
 15 03 01 00 55 30.0000000  0  6G16G18G19G21G22G27
  20625290.440   108386663.58508  20625292.180    84457158.79349
  21557500.460   113285480.09208  21557502.360    88274435.45548
  23663533.820   124352726.15506  23663535.400    96898235.95545
  22359993.340   117502779.09008  22359994.860    91560734.17047
  21908409.340   115129529.27308  21908409.760    89711348.02247
  21655204.340   113798886.70308  21655208.480    88674493.26148
 15 03 01 00 56  0.0000000  0  6G16G18G19G21G22G27
  20620961.160   108363913.03409  20620962.900    84439431.08849
  21555071.960   113272718.29908  21555073.860    88264491.21348
  23648803.460   124275318.45506  23648805.100    96837918.32645
  22371815.620   117564905.74008  22371817.140    91609144.53347
  21893993.740   115053775.39608  21893994.100    89652319.05547
  21644590.080   113743108.41908  21644594.200    88631029.67748
 15 03 01 00 56 30.0000000  0  6G16G18G19G21G22G27
  20616731.740   108341687.07408  20616733.420    84422112.15049
  21552737.500   113260450.72908  21552739.440    88254932.08248
  23634084.800   124197971.90306  23634086.460    96777648.38046
  22383662.720   117627162.64708  22383664.180    91657656.40447
  21879640.700   114978350.42908  21879641.080    89593546.38947
  21634001.300   113687464.21708  21634005.460    88587670.57148
 15 03 01 00 57  0.0000000  0  6G16G18G19G21G22G27
  20612602.420   108319987.28308  20612604.040    84405203.22049
