     2.11           OBSERVATION DATA    G                   RINEX VERSION / TYPE
SPIDER V4,0,0,3554                      2015 03 24 00:21    PGM / RUN BY / DATE 
CBEJ                                                        MARKER NAME         
CBEJ                                                        MARKER NUMBER       
                                                            OBSERVER / AGENCY   
496519              LEICA GRX1200+GNSS  8.10/4.007          REC # / TYPE / VERS 
                    LEIAR25         NONE                    ANT # / TYPE        
  5095766.4657   453329.2088  3797108.6657                  APPROX POSITION XYZ 
        0.0730        0.0000        0.0000                  ANTENNA: DELTA H/E/N
     1     1                                                WAVELENGTH FACT L1/2
     4    C1    L1    P2    L2                              # / TYPES OF OBSERV 
    30.000                                                  INTERVAL            
  2015    03    01    00    00    0.0000000     GPS         TIME OF FIRST OBS   
  2015    03    01    23    59   30.0000000     GPS         TIME OF LAST OBS    
    16                                                      LEAP SECONDS        
    30                                                      # OF SATELLITES     
   G 1   112   111   111   111                              PRN / # OF OBS      
   G 2   854   854   851   851                              PRN / # OF OBS      
   G 3   262   262   262   262                              PRN / # OF OBS      
   G 4   154   154   154   154                              PRN / # OF OBS      
   G 5   645   645   645   645                              PRN / # OF OBS      
   G 6   598   598   596   596                              PRN / # OF OBS      
   G 7   631   631   629   629                              PRN / # OF OBS      
   G 9   540   540   540   540                              PRN / # OF OBS      
   G10   693   693   693   693                              PRN / # OF OBS      
   G11    76    75    76    75                              PRN / # OF OBS      
   G12   817   817   817   817                              PRN / # OF OBS      
   G13   799   799   799   799                              PRN / # OF OBS      
   G14   436   436   436   436                              PRN / # OF OBS      
   G15   700   699   699   699                              PRN / # OF OBS      
   G16   504   504   504   504                              PRN / # OF OBS      
   G17   558   557   558   557                              PRN / # OF OBS      
   G18   743   742   742   742                              PRN / # OF OBS      
   G19   269   269   269   269                              PRN / # OF OBS      
   G20   638   638   638   638                              PRN / # OF OBS      
   G21   670   659   647   642                              PRN / # OF OBS      
   G22   408   408   408   408                              PRN / # OF OBS      
   G23   341   340   332   332                              PRN / # OF OBS      
   G24   821   819   816   815                              PRN / # OF OBS      
   G25   842   842   842   842                              PRN / # OF OBS      
   G27   449   449   449   449                              PRN / # OF OBS      
   G28   568   568   567   567                              PRN / # OF OBS      
   G29   749   749   748   748                              PRN / # OF OBS      
   G30   668   666   659   659                              PRN / # OF OBS      
   G31   573   572   572   572                              PRN / # OF OBS      
   G32    55    55    55    55                              PRN / # OF OBS      
BIT 2 OF LLI FLAGS DATA COLLECTED UNDER A/S CONDITION       COMMENT             
SNR is mapped to RINEX snr flag value [2-9]                 COMMENT             
Lx:     = 25dBHz -> 1; 26-27dBHz -> 2; 28-31dBHz -> 3       COMMENT             
       32-35dBHz -> 4; 36-38dBHz -> 5; 39-41dBHz -> 6       COMMENT             
       42-44dBHz -> 7; 45-48dBHz -> 8; >=49dBHz -> 9        COMMENT             
                                                            END OF HEADER       
 15 03 01 00 00  0.0000000  0  7G16G18G21G22G27G29G31
  21524442.720   113111719.76709  21524440.400    88139014.97748
  22524051.140   118364761.40709  22524049.300    92232300.66146
  21321381.100   112044621.50508  21321378.140    87307485.00247
  23874231.200   125459946.47908  23874228.820    97760994.66446
  22773810.980   119677222.79808  22773811.780    93254993.17047
  24027605.220   126265888.94207  24027604.200    98389005.39245
  23226282.960   122054900.90909  23226280.860    95107699.44647
 15 03 01 00 00 30.0000000  0  7G16G18G21G22G27G29G31
  21511704.000   113044777.94909  21511702.020    88086852.53948
  22512599.920   118304582.66109  22512597.520    92185408.16946
  21328796.220   112083588.16808  21328793.240    87337848.62047
  23856163.760   125365001.99208  23856161.080    97687012.13246
  22761284.520   119611395.10708  22761284.800    93203698.93847
  24042003.820   126341552.87207  24042002.740    98447964.23545
  23244094.700   122148503.36208  23244092.240    95180636.35247
 15 03 01 00 01  0.0000000  0  7G16G18G21G22G27G29G31
  21499025.240   112978152.06009  21499023.720    88034936.26348
  22501210.100   118244726.94309  22501207.880    92138767.36347
  21336274.540   112122885.88608  21336271.180    87368470.23047
  23838102.960   125270092.16608  23838100.020    97613056.63846
  22748779.980   119545685.17408  22748780.720    93152496.40947
  24056410.200   126417258.09507  24056408.840    98506955.23845
  23261935.400   122242258.49109  23261932.700    95253692.23446
 15 03 01 00 01 30.0000000  0  7G16G18G21G22G27G29G31
  21486404.220   112911828.92509  21486402.660    87983255.90648
  22489879.140   118185181.65009  22489877.100    92092368.44847
  21343812.720   112162497.91508  21343808.880    87399336.75947
  23820046.360   125175204.38708  23820043.940    97539118.32146
  22736294.660   119480077.73508  22736296.300    93101373.72147
  24070821.180   126492989.01307  24070820.120    98565966.34944
  23279801.940   122336148.37609  23279799.260    95326853.11247
 15 03 01 00 02  0.0000000  0  7G16G18G21G22G27G29G31
  21473841.400   112845810.95009  21473839.900    87931813.32948
  22478607.460   118125948.98709  22478605.680    92046213.14547
  21351410.440   112202423.22308  21351406.240    87430447.39047
  23801994.360   125080341.37708  23801992.640    97465199.27746
  22723829.340   119414572.96208  22723831.260    93050331.10147
  24085237.240   126568746.10308  24085236.500    98624997.79144
  23297693.720   122430170.06208  23297691.340    95400116.70047
 15 03 01 00 02 30.0000000  0  7G16G18G21G22G27G29G31
  21461338.020   112780104.78709  21461336.700    87880613.71848
  22467396.460   118067035.69309  22467395.120    92000306.67847
  21359068.280   112242664.76308  21359064.000    87461804.45747
  23783948.520   124985510.71708  23783946.660    97391305.45846
  22711384.560   119349175.70008  22711386.360    92999372.22947
  24099659.300   126644533.75708  24099658.500    98684053.07344
  23315610.720   122524325.07708  23315608.860    95473484.17847
 15 03 01 00 03  0.0000000  0  7G16G18G21G22G27G29G31
  21448894.200   112714711.62709  21448892.740    87829658.01648
  22456246.780   118008443.25409  22456245.420    91954650.23647
  21366785.500   112283219.48808  21366781.600    87493405.52547
  23765908.840   124890713.51108  23765906.320    97317437.73246
  22698960.060   119283884.84308  22698961.820    92948496.23147
  24114086.700   126720350.59208  24114085.280    98743131.07144
  23333552.140   122618609.23108  23333551.000    95546952.20947
 15 03 01 00 03 30.0000000  0  7G16G18G21G22G27G29G31
  21436510.460   112649634.61409  21436508.860    87778948.63448
  22445158.740   117950174.77209  22445156.860    91909246.26146
  21374562.000   112324086.53307  21374558.640    87525249.97147
  23747876.080   124795953.34608  23747872.960    97243598.81445
  22686556.480   119218701.28109  22686557.660    92897703.90447
  24128519.640   126796197.41308  24128518.020    98802232.39745
  23351517.640   122713020.69108  23351517.580    95620519.51948
 15 03 01 00 04  0.0000000  0  7G16G18G21G22G27G29G31
  21424186.380   112584870.30009  21424184.380    87728482.94548
  22434131.460   117892226.66809  22434129.260    91864091.92347
  21382396.480   112365258.47707  21382393.600    87557331.96747
  23729850.160   124701227.23008  23729846.520    97169786.45146
  22674172.480   119153619.55809  22674172.760    92846990.94347
  24142957.320   126872068.71608  24142956.320    98861352.84046
  23369505.780   122807551.02808  23369506.800    95694179.56347
 15 03 01 00 04 30.0000000  0  7G16G18G21G22G27G29G31
  21411924.180   112520431.32409  21411921.920    87678270.77448
  22423167.760   117834612.05109  22423165.380    91819197.45947
  21390290.840   112406744.21508  21390288.060    87589658.50847
  23711833.340   124606548.33308  23711829.360    97096010.87746
  22661809.400   119088650.20208  22661809.020    92796365.51547
  24157401.780   126947974.43508  24157401.260    98920500.12145
  23387518.180   122902207.29908  23387519.360    95767937.73147
 15 03 01 00 05  0.0000000  0  7G16G18G21G22G27G29G31
  21399723.480   112456317.71809  21399721.220    87628312.11448
  22412267.540   117777330.86709  22412265.080    91774562.80547
  21398244.480   112448540.02408  21398241.360    87622226.70146
  23693825.640   124511916.99908  23693822.000    97022272.34246
  22649466.820   119023791.40808  22649466.780    92745826.22047
  24171852.620   127023912.94508  24171851.860    98979672.96145
  23405553.880   122996984.60208  23405554.580    95841790.17246
 15 03 01 00 05 30.0000000  0  7G16G18G21G22G27G29G31
  21387584.100   112392525.31609  21387581.880    87578603.75148
  22401430.040   117720379.16009  22401427.480    91730184.88247
  21406255.700   112490637.67208  21406252.320    87655030.07847
  23675826.200   124417329.87408  23675823.520    96948568.22947
  22637144.260   118959036.76508  22637145.260    92695368.09148
  24186308.540   127099877.93308  24186307.300    99038866.40146
  23423611.040   123091873.68709  23423610.900    95915729.77747
 15 03 01 00 06  0.0000000  0  7G16G18G21G22G27G29G31
  21375506.680   112329058.00109  21375504.400    87529148.71948
  22390655.980   117663760.79009  22390653.460    91686066.71947
  21414324.280   112533036.93208  21414320.680    87688068.46747
  23657835.860   124322791.14208  23657833.660    96874901.80647
  22624842.080   118894388.22808  22624843.380    92644992.62048
  24200769.700   127175870.71908  24200767.960    99098081.49645
  23441689.240   123186873.14109  23441687.900    95989755.34846
 15 03 01 00 06 30.0000000  0  7G16G18G21G22G27G29G31
  21363492.240   112265921.84209  21363489.900    87479951.71848
  22379946.240   117607481.82009  22379944.280    91642212.98047
  21422450.520   112575740.52807  21422446.840    87721344.00446
  23639856.060   124228307.02608  23639853.960    96801277.95646
  22612560.660   118829849.52908  22612561.600    92594702.75647
  24215236.520   127251894.93908  24215234.940    99157321.11046
  23459788.500   123281983.87809  23459785.960    96063867.66846
 15 03 01 00 07  0.0000000  0  7G16G18G21G22G27G29G31
  21351541.080   112203116.71209  21351538.380    87431012.65548
  22369301.120   117551542.09009  22369299.680    91598623.58747
  21430633.580   112618744.07307  21430630.100    87754853.25746
  23621886.800   124133878.19808  23621884.640    96727697.16646
  22600299.800   118765418.58008  22600300.720    92544496.83647
  24229708.800   127327948.24808  24229707.640    99216583.40346
  23477907.740   123377200.42808  23477904.920    96138062.34746
 15 03 01 00 07 30.0000000  0  7G16G18G21G22G27G29G31
  21339653.800   112140647.04909  21339650.640    87382335.02948
  22358721.500   117495945.47309  22358720.060    91555301.59047
  21438873.480   112662047.90906  21438870.600    87788596.47746
  23603928.800   124039509.42208  23603926.040    96654163.21046
  22588060.000   118701097.59208  22588061.320    92494376.63547
  24244186.920   127404032.81908  24244186.440    99275870.07946
  23496046.920   123472522.12608  23496044.760    96212338.99747
 15 03 01 00 08  0.0000000  0  7G16G18G21G22G27G29G31
  21327830.420   112078513.94609  21327827.040    87333919.62648
  22348207.400   117440693.96209  22348205.960    91512248.47947
  21447170.240   112705649.04007  21447167.600    87822571.36346
  23585982.380   123945202.34508  23585979.080    96580677.29346
  22575840.500   118636885.97708  22575842.300    92444341.60447
  24258670.800   127480147.50207  24258670.760    99335180.22447
  23514205.320   123567944.69408  23514203.960    96286694.11446
 15 03 01 00 08 30.0000000  0  7G16G18G21G22G27G29G31
  21316071.380   112016719.02209  21316068.060    87285767.74148
  22337759.060   117385789.10408  22337757.660    91469465.49447
  21455523.720   112749545.97307  21455520.780    87856776.77946
  23568048.160   123850958.68608  23568044.740    96507240.80546
  22563641.880   118572783.04708  22563643.640    92394391.31247
  24273160.560   127556291.98808  24273160.540    99394513.58046
  23532382.240   123663464.80609  23532381.420    96361125.05946
 15 03 01 00 09  0.0000000  0  7G16G18G21G22G27G29G31
  21304376.280   111955260.77509  21304373.180    87237878.21748
  22327376.320   117331229.21608  22327374.980    91426951.31747
  21463932.440   112793733.11707  21463929.180    87891208.32046
  23550126.120   123756777.76708  23550122.840    96433853.21146
  22551463.540   118508785.34408  22551465.220    92344523.01948
  24287655.380   127632462.44508  24287655.140    99453867.20546
  23550576.440   123759075.61008  23550576.000    96435626.50946
 15 03 01 00 09 30.0000000  0  7G16G18G21G22G27G29G31
  21292746.740   111894147.13509  21292743.800    87190257.21948
  22317060.940   117277021.81009  22317059.800    91384711.82747
  21472397.080   112838213.97607  21472393.760    87925868.72146
  23532217.600   123662667.63608  23532214.940    96360520.75846
  22539306.140   118444898.48808  22539308.360    92294741.07348
  24302156.300   127708664.23508  24302155.760    99513245.19646
  23568788.540   123854780.51108  23568788.480    96510201.51746
 15 03 01 00 10  0.0000000  0  7G16G18G21G22G27G29G31
  21281182.460   111833376.13709  21281179.420    87142903.19448
  22306812.460   117223165.11109  22306811.560    91342745.57447
  21480916.340   112882982.70007  21480913.060    87960753.42546
  23514322.180   123568627.23708  23514320.160    96287242.61346
  22527169.180   118381118.70308  22527171.680    92245042.54048
  24316662.500   127784893.28108  24316661.760    99572644.41846
  23587017.140   123950572.17408  23587017.040    96584844.13846
 15 03 01 00 10 30.0000000  0  7G16G18G21G22G27G29G31
  21269684.320   111772953.40509  21269681.340    87095820.55248
  22296631.680   117169664.29409  22296630.900    91301056.59748
  21489490.680   112928040.87707  21489487.560    87995863.68746
  23496441.020   123474662.49708  23496439.140    96214023.43146
  22515053.440   118317449.50508  22515055.560    92195430.22748
  24331174.440   127861153.01508  24331173.580    99632067.57546
  23605262.320   124046450.95608  23605261.580    96659554.57646
 15 03 01 00 11  0.0000000  0  7G16G18G21G22G27G29G31
  21258252.080   111712877.29109  21258249.220    87049008.00248
  22286518.720   117116518.42809  22286517.540    91259644.26347
  21498119.100   112973383.27807  21498116.000    88031195.41845
  23478574.160   123380772.41508  23478572.300    96140862.43546
  22502958.120   118253887.35809  22502959.920    92145901.33648
  24345691.540   127937439.66908  24345690.400    99691511.69446
  23623522.840   124142409.89008  23623521.460    96734327.38646
 15 03 01 00 11 30.0000000  0  7G16G18G21G22G27G29G31
  21246887.540   111653156.43509  21246884.640    87002472.27848
  22276474.920   117063735.69009  22276473.000    91218514.90047
  21506802.500   113019014.51707  21506799.300    88066752.25045
  23460723.540   123286965.79309  23460721.740    96067766.47146
  22490884.340   118190438.48808  22490886.240    92096460.68548
  24360214.900   128013759.23708  24360213.580    99750981.44146
  23641799.340   124238452.44508  23641797.880    96809165.37446
 15 03 01 00 12  0.0000000  0  7G16G18G21G22G27G29G31
  21235590.200   111593789.54009  21235587.380    86956212.35648
  22266499.740   117011315.21609  22266497.440    91177667.79847
  21515540.080   113064930.02707  21515536.640    88102530.58945
  23442888.900   123193242.03909  23442886.940    95994735.08847
  22478831.460   118127100.14208  22478833.280    92047106.17048
  24374743.640   128090108.97208  24374742.500    99810474.73547
  23660090.820   124334573.39908  23660089.920    96884064.63146
 15 03 01 00 12 30.0000000  0  7G16G18G21G22G27G29G31
  21224360.600   111534778.65509  21224357.860    86910229.83448
  22256593.480   116959258.86409  22256591.120    91137104.40446
  21524331.420   113111127.22007  21524327.720    88138528.44945
  23425070.240   123099603.87308  23425068.040    95921770.36546
  22466799.320   118063872.15408  22466800.700    91997837.63748
  24389277.980   128166488.37508  24389277.300    99869991.14046
  23678396.600   124430769.10208  23678396.180    96959022.25246
 15 03 01 00 13  0.0000000  0  7G16G18G21G22G27G29G31
  21213199.260   111476124.35609  21213196.220    86864525.19548
  22246756.520   116907566.63309  22246753.960    91096824.77547
  21533175.760   113157603.15506  21533171.700    88174743.48245
  23407267.820   123006052.58108  23407265.140    95848873.34146
  22454788.120   118000753.21108  22454789.260    91948654.07848
  24403817.820   128242895.89908  24403817.420    99929529.44647
  23696715.660   124527034.77008  23696715.340    97034034.41147
 15 03 01 00 13 30.0000000  0  7G16G18G21G22G27G29G31
  21202106.120   111417828.23709  21202102.740    86819099.66948
  22236989.340   116856240.19409  22236986.780    91056830.19047
  21542072.180   113204355.55605  21542068.380    88211173.91045
  23389482.220   122912589.81208  23389478.880    95776045.31246
  22442797.540   117937742.77408  22442798.760    91899555.06748
  24418362.860   128319330.91608  24418362.420    99989089.16246
  23715047.300   124623366.97108  23715047.200    97109098.34047
 15 03 01 00 14  0.0000000  0  7G16G18G21G22G27G29G31
  21191081.380   111359893.56509  21191078.260    86773955.76348
  22227292.580   116805282.39109  22227290.060    91017122.85647
  21551020.100   113251382.64205  21551017.300    88247818.35845
  23371714.460   122819219.39009  23371710.700    95703289.25346
  22430828.000   117874841.96508  22430828.900    91850541.49648
  24432913.120   128395794.42008  24432912.780   100048671.10745
  23733391.020   124719763.20608  23733391.680    97184212.04947
 15 03 01 00 14 30.0000000  0  7G16G18G21G22G27G29G31
  21180126.340   111302324.64909  21180123.460    86729096.85148
  22217666.920   116754697.98009  22217664.480    90977706.45047
  21560020.960   113298685.84405  21560018.640    88284677.96345
  23353965.020   122725946.29708  23353961.620    95630609.01146
  22418879.860   117812053.19309  22418880.480    91801615.21848
  24447469.260   128472287.87208  24447468.940   100108276.32345
  23751746.760   124816223.48108  23751748.240    97259375.81646
 15 03 01 00 15  0.0000000  0  7G16G18G21G22G27G29G31
  21169241.900   111245125.80309  21169238.960    86684526.33848
  22208112.900   116704490.93209  22208110.540    90938584.10647
  21569075.120   113346265.56606  21569072.640    88321753.07546
  23336234.740   122632775.40408  23336232.120    95558008.36447
  22406953.480   117749379.09108  22406953.980    91752778.30648
  24462031.940   128548814.49708  24462031.340   100167907.39846
  23770114.440   124912747.18108  23770115.940    97334589.06246
 15 03 01 00 15 30.0000000  0  7G16G18G21G22G27G29G31
  21158427.580   111188297.32109  21158424.600    86640244.43448
  22198630.380   116654661.65608  22198628.320    90899756.10947
  21578181.520   113394118.08207  21578178.640    88359040.72146
  23318524.520   122539707.49309  23318522.040    95485487.99447
  22395048.260   117686817.78108  22395048.980    91704029.28148
  24476600.460   128625372.10008  24476599.640   100227562.65746
  23788493.200   125009329.34208  23788493.860    97409847.92747
 15 03 01 00 16  0.0000000  0  7G16G18G21G22G27G29G31
  21147682.640   111131835.45709  21147680.020    86596248.18148
  22189218.820   116605205.92008  22189217.140    90861219.17447
  21587338.640   113442236.20807  21587335.540    88396535.36146
  23300833.560   122446739.31509  23300830.620    95413045.36746
  22383163.580   117624363.56608  22383164.280    91655363.68348
  24491173.720   128701954.65409  24491172.900   100287237.35646
  23806881.420   125105961.12808  23806881.240    97485145.46246
 15 03 01 00 16 30.0000000  0  7G16G18G21G22G27G29G31
  21137008.440   111075744.16509  21137006.320    86552540.68448
  22179879.160   116556127.41008  22179877.800    90822976.18747
  21596545.760   113490618.28206  21596542.240    88434235.69046
  23283162.120   122353875.29508  23283158.740    95340683.90146
  22371299.820   117562018.32909  22371300.560    91606783.02848
  24505752.220   128778563.83809  24505751.220   100346932.76546
  23825278.940   125202641.09008  23825277.920    97560480.51146
 15 03 01 00 17  0.0000000  0  7G16G18G21G22G27G29G31
  21126406.520   111020030.25009  21126404.560    86509127.26348
  22170612.860   116507433.16609  22170611.520    90785032.63147
  21605803.720   113539268.80607  21605799.760    88472145.18446
  23265511.540   122261122.78108  23265508.060    95268409.29746
  22359457.720   117499787.06409  22359458.500    91558291.18148
  24520336.600   128855204.42609  24520335.280   100406652.64046
  23843686.140   125299370.84508  23843684.160    97635854.16946
 15 03 01 00 17 30.0000000  0  7G16G18G21G22G27G29G31
  21115876.880   110964695.46009  21115874.520    86466009.25648
  22161420.260   116459124.57609  22161418.660    90747389.61347
  21615112.420   113588185.72407  21615108.220    88510262.25546
  23247882.640   122168484.23608  23247879.360    95196223.48946
  22347637.140   117437669.68108  22347638.020    91509888.06448
  24534926.780   128931875.98808  24534925.120   100466396.67946
  23862102.540   125396147.73908  23862100.060    97711264.69045
 15 03 01 00 18  0.0000000  0  7G16G18G21G22G27G29G31
  21105418.980   110909739.49708  21105416.420    86423186.43048
  22152301.000   116411201.04109  22152298.980    90710046.65347
  21624470.700   113637364.34607  21624466.600    88548583.24847
  23230275.820   122075960.08508  23230272.660    95124126.84047
  22335837.820   117375663.93808  22335839.340    91461571.92548
  24549522.340   129008575.92908  24549520.440   100526162.83646
  23880526.980   125492966.03208  23880524.720    97786707.41346
 15 03 01 00 18 30.0000000  0  6G16G18G21G22G27G31
  21095041.340   110855205.46409  21095038.740    86380692.39748
  22143263.160   116363705.92809  22143260.940    90673037.49147
  21633886.140   113686844.25707  21633882.400    88587138.98646
  23212699.100   121983594.10808  23212696.200    95052153.41346
  22324067.460   117313811.08308  22324069.600    91413374.92048
  23898966.460   125589863.76508  23898964.980    97862211.92346
 15 03 01 00 19  0.0000000  0  6G16G18G21G22G27G31
  21084731.860   110801028.21809  21084729.220    86338476.38048
  22134294.340   116316573.55409  22134291.920    90636310.97247
  21643345.980   113736556.09407  21643342.420    88625875.49347
  23195140.160   121891321.16109  23195137.680    94980252.47347
  22312312.720   117252044.00108  22312314.960    91365244.72147
  23917407.320   125686770.88308  23917406.880    97937723.77346
 15 03 01 00 19 30.0000000  0  7G16G18G19G21G22G27G31
  21074493.400   110747224.53509  21074490.820    86296551.42448
  22125397.680   116269820.26609  22125395.160    90599879.85047
  24534941.920   128931991.32506  24534941.480   100466491.91945
  21652852.560   113786512.55208  21652848.840    88664802.58746
  23177602.380   121799158.73508  23177599.700    94908437.66546
  22300577.620   117190377.39208  22300579.180    91317192.86547
  23935851.820   125783699.32908  23935852.600    98013252.28546
 15 03 01 00 20  0.0000000  0  7G16G18G19G21G22G27G31
  21064320.780   110693767.91809  21064318.240    86254896.90148
  22116568.120   116223419.55909  22116565.600    90563723.48048
  24519508.420   128850887.24906  24519508.660   100403294.02645
  21662400.080   113836683.61908  21662396.180    88703896.91247
  23160080.480   121707080.98408  23160076.680    94836688.84447
  22288856.720   117128782.97908  22288857.820    91269197.23648
  23954294.240   125880617.29408  23954296.160    98088772.58947
 15 03 01 00 20 30.0000000  0  7G16G18G19G21G22G27G31
  21054228.760   110640733.46209  21054226.180    86213571.36248
  22107819.880   116177446.22809  22107817.460    90527900.11948
  24504093.840   128769879.15106  24504092.600   100340170.95144
  21672001.900   113887140.23308  21671997.580    88743213.76746
  23142589.200   121615163.84009  23142584.680    94765065.19346
  22277163.840   117067334.04709  22277164.200    91221315.01247
  23972748.200   125977595.29008  23972750.920    98164339.68846
 15 03 01 00 21  0.0000000  0  7G16G18G19G21G22G27G31
  21044207.780   110588071.63409  21044205.220    86172536.19748
  22099143.440   116131850.95209  22099141.080    90492371.32748
  24488687.880   128688915.53207  24488683.640   100277082.58243
  21681647.860   113937829.73508  21681643.400    88782712.07246
  23125119.300   121523358.49309  23125115.040    94693528.61547
  22265488.700   117005979.40108  22265489.000    91173506.21748
  23991203.360   126074578.67507  23991206.380    98239910.95747
 15 03 01 00 21 30.0000000  0  7G16G18G19G21G22G27G31
  21034264.380   110535817.86609  21034261.920    86131818.98148
  22090545.480   116086668.71709  22090543.060    90457164.38247
  24473296.580   128608029.55607  24473290.300   100214054.69844
  21691343.820   113988782.69808  21691339.620    88822415.68646
  23107677.540   121431700.73209  23107673.820    94622107.04947
  22253837.780   116944752.43309  22253838.140    91125796.92348
  24009665.620   126171597.84907  24009668.380    98315510.06546
 15 03 01 00 22  0.0000000  0  7G16G18G19G21G22G27G31
  21024398.460   110483971.30509  21024395.840    86091419.05948
  22082025.860   116041897.95609  22082023.120    90422278.12247
  24457918.880   128527218.50607  24457910.800   100151085.21344
  21701089.040   114039995.48907  21701085.140    88862321.74046
  23090263.660   121340190.35109  23090260.240    94550800.32047
  22242210.680   116883650.44609  22242210.980    91078185.03248
  24028133.780   126268647.53908  24028135.680    98391133.25845
 15 03 01 00 22 30.0000000  0  7G16G18G19G21G22G27G31
  21014610.440   110432534.02709  21014607.560    86051338.09048
  22073584.940   115997540.91909  22073581.780    90387714.26747
  24442554.840   128446481.99807  24442547.300   100088173.76344
  21710883.100   114091465.79207  21710879.720    88902428.46346
  23072878.300   121248829.89409  23072874.720    94479610.41847
  22230607.180   116822673.72109  22230607.740    91030670.71548
  24046607.060   126365724.29308  24046607.860    98466777.54545
 15 03 01 00 23  0.0000000  0  7G16G18G19G21G22G27G31
  21004900.840   110381509.96909  21004898.040    86011579.09648
  22065223.400   115953601.43909  22065220.300    90353475.74047
  24427204.980   128365822.34607  24427200.520   100025322.14345
  21720726.400   114143193.93908  21720723.520    88942736.12046
  23055522.420   121157623.96309  23055518.620    94408540.93847
  22219027.820   116761824.28909  22219028.300    90983255.58948
  24065085.200   126462827.16908  24065084.860    98542442.13045
 15 03 01 00 23 30.0000000  0  7G16G18G19G21G22G27G31
  20995268.640   110330893.41509  20995266.140    85972137.62748
  22056940.020   115910073.65209  22056937.320    90319557.96147
  24411868.540   128285231.90507  24411866.760    99962524.47344
  21730617.020   114195169.94708  21730614.600    88983236.91446
  23038194.940   121066567.90908  23038191.340    94337588.23047
  22207471.380   116701094.82109  22207471.520    90935933.96548
  24083566.340   126559946.02408  24083565.180    98618119.32545
 15 03 01 00 24  0.0000000  0  7G16G18G19G21G22G27G31
  20985712.580   110280676.12509  20985710.220    85933007.26748
  22048733.300   115866948.54509  22048731.000    90285953.97547
  24396543.500   128204700.54106  24396543.040    99899772.83045
  21740552.460   114247381.97707  21740550.300    89023921.59746
  23020894.400   120975653.86709  23020891.180    94266746.16047
  22195935.840   116640475.18609  22195935.880    90888697.88848
  24102047.920   126657067.03307  24102046.300    98693798.12044
 15 03 01 00 24 30.0000000  0  7G16G18G19G21G22G27G31
  20976234.140   110230866.24009  20976231.680    85894194.38248
  22040605.060   115824234.22909  22040602.540    90252670.14847
  24381230.640   128124234.51805  24381230.680    99837072.09345
  21750533.540   114299835.04807  21750531.340    89064794.08746
  23003622.640   120884890.36009  23003619.680    94196021.41347
  22184422.480   116579971.74509  22184422.280    90841552.38248
  24120530.640   126754193.58308  24120529.040    98769481.31845
 15 03 01 00 25  0.0000000  0  7G16G18G19G21G22G27G31
  20966833.640   110181465.55909  20966830.960    85855700.34948
  22032555.340   115781932.02609  22032552.760    90219707.41547
  24365930.220   128043833.33806  24365930.300    99774421.85145
  21760560.060   114352526.05107  21760557.620    89105851.99145
  22986380.080   120794280.07509  22986376.680    94125416.04946
  22172931.500   116519584.53409  22172930.580    90794497.45647
  24139014.020   126851322.75608  24139012.620    98845166.56246
 15 03 01 00 25 30.0000000  0  7G16G18G19G21G22G27G31
  20957509.260   110132465.10109  20957506.500    85817518.17949
  22024582.200   115740032.79309  22024579.640    90187058.67248
  24350640.360   127963485.84207  24350639.420    99711813.56645
  21770629.900   114405442.68208  21770627.000    89147085.75146
  22969164.820   120703814.39208  22969160.680    94054923.39147
  22161460.460   116459302.72709  22161459.200    90747524.65648
  24157495.240   126948440.05708  24157494.140    98920842.45146
 15 03 01 00 26  0.0000000  0  7G16G18G19G21G22G27G31
  20948263.860   110083879.83409  20948261.120    85779659.53949
  22016688.380   115698551.21209  22016686.060    90154735.35048
  24335363.580   127883206.10806  24335361.120    99649258.07545
  21780744.920   114458596.53008  21780741.900    89188504.33846
  22951980.120   120613509.73509  22951976.360    93984556.16247
  22150011.920   116399139.81309  22150010.680    90700644.48548
  24175976.360   127045556.34208  24175975.420    98996517.46546
 15 03 01 00 26 30.0000000  0  7G16G18G19G21G22G27G31
  20939098.000   110035713.00709  20939095.320    85742126.95848
  22008874.640   115657489.92509  22008872.480    90122739.57548
  24320099.780   127802994.69207  24320097.200    99586755.76445
  21790905.080   114511986.73608  21790901.940    89230107.08946
  22934826.960   120523369.42509  22934823.620    93914317.00347
  22138586.180   116339096.87609  22138584.980    90653857.81848
  24194456.940   127142669.41808  24194456.220    99072189.99946
 15 03 01 00 27  0.0000000  0  7G16G18G19G21G22G27G31
  20930011.820   109987965.35509  20930009.080    85704921.00048
  22001141.040   115616849.24909  22001138.820    90091071.54847
  24304848.700   127722850.52407  24304846.760    99524305.84444
  21801109.580   114565609.46208  21801106.100    89271891.02546
  22917705.700   120433394.93909  22917702.000    93844207.09447
  22127182.880   116279173.25409  22127181.740    90607164.12048
  24212936.220   127239775.92609  24212935.580    99147857.41345
 15 03 01 00 27 30.0000000  0  7G16G18G19G21G22G27G31
  20921004.600   109940632.07609  20921001.640    85668037.91549
  21993486.500   115576624.97409  21993484.260    90059727.96447
  24289609.480   127642767.09207  24289607.400    99461903.20445
  21811357.060   114619457.41708  21811353.080    89313850.47847
  22900615.060   120343582.25009  22900611.140    93774223.22747
  22115800.940   116219362.48509  22115800.260    90560558.34248
  24231412.220   127336865.85709  24231411.460    99223511.94646
 15 03 01 00 28  0.0000000  0  7G16G18G19G21G22G27G31
  20912077.400   109893718.74509  20912074.360    85631482.07149
  21985912.060   115536821.89309  21985910.020    90028712.60047
  24274382.880   127562747.69707  24274380.620    99399550.50245
  21821647.460   114673532.06008  21821643.000    89355986.56846
  22883556.000   120253937.48809  22883552.080    93704370.23147
  22104441.400   116159668.16909  22104441.240    90514043.32448
  24249884.900   127433939.51808  24249883.860    99299153.72346
 15 03 01 00 28 30.0000000  0  7G16G18G19G21G22G27G31
  20903231.580   109847233.01709  20903228.560    85595259.41848
  21978419.140   115497446.83509  21978417.160    89998030.78247
  24259169.640   127482798.26307  24259167.600    99337252.25445
  21831981.220   114727837.07707  21831976.920    89398302.15346
  22866530.340   120164469.15809  22866526.680    93634654.70947
  22093105.220   116100096.44109  22093105.280    90467623.80548
  24268354.780   127531000.14908  24268353.640    99374785.27746
 15 03 01 00 29  0.0000000  0  7G16G18G19G21G22G27G31
  20894465.880   109801168.29009  20894462.760    85559364.81148
  21971006.380   115458492.94909  21971004.460    89967677.13147
  24243968.400   127402910.32308  24243966.220    99275002.01045
  21842356.600   114782362.86506  21842353.020    89440789.77446
  22849537.220   120075171.27909  22849533.940    93565071.99947
  22081790.940   116040639.04109  22081790.820    90421293.38848
  24286819.660   127628036.12908  24286818.840    99450397.47946
 15 03 01 00 29 30.0000000  0  7G16G18G19G21G22G27G31
  20885783.380   109755541.45509  20885780.280    85523811.43348
  21963677.000   115419977.11509  21963675.180    89937664.79347
  24228781.700   127323099.23508  24228778.520    99212811.65045
  21852775.640   114837121.87406  21852773.660    89483459.03546
  22832580.200   119986061.65509  22832577.280    93495635.98847
  22070501.120   115981311.26208  22070501.260    90375063.96048
  24305282.200   127725059.75408  24305282.060    99525999.93545
 15 03 01 00 30  0.0000000  0  7G16G18G19G21G22G27G31
  20877182.900   109710345.54109  20877179.800    85488593.86448
  21956429.600   115381891.66809  21956427.720    89907987.83847
  24213607.120   127243355.82407  24213602.580    99150674.03844
  21863237.700   114892103.31807  21863236.500    89526301.68947
  22815657.820   119897133.70109  22815655.580    93426341.51847
  22059234.000   115922104.34608  22059234.800    90328928.70548
  24323740.300   127822059.45608  24323740.860    99601583.82245
 15 03 01 00 30 30.0000000  0  7G16G18G19G21G22G27G31
  20868664.040   109665578.71109  20868660.920    85453710.61848
  21949263.780   115344234.65709  21949261.580    89878644.73747
  24198444.060   127163676.88007  24198438.740    99088586.64945
  21873741.820   114947302.05907  21873740.440    89569313.68047
  22798769.760   119808386.48409  22798767.600    93357187.88047
  22047989.260   115863015.09008  22047990.540    90282885.13548
  24342192.740   127919028.67808  24342193.600    99677143.93146
 15 03 01 00 31  0.0000000  0  7G16G18G19G21G22G27G31
  20860227.300   109621243.77409  20860224.320    85419163.91649
  21942179.980   115307008.58209  21942177.640    89849637.44347
  24183293.200   127084062.86607  24183287.800    99026549.85045
  21884287.360   115002716.86507  21884285.560    89612494.06046
  22781916.700   119719823.78109  22781913.600    93288178.04647
  22036767.380   115804044.40909  22036769.040    90236933.98248
  24360639.120   128015965.41408  24360639.860    99752678.74146
 15 03 01 00 31 30.0000000  0  7G16G18G19G21G22G27G31
  20851874.060   109577348.08409  20851871.320    85384959.48348
  21935179.440   115270220.39109  21935176.980    89820971.36747
  24168155.940   127004519.39707  24168151.360    98964568.00145
  21894874.840   115058352.29307  21894872.520    89655846.33447
  22765100.540   119631453.60409  22765096.480    93219318.25447
  22025569.540   115745198.23309  22025571.160    90191079.83348
  24379079.940   128112872.34108  24379080.560    99828190.37245
 15 03 01 00 32  0.0000000  0  7G16G18G19G21G22G27G31
  20843603.840   109533888.05809  20843601.120    85351094.53948
  21928261.300   115233865.69609  21928258.860    89792643.05347
  24153031.540   126925040.94008  24153028.000    98902636.82845
  21905502.800   115114200.33207  21905500.000    89699364.30746
  22748320.400   119543272.79209  22748316.100    93150606.00347
  22014394.520   115686471.22009  22014395.280    90145318.55748
  24397513.640   128209741.01608  24397514.060    99903672.16445
 15 03 01 00 32 30.0000000  0  7G16G18G19G21G22G27G31
  20835416.480   109490862.44009  20835413.520    85317568.09248
  21921425.260   115197943.13509  21921423.120    89764651.45648
  24137919.340   126845624.67607  24137916.560    98840754.09945
  21916170.220   115170256.00108  21916167.040    89743044.05345
  22731576.160   119455281.03609  22731572.220    93082041.03247
  22003241.460   115627860.69009  22003241.440    90099648.05548
  24415939.120   128306565.64608  24415939.340    99979119.65745
 15 03 01 00 33  0.0000000  0  7G16G18G19G21G22G27G31
  20827316.580   109448296.18209  20827313.520    85284399.59149
  21914676.160   115162476.85609  21914674.180    89737015.41148
  24122822.620   126766293.88307  24122821.020    98778937.91547
  21926881.260   115226540.54207  21926877.720    89786902.16546
  22714872.600   119367504.18409  22714869.320    93013643.51247
  21992114.860   115569390.01009  21992114.820    90054086.50648
  24434360.100   128403366.24508  24434360.160   100054548.32746
 15 03 01 00 33 30.0000000  0  7G16G18G19G21G22G27G31
  20819300.900   109406173.01309  20819297.880    85251576.33749
  21908010.960   115127450.57609  21908008.860    89709722.21848
  24107738.460   126687030.29608  24107737.860    98717174.09146
  21937632.080   115283034.49307  21937628.280    89830923.44745
  22698206.920   119279926.75109  22698203.840    92945401.40147
  21981011.440   115511041.35708  21981011.380    90008620.03048
  24452772.420   128500122.05008  24452772.400   100129942.09246
 15 03 01 00 34  0.0000000  0  7G16G18G19G21G22G27G31
  20811368.220   109364486.86909  20811365.360    85219093.62748
  21901428.400   115092857.52109  21901426.020    89682766.62347
  24092666.080   126607826.49608  24092665.160    98655456.96345
  21948420.740   115339728.46107  21948416.860    89875100.56344
  22681578.260   119192543.42509  22681575.200    92877310.55147
  21969929.720   115452807.30308  21969929.660    89963242.85548
  24471174.200   128596822.47008  24471173.900   100205292.58545
 15 03 01 00 34 30.0000000  0  7G16G18G19G21G22G27G31
  20803521.080   109323250.52409  20803518.380    85186961.42148
  21894930.840   115058710.43409  21894928.080    89656158.55947
  24077607.260   126528693.04007  24077605.880    98593794.60645
  21959248.740   115396631.35407  21959245.100    89919440.47744
  22664989.060   119105367.78109  22664986.400    92809381.50047
  21958872.020   115394698.95209  21958872.120    89917963.62148
  24489567.160   128693475.95408  24489566.480   100280606.70645
 15 03 01 00 35  0.0000000  0  7G16G18G19G21G22G27G31
  20795758.820   109282460.00309  20795756.120    85155176.60348
  21888517.120   115025004.78909  21888514.100    89629894.44448
  24062561.180   126449624.50208  24062559.800    98532182.85446
  21970114.980   115453735.33907  21970111.600    89963937.09344
  22648439.040   119018396.43909  22648436.360    92741611.65947
  21947837.660   115336710.80709  21947837.760    89872778.06848
  24507949.600   128790073.61708  24507948.620   100355877.34245
 15 03 01 00 35 30.0000000  0  7G16G18G19G21G22G27G31
  20788081.520   109242115.95609  20788078.780    85123739.68548
  21882187.100   114991740.58609  21882184.140    89603974.27848
  24047527.440   126370619.74708  24047525.560    98470620.78345
  21981019.000   115511037.52807  21981015.420    90008588.16844
  22631928.340   118931630.72209  22631924.880    92674002.06647
  21936826.000   115278842.08609  21936826.040    89827685.58048
  24526320.620   128886611.26408  24526319.320   100431101.16945
 15 03 01 00 36  0.0000000  0  7G16G18G19G21G22G27G31
  20780492.360   109202234.64609  20780489.660    85092663.34448
  21875944.000   114958933.70109  21875941.180    89578410.47648
  24032508.380   126291692.91408  24032505.620    98409119.42045
  21991963.380   115568550.56006  21991960.200    90053403.44743
  22615460.000   118845088.15209  22615455.500    92606566.35547
  21925839.380   115221107.57109  21925839.420    89782697.63848
  24544682.400   128983100.78908  24544681.020   100506287.46445
 15 03 01 00 36 30.0000000  0  7G16G18G19G21G22G27G31
  20772990.660   109162812.73609  20772988.000    85061944.97248
  21869787.240   114926580.24209  21869784.340    89553200.01347
  24017503.140   126212839.20408  24017500.200    98347675.02846
  22002946.560   115626267.65207  22002943.920    90098377.75043
  22599033.280   118758766.12308  22599028.720    92539302.48547
  21914877.660   115163502.37909  21914877.080    89737810.49648
  24563033.480   129079534.32608  24563032.160   100581430.15845
 15 03 01 00 37  0.0000000  0  7G16G18G19G21G22G27G31
  20765575.400   109123844.68809  20765572.640    85031580.27248
  21863715.600   114894674.32409  21863712.900    89528338.29947
  24002510.220   126134051.74508  24002507.620    98286282.26946
  22013966.780   115684179.98806  22013964.760    90143504.19043
  22582647.480   118672660.06809  22582643.540    92472206.87047
  21903939.060   115106019.83409  21903938.080    89693018.92848
  24581371.940   129175901.86508  24581370.580   100656521.41245
 15 03 01 00 37 30.0000000  0  7G16G18G19G21G22G27G31
  20758250.480   109085350.76709  20758247.400    85001585.00948
  21857732.820   114863235.97409  21857730.480    89503840.90047
  23987532.980   126055348.92107  23987530.660    98224955.48245
  22025026.820   115742304.40606  22025025.080    90188795.90344
  22566307.100   118586790.76209  22566303.560    92405295.75847
  21893027.140   115048678.60809  21893026.300    89648337.48148
  24599700.760   129272219.06708  24599699.380   100731573.45345
 15 03 01 00 38  0.0000000  0  7G16G18G19G21G22G27G31
  20751011.260   109047307.71309  20751007.960    84971941.07748
  21851834.400   114832241.42509  21851832.500    89479689.28548
  23972567.300   125976706.10108  23972565.360    98163675.41046
  22036122.320   115800614.04806  22036121.260    90234231.96845
  22550007.740   118501136.06709  22550004.320    92338551.88648
  21882137.520   114991454.36509  21882136.480    89603747.15848
  24618014.640   129368458.34108  24618013.460   100806564.73546
 15 03 01 00 38 30.0000000  0  7G16G18G19G21G22G27G31
  20743858.820   109009721.40609  20743855.500    84942653.04949
  21846021.460   114801695.57309  21846020.040    89455887.30448
  23957614.000   125898126.95108  23957612.560    98102444.93145
  22047254.020   115859111.27106  22047252.860    90279814.22845
  22533750.220   118415702.43809  22533746.940    92271980.25048
  21871270.860   114934351.13109  21871269.700    89559251.15248
  24636313.860   129464620.74008  24636313.240   100881496.03245
 15 03 01 00 39  0.0000000  0  7G16G18G19G21G22G27G31
  20736794.200   108972596.92109  20736791.000    84913724.88849
  21840295.140   114771603.37909  21840293.720    89432438.86448
  23942673.980   125819615.25808  23942671.800    98041267.03745
  22058421.840   115917797.48207  22058420.020    90325543.75144
  22517536.060   118330496.03709  22517532.680    92205585.70547
  21860427.760   114877372.84208  21860427.540    89514852.49548
  24654598.520   129560706.80608  24654598.740   100956367.80045
 15 03 01 00 39 30.0000000  0  7G16G18G19G21G22G27G31
  20729817.980   108935937.33409  20729814.920    84885158.97649
  21834655.620   114741967.19209  21834653.940    89409345.75547
  23927747.460   125741172.70508  23927743.840    97980143.05245
  22069625.400   115976672.45007  22069623.040    90371420.34744
  22501366.020   118245520.72909  22501362.180    92139371.24147
  21849609.200   114820521.28309  21849609.700    89470552.60148
  24672868.340   129656715.51608  24672869.520   101031179.30745
 15 03 01 00 40  0.0000000  0  7G16G18G19G21G22G27G31
  20722932.080   108899752.68109  20722929.140    84856963.13649
  21829104.740   114712796.57409  21829102.800    89386615.43647
  23912835.240   125662807.39807  23912831.040    97919079.29146
  22080866.060   116035742.85407  22080863.240    90417449.22344
  22485242.020   118160787.71509  22485237.900    92073345.56247
  21838816.580   114763805.19609  21838817.240    89426358.25448
  24691124.500   129752652.83608  24691126.500   101105935.25246
 15 03 01 00 40 30.0000000  0  6G16G18G19G21G22G27
  20716134.560   108864032.23209  20716131.740    84829129.02249
  21823640.340   114684080.14609  21823638.240    89364239.01848
  23897934.680   125584507.10508  23897931.060    97858066.10646
  22092141.420   116094994.14307  22092138.440    90463619.05945
  22469161.940   118076286.65809  22469158.020    92007500.61447
  21828047.520   114707212.20509  21828048.080    89382259.83048
 15 03 01 00 41  0.0000000  0  6G16G18G19G21G22G27
  20709428.660   108828793.00409  20709425.920    84801669.89049
  21818265.580   114655834.91609  21818263.380    89342229.75648
  23883049.440   125506286.88408  23883046.220    97797115.33846
  22103453.920   116154439.85307  22103450.680    90509940.38945
  22453129.240   117992035.63309  22453125.640    91941850.49948
  21817305.100   114650758.34209  21817305.400    89338269.82748
 15 03 01 00 41 30.0000000  0  6G16G18G19G21G22G27
  20702812.220   108794023.83709  20702809.440    84774577.03449
  21812978.120   114628048.83209  21812975.820    89320578.28247
  23868177.300   125428134.52008  23868173.860    97736217.44146
  22114800.700   116214066.02106  22114796.860    90556402.33644
  22437142.160   117908024.30009  22437138.600    91876387.16847
  21806586.660   114594431.12509  21806586.560    89294378.50048
 15 03 01 00 42  0.0000000  0  6G16G18G19G21G22G27
  20696286.220   108759730.23209  20696283.500    84747854.74949
  21807778.840   114600726.96009  21807776.480    89299288.54247
  23853319.040   125350053.84408  23853315.620    97675375.41346
  22126181.980   116273874.78105  22126178.060    90603006.55244
  22421202.080   117824259.49509  22421198.420    91811115.93248
  21795893.040   114538234.86609  21795892.340    89250589.24448
 15 03 01 00 42 30.0000000  0  6G16G18G19G21G22G27
  20689849.900   108725908.26209  20689847.420    84721499.96048
  21802666.940   114573864.91609  21802664.560    89278357.09447
  23838473.640   125272039.83208  23838470.640    97614585.33546
  22137596.720   116333858.50905  22137592.240    90649747.19145
  22405308.400   117740738.27109  22405304.840    91746034.48348
  21785223.120   114482164.38609  21785222.440    89206897.97548
 15 03 01 00 43  0.0000000  0  6G16G18G19G21G22G27
  20683505.620   108692569.87509  20683503.380    84695522.00548
  21797644.840   114547474.04109  21797642.480    89257792.79647
  23823642.720   125194102.60308  23823640.020    97553855.03346
  22149047.100   116394026.15605  22149041.400    90696631.11544
  22389463.320   117657472.65409  22389460.060    91681152.21948
  21774579.260   114426230.54809  21774578.880    89163313.17948
 15 03 01 00 43 30.0000000  0  5G16G18G19G22G27
  20677256.820   108659732.96709  20677254.860    84669934.81249
  21792715.720   114521571.15409  21792713.380    89237608.73248
  23808829.480   125116258.24608  23808827.380    97493197.09947
  22373670.860   117574482.42809  22373667.520    91616484.55348
  21763964.400   114370449.67409  21763963.860    89119847.57848
 15 03 01 00 44  0.0000000  0  5G16G18G19G22G27
  20671094.500   108627349.70909  20671092.660    84644701.11349
  21787870.480   114496108.68609  21787868.140    89217767.85948
  23794024.960   125038458.18208  23794023.220    97432573.71946
  22357921.980   117491720.61109  22357918.500    91551994.86148
  21753369.500   114314773.02009  21753368.700    89076463.22048
 15 03 01 00 44 30.0000000  0  6G16G18G19G21G22G27
  20665021.460   108595435.10909  20665019.620    84619832.59949
  21783111.720   114471100.92609  21783109.300    89198281.30547
  23779231.380   124960715.87608  23779229.060    97371995.37046
  22183595.680   116575580.50805  22183591.980    90838096.06944
  22342219.640   117409202.97009  22342215.880    91487695.43948
  21742797.020   114259214.66709  21742796.500    89033171.00148
 15 03 01 00 45  0.0000000  0  6G16G18G19G21G22G27
  20659051.980   108564064.19209  20659050.140    84595387.73349
  21778453.560   114446621.99309  21778450.920    89179206.84047
  23764462.420   124883104.10208  23764458.980    97311518.72346
  22195185.240   116636469.82605  22195178.480    90885550.45643
  22326578.040   117327004.95909  22326574.200    91423645.09048
  21732260.880   114203848.04909  21732260.580    88990028.19648
 15 03 01 00 45 30.0000000  0  5G16G18G19G22G27
  20653170.800   108533156.68509  20653168.760    84571303.95549
  21773880.580   114422590.91609  21773877.820    89160481.33847
  23749702.480   124805541.39708  23749698.220    97251080.31145
  22310982.060   117245047.81209  22310978.520    91359782.39348
  21721745.520   114148591.77208  21721745.400    88946971.37148
 15 03 01 00 46  0.0000000  0  6G16G18G19G21G22G27
  20647380.900   108502728.66109  20647378.380    84547593.79649
  21769395.720   114399023.43209  21769393.140    89142117.07147
  23734954.720   124728042.69308  23734950.160    97190691.76846
  22218452.640   116758741.57405  22218448.480    90980826.04743
  22295435.040   117163348.51109  22295431.560    91296120.62848
  21711254.120   114093461.08209  21711254.460    88904012.38648
 15 03 01 00 46 30.0000000  0  6G16G18G19G21G22G27
  20641684.380   108472791.74809  20641681.460    84524266.33649
  21765001.300   114375930.78309  21764998.860    89124122.80948
  23720221.340   124650618.09308  23720217.120    97130360.97445
  22230133.300   116820137.31805  22230125.900    91028657.89842
  22279939.560   117081919.72109  22279935.860    91232669.67048
  21700789.040   114038466.48609  21700789.880    88861159.46748
 15 03 01 00 47  0.0000000  0  5G16G18G19G22G27
  20636084.580   108443364.04609  20636081.480    84501335.66749
  21760700.560   114353330.82509  21760698.260    89106512.46548
  23705505.100   124573285.16408  23705502.080    97070101.59246
  22264499.560   117000781.18309  22264495.520    91169444.88848
  21690353.280   113983625.58509  21690354.060    88818426.31948
 15 03 01 00 47 30.0000000  0  5G16G18G19G22G27
  20630573.920   108414405.40409  20630570.740    84478770.50649
  21756485.700   114331182.15209  21756483.620    89089253.77248
  23690798.280   124496001.28408  23690795.900    97009880.40946
  22249107.140   116919892.61609  22249102.860    91106414.89848
  21679938.820   113928896.20709  21679939.060    88775780.09349
 15 03 01 00 48  0.0000000  0  5G16G18G19G22G27
  20625158.580   108385948.46709  20625155.440    84456596.27349
  21752362.840   114309516.97209  21752360.860    89072371.80047
  23676107.180   124418797.98408  23676104.800    96949722.05546
  22233768.420   116839288.18009  22233764.300    91043606.25348
  21669551.700   113874310.38509  21669552.000    88733245.70948
 15 03 01 00 48 30.0000000  0  5G16G18G19G22G27
  20619838.600   108357992.78709  20619835.620    84434812.61649
  21748331.880   114288333.98209  21748329.800    89055865.57247
  23661431.280   124341673.87508  23661428.580    96889625.40046
  22218483.820   116758968.22909  22218479.780    90981019.28648
  21659191.640   113819866.63009  21659191.940    88690822.00648
 15 03 01 00 49  0.0000000  0  6G16G18G19G21G22G27
  20614612.040   108330528.03809  20614609.240    84413411.51149
  21744390.780   114267622.93409  21744388.600    89039727.11347
  23646768.000   124264617.23508  23646764.720    96829581.33046
  22288999.480   117129477.47405                                
  22203252.020   116678923.95509  22203247.780    90918647.17848
  21648856.200   113765553.84709  21648856.080    88648500.39648
 15 03 01 00 49 30.0000000  0  6G16G18G19G21G22G27
  20609482.640   108303573.39009  20609479.960    84392407.88749
  21740543.000   114247401.93609  21740540.700    89023970.52847
  23632120.840   124187645.81608  23632116.680    96769603.64846
  22300865.940   117191834.29005                                
  22188076.560   116599175.36509  22188071.960    90856505.49148
  21638548.840   113711390.04709  21638548.980    88606294.85448
 15 03 01 00 50  0.0000000  0  6G16G18G19G21G22G27
  20604447.420   108277113.54209  20604444.860    84371789.82449
  21736785.320   114227654.83109  21736782.940    89008583.20947
  23617487.080   124110743.12508  23617482.180    96709679.57245
  22312761.440   117254341.30506                                
  22172954.420   116519708.16709  22172949.900    90794583.03448
  21628266.800   113657359.10909  21628267.340    88564192.83748
 15 03 01 00 50 30.0000000  0  6G16G18G19G21G22G27
  20599509.420   108251164.07209  20599506.800    84351569.45849
  21733120.680   114208397.17109  21733118.200    88993577.28447
  23602868.940   124033923.64508  23602864.220    96649820.27446
  22324687.920   117317010.59304                                
  22157888.940   116440539.05809  22157884.680    90732892.84048
  21618013.080   113603475.72809  21618013.680    88522205.79148
 15 03 01 00 51  0.0000000  0  5G16G18G19G22G27
  20594668.080   108225722.26709  20594665.380    84331744.67949
  21729548.500   114189625.27709  21729545.920    88978949.86248
  23588265.600   123957183.25108  23588261.400    96590022.60746
  22142879.860   116361666.08409  22142875.600    90671433.42248
  21607787.020   113549736.14309  21607787.340    88480330.80848
 15 03 01 00 51 30.0000000  0  5G16G18G19G22G27
  20589922.880   108200784.99309  20589920.000    84312313.03349
  21726068.060   114171335.76009  21726065.640    88964698.27148
  23573676.460   123880517.79808  23573672.500    96530283.36746
  22127926.860   116283087.50209  22127922.740    90610203.38948
  21597587.740   113496136.49509  21597587.600    88438564.87948
 15 03 01 00 52  0.0000000  0  5G16G18G19G22G27
  20585276.220   108176365.45309  20585273.080    84293284.82849
  21722681.700   114153540.63009  21722679.400    88950831.91848
  23559103.440   123803939.35908  23559100.340    96470611.88247
  22113032.380   116204817.67609  22113028.660    90549213.94148
  21587417.280   113442689.10309  21587416.880    88396917.58949
 15 03 01 00 52 30.0000000  0  6G16G18G19G21G22G27
  20580724.280   108152444.36109  20580720.920    84274645.01749
  21719385.720   114136220.36709  21719383.440    88937335.58948
  23544543.480   123727427.02808  23544540.740    96410991.96046
  22372681.480   117569234.81205  22372671.580    91612361.88643
  22098193.280   116126838.65709  22098189.500    90488451.10648
  21577271.780   113389373.89609  21577271.440    88355373.29549
 15 03 01 00 53  0.0000000  0  6G16G18G19G21G22G27
  20576263.400   108129001.96309  20576259.980    84256378.22649
  21716176.240   114119354.10209  21716173.960    88924193.06148
  23529992.800   123650960.63908  23529989.100    96351407.86545
  22384744.040   117632627.02205  22384737.100    91661758.41343
  22083406.120   116049131.35209  22083402.160    90427900.01048
  21567147.540   113336170.21709  21567147.220    88313915.90949
 15 03 01 00 53 30.0000000  0  6G16G18G19G21G22G27
  20571907.100   108106109.09209  20571903.620    84238539.62549
  21713066.720   114103012.61009  21713064.180    88911459.46048
  23515464.040   123574609.35608  23515459.240    96291913.45546
  22396841.320   117696203.18505  22396835.660    91711298.21742
  22068684.360   115971767.81509  22068680.260    90367616.77848
  21557057.620   113283148.18609  21557057.440    88272600.06148
 15 03 01 00 54  0.0000000  0  6G16G18G19G21G22G27
  20567648.880   108083731.90009  20567645.400    84221102.84948
  21710050.400   114087160.94809  21710047.540    88899107.52347
  23500950.020   123498337.92608  23500945.160    96232481.26546
  22408967.200   117759926.05505  22408963.600    91760952.40643
  22054021.640   115894715.28209  22054017.420    90307575.88247
  21546995.560   113230273.04409  21546995.140    88231398.68048
 15 03 01 00 54 30.0000000  0  5G16G18G19G22G27
  20563492.200   108061888.48309  20563488.660    84204082.00248
  21707130.640   114071817.13309  21707127.240    88887151.33646
  23486453.680   123422164.14007  23486449.900    96173125.10746
  22039421.820   115817993.30409  22039417.800    90247792.54548
  21536964.880   113177562.52409  21536964.120    88190325.59748
 15 03 01 00 55  0.0000000  0  5G16G18G19G22G27
  20559431.500   108040549.62309  20559427.980    84187454.31149
  21704301.620   114056951.18109  21704298.160    88875567.45547
  23471969.720   123346057.77908  23471968.040    96113821.45547
  22024879.680   115741573.70309  22024875.660    90188244.83548
  21526959.600   113124986.67409  21526959.320    88149357.40248
 15 03 01 00 55 30.0000000  0  5G16G18G19G22G27
  20555466.940   108019716.26109  20555463.500    84171220.51249
  21701563.700   114042562.98609  21701560.160    88864355.89747
  23457499.060   123270018.44908  23457498.800    96054570.05947
  22010395.480   115665458.21709  22010391.120    90128934.11348
  21516980.020   113072545.50909  21516980.200    88108494.16348
 15 03 01 00 56  0.0000000  0  5G16G18G19G22G27
  20551600.980   107999401.24809  20551597.540    84155390.62448
  21698919.120   114028664.82809  21698915.540    88853526.19547
  23443043.920   123194057.49208  23443044.280    95995379.76647
  21995971.900   115589661.03809  21995967.420    90069871.41148
  21507028.660   113020251.10309  21507029.000    88067745.29448
 15 03 01 00 56 30.0000000  0  6G16G18G19G21G22G27
  20547832.560   107979599.07109  20547829.160    84139960.35648
  21696366.620   114015250.64609  21696362.880    88843073.61847
  23428603.100   123118169.13808  23428603.180    95936246.02947
  22470001.640   118080651.85805  22469998.260    92010898.67843
  21981608.120   115514178.12709  21981603.760    90011053.59748
  21497104.300   112968097.51109  21497104.800    88027106.15649
 15 03 01 00 57  0.0000000  0  6G16G18G19G21G22G27
  20544164.080   107960322.05809  20544160.860    84124939.30148
  21693908.340   114002332.04309  21693904.360    88833007.19847
  23414178.620   123042364.38708  23414177.480    95877177.45846
  22482285.340   118145203.00906  22482285.940    92061178.23342
  21967306.680   115439022.80109  21967302.060    89952491.02648
  21487209.120   112916096.48909  21487209.620    87986585.88949
 15 03 01 00 57 30.0000000  0  6G16G18G19G21G22G27
  20540594.220   107941563.58409  20540591.320    84110322.30848
  21691543.080   113989901.76609  21691538.960    88823321.31147
  23399768.720   122966635.67608  23399766.220    95818168.18346
  22494593.640   118209884.25506                                
  21953066.500   115364189.51109  21953061.540    89894179.42548
  21477341.660   112864240.72709  21477341.800    87946178.83649
 15 03 01 00 58  0.0000000  0  6G16G18G19G21G22G27
  20537125.200   107923334.79909  20537122.620    84096118.07049
  21689272.560   113977970.41309  21689268.520    88814024.18047
