     2.11           OBSERVATION DATA    G                   RINEX VERSION / TYPE
SPIDER V4,0,0,3554                      2015 03 24 01:40    PGM / RUN BY / DATE 
CFKZ                                                        MARKER NAME         
CFKZ                                                        MARKER NUMBER       
                                                            OBSERVER / AGENCY   
496632              LEICA GRX1200+GNSS  8.10/4.007          REC # / TYPE / VERS 
10301036            LEIAR25         NONE                    ANT # / TYPE        
  5212138.8290   540257.5452  3624418.8863                  APPROX POSITION XYZ 
        0.0720        0.0000        0.0000                  ANTENNA: DELTA H/E/N
     1     1                                                WAVELENGTH FACT L1/2
     4    C1    L1    P2    L2                              # / TYPES OF OBSERV 
    30.000                                                  INTERVAL            
  2015    03    01    00    00    0.0000000     GPS         TIME OF FIRST OBS   
  2015    03    01    23    59   30.0000000     GPS         TIME OF LAST OBS    
    16                                                      LEAP SECONDS        
    30                                                      # OF SATELLITES     
   G 1   820   820   819   819                              PRN / # OF OBS      
   G 2   933   933   933   933                              PRN / # OF OBS      
   G 3   855   855   854   854                              PRN / # OF OBS      
   G 4   844   844   844   844                              PRN / # OF OBS      
   G 5   653   653   653   653                              PRN / # OF OBS      
   G 6   815   814   813   813                              PRN / # OF OBS      
   G 7   669   669   669   669                              PRN / # OF OBS      
   G 9   808   808   808   808                              PRN / # OF OBS      
   G10   765   765   765   765                              PRN / # OF OBS      
   G11   783   783   782   782                              PRN / # OF OBS      
   G12   829   828   828   828                              PRN / # OF OBS      
   G13   806   806   806   806                              PRN / # OF OBS      
   G14   929   924   923   921                              PRN / # OF OBS      
   G15   702   685   683   682                              PRN / # OF OBS      
   G16   673   673   673   673                              PRN / # OF OBS      
   G17   940   940   940   940                              PRN / # OF OBS      
   G18   914   914   914   914                              PRN / # OF OBS      
   G19   762   762   762   762                              PRN / # OF OBS      
   G20   782   782   782   782                              PRN / # OF OBS      
   G21   723   713   696   695                              PRN / # OF OBS      
   G22   662   661   660   660                              PRN / # OF OBS      
   G23   752   752   752   752                              PRN / # OF OBS      
   G24   824   817   811   810                              PRN / # OF OBS      
   G25   859   859   859   859                              PRN / # OF OBS      
   G27   815   815   815   815                              PRN / # OF OBS      
   G28   878   878   878   878                              PRN / # OF OBS      
   G29   770   770   770   770                              PRN / # OF OBS      
   G30   716   716   716   716                              PRN / # OF OBS      
   G31   851   851   851   851                              PRN / # OF OBS      
   G32   767   767   767   767                              PRN / # OF OBS      
BIT 2 OF LLI FLAGS DATA COLLECTED UNDER A/S CONDITION       COMMENT             
SNR is mapped to RINEX snr flag value [2-9]                 COMMENT             
Lx:     = 25dBHz -> 1; 26-27dBHz -> 2; 28-31dBHz -> 3       COMMENT             
       32-35dBHz -> 4; 36-38dBHz -> 5; 39-41dBHz -> 6       COMMENT             
       42-44dBHz -> 7; 45-48dBHz -> 8; >=49dBHz -> 9        COMMENT             
                                                            END OF HEADER       
 15 03 01 00 00  0.0000000  0  7G16G18G21G22G27G29G31
  21668610.860   113869349.19009  21668607.920    88729364.14148
  22364064.980   117524052.38809  22364062.380    91577208.69247
  21355930.280   112226177.78908  21355926.380    87448959.73648
  23661552.920   124342298.75408  23661550.880    96890117.52946
  22894894.940   120313547.81408  22894895.480    93750841.41047
  24007161.640   126158470.48608  24007160.500    98305288.50746
  23083328.060   121303672.23009  23083326.880    94522322.86247
 15 03 01 00 00 30.0000000  0  7G16G18G21G22G27G29G31
  21655280.700   113799298.88109  21655277.720    88674779.50048
  22353264.360   117467294.71509  22353261.700    91532981.96347
  21363858.400   112267840.10909  21363854.420    87481423.88248
  23643678.680   124248369.67408  23643676.700    96816926.20246
  22882725.600   120249596.81309  22882725.920    93701009.52247
  24020901.880   126230676.03808  24020900.460    98361552.62645
  23100596.820   121394419.39309  23100595.700    94593034.74547
 15 03 01 00 01  0.0000000  0  7G16G18G21G22G27G29G31
  21642006.060   113729540.25609  21642003.060    88620422.14448
  22342527.520   117410872.76009  22342524.880    91489016.83647
  21371845.320   112309811.83309  21371841.340    87514129.11448
  23625813.980   124154491.02208  23625811.880    96743774.17246
  22870574.740   120185743.37308  22870574.980    93651253.63248
  24034648.600   126302917.94608  24034647.920    98417844.94846
  23117896.760   121485330.32409  23117895.680    94663874.23347
 15 03 01 00 01 30.0000000  0  7G16G18G21G22G27G29G31
  21628784.800   113660062.04709  21628781.780    88566283.29448
  22331852.500   117354775.71409  22331849.920    91445304.88447
  21379888.240   112352077.94708  21379884.340    87547063.75248
  23607956.860   124060652.12708  23607954.680    96670653.14946
  22858439.840   120121974.10908  22858440.020    93601563.37647
  24048399.940   126375182.32108  24048399.400    98474154.85346
  23135224.860   121576388.87709  23135223.800    94734828.72847
 15 03 01 00 02  0.0000000  0  7G16G18G21G22G27G29G31
  21615618.360   113590872.08809  21615615.400    88512369.06948
  22321240.740   117299011.05909  22321238.160    91401851.92947
  21387987.960   112394642.72008  21387984.140    87580231.09948
  23590108.840   123966861.00808  23590106.680    96597569.35746
  22846321.960   120058294.38008  22846322.180    93551942.83148
  24062156.740   126447475.29808  24062155.760    98530486.97546
  23152581.520   121667597.62409  23152580.560    94805900.35047
 15 03 01 00 02 30.0000000  0  7G16G18G21G22G27G29G31
  21602506.740   113521970.30709  21602503.860    88458679.37948
  22310692.260   117243578.70909  22310689.680    91358657.91547
  21396143.840   112437502.29009  21396140.040    87613628.16148
  23572270.140   123873118.59308  23572267.820    96524523.46146
  22834220.640   119994702.17408  22834220.800    93502390.47347
  24075918.920   126519794.40508  24075917.760    98586839.54646
  23169965.680   121758951.22109  23169964.840    94877084.82847
 15 03 01 00 03  0.0000000  0  7G16G18G21G22G27G29G31
  21589451.000   113453362.01709  21589448.160    88405218.38848
  22300208.100   117188484.14709  22300205.480    91315727.10847
  21404356.000   112480657.55809  21404352.240    87647255.63248
  23554441.680   123779429.94408  23554439.220    96451519.51546
  22822136.520   119931200.27808  22822136.760    93452908.44947
  24089686.460   126592142.65608  24089685.140    98643214.74645
  23187377.400   121850449.64209  23187376.620    94948382.15747
 15 03 01 00 03 30.0000000  0  7G16G18G21G22G27G29G31
  21576451.320   113385048.19809  21576448.480    88351986.86648
  22289788.340   117133728.22209  22289785.740    91273060.18247
  21412623.920   112524105.44009  21412620.220    87681111.12048
  23536623.700   123685796.56808  23536621.100    96378558.61546
  22810069.360   119867787.49708  22810069.740    93403495.90147
  24103459.460   126664518.62608  24103458.100    98699611.60346
  23204815.860   121942088.72909  23204815.100    95019789.20247
 15 03 01 00 04  0.0000000  0  7G16G18G21G22G27G29G31
  21563508.260   113317031.86909  21563505.380    88298987.13948
  22279433.580   117079313.58609  22279430.920    91230659.19647
  21420947.280   112567844.79509  21420943.600    87715193.71648
  23518816.860   123592221.92508  23518814.260    96305643.48946
  22798019.300   119804464.64808  22798019.720    93354153.42547
  24117237.620   126736923.43408  24117237.040    98756030.80846
  23222280.620   122033866.22608  23222279.800    95091304.13047
 15 03 01 00 04 30.0000000  0  7G16G18G21G22G27G29G31
  21550622.000   113249314.10809  21550619.060    88246220.06948
  22269144.060   117025241.76509  22269141.440    91188525.32947
  21429325.560   112611872.83509  21429321.840    87749501.27248
  23501021.440   123498707.49208  23501018.900    96232775.27446
  22785986.160   119741230.35409  22785986.540    93304879.94747
  24131021.020   126809355.28808  24131020.140    98812471.21745
  23239770.760   122125777.39108  23239769.940    95162923.12147
 15 03 01 00 05  0.0000000  0  7G16G18G21G22G27G29G31
  21537793.200   113181898.36409  21537790.260    88193688.32948
  22258920.380   116971515.97709  22258917.700    91146661.09947
  21437758.760   112656189.23009  21437755.000    87784033.52148
  23483238.280   123405257.06008  23483235.700    96159956.88246
  22773970.240   119678086.33109  22773970.680    93255676.85847
  24144809.820   126881816.31308  24144808.920    98868934.36646
  23257286.120   122217820.88209  23257285.240    95234645.13247
 15 03 01 00 05 30.0000000  0  7G16G18G21G22G27G29G31
  21525021.820   113114784.25709  21525018.860    88141391.63448
  22248762.460   116918135.88109  22248759.760    91105066.23847
  21446245.920   112700789.35409  21446242.200    87818786.85348
  23465467.360   123311871.00408  23465464.820    96087188.71146
  22761970.960   119615029.70809  22761971.540    93206541.84547
  24158603.760   126954303.79908  24158602.920    98925418.07646
  23274825.600   122309991.19509  23274824.760    95306466.04147
 15 03 01 00 06  0.0000000  0  7G16G18G21G22G27G29G31
  21512308.720   113047976.33109  21512305.720    88089333.53148
  22238671.160   116865105.88109  22238668.420    91063744.17847
  21454787.120   112745673.46409  21454783.400    87853761.47748
  23447709.600   123218554.13108  23447707.080    96014474.42446
  22749988.760   119552062.86909  22749989.320    93157476.78647
  24172403.160   127026819.93908  24172401.960    98981924.11646
  23292389.000   122402287.41408  23292388.160    95378384.97647
 15 03 01 00 06 30.0000000  0  7G16G18G21G22G27G29G31
  21499653.880   112981474.76409  21499650.860    88037514.14648
  22228646.500   116812425.98709  22228643.640    91022694.93947
  21463381.780   112790838.36209  21463378.040    87888954.90348
  23429965.060   123125306.78508  23429962.600    95941814.31046
  22738023.200   119489183.62709  22738023.660    93108480.01547
  24186207.800   127099362.49809  24186206.040    99038450.74246
  23309975.460   122494704.71709  23309974.700    95450398.33847
 15 03 01 00 07  0.0000000  0  7G16G18G21G22G27G29G31
  21487057.980   112915282.87809  21487054.920    87985936.06448
  22218689.080   116760099.36809  22218686.140    90981920.97947
  21472029.580   112836282.89509  21472025.860    87924366.22348
  23412234.540   123032132.97208  23412232.160    95869211.50746
  22726074.540   119426393.08709  22726074.960    93059552.34847
  24200017.780   127171932.49308  24200015.420    99094998.80945
  23327584.560   122587240.61109  23327583.820    95522503.92847
 15 03 01 00 07 30.0000000  0  7G16G18G21G22G27G29G31
  21474522.420   112849408.11909  21474519.340    87934605.09848
  22208800.160   116708132.79509  22208797.180    90941427.57647
  21480731.160   112882010.32709  21480727.540    87959997.97848
  23394519.520   122939040.44708  23394517.080    95796672.02546
  22714143.740   119363696.46209  22714144.320    93010697.86847
  24213833.440   127244535.40108  24213830.620    99151572.49345
  23345216.800   122679897.65309  23345216.060    95594703.92847
 15 03 01 00 08  0.0000000  0  7G16G18G21G22G27G29G31
  21462046.720   112783847.80209  21462043.620    87883519.14348
  22198979.340   116656524.32109  22198976.440    90901213.18947
  21489485.260   112928013.80609  21489481.740    87995844.83248
  23376819.580   122846027.03108  23376817.040    95724194.19846
  22702229.920   119301089.06209  22702230.580    92961912.91647
  24227654.460   127317166.08208  24227652.140    99208167.79446
  23362870.660   122772668.05309  23362869.960    95666992.32347
 15 03 01 00 08 30.0000000  0  7G16G18G21G22G27G29G31
  21449631.260   112718604.20609  21449628.200    87832679.99648
  22189227.060   116605276.00709  22189224.280    90861279.45047
  21498291.700   112974292.37109  21498288.260    88031906.03948
  23359135.180   122753095.15008  23359132.640    95651779.89146
  22690333.160   119238570.87509  22690333.720    92913197.48048
  24241480.700   127389825.16908  24241479.200    99264785.17745
  23380545.520   122865549.02309  23380544.860    95739366.90946
 15 03 01 00 09  0.0000000  0  7G16G18G21G22G27G29G31
  21437276.460   112653679.05409  21437273.400    87782088.98348
  22179543.540   116554389.16509  22179540.920    90821627.39447
  21507149.980   113020843.49809  21507146.640    88068179.64348
  23341466.720   122660247.17308  23341464.100    95579430.96547
  22678453.280   119176141.40809  22678453.720    92864551.17947
  24255312.440   127462511.87608  24255311.180    99321424.17346
  23398240.660   122958536.91308  23398240.040    95811824.84747
 15 03 01 00 09 30.0000000  0  7G16G18G21G22G27G29G31
  21424983.220   112589077.46609  21424980.160    87731750.10048
  22169929.700   116503868.49409  22169927.200    90782260.66847
  21516060.240   113067667.79009  21516057.080    88104666.09648
  23323815.200   122567488.31708  23323812.600    95507151.51546
  22666590.800   119113803.36909  22666591.060    92815976.10847
  24269149.800   127535228.95508  24269149.060    99378086.76746
  23415956.040   123051631.41108  23415955.420    95884365.88647
 15 03 01 00 10  0.0000000  0  7G16G18G21G22G27G29G31
  21412751.440   112524799.08109  21412748.400    87681663.05548
  22160385.480   116453713.63209  22160383.040    90743178.97847
  21525021.700   113114760.85909  21525018.540    88141361.99048
  23306180.740   122474819.16908  23306178.140    95434941.93346
  22654745.180   119051554.38609  22654745.480    92767470.45047
  24282992.760   127607973.85908  24282992.240    99434771.08946
  23433690.660   123144827.02108  23433690.000    95956985.68646
 15 03 01 00 10 30.0000000  0  7G16G18G21G22G27G29G31
  21400581.340   112460845.06309  21400578.320    87631828.76148
  22150910.980   116403925.02909  22150908.500    90704382.68747
  21534033.760   113162119.72709  21534030.680    88178264.98548
  23288563.620   122382241.04908  23288561.040    95362803.28146
  22642916.300   118989393.43309  22642916.620    92719033.37347
  24296841.000   127680745.67408  24296840.280    99491476.39446
  23451443.760   123238119.71309  23451443.160    96029681.15147
 15 03 01 00 11  0.0000000  0  7G16G18G21G22G27G29G31
  21388474.060   112397221.13709  21388471.040    87582251.68248
  22141507.440   116354509.12709  22141504.900    90665876.80647
  21543096.820   113209746.40008  21543093.700    88215376.67748
  23270965.000   122289760.30208  23270962.480    95290740.48846
  22631104.840   118927324.15209  22631105.160    92670667.73047
  24310695.100   127753548.01608  24310694.160    99548205.47546
  23469215.420   123331509.77609  23469214.920    96102452.41547
 15 03 01 00 11 30.0000000  0  7G16G18G21G22G27G29G31
  21376429.860   112333928.51009  21376426.860    87532932.76248
  22132174.920   116305466.39909  22132172.280    90627661.72147
  21552210.260   113257637.93409  21552207.140    88252694.74548
  23253385.180   122197378.23108  23253382.600    95218754.59847
  22619310.540   118865345.14508  22619310.900    92622372.44448
  24324554.760   127826379.47308  24324553.580    99604957.22945
  23487004.940   123424993.03109  23487004.400    96175296.32647
 15 03 01 00 12  0.0000000  0  7G16G18G21G22G27G29G31
  21364449.860   112270973.12709  21364446.840    87483876.62648
  22122914.640   116256803.10209  22122911.840    90589742.29347
  21561374.640   113305796.93408  21561371.420    88290221.23548
  23235825.380   122105101.51708  23235822.720    95146850.77747
  22607534.300   118803460.85108  22607534.660    92574150.95648
  24338420.480   127899244.70708  24338419.080    99661735.29045
  23504812.540   123518571.17908  23504811.900    96248214.24747
 15 03 01 00 12 30.0000000  0  7G16G18G21G22G27G29G31
  21352532.400   112208346.28109  21352529.340    87435076.48848
  22113724.760   116208510.15109  22113721.920    90552111.43547
  21570587.280   113354209.90008  21570584.100    88327945.61748
  23218284.020   122012921.89908  23218281.400    95075022.63347
  22595773.980   118741660.11309  22595774.340    92525994.56948
  24352290.740   127972132.32008  24352289.420    99718530.79846
  23522635.360   123612229.61109  23522634.720    96321194.68447
 15 03 01 00 13  0.0000000  0  7G16G18G21G22G27G29G31
  21340680.020   112146061.57809  21340676.940    87386542.96348
  22104607.800   116160600.44709  22104605.020    90514779.22247
  21579850.140   113402886.74708  21579847.040    88365875.62048
  23200763.820   121920853.70408  23200761.140    95003281.29947
  22584031.800   118679954.49609  22584032.120    92477912.30547
  24366167.420   128045053.93308  24366166.260    99775352.79946
  23540475.020   123705976.75609  23540474.460    96394244.20247
 15 03 01 00 13 30.0000000  0  7G16G18G21G22G27G29G31
  21328892.340   112084117.02509  21328889.280    87338274.48748
  22095563.420   116113071.89109  22095560.740    90477744.01147
  21589162.160   113451821.55008  21589159.000    88404006.63548
  23183264.500   121828895.01308  23183261.780    94931625.28347
  22572306.920   118618339.71409  22572307.240    92429900.81648
  24380049.640   128118005.29708  24380048.060    99832198.05645
  23558330.220   123799805.66108  23558329.760    96467357.45746
 15 03 01 00 14  0.0000000  0  7G16G18G21G22G27G29G31
  21317169.860   112022515.23709  21317166.840    87290273.10848
  22086591.940   116065926.59209  22086589.360    90441007.41847
  21598522.760   113501011.69608  21598519.540    88442336.61748
  23165786.600   121737048.89308  23165783.900    94860056.98247
  22560599.360   118556816.14509  22560599.620    92381960.42148
  24393937.560   128190986.91708  24393936.140    99889066.78846
  23576200.340   123893713.33409  23576200.040    96540532.08747
 15 03 01 00 14 30.0000000  0  7G16G18G21G22G27G29G31
  21305513.420   111961260.62509  21305510.400    87242542.24448
  22077694.240   116019169.13909  22077691.700    90404573.05847
  21607932.200   113550458.63708  21607928.940    88480866.68948
  23148331.140   121645320.31308  23148328.440    94788580.29547
  22548909.540   118495386.11809  22548909.900    92334092.89048
  24407831.320   128264000.34007  24407830.420    99945960.31346
  23594085.280   123987698.98909  23594085.240    96613767.45747
 15 03 01 00 15  0.0000000  0  7G16G18G21G22G27G29G31
  21293922.880   111900352.45209  21293919.880    87195081.34448
  22068870.140   115972798.24409  22068867.600    90368439.90947
  21617389.720   113600157.68309  21617386.340    88519593.20448
  23130898.060   121553709.01909  23130895.160    94717194.95747
  22537237.040   118434046.97609  22537237.400    92286296.18748
  24421730.760   128337043.55908  24421730.180   100002877.10146
  23611983.960   124081757.03808  23611984.160    96687059.18747
 15 03 01 00 15 30.0000000  0  7G16G18G21G22G27G29G31
  21282399.300   111839795.98009  21282396.300    87147894.49048
  22060120.640   115926819.13709  22060118.020    90332612.05247
  21626895.460   113650109.77009  21626891.880    88558516.91648
  23113488.340   121462220.71408  23113485.500    94645905.47647
  22525582.400   118372801.71609  22525582.700    92238572.65348
  24435636.320   128410119.60707  24435636.260   100059819.45646
  23629896.340   124175887.27708  23629896.880    96760407.03747
 15 03 01 00 16  0.0000000  0  7G16G18G21G22G27G29G31
  21270941.720   111779586.06709  21270938.660    87100977.68948
  22051444.580   115881226.08509  22051441.880    90297085.01747
  21636447.780   113700306.43309  21636444.020    88597631.20148
  23096101.160   121370850.82208  23096098.420    94574708.25146
  22513944.300   118311643.13309  22513944.520    92190916.62648
  24449547.120   128483221.07308  24449547.240   100116781.59246
  23647820.600   124270079.72309  23647821.400    96833803.37147
 15 03 01 00 16 30.0000000  0  7G16G18G21G22G27G29G31
  21259550.940   111719727.16409  21259547.860    87054334.39448
  22042842.720   115836023.05509  22042840.060    90261861.90347
  21646046.280   113750746.24809  21646042.440    88636934.94248
  23078737.360   121279604.04108  23078734.800    94503606.96247
  22502323.120   118250573.42509  22502323.280    92143329.86347
  24463463.480   128556350.00808  24463463.240   100173765.16145
  23665756.600   124364333.39108  23665757.580    96907247.45646
 15 03 01 00 17  0.0000000  0  7G16G18G21G22G27G29G31
  21248228.480   111660227.10909  21248225.360    87007970.72348
  22034316.520   115791217.89509  22034313.920    90226948.80647
  21655692.040   113801434.53809  21655688.120    88676432.31148
  23061398.620   121188488.68608  23061396.100    94432608.06247
  22490719.960   118189598.36008  22490720.060    92095816.85648
  24477386.120   128629512.43508  24477385.340   100230774.83245
  23683704.920   124458651.08808  23683705.900    96980741.51146
 15 03 01 00 17 30.0000000  0  7G16G18G21G22G27G29G31
  21236974.460   111601086.82409  21236971.360    86961887.39348
  22025866.140   115746811.07209  22025863.580    90192346.11147
  21665384.460   113852368.48609  21665380.520    88716121.09848
  23044085.180   121097506.35809  23044082.600    94361712.82747
  22479134.600   118128716.96609  22479134.680    92048376.86748
  24491314.780   128702706.98408  24491313.700   100287809.49045
  23701664.760   124553028.96308  23701665.620    97054282.59646
 15 03 01 00 18  0.0000000  0  7G16G18G21G22G27G29G31
  21225788.860   111542306.13309  21225785.800    86916084.27848
  22017491.480   115702801.91309  22017488.880    90158053.28647
  21675122.680   113903543.29109  21675118.840    88755997.56948
  23026797.200   121006657.58608  23026794.520    94290921.65847
  22467566.620   118067927.00509  22467566.620    92001008.09647
  24505249.000   128775931.29407  24505247.540   100344867.37645
  23719634.900   124647461.10908  23719635.580    97127865.92545
 15 03 01 00 18 30.0000000  0  7G16G18G21G22G27G29G31
  21214672.540   111483889.61709  21214669.520    86870564.92848
  22009193.360   115659194.99509  22009190.700    90124073.90147
  21684906.900   113954959.91109  21684903.100    88796062.45748
  23009535.700   120915947.47008  23009532.740    94220238.52347
  22456016.520   118007230.96709  22456016.540    91953712.48048
  24519189.220   128849188.50107  24519187.280   100401950.92646
  23737615.340   124741947.67209  23737615.920    97201491.83647
 15 03 01 00 19  0.0000000  0  7G16G18G21G22G27G29G31
  21203625.660   111425837.90709  21203622.620    86825329.83848
  22000971.760   115615990.26409  22000969.120    90090407.89347
  21694736.380   114006614.64709  21694732.660    88836312.90148
  22992300.780   120825376.55609  22992297.480    94149663.84547
  22444483.960   117946627.19708  22444484.040    91906488.79448
  24533135.220   128922476.25307  24533133.400   100459058.25546
  23755605.120   124836483.30308  23755605.600    97275155.90146
 15 03 01 00 19 30.0000000  0  7G16G18G21G22G27G29G31
  21192648.860   111368154.40509  21192645.820    86780381.66348
  21992827.220   115573190.55909  21992824.660    90057057.49047
  21704611.060   114058506.70909  21704607.400    88876748.27448
  22975093.120   120734948.97209  22975089.520    94079200.88547
  22432969.260   117886117.13509  22432969.340    91859338.14148
  24547087.260   128995796.26608  24547086.020   100516190.69846
  23773603.960   124931066.86008  23773604.380    97348857.36846
 15 03 01 00 20  0.0000000  0  6G16G18G21G22G27G31
  21181746.860   111310863.92909  21181743.840    86735739.73248
  21984764.440   115530820.46109  21984761.920    90024041.85047
  21714534.920   114110657.27109  21714531.300    88917385.07448
  22957917.460   120644690.01708  22957913.720    94008869.30647
  22421476.740   117825723.57409  22421476.760    91812278.23047
  23791615.480   125025717.76908  23791615.920    97422611.37446
 15 03 01 00 20 30.0000000  0  6G16G18G21G22G27G31
  21170910.080   111253916.18509  21170907.100    86691364.87248
  21976773.720   115488829.10209  21976771.200    89991321.33747
  21724497.640   114163011.71309  21724494.040    88958180.74948
  22940764.360   120554550.14409  22940760.560    93938630.52847
  22409996.420   117765394.18208  22409996.400    91765268.33948
  23809629.160   125120380.75608  23809629.620    97496374.83146
 15 03 01 00 21  0.0000000  0  6G16G18G21G22G27G31
  21160145.520   111197347.91909  21160142.560    86647285.71248
  21968862.040   115447253.33409  21968859.600    89958924.65147
  21734505.520   114215603.55009  21734501.960    88999161.40048
  22923640.960   120464566.75009  22923637.180    93868513.67747
  22398534.940   117705163.84009  22398534.960    91718335.66648
  23827651.100   125215087.35508  23827651.620    97570172.24047
 15 03 01 00 21 30.0000000  0  6G16G18G21G22G27G31
  21149452.200   111141154.08609  21149449.300    86603498.31048
  21961028.360   115406087.45209  21961025.940    89926847.34247
  21744556.700   114268422.74809  21744553.120    89040319.20948
  22906546.440   120374735.11209  22906542.600    93798515.06147
  22387090.920   117645025.45609  22387091.020    91671474.59647
  23845679.360   125309827.77708  23845680.060    97643996.01746
 15 03 01 00 22  0.0000000  0  6G16G18G21G22G27G31
  21138832.120   111085345.10709  21138829.220    86560010.80848
  21953274.520   115365340.96609  21953272.080    89895096.87047
  21754652.620   114321476.88709  21754649.040    89081660.10748
  22889482.880   120285066.20009  22889479.040    93728643.25247
  22375666.000   117584987.36708  22375666.160    91624691.69448
  23863714.960   125404606.65908  23863715.860    97717849.65246
 15 03 01 00 22 30.0000000  0  6G16G18G21G22G27G31
  21128283.500   111029911.55109  21128280.520    86516815.83848
  21945598.680   115325004.37509  21945596.280    89863665.79547
  21764790.560   114374751.91609  21764786.940    89123173.11148
  22872448.580   120195550.88809  22872444.760    93658891.14247
  22364257.940   117525038.10909  22364258.260    91577978.04148
  23881755.260   125499409.86608  23881756.240    97791722.30846
 15 03 01 00 23  0.0000000  0  7G16G18G19G21G22G27G31
  21117807.900   110974861.71209  21117804.820    86473919.86548
  21938002.320   115285085.70709  21937999.980    89832560.34647
  24535726.720   128936130.97706  24535728.480   100469696.14246
  21774971.420   114428252.49909  21774967.780    89164861.87948
  22855445.200   120106198.14309  22855441.480    93589265.69747
  22352868.000   117465183.95609  22352868.460    91531338.46748
  23899800.880   125594240.57108  23899801.760    97865616.32046
 15 03 01 00 23 30.0000000  0  7G16G18G19G21G22G27G31
  21107411.240   110920226.79009  21107408.140    86431347.19948
  21930491.400   115245615.71909  21930488.980    89801804.53547
  24520913.860   128858291.53608  24520916.080   100409042.26646
  21785200.240   114482005.42709  21785196.640    89206747.27948
  22838478.840   120017040.02609  22838475.240    93519791.90547
  22341501.800   117405454.38009  22341502.300    91484795.96448
  23917856.860   125689125.22008  23917857.640    97939552.37846
 15 03 01 00 24  0.0000000  0  7G16G18G19G21G22G27G31
  21097077.580   110865922.92509  21097074.480    86389032.50548
  21923049.840   115206509.70209  21923047.280    89771332.32547
  24506101.880   128780450.11807  24506101.940   100348386.61145
  21795460.340   114535923.07108  21795456.840    89248761.01648
  22821533.680   119927993.03009  22821530.160    93450404.70247
  22330142.960   117345763.41209  22330143.440    91438283.53448
  23935906.140   125783974.36708  23935906.880    98013460.66746
 15 03 01 00 24 30.0000000  0  7G16G18G19G21G22G27G31
  21086821.980   110812029.26509  21086818.880    86347037.45748
  21915692.580   115167846.52809  21915689.920    89741205.20147
  24491303.400   128702683.52207  24491303.000   100287789.40146
  21805766.240   114590081.31909  21805762.860    89290962.24848
  22804624.840   119839136.57309  22804621.380    93381165.98347
  22318806.160   117286188.27009  22318806.540    91391861.38048
  23953962.900   125878862.49608  23953963.520    98087399.40346
 15 03 01 00 25  0.0000000  0  7G16G18G19G21G22G27G31
  21076640.600   110758525.59909  21076637.480    86305346.29148
  21908415.580   115129605.25109  21908412.960    89711406.82448
  24476515.220   128624969.29608  24476514.820   100227233.00046
  21816113.140   114644454.98209  21816109.840    89333331.32848
  22787748.640   119750451.21309  22787745.120    93312060.58147
  22307487.220   117226706.84509  22307487.460    91345512.24648
  23972022.260   125973764.52408  23972022.840    98161349.07846
 15 03 01 00 25 30.0000000  0  7G16G18G19G21G22G27G31
  21066535.920   110705424.97109  21066532.740    86263969.18948
  21901221.280   115091798.53909  21901218.580    89681947.06347
  24461738.560   128547317.92907  24461737.320   100166725.55444
  21826502.900   114699053.64409  21826499.640    89375875.73448
  22770907.520   119661950.27009  22770903.860    93243098.87047
  22296188.160   117167330.06509  22296188.380    91299244.65848
  23990085.640   126068688.04808  23990086.140    98235315.44045
 15 03 01 00 26  0.0000000  0  7G16G18G19G21G22G27G31
  21056505.140   110652712.58009  21056501.860    86222894.60548
  21894106.680   115054411.06909  21894103.940    89652813.98347
  24446971.180   128469713.66108  24446969.420   100106254.71745
  21836932.020   114753858.98209  21836928.820    89418581.20648
  22754098.880   119573620.25709  22754095.060    93174270.34447
  22284905.920   117108041.54309  22284906.180    91253045.83348
  24008149.480   126163613.99208  24008150.040    98309283.84145
 15 03 01 00 26 30.0000000  0  7G16G18G19G21G22G27G31
  21046551.020   110600403.01909  21046547.660    86182133.92248
  21887074.440   115017456.69509  21887071.700    89624018.39047
  24432214.920   128392168.04907  24432213.700   100045829.74045
  21847402.400   114808881.44709  21847399.260    89461455.84048
  22737325.520   119485475.76309  22737321.580    93105586.39547
  22273642.780   117048853.56909  22273643.140    91206925.36648
  24026215.420   126258551.12108  24026216.000    98383260.95845
 15 03 01 00 27  0.0000000  0  7G16G18G19G21G22G27G31
  21036673.300   110548494.95609  21036669.840    86141686.08148
  21880124.260   114980933.42109  21880121.520    89595558.71847
  24417469.120   128314677.73708  24417467.240    99985447.73844
  21857912.880   114864114.88409  21857909.840    89504494.86748
  22720587.340   119397516.16009  22720583.280    93037046.49947
  22262398.240   116989763.23609  22262398.660    91160880.97648
  24044282.460   126353493.71308  24044282.820    98457242.25246
 15 03 01 00 27 30.0000000  0  7G16G18G19G21G22G27G31
  21026871.220   110496984.62809  21026867.740    86101548.17348
  21873255.500   114944837.82009  21873252.700    89567432.28047
  24402733.020   128237237.22707  24402730.820    99925104.54146
  21868462.320   114919553.02809  21868459.300    89547693.41548
  22703883.740   119309738.27809  22703879.580    92968648.22047
  22251171.200   116930764.91909  22251171.680    91114908.28748
  24062348.840   126448432.80708  24062349.200    98531220.92346
 15 03 01 00 28  0.0000000  0  7G16G18G19G21G22G27G31
  21017147.820   110445887.97409  21017144.340    86061732.60248
  21866470.920   114909184.80109  21866468.120    89539650.72747
  24388008.400   128159859.67608  24388006.880    99864810.55446
  21879053.000   114975207.48509  21879050.000    89591060.52048
  22687217.840   119222158.47409  22687213.660    92900404.27847
  22239964.340   116871872.44809  22239964.740    91069018.09248
  24080416.500   126543378.84108  24080416.740    98605204.82946
 15 03 01 00 28 30.0000000  0  7G16G18G19G21G22G27G31
  21007500.300   110395190.24809  21007496.920    86022227.88748
  21859767.560   114873958.64309  21859764.780    89512201.77547
  24373293.040   128082528.71508  24373290.940    99804552.63045
  21889681.340   115031059.43609  21889678.260    89634581.50948
  22670586.960   119134762.75709  22670582.840    92832303.77547
  22228774.500   116813069.36909  22228774.820    91023197.51648
  24098481.720   126638312.54108  24098482.000    98679178.98746
 15 03 01 00 29  0.0000000  0  7G16G18G19G21G22G27G31
  20997932.300   110344910.58309  20997929.020    85983048.93648
  21853148.940   114839177.95409  21853146.240    89485099.96647
  24358589.240   128005261.19308  24358587.260    99744344.32946
  21900350.320   115087124.92909  21900347.120    89678268.89548
  22653994.800   119047570.80409  22653990.720    92764362.05047
  22217604.940   116754372.96909  22217605.220    90977460.10348
  24116547.260   126733248.28308  24116547.760    98753154.72847
 15 03 01 00 29 30.0000000  0  7G16G18G19G21G22G27G31
  20988441.340   110295035.78009  20988438.180    85944185.46348
  21846612.580   114804829.28409  21846609.900    89458334.77947
  24343894.940   127928042.28608  24343893.160    99684173.84446
  21911056.540   115143386.04809  21911053.160    89722108.73148
  22637439.020   118960570.20009  22637434.940    92696569.43547
  22206452.860   116695768.32509  22206453.100    90931794.14048
  24134609.840   126828168.13108  24134610.720    98827118.21345
 15 03 01 00 30  0.0000000  0  7G16G18G19G21G22G27G31
  20979029.560   110245577.12809  20979026.480    85905646.26248
  21840160.400   114770923.01209  21840157.640    89431914.34047
  24329211.260   127850880.62407  24329208.980    99624047.94145
  21921801.480   115199850.37109  21921798.000    89766106.89048
  22620921.920   118873772.49309  22620917.800    92628934.91547
  22195320.000   116637264.66109  22195320.220    90886206.91948
  24152670.640   126923078.30508  24152671.660    98901074.20347
 15 03 01 00 30 30.0000000  0  7G16G18G19G21G22G27G31
  20969696.260   110196530.89409  20969693.300    85867428.42548
  21833791.640   114737455.05809  21833788.780    89405835.42747
  24314537.780   127773771.10808  24314535.600    99563962.68446
  21932583.640   115256510.60808  21932580.080    89810257.72048
  22604442.860   118787174.72609  22604438.780    92561456.20447
  22184205.360   116578856.79209  22184205.500    90840694.30848
  24170728.000   127017970.12808  24170729.100    98975015.82446
 15 03 01 00 31  0.0000000  0  7G16G18G19G21G22G27G31
  20960443.320   110147906.83109  20960440.500    85829539.54548
  21827508.100   114704434.63009  21827505.200    89380105.24047
  24299875.360   127696720.78008  24299873.260    99503923.58645
  21943404.060   115313372.39309  21943400.500    89854565.58648
  22588003.880   118700787.50009  22587999.800    92494141.52847
  22173110.340   116520552.45709  22173110.560    90795262.37348
  24188782.840   127112848.21908  24188783.820    99048946.72445
 15 03 01 00 31 30.0000000  0  7G16G18G19G21G22G27G31
  20951269.060   110099696.08509  20951266.320    85791972.74048
  21821307.940   114671852.25709  21821305.040    89354716.37747
  24285222.600   127619719.06608  24285220.180    99443922.24246
  21954260.520   115370423.90409  21954257.020    89899021.29248
  22571603.360   118614602.53309  22571599.320    92426984.47247
  22162033.020   116462341.07609  22162033.280    90749902.90448
  24206832.520   127207699.47908  24206833.260    99122856.81745
 15 03 01 00 32  0.0000000  0  7G16G18G19G21G22G27G31
  20942176.460   110051914.08409  20942173.720    85754740.01648
  21815193.820   114639722.26609  21815191.040    89329680.04547
  24270581.220   127542778.98008  24270579.100    99383969.07445
  21965155.140   115427676.05508  21965151.780    89943633.35247
  22555244.300   118528635.51509  22555240.340    92359997.23447
  22150976.020   116404236.23809  22150976.280    90704626.43248
  24224878.960   127302533.87708  24224879.480    99196753.75745
 15 03 01 00 32 30.0000000  0  7G16G18G19G21G22G27G31
  20933164.100   110004553.71009  20933161.360    85717835.83148
  21809164.320   114608037.23409  21809161.600    89304990.41947
  24255950.020   127465891.77808  24255948.240    99324057.04645
  21976085.820   115485117.83008  21976082.560    89988393.15747
  22538925.500   118442880.12909  22538921.620    92293174.90847
  22139937.640   116346229.18109  22139937.880    90659426.13348
  24242920.000   127397339.66208  24242920.180    99270628.44446
 15 03 01 00 33  0.0000000  0  7G16G18G19G21G22G27G31
  20924233.020   109957620.60209  20924230.300    85681264.59648
  21803220.340   114576801.75009  21803217.700    89280651.10347
  24241329.480   127389061.01608  24241327.440    99264188.98746
  21987052.960   115542751.11608  21987049.840    90033302.20448
  22522648.200   118357342.82309  22522644.380    92226522.52047
  22128918.600   116288323.78409  22128918.860    90614305.07848
  24260955.720   127492117.36908  24260955.820    99344481.05746
 15 03 01 00 33 30.0000000  0  7G16G18G19G21G22G27G31
  20915383.100   109911113.66409  20915380.340    85645025.42448
  21797361.620   114546014.46509  21797359.140    89256661.02347
  24226719.180   127312283.53108  24226717.480    99204362.47846
  21998055.720   115600571.41408  21998052.820    90078356.96648
  22506412.220   118272023.13709  22506408.560    92160039.69947
  22117918.340   116230517.23809  22117918.700    90569261.02948
  24278984.940   127586861.34908  24278984.960    99418307.38245
 15 03 01 00 34  0.0000000  0  7G16G18G19G21G22G27G31
  20906615.700   109865040.16409  20906612.840    85609123.99948
  21791589.340   114515681.66509  21791587.020    89233025.08547
  24212120.040   127235565.02408  24212118.180    99144581.89145
  22009094.800   115658582.54709  22009092.060    90123560.42748
  22490219.080   118186928.98609  22490215.620    92093732.62147
  22106937.980   116172815.23809  22106938.360    90524298.46048
  24297008.260   127681574.43508  24297008.260    99492109.72946
 15 03 01 00 34 30.0000000  0  7G16G18G19G21G22G27G31
  20897930.100   109819396.43209  20897927.120    85573557.45548
  21785902.880   114485799.42609  21785900.620    89209740.24247
  24197530.960   127158899.36908  24197529.060    99084842.50446
  22020168.760   115716776.87309  22020166.080    90168906.64548
  22474068.320   118102057.26209  22474064.940    92027598.86447
  22095976.480   116115212.34609  22095976.840    90479413.10148
  24315024.040   127776247.79308  24315024.100    99565881.10945
 15 03 01 00 35  0.0000000  0  7G16G18G19G21G22G27G31
  20889326.860   109774185.87409  20889323.820    85538328.45348
  21780302.740   114456370.32909  21780300.380    89186808.48848
  24182952.400   127082288.32508  24182950.440    99025145.68045
  22031277.520   115775153.75809  22031274.740    90214395.11947
  22457960.800   118017411.93609  22457957.360    91961641.52247
  22085034.200   116057710.24709  22085034.520    90434606.28448
  24333031.980   127870880.05408  24333032.080    99639620.37645
 15 03 01 00 35 30.0000000  0  7G16G18G19G21G22G27G31
  20880806.340   109729410.19509  20880803.220    85503438.32148
  21774789.020   114427395.19509  21774786.560    89164230.48347
  24168384.120   127005731.48908  24168381.640    98965491.06846
  22042420.720   115833711.39608  22042417.800    90260024.43547
  22441896.880   117932995.26209  22441893.340    91895862.35147
  22074111.120   116000309.04309  22074111.420    90389878.10548
  24351031.600   127965468.21008  24351031.740    99713325.40746
 15 03 01 00 36  0.0000000  0  7G16G18G19G21G22G27G31
  20872369.280   109685073.13209  20872366.120    85468889.96148
  21769362.280   114398877.09509  21769359.720    89142008.59747
  24153826.560   126929230.32808  24153824.220    98905879.88446
  22053598.360   115892449.65808  22053595.380    90305794.50348
  22425877.440   117848812.02209  22425873.760    91830265.05747
  22063207.620   115943010.70809  22063207.880    90345230.08348
  24369022.660   128060011.39808  24369022.860    99786995.38345
 15 03 01 00 36 30.0000000  0  7G16G18G19G21G22G27G31
  20864016.780   109641180.27809  20864013.600    85434687.73948
  21764023.420   114370820.81609  21764020.720    89120146.57947
  24139280.080   126852788.63508  24139277.420    98846314.99246
  22064810.780   115951370.57409  22064807.760    90351706.88447
  22409903.600   117764868.38409  22409899.760    91764854.48847
  22052324.500   115885819.23009  22052324.700    90300665.31348
  24387005.220   128154510.40708  24387005.720    99860630.97045
 15 03 01 00 37  0.0000000  0  7G16G18G19G21G22G27G31
  20855747.960   109597726.97809  20855744.700    85400828.02548
  21758771.400   114343221.12309  21758768.640    89098640.33947
  24124743.840   126776400.35708  24124741.380    98786791.76146
  22076056.400   116010466.01008  22076053.280    90397755.27047
  22393974.640   117681160.51709  22393970.580    91699627.63247
  22041460.520   115828728.58509  22041460.680    90256179.11748
  24404977.600   128248955.91708  24404978.320    99934224.85445
 15 03 01 00 37 30.0000000  0  7G16G18G19G21G22G27G31
  20847564.360   109554721.44109  20847560.980    85367317.22148
  21753607.620   114316085.70109  21753604.900    89077495.87547
  24110218.720   126700071.46308  24110216.520    98727314.81046
  22087336.060   116069740.71008  22087332.940    90443943.32647
  22378092.180   117597697.09109  22378087.940    91634591.23748
  22030616.940   115771745.24309  22030617.100    90211776.52548
  24422940.460   128343351.57308  24422941.160   100007779.90446
 15 03 01 00 38  0.0000000  0  7G16G18G19G21G22G27G31
  20839465.180   109512159.52709  20839461.720    85334152.08348
  21748531.180   114289409.62009  21748528.640    89056709.33948
  24095703.940   126623796.26008  24095701.800    98667879.64646
  22098648.320   116129186.82208  22098645.140    90490264.95347
  22362255.640   117514474.89909  22362251.240    91569742.82148
  22019792.720   115714863.71909  22019792.880    90167453.28048
  24440892.120   128437688.28208  24440892.960   100081288.95546
 15 03 01 00 38 30.0000000  0  7G16G18G19G21G22G27G31
  20831451.660   109470048.31909  20831448.220    85301338.15648
  21743543.280   114263198.78509  21743540.940    89036285.32647
  24081200.060   126547579.35108  24081198.060    98608489.93946
  22109993.760   116188807.75108  22109990.680    90536722.80748
  22346466.340   117431501.40209  22346461.960    91505088.19147
  22008988.880   115658089.18309  22008989.040    90123213.41148
  24458833.020   128531968.56908  24458834.000   100154753.95445
 15 03 01 00 39  0.0000000  0  7G16G18G19G21G22G27G31
  20823523.320   109428384.94709  20823519.980    85268873.18948
  21738643.360   114237449.94409  21738641.180    89016221.31548
  24066706.620   126471416.41408  24066704.680    98549142.29446
  22121371.200   116248596.80408  22121368.280    90583311.65347
  22330723.940   117348774.70209  22330719.640    91440625.87547
  21998204.620   115601417.37809  21998204.760    90079053.58948
  24476761.880   128626184.97808  24476762.960   100228169.25746
 15 03 01 00 39 30.0000000  0  7G16G18G19G21G22G27G31
  20815681.100   109387174.35209  20815677.900    85236761.03548
  21733832.160   114212166.96509  21733829.980    88996520.30647
  24052224.260   126395310.79408  24052222.000    98489839.25746
  22132780.860   116308555.50808  22132778.020    90630032.70747
  22315029.520   117266300.36009  22315025.240    91376360.19847
  21987440.580   115544851.81309  21987440.660    90034976.54448
  24494678.620   128720337.65608  24494679.780   100301534.79946
 15 03 01 00 40  0.0000000  0  7G16G18G19G21G22G27G31
  20807924.840   109346415.41209  20807921.780    85205000.82048
  21729109.300   114187348.06309  21729107.060    88977180.91847
  24037752.060   126319259.11208  24037749.660    98430578.30646
  22144221.960   116368679.22508  22144219.140    90676882.34447
  22299383.100   117184078.29409  22299378.780    91312291.09548
  21976696.160   115488389.86509  21976696.260    89990980.25848
  24512582.260   128814421.32908  24512583.400   100374846.55046
 15 03 01 00 40 30.0000000  0  7G16G18G19G21G22G27G31
  20800255.140   109306111.20809  20800252.160    85173594.94248
  21724475.100   114162995.35609  21724472.900    88958204.80247
  24023290.560   126243262.70108  24023287.980    98371360.38546
  22155694.320   116428967.07308  22155691.460    90723859.88247
  22283785.360   117102111.76909  22283780.960    91248421.11248
  21965971.620   115432032.82309  21965971.780    89947065.67748
  24530472.340   128908433.85008  24530473.680   100448102.81545
 15 03 01 00 41  0.0000000  0  7G16G18G19G21G22G27G31
  20792673.340   109266268.93709  20792670.440    85142549.01548
  21719930.920   114139115.77409  21719928.800    88939597.34547
  24008840.440   126167326.60308  24008837.440    98312189.44946
  22167198.600   116489422.77808  22167195.720    90770968.20747
  22268237.800   117020408.89209  22268233.320    91184756.57847
  21955268.180   115375786.65209  21955268.400    89903237.53748
  24548349.500   129002378.00908  24548350.940   100521305.80645
 15 03 01 00 41 30.0000000  0  7G16G18G19G21G22G27G31
  20785179.240   109226887.34109  20785176.380    85111862.05748
  21715476.340   114115706.89209  21715474.160    88921356.67748
  23994401.260   126091448.26308  23994398.540    98253063.56646
  22178734.060   116550041.95508  22178731.220    90818203.93647
  22252740.220   116938969.08509  22252735.780    91121297.03948
  21944585.420   115319648.65309  21944585.620    89859493.65448
  24566212.560   129096248.03508  24566213.800   100594450.99246
 15 03 01 00 42  0.0000000  0  7G16G18G19G21G22G27G31
  20777772.200   109187963.49109  20777769.400    85081531.78448
  21711110.660   114092765.06309  21711108.380    88903479.94747
  23979972.300   126015622.99108  23979969.400    98193978.97346
  22190299.360   116610818.30908  22190296.640    90865562.10948
  22237292.340   116857790.59809  22237288.020    91058041.12248
  21933922.480   115263614.50709  21933922.660    89815830.73248
  24584060.100   129190036.80208  24584061.300   100667532.75945
 15 03 01 00 42 30.0000000  0  7G16G18G19G21G22G27G31
  20770453.840   109149505.57209  20770451.080    85051564.57148
  21706835.260   114070297.72609  21706832.960    88885972.93548
  23965554.520   125939857.49008  23965551.700    98134941.00246
  22201895.420   116671756.25208  22201892.740    90913046.20647
  22221895.920   116776882.40109  22221891.740    90994995.82348
  21923280.620   115207690.95809  21923280.700    89772253.95948
  24601893.060   129283748.11008  24601894.200   100740554.24245
 15 03 01 00 43  0.0000000  0  7G16G18G19G21G22G27G31
  20763223.900   109111512.03609  20763221.100    85021959.22048
  21702649.740   114048302.46009  21702647.400    88868833.78948
  23951147.520   125864148.09208  23951144.720    98075946.71146
  22213521.360   116732850.97108  22213518.660    90960652.47047
  22206550.700   116696242.87509  22206546.560    90932159.86248
  21912659.240   115151875.18709  21912659.160    89728761.17848
  24619710.040   129377375.60308  24619711.320   100813510.42545
 15 03 01 00 43 30.0000000  0  7G16G18G19G21G22G27G31
  20756083.240   109073987.44409  20756080.360    84992719.27848
  21698554.720   114026782.51209  21698552.300    88852065.00948
  23936751.640   125788497.39508  23936748.880    98016998.17146
  22225177.320   116794103.17808  22225174.600    91008381.45347
  22191257.840   116615878.31109  22191253.640    90869538.15247
  21902058.900   115096170.01709  21902058.720    89685354.57048
  24637511.120   129470919.39908  24637512.220   100886401.33245
 15 03 01 00 44  0.0000000  0  7G16G18G19G21G22G27G31
  20749031.980   109036932.35209  20749029.000    84963845.18348
  21694550.260   114005738.37309  21694547.740    88835667.00147
  23922366.740   125712904.91508  23922364.080    97958095.00646
  22236862.800   116855510.38608  22236860.080    91056231.21647
  22176017.460   116535789.87109  22176013.260    90807131.62047
  21891479.540   115040574.88409  21891479.280    89642033.71448
  24655295.560   129564375.44608  24655296.760   100959223.75544
 15 03 01 00 44 30.0000000  0  7G16G18G19G21G22G27G31
  20742070.120   109000346.81909  20742066.980    84935336.97948
  21690636.100   113985169.10209  21690633.520    88819639.00248
  23907992.720   125637369.12008  23907990.100    97899235.96046
  22248577.100   116917068.88008  22248574.240    91104198.86447
  22160829.700   116455978.28409  22160825.540    90744940.80648
  21880920.940   114985088.75109  21880920.620    89598797.78448
  24673062.620   129657739.77008  24673063.880   101031974.74845
 15 03 01 00 45  0.0000000  0  7G16G18G19G21G22G27G31
  20735198.740   108964236.97909  20735195.440    84907199.44648
  21686813.200   113965079.64809  21686810.580    88803984.89648
  23893629.940   125561893.39208  23893627.280    97840423.77646
  22260320.700   116978781.63308  22260317.840    91152286.70847
  22145695.900   116376449.92809  22145691.760    90682970.69548
  21870383.880   114929715.98309  21870383.580    89555650.20148
  24690812.480   129751013.88208  24690813.660   101104655.55844
 15 03 01 00 45 30.0000000  0  6G16G18G19G21G22G27
  20728416.080   108928593.72909  20728412.720    84879425.48148
  21683079.600   113945459.91009  21683077.100    88788696.81148
  23879276.680   125486467.35808  23879274.220    97781650.31946
  22272091.380   117040636.23308  22272088.440    91200485.08347
  22130614.500   116297196.97209  22130610.440    90621215.18948
  21859866.360   114874446.17109  21859866.100    89512582.84048
 15 03 01 00 46  0.0000000  0  6G16G18G19G21G22G27
  20721725.060   108893432.11609  20721721.740    84852026.83148
  21679438.160   113926324.31109  21679435.700    88773785.97548
  23864935.680   125411104.70508  23864932.940    97722926.18247
  22283891.180   117102643.92809  22283888.040    91248802.75347
  22115588.580   116218235.26909  22115584.560    90559686.62448
  21849371.100   114819293.33109  21849370.880    89469606.63448
 15 03 01 00 46 30.0000000  0  6G16G18G19G21G22G27
  20715125.840   108858753.02809  20715122.580    84825004.16848
  21675888.940   113907673.09709  21675886.460    88759252.56848
  23850606.280   125335804.46108  23850603.940    97664250.79746
  22295719.720   117164802.78209  22295716.540    91297238.20747
  22100618.420   116139566.49709  22100614.380    90498386.31348
  21838898.000   114764257.08909  21838897.840    89426721.27548
 15 03 01 00 47  0.0000000  0  6G16G18G19G21G22G27
  20708616.820   108824547.81809  20708613.600    84798350.74348
  21672430.240   113889497.07209  21672427.700    88745089.43648
  23836287.160   125260557.32408  23836284.740    97605616.67946
  22307574.800   117227101.14009  22307571.620    91345782.36447
  22085702.700   116061183.50809  22085698.520    90437308.68748
  21828445.360   114709328.08509  21828445.240    89383919.47248
 15 03 01 00 47 30.0000000  0  6G16G18G19G21G22G27
  20702200.040   108790827.55909  20702196.880    84772075.21848
  21669063.760   113871805.75109  21669061.120    88731304.00748
  23821979.800   125185371.49308  23821977.520    97547030.41346
  22319457.680   117289545.46308  22319454.420    91394440.27147
  22070843.360   115983097.06709  22070839.080    90376462.15148
  21818014.860   114654515.18809  21818014.720    89341208.15048
 15 03 01 00 48  0.0000000  0  6G16G18G19G21G22G27
  20695875.960   108757594.38909  20695872.820    84746179.24648
  21665789.700   113854600.52609  21665787.020    88717897.34848
  23807684.040   125110247.86508  23807681.620    97488492.58246
  22331368.100   117352135.27708  22331364.760    91443211.54047
  22056040.980   115905310.55809  22056036.720    90315849.33048
  21807606.680   114599819.77809  21807606.500    89298588.36948
 15 03 01 00 48 30.0000000  0  6G16G18G19G21G22G27
  20689642.520   108724837.53309  20689639.360    84720654.41248
  21662605.820   113837869.51709  21662603.140    88704860.20548
  23793398.260   125035174.53108  23793395.860    97429993.91746
  22343303.560   117414856.80008  22343300.280    91492085.44247
  22041293.740   115827813.90409  22041289.580    90255462.36548
  21797218.520   114545229.78909  21797218.360    89256050.72748
 15 03 01 00 49  0.0000000  0  6G16G18G19G21G22G27
  20683503.300   108692575.83509  20683500.180    84695515.42348
  21659515.680   113821631.32609  21659512.980    88692207.08647
  23779125.020   124960168.53508  23779122.380    97371547.73647
  22355267.080   117477725.48009  22355263.720    91541073.99547
  22026605.520   115750627.29109  22026601.440    90195316.99048
  21786853.800   114490763.16409  21786853.660    89213609.21848
 15 03 01 00 49 30.0000000  0  6G16G18G19G21G22G27
  20677456.840   108660801.67509  20677453.780    84670756.33548
  21656517.620   113805877.01109  21656514.940    88679931.00648
  23764862.780   124885220.65908  23764860.000    97313146.88846
  22367256.540   117540730.35908  22367253.120    91590168.70747
  22011975.020   115673743.74509  22011970.960    90135407.76948
  21776510.880   114436410.89709  21776510.720    89171256.82348
 15 03 01 00 50  0.0000000  0  6G16G18G19G21G22G27
  20671502.800   108629513.41009  20671499.840    84646375.87548
  21653611.180   113790603.72109  21653608.480    88668029.76447
  23750611.140   124810327.91208  23750608.380    97254788.96247
  22379271.000   117603866.85408  22379267.700    91639365.96147
  21997402.040   115597162.35209  21997397.980    90075733.99848
  21766189.240   114382170.37609  21766189.020    89128991.49248
 15 03 01 00 50 30.0000000  0  6G16G18G19G21G22G27
  20665643.220   108598721.61609  20665640.400    84622382.26748
  21650798.300   113775821.73409  21650795.540    88656511.33348
  23736371.660   124735499.44608  23736368.820    97196481.12046
  22391311.780   117667141.96108  22391308.660    91688671.21747
  21982888.720   115520894.62909  21982884.660    90016304.64348
  21755890.640   114328051.08609  21755890.440    89086820.64348
 15 03 01 00 51  0.0000000  0  6G16G18G19G21G22G27
  20659877.080   108568420.40409  20659874.260    84598770.92948
  21648077.540   113761523.88409  21648074.740    88645370.17948
  23722143.100   124660727.76208  23722140.400    97138217.52346
  22403377.340   117730546.91008  22403374.220    91738077.67247
  21968434.140   115444935.33009  21968430.100    89957115.60548
  21745613.780   114274045.96709  21745613.600    89044738.74448
 15 03 01 00 51 30.0000000  0  6G16G18G19G21G22G27
  20654205.920   108538618.42709  20654203.120    84575548.61248
  21645450.420   113747718.26209  21645447.640    88634612.55148
  23707926.720   124586020.27508  23707924.120    97080003.95546
  22415468.640   117794087.12008  22415465.560    91787589.50447
  21954040.120   115369294.27109  21954036.060    89898174.54948
  21735360.120   114220162.71709  21735359.940    89002751.81948
 15 03 01 00 52  0.0000000  0  6G16G18G19G21G22G27
  20648628.760   108509310.60809  20648626.000    84552711.35748
  21642915.720   113734398.26309  21642912.960    88624233.35848
  23693721.240   124511370.32308  23693718.600    97021835.23546
  22427583.960   117857753.45908  22427580.960    91837199.62448
  21939705.820   115293967.27409  21939701.780    89839478.22248
  21725128.520   114166395.17809  21725128.360    88960855.04348
 15 03 01 00 52 30.0000000  0  6G16G18G19G21G22G27
  20643145.860   108480498.15309  20643143.160    84530260.09648
  21640473.560   113721564.64109  21640470.860    88614233.13248
  23679526.820   124436777.58608  23679523.900    96963711.05446
  22439723.260   117921545.66909  22439720.280    91886907.81147
  21925431.700   115218956.74809  21925427.700    89781028.50248
  21714919.000   114112743.62509  21714918.880    88919048.66148
 15 03 01 00 53  0.0000000  0  6G16G18G19G21G22G27
  20637759.180   108452191.14809  20637756.500    84508202.69248
  21638125.540   113709226.01009  21638122.960    88604618.63048
  23665344.940   124362251.26908  23665342.040    96905638.65546
  22451887.760   117985470.03609  22451884.780    91936718.99847
  21911219.880   115144273.18709  21911215.820    89722833.55548
  21704733.240   114059216.98709  21704733.120    88877339.61748
 15 03 01 00 53 30.0000000  0  6G16G18G19G21G22G27
  20632467.900   108424385.16809  20632465.180    84486535.69749
  21635870.920   113697377.60509  21635868.300    88595386.10648
  23651174.360   124287785.08608  23651171.480    96847613.13447
  22464075.940   118049519.08909  22464072.860    91986627.33447
  21897069.680   115069913.22409  21897065.560    89664890.76348
  21694570.220   114005810.00709  21694570.060    88835723.80248
 15 03 01 00 54  0.0000000  0  6G16G18G19G21G22G27
  20627272.040   108397080.66809  20627269.300    84465259.46548
  21633709.500   113686018.42009  21633706.740    88586534.81448
  23637015.200   124213377.89308  23637012.140    96789633.53146
  22476287.320   118113690.00309  22476284.220    92036630.62847
  21882981.280   114995878.15109  21882977.120    89607201.12548
  21684429.820   113952522.02109  21684429.680    88794200.70748
 15 03 01 00 54 30.0000000  0  6G16G18G19G21G22G27
  20622173.440   108370287.08409  20622170.620    84444381.34448
  21631642.800   113675157.52009  21631639.960    88578071.78648
  23622868.740   124139038.39808  23622865.740    96731706.69347
  22488523.100   118177989.50909  22488519.980    92086734.11847
  21868956.740   114922178.63309  21868952.540    89549772.96148
  21674313.760   113899361.93209  21674313.640    88752777.28248
 15 03 01 00 55  0.0000000  0  6G16G18G19G21G22G27
  20617169.580   108343991.13409  20617166.600    84423890.98948
  21629668.040   113664780.55409  21629665.240    88569985.84048
  23608732.240   124064752.17708  23608729.460    96673821.40346
  22500780.200   118242401.16409  22500776.980    92136924.99847
  21854993.720   114848802.29709  21854989.420    89492596.62648
  21664219.320   113846315.47609  21664219.260    88711442.41848
 15 03 01 00 55 30.0000000  0  6G16G18G19G21G22G27
  20612262.780   108318205.55509  20612259.700    84403798.32848
  21627787.540   113654898.92809  21627784.740    88562285.88848
  23594608.300   123990530.45508  23594605.400    96615986.32246
  22513060.580   118306934.61309  22513057.260    92187210.80647
  21841094.800   114775762.39309  21841090.300    89435682.44248
  21654148.720   113793394.36509  21654148.700    88670205.20548
 15 03 01 00 56  0.0000000  0  6G16G18G19G21G22G27
  20607453.100   108292930.39809  20607449.980    84384103.39848
  21626001.180   113645511.83709  21625998.420    88554971.27648
  23580496.360   123916371.51808  23580493.500    96558200.19746
  22525363.660   118371586.82609  22525360.240    92237589.14147
  21827260.120   114703060.14409  21827255.400    89379031.36648
  21644101.800   113740597.68409  21644101.800    88629064.95248
 15 03 01 00 56 30.0000000  0  6G16G18G19G21G22G27
  20602740.880   108268167.53309  20602737.860    84364807.66348
