     2.11           OBSERVATION DATA    G                   RINEX VERSION / TYPE
SPIDER V4,0,0,3554                      2015 03 21 01:50    PGM / RUN BY / DATE 
CNGR                                                        MARKER NAME         
CNGR                                                        MARKER NUMBER       
                                                            OBSERVER / AGENCY   
496521              LEICA GRX1200+GNSS  8.10/4.007          REC # / TYPE / VERS 
10321004            LEIAR25         NONE                    ANT # / TYPE        
  5218738.7445   688113.1521  3590185.5476                  APPROX POSITION XYZ 
        0.0720        0.0000        0.0000                  ANTENNA: DELTA H/E/N
     1     1                                                WAVELENGTH FACT L1/2
     4    C1    L1    P2    L2                              # / TYPES OF OBSERV 
    30.000                                                  INTERVAL            
  2015    03    01    00    00    0.0000000     GPS         TIME OF FIRST OBS   
  2015    03    01    23    59   30.0000000     GPS         TIME OF LAST OBS    
    16                                                      LEAP SECONDS        
    30                                                      # OF SATELLITES     
   G 1   814   814   814   814                              PRN / # OF OBS      
   G 2   943   943   943   943                              PRN / # OF OBS      
   G 3   860   860   860   860                              PRN / # OF OBS      
   G 4   843   843   843   843                              PRN / # OF OBS      
   G 5   647   647   647   647                              PRN / # OF OBS      
   G 6   830   830   829   829                              PRN / # OF OBS      
   G 7   677   677   677   677                              PRN / # OF OBS      
   G 9   817   816   816   816                              PRN / # OF OBS      
   G10   757   757   757   757                              PRN / # OF OBS      
   G11   777   777   776   776                              PRN / # OF OBS      
   G12   842   842   841   841                              PRN / # OF OBS      
   G13   795   795   795   795                              PRN / # OF OBS      
   G14   941   935   934   933                              PRN / # OF OBS      
   G15   685   673   671   671                              PRN / # OF OBS      
   G16   666   666   666   666                              PRN / # OF OBS      
   G17   942   942   942   942                              PRN / # OF OBS      
   G18   902   902   902   902                              PRN / # OF OBS      
   G19   754   754   753   753                              PRN / # OF OBS      
   G20   772   772   772   772                              PRN / # OF OBS      
   G21   735   703   691   680                              PRN / # OF OBS      
   G22   670   668   666   666                              PRN / # OF OBS      
   G23   761   761   761   761                              PRN / # OF OBS      
   G24   819   796   784   782                              PRN / # OF OBS      
   G25   860   860   860   860                              PRN / # OF OBS      
   G27   809   809   808   808                              PRN / # OF OBS      
   G28   868   868   868   868                              PRN / # OF OBS      
   G29   768   768   767   767                              PRN / # OF OBS      
   G30   725   725   725   725                              PRN / # OF OBS      
   G31   865   864   864   864                              PRN / # OF OBS      
   G32   776   776   776   776                              PRN / # OF OBS      
BIT 2 OF LLI FLAGS DATA COLLECTED UNDER A/S CONDITION       COMMENT             
SNR is mapped to RINEX snr flag value [2-9]                 COMMENT             
Lx:     = 25dBHz -> 1; 26-27dBHz -> 2; 28-31dBHz -> 3       COMMENT             
       32-35dBHz -> 4; 36-38dBHz -> 5; 39-41dBHz -> 6       COMMENT             
       42-44dBHz -> 7; 45-48dBHz -> 8; >=49dBHz -> 9        COMMENT             
                                                            END OF HEADER       
 15 03 01 00 00  0.0000000  0  7G16G18G21G22G27G29G31
  21758138.920   114339817.54909  21758136.080    89095967.88347
  22254307.820   116947291.97909  22254304.300    91127798.99347
  21325817.660   112067935.88209  21325814.200    87325653.34848
  23596369.180   123999790.39208  23596367.360    96623226.08546
  23029417.600   121020451.48108  23029418.740    94301659.21247
  23880802.980   125494450.24808  23880801.380    97787872.83846
  23109782.540   121442692.96609  23109782.060    94630651.95747
 15 03 01 00 00 30.0000000  0  7G16G18G21G22G27G29G31
  21744460.840   114267938.81409  21744457.960    89039958.48948
  22243554.880   116890785.45009  22243551.480    91083767.96647
  21333606.480   112108866.41609  21333603.020    87357547.26448
  23578366.820   123905187.34208  23578364.840    96549509.56346
  23017044.640   120955430.99808  23017045.700    94250993.93847
  23894233.900   125565029.33908  23894232.540    97842869.52047
  23126812.660   121532185.77309  23126812.100    94700386.45547
 15 03 01 00 01  0.0000000  0  7G16G18G21G22G27G29G31
  21730837.380   114196347.28809  21730834.500    88984172.89748
  22232866.800   116834619.74109  22232863.580    91040002.50147
  21341452.060   112150095.14608  21341448.600    87389673.53948
  23560374.960   123810639.47108  23560372.800    96475836.02946
  23004687.240   120890492.17008  23004688.180    94200392.28747
  23907672.500   125635650.48708  23907671.600    97897898.92846
  23143872.820   121621836.41309  23143872.160    94770243.92647
 15 03 01 00 01 30.0000000  0  7G16G18G21G22G27G29G31
  21717267.560   114125037.41009  21717264.740    88928606.77748
  22222242.640   116778789.69009  22222239.600    90996498.59847
  21349352.600   112191612.81608  21349349.160    87422024.96448
  23542392.660   123716141.74208  23542390.440    96402201.56846
  22992343.880   120825627.22308  22992344.660    94149848.21947
  23921117.640   125706305.70008  23921116.980    97952954.94646
  23160961.020   121711634.34609  23160960.300    94840216.10047
 15 03 01 00 02  0.0000000  0  7G16G18G21G22G27G29G31
  21703752.700   114054016.62509  21703749.920    88873265.91848
  22211683.720   116723302.27209  22211680.700    90953261.68847
  21357308.820   112233423.22609  21357305.440    87454604.50748
  23524421.340   123621701.72308  23524418.980    96328612.07647
  22980015.560   120760841.24108  22980016.260    94099365.68947
  23934570.240   125777000.55108  23934570.040    98008041.79547
  23178077.580   121801581.60609  23178076.880    94910304.64947
 15 03 01 00 02 30.0000000  0  7G16G18G21G22G27G29G31
  21690292.240   113983281.80909  21690289.500    88818147.89548
  22201189.400   116668154.31109  22201186.380    90910289.26347
  21365319.400   112275519.45509  21365316.100    87487406.75748
  23506460.600   123527317.24009  23506458.200    96255065.84846
  22967701.200   120696129.08408  22967701.900    94048940.66847
  23948029.460   125847729.76308  23948029.220    98063155.44046
  23195220.980   121891670.07208  23195220.360    94980503.30047
 15 03 01 00 03  0.0000000  0  7G16G18G21G22G27G29G31
  21676887.140   113912837.76709  21676884.400    88763256.45048
  22190760.580   116613350.70209  22190757.620    90867585.19447
  21373384.460   112317901.82909  21373381.220    87520431.97948
  23488511.280   123432992.88508  23488508.580    96181566.48246
  22955401.280   120631493.01008  22955401.980    93998574.93947
  23961495.760   125918495.54208  23961495.500    98118297.59347
  23212391.100   121981899.00709  23212390.560    95050811.44447
 15 03 01 00 03 30.0000000  0  7G16G18G21G22G27G29G31
  21663538.220   113842688.84709  21663535.480    88708594.96548
  22180398.020   116558895.57109  22180395.140    90825152.66047
  21381504.100   112360570.64609  21381500.860    87553680.40648
  23470574.260   123338733.41109  23470571.480    96108117.68046
  22943116.200   120566935.06208  22943116.920    93948270.09847
  23974969.380   125989299.99808  23974969.400    98173469.83946
  23229587.680   122072267.47708  23229587.260    95121228.32747
 15 03 01 00 04  0.0000000  0  7G16G18G21G22G27G29G31
  21650245.440   113772834.74609  21650242.680    88654163.20848
  22170101.660   116504788.15709  22170098.820    90782991.06247
  21389677.400   112403521.34109  21389674.160    87587148.47848
  23452649.540   123244538.85708  23452646.620    96034719.45647
  22930845.560   120502452.71108  22930846.280    93898024.14147
  23988449.900   126060140.78808  23988449.660    98228670.45846
  23246809.720   122162769.73508  23246809.420    95191749.40747
 15 03 01 00 04 30.0000000  0  7G16G18G21G22G27G29G31
  21637009.580   113703279.73809  21637006.800    88599964.50448
  22159872.320   116451033.13809  22159869.600    90741104.06347
  21397904.420   112446754.37909  21397901.200    87620836.55548
  23434738.040   123150413.97808  23434735.120    95961375.50746
  22918589.680   120438047.85808  22918590.340    93847838.58847
  24001937.640   126131019.50808  24001937.500    98283900.58546
  23264056.980   122253404.64508  23264056.760    95262373.89247
 15 03 01 00 05  0.0000000  0  7G16G18G21G22G27G29G31
  21623830.520   113634023.21809  21623827.780    88545998.40648
  22149709.860   116397629.58109  22149707.280    90699490.93647
  21406184.300   112490265.25809  21406181.000    87654741.13848
  23416839.680   123056358.42008  23416836.700    95888085.61346
  22906348.000   120373717.95508  22906348.700    93797711.43447
  24015432.300   126201933.99408  24015432.260    98339158.54646
  23281328.480   122344166.68309  23281328.280    95333097.42547
 15 03 01 00 05 30.0000000  0  7G16G18G21G22G27G29G31
  21610708.700   113565067.62509  21610706.000    88492266.78748
  22139614.700   116344579.88209  22139612.280    90658153.54347
  21414516.640   112534052.17909  21414513.340    87688860.81948
  23398955.100   122962375.34309  23398952.040    95814852.17346
  22894120.580   120309463.04608  22894121.400    93747642.71947
  24028933.900   126272884.53508  24028933.580    98394444.70046
  23298623.600   122435052.67609  23298623.420    95403917.51547
 15 03 01 00 06  0.0000000  0  7G16G18G21G22G27G29G31
  21597645.200   113496418.61109  21597642.520    88438774.06548
  22129587.980   116291889.46309  22129585.720    90617096.10047
  21422901.780   112578116.49509  21422898.520    87723196.64348
  23381085.520   122868470.55508  23381082.460    95741679.72846
  22881908.140   120245286.59308  22881909.100    93697635.14047
  24042442.820   126343874.29908  24042442.580    98449761.36546
  23315942.460   122526063.23008  23315942.280    95474834.69747
 15 03 01 00 06 30.0000000  0  7G16G18G21G22G27G29G31
  21584640.200   113428076.93309  21584637.520    88385520.80948
  22119629.760   116239558.87309  22119627.620    90576319.05947
  21431339.180   112622455.53109  21431335.960    87757746.53348
  23363231.100   122774644.99709  23363227.940    95668569.03146
  22869710.420   120181186.92608  22869711.420    93647687.38747
  24055958.960   126414901.67408  24055958.640    98505107.32846
  23333284.160   122617193.75308  23333283.940    95545845.38847
 15 03 01 00 07  0.0000000  0  7G16G18G21G22G27G29G31
  21571694.180   113360045.48009  21571691.560    88332509.30648
  22109740.580   116187590.75609  22109738.440    90535824.43647
  21439828.540   112667067.68409  21439825.360    87792509.24648
  23345392.400   122680902.16909  23345389.120    95595522.79246
  22857527.460   120117164.73508  22857528.300    93597800.00048
  24069482.320   126485967.29508  24069481.800    98560483.16546
  23350648.180   122708441.73209  23350648.020    95616947.60047
 15 03 01 00 07 30.0000000  0  7G16G18G21G22G27G29G31
  21558807.260   113292324.26109  21558804.640    88279739.52948
  22099920.220   116135984.34209  22099918.120    90495611.68347
  21448369.060   112711948.72708  21448365.940    87827481.49348
  23327569.480   122587242.32908  23327566.160    95522541.20347
  22845358.720   120053217.66608  22845359.460    93547971.15848
  24083012.580   126557068.98408  24083012.100    98615887.01746
  23368033.500   122799801.75608  23368033.320    95688137.10047
 15 03 01 00 08  0.0000000  0  7G16G18G21G22G27G29G31
  21545980.340   113224918.21509  21545977.680    88227215.36048
  22090169.760   116084745.23209  22090167.680    90455685.13847
  21456960.900   112757099.43508  21456957.860    87862663.86548
  23309763.400   122493670.90708  23309759.980    95449628.53046
  22833204.840   119989348.72508  22833205.580    93498203.19347
  24096550.340   126628209.46508  24096549.860    98671321.14046
  23385440.100   122891273.56508  23385439.920    95759413.73247
 15 03 01 00 08 30.0000000  0  7G16G18G21G22G27G29G31
  21533213.840   113157829.76809  21533211.160    88174938.65448
  22080489.560   116033875.52109  22080487.540    90416046.43747
  21465603.900   112802518.92709  21465600.880    87898055.67548
  23291974.560   122400190.36609  23291971.060    95376786.65646
  22821065.860   119925557.97008  22821066.580    93448496.15648
  24110095.540   126699389.29108  24110094.960    98726785.90346
  23402867.440   122982854.51308  23402867.280    95830775.38747
 15 03 01 00 09  0.0000000  0  7G16G18G21G22G27G29G31
  21520507.760   113091058.75709  21520505.060    88122909.30948
  22070879.560   115983374.65409  22070877.420    90376695.14147
  21474297.260   112848202.81608  21474294.200    87933653.50448
  23274203.040   122306801.18908  23274199.600    95304015.97546
  22808941.380   119861843.03208  22808942.000    93398848.18648
  24123647.860   126770605.96808  24123647.200    98782279.40146
  23420314.520   123074539.10108  23420314.440    95902217.81347
 15 03 01 00 09 30.0000000  0  7G16G18G21G22G27G29G31
  21507862.500   113024607.21709  21507859.780    88071128.89348
  22061340.000   115933244.07009  22061337.760    90337632.37147
  21483040.460   112894148.53109  21483037.320    87969455.34448
  23256449.260   122213505.48309  23256445.780    95231318.13346
  22796831.260   119798203.46808  22796831.740    93349258.95347
  24137207.160   126841859.02508  24137206.340    98837801.20446
  23437780.660   123166323.80808  23437780.640    95973738.24347
 15 03 01 00 10  0.0000000  0  7G16G18G21G22G27G29G31
  21495279.760   112958484.01009  21495276.960    88019604.32448
  22051872.600   115883492.55509  22051870.300    90298864.98947
  21491834.420   112940360.92508  21491831.180    88005465.01048
  23238715.140   122120312.94508  23238711.740    95158700.67546
  22784736.640   119734646.13608  22784737.060    93299733.80147
  24150774.520   126913155.19008  24150773.520    98893356.63946
  23455266.560   123258212.26308  23455266.580    96045339.46847
 15 03 01 00 10 30.0000000  0  7G16G18G21G22G27G29G31
  21482758.900   112892686.17909  21482756.040    87968333.30348
  22042476.640   115834116.41509  22042474.280    90260390.09547
  21500677.840   112986832.84809  21500674.500    88041676.88848
  23221000.160   122027220.77708  23220996.800    95086161.42647
  22772656.660   119671165.82608  22772657.040    93250268.66747
  24164349.020   126984489.40908  24164348.240    98948941.72646
  23472770.720   123350196.35608  23472770.720    96117015.19747
 15 03 01 00 11  0.0000000  0  7G16G18G21G22G27G29G31
  21470300.400   112827216.31709  21470297.540    87917317.83448
  22033152.720   115785118.82709  22033150.380    90222210.19147
  21509570.400   113033563.16209  21509566.960    88078090.11348
  23203304.960   121934232.17509  23203301.660    95013702.87147
  22760591.440   119607763.05308  22760591.840    93200863.95247
  24177930.820   127055862.11308  24177930.140    99004556.77546
  23490292.580   123442273.24608  23490292.500    96188763.22847
 15 03 01 00 11 30.0000000  0  7G16G18G21G22G27G29G31
  21457905.080   112762078.91709  21457902.300    87866561.43148
  22023901.500   115736503.47409  22023899.240    90184328.12747
  21518512.180   113080552.16209  21518508.640    88114704.91948
  23185630.300   121841351.61508  23185627.140    94941328.51347
  22748541.340   119544439.71808  22748541.800    93151521.12247
  24191520.220   127127275.22508  24191519.560    99060203.30546
  23507831.920   123534441.97808  23507831.760    96260582.81246
 15 03 01 00 12  0.0000000  0  7G16G18G21G22G27G29G31
  21445572.500   112697271.43109  21445569.820    87816062.10248
  22014722.600   115688268.07109  22014720.340    90146742.12647
  21527502.040   113127793.98209  21527498.520    88151516.72248
  23167975.860   121748577.26608  23167972.700    94869036.92247
  22736505.540   119481191.69508  22736505.980    93102236.97947
  24205116.660   127198724.79808  24205115.720    99115878.30446
  23525387.380   123626695.54108  23525387.140    96332468.47947
 15 03 01 00 12 30.0000000  0  7G16G18G21G22G27G29G31
  21433304.200   112632801.48409  21433301.520    87765825.79248
  22005617.360   115640419.73309  22005615.120    90109457.73347
  21536540.440   113175291.38908  21536537.100    88188527.68748
  23150343.200   121655917.19408  23150340.020    94796834.36647
  22724485.000   119418024.11108  22724485.420    93053015.52047
  24218721.080   127270215.89808  24218720.040    99171585.62646
  23542959.280   123719035.80508  23542959.020    96404421.68046
 15 03 01 00 13  0.0000000  0  7G16G18G21G22G27G29G31
  21421099.820   112568667.13209  21421097.100    87715850.97848
  21996585.280   115592955.76409  21996582.920    90072472.85347
  21545626.340   113223038.73908  21545623.180    88225733.40848
  23132732.060   121563370.07109  23132728.940    94724719.81947
  22712479.100   119354933.03908  22712479.520    93003853.67647
  24232332.520   127341744.44808  24232331.280    99227322.12045
  23560546.360   123811455.62308  23560546.120    96476436.91547
 15 03 01 00 13 30.0000000  0  7G16G18G21G22G27G29G31
  21408960.300   112504873.30309  21408957.460    87666141.50748
  21987627.240   115545880.84909  21987624.860    90035791.12747
  21554759.960   113271036.95809  21554756.960    88263134.61648
  23115143.300   121470940.78408  23115140.220    94652697.07547
  22700488.320   119291920.98009  22700488.700    92954753.39747
  24245951.640   127413313.17208  24245950.260    99283089.94946
  23578148.560   123903954.83908  23578148.340    96548514.00346
 15 03 01 00 14  0.0000000  0  7G16G18G21G22G27G29G31
  21396885.640   112441420.30209  21396882.780    87616697.61548
  21978743.140   115499194.74609  21978740.840    89999412.36848
  21563940.420   113319281.14309  21563937.520    88300727.48848
  23097577.160   121378630.14509  23097574.080    94580766.80447
  22688512.300   119228986.08408  22688512.620    92905713.25447
  24259578.060   127484920.24608  24259576.860    99338887.62046
  23595764.840   123996528.00908  23595764.640    96620648.72846
 15 03 01 00 14 30.0000000  0  7G16G18G21G22G27G29G31
  21384876.960   112378313.99009  21384874.060    87567523.87548
  21969934.120   115452903.38609  21969931.880    89963341.21547
  21573168.320   113367774.19209  21573165.420    88338514.28248
  23080034.840   121286444.54409  23080031.660    94508933.96547
  22676551.660   119166132.06308  22676551.880    92856736.12747
  24273212.320   127556568.59508  24273211.060    99394717.47246
  23613395.320   124089175.95008  23613395.100    96692841.68346
 15 03 01 00 15  0.0000000  0  7G16G18G21G22G27G29G31
  21372934.660   112315556.67509  21372931.740    87518622.07548
  21961200.580   115407008.46809  21961198.300    89927578.96248
  21582443.300   113416514.41509  21582440.340    88376493.66448
  23062516.740   121194386.61009  23062513.540    94437200.59747
  22664606.380   119103359.33508  22664606.600    92807822.33747
  24286854.520   127628259.35708  24286853.120    99450580.38746
  23631039.540   124181896.05808  23631039.260    96765090.89546
 15 03 01 00 15 30.0000000  0  7G16G18G21G22G27G29G31
  21361058.760   112253148.34909  21361055.840    87469992.21548
  21952542.460   115361509.83509  21952540.120    89892125.50647
  21591764.520   113465497.44409  21591761.460    88414662.25248
  23045022.980   121102456.81608  23045019.680    94365567.05947
  22652676.080   119040665.51408  22652676.420    92758970.04047
  24300504.220   127699990.20008  24300503.120    99506474.53046
  23648696.460   124274682.94008  23648696.180    96837392.17746
 15 03 01 00 16  0.0000000  0  7G16G18G21G22G27G29G31
  21349249.840   112191092.13409  21349246.940    87421636.73148
  21943960.260   115316409.93809  21943957.840    89856982.76448
  21601131.920   113514723.05908  21601128.780    88453019.87848
  23027554.220   121010658.73509  23027551.000    94294036.18947
  22640761.000   118978051.65908  22640761.440    92710180.05147
  24314161.780   127771761.97208  24314161.100    99562400.52846
  23666365.660   124367534.57208  23666365.460    96909743.85846
 15 03 01 00 16 30.0000000  0  7G16G18G21G22G27G29G31
  21337508.020   112129388.22009  21337505.060    87373555.75748
  21935453.880   115271708.41509  21935451.340    89822150.41947
  21610544.360   113564185.57009  21610541.180    88491562.07748
  23010110.560   120918992.80009  23010107.380    94222608.25147
  22628860.740   118915515.72508  22628861.160    92661450.77547
  24327826.780   127843572.48808  24327826.140    99618356.75246
  23684046.180   124460445.57508  23684046.100    96982141.79946
 15 03 01 00 17  0.0000000  0  7G16G18G21G22G27G29G31
  21325834.000   112068040.71009  21325831.000    87325752.51248
  21927024.040   115227409.26209  21927021.360    89787631.62147
  21620002.160   113613886.52609  21619998.960    88530290.10148
  22992692.980   120827463.51709  22992689.900    94151286.82847
  22616975.740   118853059.76008  22616976.140    92612783.83247
  24341499.560   127915423.90508  24341498.900    99674344.82445
  23701737.740   124553414.80108  23701737.820    97054585.04846
 15 03 01 00 17 30.0000000  0  7G16G18G21G22G27G29G31
  21314228.300   112007052.55509  21314225.300    87278229.27948
  21918671.260   115183514.90409  21918668.460    89753428.24847
  21629505.220   113663825.11009  21629501.960    88569203.27948
  22975302.180   120736074.46409  22975299.000    94080074.64947
  22605106.180   118790684.75908  22605106.500    92564179.96648
  24355180.360   127987317.00508  24355179.540    99730365.42846
  23719440.080   124646440.50508  23719440.300    97127072.37946
 15 03 01 00 18  0.0000000  0  7G16G18G21G22G27G29G31
  21302691.020   111946424.04409  21302688.060    87230986.29448
  21910395.440   115140025.02709  21910392.500    89719540.05248
  21639052.680   113713997.00209  21639049.380    88608298.25348
  22957938.260   120644826.59809  22957934.980    94008972.49047
  22593251.680   118728388.88008  22593252.000    92515637.75848
  24368868.740   128059249.78808  24368867.880    99786416.93346
  23737152.240   124739517.56008  23737152.540    97199599.77447
 15 03 01 00 18 30.0000000  0  7G16G18G21G22G27G29G31
  21291222.720   111886158.22309  21291219.820    87184025.92648
  21902197.200   115096942.62509  21902194.120    89685969.36647
  21648644.440   113764401.55409  21648641.120    88647574.53048
  22940601.860   120553723.39609  22940598.460    93937983.06547
  22581412.360   118666173.07608  22581412.680    92467157.94748
  24382565.020   128131223.87308  24382564.120    99842500.59046
  23754873.800   124832643.97408  23754874.180    97272165.62746
 15 03 01 00 19  0.0000000  0  7G16G18G21G22G27G29G31
  21279824.140   111826258.93709  21279821.360    87137351.16848
  21894077.040   115054270.72309  21894073.860    89652718.56247
  21658280.400   113815038.31909  21658277.020    88687031.74748
  22923293.720   120462768.60109  22923290.160    93867109.27947
  22569588.580   118604039.01608  22569588.940    92418741.82348
  24396269.320   128203240.14308  24396268.300    99898617.13445
  23772604.440   124925818.17808  23772604.840    97344768.75146
 15 03 01 00 19 30.0000000  0  7G16G18G21G22G27G29G31
  21268495.320   111766725.93609  21268492.580    87090961.82648
  21886034.720   115012008.42709  21886031.560    89619786.91147
  21667959.640   113865902.79309  21667956.220    88726666.39248
  22906013.900   120371962.60509  22906010.200    93796351.42547
  22557779.880   118541984.34108  22557780.400    92370387.57848
  24409981.280   128275296.50608  24409980.120    99954764.90245
  23790343.140   125019034.96408  23790343.520    97417405.07946
 15 03 01 00 20  0.0000000  0  7G16G18G21G22G27G29G31
  21257237.060   111707563.42209  21257234.300    87044861.17348
  21878070.980   114970159.64209  21878068.040    89587177.49047
  21677682.300   113916995.54809  21677678.860    88766478.91248
  22888763.260   120281310.09809  22888759.560    93725713.18847
  22545986.720   118480011.20809  22545987.320    92322096.86648
  24423701.280   128347394.91008  24423699.900   100010945.46045
  23808089.660   125112293.02008  23808090.100    97490073.56946
 15 03 01 00 20 30.0000000  0  7G16G18G21G22G27G29G31
  21246049.740   111648773.53809  21246046.960    86999050.87948
  21870186.220   114928725.81609  21870183.400    89554891.42748
  21687447.960   113968314.33809  21687444.500    88806467.58148
  22871542.340   120190813.86009  22871538.740    93655196.70647
  22534209.140   118418119.75508  22534209.800    92273869.80148
  24437429.140   128419535.57208  24437427.840   100067158.92146
  23825843.480   125205589.53008  23825843.960    97562772.03146
 15 03 01 00 21  0.0000000  0  7G16G18G21G22G27G29G31
  21234933.920   111590359.34909  21234931.100    86953533.34048
  21862381.040   114887710.03009  21862378.260    89522931.09548
  21697256.520   114019859.00209  21697253.120    88846632.25748
  22854351.820   120100477.53809  22854348.160    93584804.84747
  22522447.340   118356311.19209  22522448.060    92225707.33148
  24451165.180   128491719.60908  24451164.180   100123406.17246
  23843604.240   125298922.46508  23843604.680    97635498.80946
 15 03 01 00 21 30.0000000  0  7G16G18G21G22G27G29G31
  21223889.780   111532322.04109  21223886.940    86908309.47048
  21854655.580   114847112.74209  21854652.800    89491296.86748
  21707107.340   114071625.75809  21707103.960    88886969.98248
  22837192.080   120010302.65809  22837188.320    93514538.77147
  22510701.200   118294584.53609  22510701.880    92177608.68148
  24464909.160   128563945.84608  24464908.260   100179686.32445
  23861371.220   125392287.95508  23861371.780    97708250.95546
 15 03 01 00 22  0.0000000  0  7G16G18G21G22G27G29G31
  21212917.780   111474663.94209  21212914.940    86863381.08748
  21847010.060   114806935.27409  21847007.300    89459989.76747
  21717000.280   114123614.00209  21716996.960    88927480.30348
  22820063.560   119920291.95409  22820059.800    93444400.62347
  22498970.680   118232940.08009  22498971.260    92129574.08348
  24478661.340   128636214.71508  24478660.380   100235999.74345
  23879143.760   125485683.05908  23879144.460    97781026.21246
 15 03 01 00 22 30.0000000  0  7G16G18G21G22G27G29G31
  21202018.060   111417385.57409  21202015.240    86818748.59448
  21839444.480   114767177.96209  21839441.820    89429010.06447
  21726934.560   114175819.69509  21726931.360    88968160.05748
  22802966.420   119830446.26109  22802962.640    93374391.07247
  22487255.520   118171376.32809  22487256.000    92081602.36148
  24492421.380   128708524.50808  24492420.460   100292344.98046
  23896921.060   125579103.08908  23896921.940    97853820.90046
 15 03 01 00 23  0.0000000  0  7G16G18G21G22G27G29G31
  21191191.540   111360491.64409  21191188.660    86774415.67848
  21831959.700   114727845.16409  21831957.000    89398361.14548
  21736910.460   114228243.83109  21736907.360    89009010.03648
  22785901.660   119740770.84609  22785897.860    93304514.19747
  22475556.120   118109895.90209  22475556.540    92033695.57248
  24506189.760   128780877.67508  24506188.820   100348724.02945
  23914703.080   125672547.92508  23914703.960    97926634.94346
 15 03 01 00 23 30.0000000  0  7G16G18G21G22G27G29G31
  21180438.140   111303981.71709  21180435.180    86730381.97148
  21824555.540   114688935.93509  21824552.780    89368042.29248
  21746927.040   114280881.59109  21746924.020    89050026.46948
  22768869.420   119651266.17809  22768865.640    93234770.36547
  22463872.100   118048496.63508  22463872.540    91985852.02748
  24519966.140   128853272.03708  24519965.120   100405135.17946
  23932488.820   125766012.03308  23932489.680    97999464.05146
 15 03 01 00 24  0.0000000  0  7G16G18G21G22G27G29G31
  21169758.960   111247861.76909  21169755.900    86686652.14348
  21817232.920   114650455.25809  21817230.140    89338057.35947
  21756984.760   114333735.14209  21756981.740    89091211.05348
  22751870.780   119561938.42909  22751867.080    93165164.38647
  22452204.300   117987182.37909  22452204.740    91938074.71348
  24533751.080   128925711.47408  24533750.020   100461581.43846
  23950278.320   125859495.91408  23950279.260    98072308.47245
 15 03 01 00 24 30.0000000  0  7G16G18G21G22G27G29G31
  21159153.580   111192129.70109  21159150.380    86643224.56648
  21809991.340   114612400.70009  21809988.560    89308404.47948
  21767082.560   114386799.14509  21767079.520    89132559.61648
  22734905.500   119472785.79009  22734901.800    93095694.86347
  22440552.060   117925949.12109  22440552.440    91890360.52348
  24547543.860   128998191.72408  24547542.700   100518059.52045
  23968070.260   125952992.72208  23968071.380    98145163.08546
 15 03 01 00 25  0.0000000  0  6G16G18G21G22G27G31
  21148629.520   111136825.12909  21148626.240    86600130.10348
  21802838.220   114574811.06109  21802835.380    89279113.86848
  21777227.000   114440108.19609  21777223.940    89174099.13648
  22717981.180   119383848.56109  22717977.600    93026393.18447
  22428922.480   117864834.56209  22428922.760    91842738.81548
  23985871.180   126046536.94908  23985872.340    98218054.68046
 15 03 01 00 25 30.0000000  0  6G16G18G21G22G27G31
  21138172.620   111081873.86209  21138169.280    86557310.94048
  21795759.400   114537611.64209  21795756.500    89250127.32048
  21787403.280   114493584.65309  21787400.240    89215769.09748
  22701083.840   119295052.72409  22701080.340    92957201.69247
  22417300.920   117803762.39209  22417301.140    91795150.13648
  24003666.020   126140049.04408  24003667.120    98290921.19846
 15 03 01 00 26  0.0000000  0  6G16G18G21G22G27G31
  21127792.920   111027328.09709  21127789.560    86514807.74248
  21788764.700   114500854.07009  21788761.680    89221485.07048
  21797620.660   114547277.15609  21797617.600    89257607.40048
  22684223.620   119206451.82009  22684220.160    92888162.07747
  22405696.920   117742783.13909  22405697.140    91747633.87248
  24021463.820   126233576.50708  24021464.960    98363799.57346
 15 03 01 00 26 30.0000000  0  6G16G18G21G22G27G31
  21117489.840   110973185.04609  21117486.500    86472618.35848
  21781853.380   114464534.71209  21781850.280    89193184.29047
  21807877.880   114601178.78209  21807874.740    89299608.66848
  22667399.960   119118042.96609  22667396.480    92819272.12547
  22394109.580   117681891.78209  22394109.840    91700186.09848
  24039262.960   126327111.02308  24039264.080    98436683.50145
 15 03 01 00 27  0.0000000  0  6G16G18G21G22G27G31
  21107262.740   110919441.10709  21107259.420    86430739.96448
  21775024.640   114428649.19909  21775021.460    89165221.56947
  21818173.240   114655281.07009  21818170.040    89341766.28248
  22650612.280   119029823.17209  22650608.760    92750529.49647
  22382537.900   117621083.06308  22382538.280    91652802.71348
  24057061.920   126420644.85008  24057063.160    98509566.93946
 15 03 01 00 27 30.0000000  0  6G16G18G21G22G27G31
  21097112.420   110866100.77609  21097109.160    86389176.08048
  21768279.320   114393202.24609  21768276.080    89137600.58348
  21828507.140   114709586.02609  21828503.900    89384081.82648
  22633861.540   118941797.50009  22633858.040    92681938.12547
  22370982.500   117560359.65609  22370982.940    91605485.81648
  24074860.560   126514176.94508  24074861.940    98582449.03046
 15 03 01 00 28  0.0000000  0  6G16G18G21G22G27G31
  21087039.140   110813165.14609  21087035.940    86347927.53748
  21761617.420   114358193.84609  21761614.200    89110321.32548
  21838878.960   114764090.38109  21838875.700    89426552.73648
  22617147.980   118853967.41509  22617144.540    92613499.15447
  22359443.140   117499720.54309  22359443.640    91558234.58448
  24092658.060   126607703.09208  24092659.400    98655326.44346
 15 03 01 00 28 30.0000000  0  7G16G18G19G21G22G27G31
  21077043.480   110760637.62209  21077040.360    86306996.99448
  21755039.400   114323626.30109  21755036.240    89083385.59448
  24522141.020   128864720.88805                                
  21849288.600   114818793.44309  21849285.340    89469178.48848
  22600472.420   118766337.00509  22600469.060    92545215.77247
  22347920.200   117439167.36409  22347920.820    91511050.32548
  24110454.200   126701222.11908  24110455.460    98728198.31346
 15 03 01 00 29  0.0000000  0  7G16G18G19G21G22G27G31
  21067128.260   110708532.71509  21067125.100    86266395.77148
  21748547.940   114289513.56409  21748544.820    89056804.26347
  24507390.460   128787204.20704  24507391.280   100353653.16643
  21859738.220   114873706.64009  21859735.060    89511967.98648
  22583837.700   118678921.28509  22583834.380    92477099.68747
  22336416.100   117378712.83909  22336416.660    91463942.94448
  24128250.780   126794743.58608  24128252.040    98801072.10046
 15 03 01 00 29 30.0000000  0  7G16G18G19G21G22G27G31
  21057283.980   110656800.76109  21057280.840    86226085.17248
  21742133.520   114255805.58109  21742130.460    89030538.31648
  24492640.320   128709690.73704  24492640.200   100293253.11644
  21870217.500   114928775.62809  21870214.400    89554878.88648
  22567234.540   118591671.28409  22567231.180    92409112.72947
  22324921.020   117318305.51509  22324921.460    91416872.32948
  24146037.480   126888212.80508  24146038.740    98873905.17146
 15 03 01 00 30  0.0000000  0  7G16G18G19G21G22G27G31
  21047522.300   110605503.04209  21047519.200    86186112.91448
  21735807.640   114222562.64909  21735804.620    89004634.74248
  24477902.040   128632239.19705  24477900.760   100232901.41644
  21880737.420   114984057.90209  21880734.240    89597955.96048
  22550674.540   118504648.48309  22550671.360    92341302.82047
  22313446.180   117258004.66409  22313446.560    91369884.68348
  24163824.960   126981686.12308  24163826.180    98946741.48246
 15 03 01 00 30 30.0000000  0  7G16G18G19G21G22G27G31
  21037840.160   110554623.60209  21037837.080    86146466.60848
  21729567.080   114189768.34809  21729564.140    88979080.75948
  24463172.220   128554832.18005  24463170.440   100172584.34644
  21891294.300   115039533.96709  21891290.960    89641184.06048
  22534154.880   118417837.70609  22534151.720    92273658.10847
  22301988.260   117197792.81409  22301988.600    91322966.38748
  24181609.240   127075142.74308  24181610.340    99019564.78846
 15 03 01 00 31  0.0000000  0  7G16G18G19G21G22G27G31
  21028238.180   110504165.18709  21028235.120    86107148.36548
  21723412.320   114157424.80309  21723409.460    88953878.00947
  24448450.860   128477469.69705  24448448.480   100112302.01343
  21901887.820   115095202.42509  21901884.240    89684562.07048
  22517676.200   118331242.40709  22517673.100    92206181.31147
  22290547.380   117137670.68909  22290547.700    91276118.01148
  24199389.840   127168580.30908  24199391.060    99092373.20446
 15 03 01 00 31 30.0000000  0  7G16G18G19G21G22G27G31
  21018716.560   110454128.83109  21018713.500    86068158.99848
  21717343.420   114125532.28709  21717340.580    88929026.71048
  24433737.720   128400150.93105  24433735.340   100052053.67743
  21912517.520   115151061.34509  21912513.800    89728088.48948
  22501238.880   118244864.17309  22501235.700    92138873.64947
  22279123.500   117077637.63709  22279123.740    91229339.04448
  24217166.020   127261994.84908  24217167.360    99165163.67246
 15 03 01 00 32  0.0000000  0  7G16G18G19G21G22G27G31
  21009276.040   110404518.32409  21009272.980    86029501.46348
  21711360.840   114094093.43809  21711358.020    88904528.92848
  24419033.120   128322877.30805  24419030.700    99991840.58343
  21923183.280   115207109.99809  21923179.460    89771762.76048
  22484843.720   118158707.01809  22484840.380    92071738.25447
  22267716.920   117017695.53609  22267717.100    91182630.95048
  24234937.640   127355385.37208  24234939.140    99237935.46246
 15 03 01 00 32 30.0000000  0  7G16G18G19G21G22G27G31
  20999917.040   110355336.09509  20999913.980    85991177.64248
  21705464.940   114063110.26409  21705462.200    88880386.20148
  24404337.080   128245649.50405  24404334.700    99931663.15745
  21933884.780   115263346.90509  21933880.980    89815583.70748
  22468491.320   118072774.08209  22468487.760    92004777.56847
  22256327.760   116957845.19409  22256327.960    91135994.34848
  24252704.280   127448749.44008  24252705.880    99310686.60846
 15 03 01 00 33  0.0000000  0  7G16G18G19G21G22G27G31
  20990639.260   110306580.66709  20990636.200    85953186.39748
  21699655.220   114032580.16409  21699652.460    88856596.52148
  24389648.920   128168463.99005  24389646.800    99871518.70544
  21944621.080   115319766.79709  21944617.360    89859547.24548
  22452181.480   117987064.61909  22452177.640    91937991.01048
  22244955.400   116898083.40109  22244955.640    91089426.75348
  24270464.640   127542080.84808  24270466.200    99383412.40445
 15 03 01 00 33 30.0000000  0  7G16G18G19G21G22G27G31
  20981443.160   110258254.86709  20981440.180    85915529.93148
  21693932.140   114002505.57709  21693929.380    88833161.78848
  24374968.840   128091321.41705  24374967.060    99811407.68344
  21955392.140   115376369.15409  21955388.460    89903652.96048
  22435914.780   117901582.07109  22435910.720    91871381.28647
  22233600.080   116838411.23109  22233600.380    91042928.99448
  24288218.400   127635377.47608  24288220.040    99456111.11245
 15 03 01 00 34  0.0000000  0  7G16G18G19G21G22G27G31
  20972328.240   110210356.24909  20972325.400    85878206.33948
  21688295.040   113972883.04509  21688292.340    88810079.30848
  24360296.420   128014217.70806  24360294.600    99751327.01444
  21966196.840   115433148.06509  21966193.120    89947896.25748
  22419690.880   117816324.55709  22419686.760    91804946.90547
  22222261.100   116778824.72809  22222261.380    90996497.97648
  24305964.160   127728632.32407  24305965.780    99528777.36645
 15 03 01 00 34 30.0000000  0  7G16G18G19G21G22G27G31
  20963295.880   110162891.66509  20963293.180    85841220.96148
  21682745.200   113943719.01109  21682742.460    88787354.09748
  24345632.380   127937157.30806  24345630.460    99691279.99444
  21977035.680   115490106.36709  21977031.920    89992279.33748
  22403511.100   117731299.46209  22403506.960    91738693.62547
  22210939.420   116719328.85609  22210939.600    90950137.58248
  24323702.240   127821847.03208  24323704.000    99601412.30545
 15 03 01 00 35  0.0000000  0  7G16G18G19G21G22G27G31
  20954346.620   110115863.67509  20954344.040    85804575.77048
  21677282.940   113915015.11209  21677280.200    88764987.43048
  24330976.660   127860141.03506  24330974.560    99631267.41644
  21987908.300   115547242.58409  21987904.540    90036801.06048
  22387376.100   117646509.81209  22387371.940    91672623.81147
  22199635.160   116659924.54209  22199635.260    90903848.52548
  24341432.320   127915019.39608  24341433.760    99674014.23646
 15 03 01 00 35 30.0000000  0  7G16G18G19G21G22G27G31
  20945480.920   110069274.49509  20945478.380    85768272.51548
  21671908.480   113886772.57509  21671905.760    88742980.27148
  24316329.360   127783168.98806  24316327.120    99571289.26444
  21998814.440   115604555.42509  21998810.760    90081460.39848
  22371286.380   117561958.31409  22371282.360    91606739.58647
  22188348.340   116600612.34109  22188348.440    90857631.24948
  24359153.820   128008146.84408  24359155.180    99746581.20945
 15 03 01 00 36  0.0000000  0  7G16G18G19G21G22G27G31
  20936699.280   110023126.73409  20936696.720    85732313.22748
  21666622.220   113858993.26809  21666619.520    88721334.06848
  24301690.600   127706241.30906  24301688.360    99511345.70844
  22009753.920   115662043.59509  22009750.420    90126256.36948
  22355242.620   117477648.57509  22355238.660    91541043.72847
  22177079.140   116541393.13909  22177079.380    90811486.45548
  24376866.360   128101227.13507  24376867.720    99819111.34345
 15 03 01 00 36 30.0000000  0  7G16G18G19G21G22G27G31
  20928001.740   109977420.68009  20927999.060    85696698.11148
  21661424.040   113831676.60009  21661421.300    88700048.36748
  24287059.980   127629356.63506  24287057.700    99451435.67744
  22020726.200   115719703.89609  22020722.840    90171186.45948
  22339245.000   117393581.41509  22339241.240    91475536.90047
  22165827.440   116482265.60609  22165827.800    90765413.08148
  24394569.140   128194255.80608  24394570.380    99891601.29544
 15 03 01 00 37  0.0000000  0  7G16G18G19G21G22G27G31
  20919389.020   109932160.26509  20919386.240    85661430.25248
  21656314.540   113804825.77309  21656311.760    88679125.65348
  24272437.820   127552517.38306  24272435.740    99391560.97445
  22031731.360   115777536.71008  22031728.100    90216250.98148
  22323294.440   117309761.50309  22323290.820    91410222.73248
  22154593.820   116423232.30609  22154594.160    90719413.12548
  24412261.940   128287232.34508  24412263.200    99964050.58646
 15 03 01 00 37 30.0000000  0  7G16G18G19G21G22G27G31
  20910860.900   109887344.56309  20910858.100    85626508.92848
  21651293.420   113778439.27009  21651290.520    88658564.76048
  24257823.580   127475720.39707  24257821.340    99331719.23844
  22042768.520   115835537.65309  22042765.360    90261446.50548
  22307390.840   117226188.33009  22307387.300    91345100.82848
  22143377.680   116364290.56909  22143377.960    90673484.52848
  24429943.680   128380150.75708  24429944.700   100036454.49345
 15 03 01 00 38  0.0000000  0  7G16G18G19G21G22G27G31
  20902418.140   109842977.62609  20902415.380    85591937.28848
  21646361.260   113752520.24009  21646358.260    88638368.12148
  24243217.880   127398967.98707  24243215.840    99271912.24944
  22053837.760   115893707.07508  22053834.700    90306773.31148
  22291535.080   117142866.78709  22291531.680    91280175.00148
  22132179.480   116305443.12909  22132179.680    90627629.39848
  24447614.320   128473010.79907  24447615.580   100108813.02143
 15 03 01 00 38 30.0000000  0  7G16G18G19G21G22G27G31
  20894060.500   109799058.16009  20894057.860    85557714.33348
  21641517.520   113727066.09609  21641514.500    88618533.73848
  24228620.060   127322256.55907  24228617.980    99212137.19244
  22064938.100   115952039.98109  22064935.160    90352227.51648
  22275727.100   117059795.93009  22275723.800    91215444.51248
  22120998.540   116246686.71409  22120998.620    90581845.20148
  24465272.620   128565805.94208  24465274.120   100181120.80145
 15 03 01 00 39  0.0000000  0  7G16G18G19G21G22G27G31
  20885789.000   109755591.33109  20885786.460    85523844.09048
  21636763.060   113702081.56309  21636760.100    88599065.27948
  24214030.740   127245589.63207  24214028.600    99152396.78745
  22076069.840   116010537.73009  22076066.980    90397810.17548
  22259968.060   116976981.83609  22259964.740    91150914.09948
  22109835.620   116188025.16809  22109835.560    90536134.93048
  24482918.720   128658536.92608  24482920.360   100253378.64745
 15 03 01 00 39 30.0000000  0  7G16G18G19G21G22G27G31
  20877604.180   109712579.78509  20877601.640    85490328.58948
  21632098.160   113677568.08709  21632095.380    88579963.88348
  24199450.120   127168968.21407  24199448.180    99092691.85844
  22087232.840   116069199.55209  22087230.000    90443520.66548
  22244258.600   116894427.70409  22244255.080    91086586.24548
  22098690.960   116129459.68209  22098690.680    90490499.49348
  24500552.340   128751201.35208  24500553.760   100325584.32545
 15 03 01 00 40  0.0000000  0  7G16G18G19G21G22G27G31
  20869505.820   109670022.46409  20869503.220    85457167.05248
  21627522.600   113653523.85309  21627519.960    88561228.12548
  24184877.560   127092389.11307  24184875.400    99033019.90345
  22098426.260   116128020.87209  22098423.380    90489355.45248
  22228598.580   116812133.41309  22228594.880    91022460.87648
  22087564.100   116070987.72009  22087563.700    90444936.94548
  24518172.440   128843794.64907  24518173.880   100397734.74144
 15 03 01 00 40 30.0000000  0  7G16G18G19G21G22G27G31
  20861494.960   109627924.91309  20861492.280    85424363.75648
  21623037.180   113629953.33209  21623034.720    88542861.50148
  24170313.640   127015855.88207  24170311.300    98973383.69145
  22109650.320   116187003.26909  22109647.420    90535315.74548
  22212989.060   116730104.65309  22212985.200    90958542.39548
  22076455.660   116012612.93309  22076455.340    90399450.12148
  24535778.980   128936316.82108  24535780.420   100469829.84845
 15 03 01 00 41  0.0000000  0  7G16G18G19G21G22G27G31
  20853571.500   109586286.82609  20853568.760    85391918.50248
  21618641.820   113606855.89109  21618639.400    88524863.50548
  24155758.020   126939366.12707  24155755.660    98913781.35845
  22120904.280   116246142.98109  22120901.400    90581398.61548
  22197430.180   116648342.00509  22197426.120    90894831.29047
  22065365.420   115954333.94409  22065365.260    90354037.94848
  24553371.140   129028763.23208  24553372.360   100541865.96746
 15 03 01 00 41 30.0000000  0  7G16G18G19G21G22G27G31
  20845736.400   109545112.85609  20845733.580    85359834.89348
  21614337.100   113584234.88409  21614334.760    88507236.76548
  24141211.300   126862923.17807  24141208.960    98854215.51444
  22132188.380   116305441.51609  22132185.540    90627605.26548
  22181922.960   116566850.70909  22181918.760    90831331.62248
  22054293.980   115896153.87708  22054294.080    90308702.85848
  24570948.760   129121133.99308  24570950.360   100613843.17646
 15 03 01 00 42  0.0000000  0  7G16G18G19G21G22G27G31
  20837989.340   109504401.31109  20837986.460    85328111.61048
  21610122.600   113562087.81009  21610120.360    88489979.31548
  24126672.860   126786523.53107  24126670.500    98794683.37845
  22143501.700   116364893.75808  22143498.940    90673931.67548
  22166467.260   116485630.15809  22166462.920    90768042.91548
  22043240.820   115838069.67309  22043241.080    90263442.45848
  24588510.760   129213423.15508  24588512.200   100685756.92546
 15 03 01 00 42 30.0000000  0  7G16G18G19G21G22G27G31
  20830330.900   109464155.34809  20830327.940    85296751.12248
  21605998.680   113540416.94809  21605996.560    88473092.95148
  24112142.960   126710168.80307  24112140.600    98735186.27045
  22154844.220   116424499.20008  22154841.480    90720377.45648
  22151063.780   116404684.27209  22151059.480    90704968.23648
  22032206.300   115780083.04509  22032206.640    90218258.09848
  24606056.900   129305629.24507  24606058.400   100757605.90245
 15 03 01 00 43  0.0000000  0  7G16G18G19G21G22G27G31
  20822761.380   109424376.95509  20822758.400    85265754.97448
  21601965.620   113519223.37609  21601963.560    88456578.48748
  24097621.540   126633858.84907  24097619.220    98675724.03345
  22166215.720   116484256.50809  22166212.920    90766941.57748
  22135712.820   116324014.88709  22135708.600    90642109.02048
  22021190.540   115722194.74309  22021190.860    90173150.34348
  24623586.620   129397749.25508  24623588.240   100829387.81646
 15 03 01 00 43 30.0000000  0  7G16G18G19G21G22G27G31
  20815281.580   109385070.04909  20815278.560    85235126.21448
  21598023.960   113498509.54509  21598021.820    88440437.83948
  24083108.900   126557595.56507  24083106.880    98616298.15545
  22177616.160   116544165.76709  22177613.260    90813624.09948
  22120415.560   116243627.56409  22120411.460    90579469.59648
  22010193.940   115664406.91809  22010194.240    90128120.88348
  24641099.960   129489782.57507  24641101.540   100901102.01645
 15 03 01 00 44  0.0000000  0  7G16G18G19G21G22G27G31
  20807890.720   109346230.78909  20807887.660    85204861.86148
  21594172.960   113478271.47909  21594170.620    88424667.92748
  24068604.340   126481374.09207  24068602.540    98556904.86745
  22189044.220   116604220.07809  22189041.180    90860419.63948
  22105171.340   116163519.04909  22105167.280    90517047.41848
  21999215.560   115606714.66909  21999215.820    90083165.89048
  24658595.260   129581720.71308  24658596.740   100972741.86945
 15 03 01 00 44 30.0000000  0  7G16G18G19G21G22G27G31
  20800589.940   109307865.11809  20800586.840    85174966.53348
  21590413.460   113458513.99809  21590410.860    88409272.50248
  24054108.700   126405198.62707  24054106.980    98497547.40946
  22200500.340   116664421.63909  22200497.140    90907329.94048
  22089981.440   116083695.88309  22089977.400    90454847.59548
  21988256.240   115549122.80409  21988256.500    90038289.12548
  24676072.880   129673565.90008  24676074.480   101044309.34545
 15 03 01 00 45  0.0000000  0  7G16G18G19G21G22G27G31
  20793379.420   109269973.78209  20793376.260    85145440.82548
  21586745.280   113439236.59709  21586742.520    88394251.16948
  24039621.460   126329067.28107  24039619.640    98438224.35846
  22211983.980   116724768.03009  22211980.660    90954353.09647
  22074846.080   116004158.98409  22074841.940    90392870.84248
  21977315.740   115491630.32809  21977316.040    89993489.81748
  24693532.100   129765314.05608  24693533.740   101115801.28547
 15 03 01 00 45 30.0000000  0  6G16G18G19G21G22G27
  20786257.540   109232548.39109  20786254.320    85116278.17948
  21583166.540   113420429.76309  21583163.680    88379596.50648
  24025140.800   126252970.26308  24025138.880    98378928.04445
  22223492.880   116785247.56309  22223489.540    91001479.99348
  22059763.900   115924901.16309  22059759.620    90331111.54048
  21966392.220   115434227.52309  21966392.640    89948760.37348
 15 03 01 00 46  0.0000000  0  6G16G18G19G21G22G27
  20779229.080   109195613.85009  20779225.820    85087498.01348
  21579681.900   113402117.69609  21579678.980    88365327.38748
  24010671.080   126176931.07707  24010669.160    98319676.80146
  22235031.140   116845881.32409  22235027.800    91048727.06948
  22044739.700   115845948.03609  22044735.300    90269589.66848
  21955490.280   115376938.30908  21955490.920    89904119.45848
 15 03 01 00 46 30.0000000  0  6G16G18G19G21G22G27
  20772292.460   109159162.05209  20772289.240    85059094.01548
  21576289.700   113384291.51509  21576286.760    88351436.87248
  23996210.380   126100939.86907  23996208.380    98260462.94346
  22246596.640   116906658.40509  22246593.320    91096085.81548
  22029772.100   115767292.28109  22029767.540    90208299.50648
  21944608.280   115319753.31509  21944609.000    89859559.74948
 15 03 01 00 47  0.0000000  0  6G16G18G19G21G22G27
  20765447.640   109123192.58809  20765444.500    85031065.85448
  21572989.760   113366950.17609  21572986.800    88337924.15348
  23981758.440   126024995.30208  23981756.460    98201285.42045
  22258188.760   116967575.41709  22258185.420    91143553.60647
  22014861.220   115688934.90709  22014856.600    90147241.84548
  21933745.980   115262671.46409  21933746.720    89815080.40148
 15 03 01 00 47 30.0000000  0  6G16G18G19G21G22G27
  20758695.200   109087708.35509  20758692.180    85003415.80348
  21569782.300   113350094.90209  21569779.340    88324790.18048
  23967315.440   125949097.52708  23967313.400    98142144.34946
  22269807.140   117028630.58509  22269803.840    91191129.04747
  22000007.540   115610878.38109  22000002.940    90086418.62148
  21922903.480   115205693.39509  21922904.140    89770681.93048
 15 03 01 00 48  0.0000000  0  6G16G18G19G21G22G27
  20752034.740   109052707.61209  20752031.860    84976142.48848
  21566666.840   113333723.13109  21566663.860    88312032.96448
  23952880.900   125873243.57808  23952878.820    98083037.42846
  22281451.000   117089819.61109  22281447.640    91238808.79348
  21985211.000   115533122.21709  21985206.400    90025829.43148
  21912080.260   115148816.65209  21912080.800    89726362.41048
 15 03 01 00 48 30.0000000  0  6G16G18G19G21G22G27
  20745467.100   109018194.66409  20745464.360    84949249.28248
  21563643.980   113317837.95509  21563640.980    88299654.91548
  23938455.380   125797436.39408  23938453.080    98023966.95645
  22293120.560   117151143.79109  22293117.180    91286593.84047
  21970472.520   115455671.31509  21970468.020    89965478.12248
  21901276.880   115092044.27809  21901277.220    89682124.21948
 15 03 01 00 49  0.0000000  0  6G16G18G19G21G22G27
  20738992.440   108984170.35909  20738989.860    84922736.84349
  21560713.800   113302439.89709  21560710.740    88287656.43848
  23924038.600   125721675.24108  23924036.160    97964932.34946
  22304815.380   117212600.59009  22304811.960    91334482.24947
  21955792.580   115378527.82309  21955788.100    89905366.34748
  21890493.340   115035376.21709  21890493.500    89637967.32148
 15 03 01 00 49 30.0000000  0  6G16G18G19G21G22G27
  20732611.580   108950638.84009  20732609.060    84896608.37849
  21557876.760   113287531.62709  21557873.720    88276039.60848
  23909630.960   125645962.50608  23909628.440    97905935.48046
  22316535.640   117274190.78009  22316532.080    91382474.59947
  21941172.000   115301696.39309  21941167.540    89845497.72848
  21879730.160   114978815.21409  21879730.200    89593893.83148
 15 03 01 00 50  0.0000000  0  6G16G18G19G21G22G27
  20726325.000   108917602.49409  20726322.460    84870865.77549
  21555133.100   113273114.25609  21555130.160    88264805.31248
  23895232.660   125570299.22508  23895230.240    97846977.14346
  22328281.160   117335913.86009  22328277.520    91430570.48847
  21926611.360   115225180.17109  21926606.980    89785874.73548
  21868987.600   114922362.70909  21868987.640    89549904.89348
 15 03 01 00 50 30.0000000  0  6G16G18G19G21G22G27
  20720132.480   108885060.32409  20720129.880    84845508.23648
  21552482.640   113259186.39409  21552479.820    88253952.44048
  23880843.220   125494682.92008  23880840.780    97788055.39346
  22340051.040   117397765.23809  22340047.420    91478766.34747
  21912110.720   115148978.98209  21912106.380    89726497.22248
  21858265.320   114866016.66609  21858265.400    89505998.90648
 15 03 01 00 51  0.0000000  0  6G16G18G19G21G22G27
  20714034.460   108853014.71309  20714031.800    84820537.64148
  21549925.580   113245749.06009  21549922.820    88243481.81348
  23866462.900   125419114.36208  23866460.560    97729170.87246
  22351845.260   117459744.42709  22351841.740    91527061.81947
  21897670.640   115073095.80209  21897666.260    89667367.50748
  21847563.540   114809778.28509  21847563.640    89462176.82648
 15 03 01 00 51 30.0000000  0  6G16G18G19G21G22G27
  20708031.240   108821467.34609  20708028.560    84795955.27849
  21547462.100   113232803.23309  21547459.340    88233394.16048
  23852091.840   125343594.00508  23852089.460    97670323.88046
  22363663.500   117521849.88909  22363660.100    91575455.66747
  21883291.620   114997533.39209  21883287.160    89608487.73748
  21836882.360   114753648.29209  21836882.440    89418439.18548
 15 03 01 00 52  0.0000000  0  6G16G18G19G21G22G27
  20702123.120   108790419.46609  20702120.380    84771762.12349
  21545092.060   113220348.57109  21545089.320    88223689.24048
  23837729.860   125268121.46408  23837727.420    97611514.16746
  22375505.240   117584078.80809  22375501.940    91623945.72847
  21868973.980   114922293.83109  21868969.500    89549859.54948
  21826221.800   114697626.87309  21826221.880    89374786.15648
 15 03 01 00 52 30.0000000  0  6G16G18G19G21G22G27
  20696310.600   108759873.95209  20696307.820    84747960.42649
  21542815.900   113208387.35309  21542813.140    88214368.81748
  23823377.200   125192698.02408  23823374.680    97552742.70446
  22387370.720   117646432.63909  22387367.560    91672533.11647
  21854718.460   114847381.15909  21854714.020    89491486.07348
  21815582.280   114641715.96809  21815582.340    89331219.24248
 15 03 01 00 53  0.0000000  0  6G16G18G19G21G22G27
  20690594.020   108729832.69609  20690591.220    84724551.66349
  21540633.660   113196919.96709  21540631.000    88205433.20248
  23809033.980   125117324.76608  23809031.580    97494010.34346
  22399259.680   117708909.48809  22399256.600    91721216.35047
  21840525.540   114772797.60409  21840521.160    89433369.04648
  21804963.880   114585916.43309  21804963.980    89287739.10348
 15 03 01 00 53 30.0000000  0  6G16G18G19G21G22G27
  20684973.300   108700294.97209  20684970.380    84701535.25548
  21538545.160   113185945.19609  21538542.600    88196881.44148
  23794699.880   125041999.01208  23794697.500    97435314.98746
  22411171.420   117771505.55209  22411168.340    91769992.48447
  21826395.300   114698543.41209  21826391.020    89375508.67948
  21794366.340   114530226.59909  21794366.520    89244344.44848
 15 03 01 00 54  0.0000000  0  6G16G18G19G21G22G27
  20679448.620   108671262.27809  20679445.620    84678912.38749
  21536550.420   113175463.01109  21536547.960    88188713.51448
  23780374.900   124966720.59208  23780372.440    97376656.53946
  22423105.560   117834219.10309  22423102.440    91818860.19047
  21812328.220   114624620.85409  21812323.980    89317906.72148
  21783789.800   114474646.94009  21783789.980    89201035.65548
 15 03 01 00 54 30.0000000  0  6G16G18G19G21G22G27
  20674020.080   108642735.04709  20674017.040    84656683.37449
  21534649.480   113165473.36509  21534647.060    88180929.38548
  23766058.900   124891489.27608  23766056.340    97318034.79446
  22435061.600   117897047.84809  22435058.420    91867817.63147
  21798324.600   114551031.53409  21798320.420    89260564.42748
  21773234.280   114419177.34509  21773234.420    89157812.61248
 15 03 01 00 55  0.0000000  0  6G16G18G19G21G22G27
  20668688.580   108614718.09409  20668685.540    84634851.98748
  21532843.040   113155979.88009  21532840.500    88173531.88148
  23751752.580   124816308.75208  23751750.000    97259452.61646
  22447039.900   117959993.48209  22447036.700    91916866.15947
  21784385.540   114477781.11709  21784381.320    89203486.21448
  21762700.500   114363821.69709  21762700.580    89114678.35248
 15 03 01 00 55 30.0000000  0  6G16G18G19G21G22G27
  20663454.600   108587213.89809  20663451.620    84613420.15649
  21531131.240   113146983.67209  21531128.540    88166521.85248
  23737456.000   124741179.87408  23737453.540    97200910.67147
  22459040.300   118023055.43709  22459037.060    91966005.32647
  21770511.600   114404872.52909  21770507.340    89146674.35848
  21752188.720   114308581.46609  21752188.680    89071634.03248
 15 03 01 00 56  0.0000000  0  6G16G18G19G21G22G27
  20658317.740   108560220.28109  20658314.880    84592386.18448
  21529513.380   113138481.51609  21529510.620    88159896.81448
  23723168.500   124666098.70208  23723166.080    97142405.92346
  22471061.660   118086228.38609  22471058.520    92015230.98647
  21756702.520   114332304.67209  21756698.160    89090128.01948
  21741698.300   114253453.46609  21741698.180    89028677.16848
 15 03 01 00 56 30.0000000  0  6G16G18G19G21G22G27
  20653279.020   108533742.09909  20653276.220    84571753.84049
  21527990.220   113130477.30609  21527987.360    88153659.78048
