     2.11           OBSERVATION DATA    G                   RINEX VERSION / TYPE
SPIDER V4,0,0,3554                      2015 03 31 07:01    PGM / RUN BY / DATE 
EADB                                                        MARKER NAME         
EADB                                                        MARKER NUMBER       
                                                            OBSERVER / AGENCY   
462408              LEICA GRX1200PRO    3.00/2.127          REC # / TYPE / VERS 
103310              LEIAT504                                ANT # / TYPE        
  5238464.6656   142765.3090  3625629.6523                  APPROX POSITION XYZ 
        0.0770        0.0000        0.0000                  ANTENNA: DELTA H/E/N
     1     1                                                WAVELENGTH FACT L1/2
     4    C1    L1    P2    L2                              # / TYPES OF OBSERV 
    30.000                                                  INTERVAL            
  2015    03    01    00    00    0.0000000     GPS         TIME OF FIRST OBS   
  2015    03    01    23    59   30.0000000     GPS         TIME OF LAST OBS    
    16                                                      LEAP SECONDS        
    30                                                      # OF SATELLITES     
   G 1   835   835   835   835                              PRN / # OF OBS      
   G 2   927   927   927   927                              PRN / # OF OBS      
   G 3   846   846   845   845                              PRN / # OF OBS      
   G 4   848   848   848   848                              PRN / # OF OBS      
   G 5   671   671   671   671                              PRN / # OF OBS      
   G 6   726   726   726   726                              PRN / # OF OBS      
   G 7   647   647   647   647                              PRN / # OF OBS      
   G 9   788   788   788   788                              PRN / # OF OBS      
   G10   785   785   785   785                              PRN / # OF OBS      
   G11   799   799   799   799                              PRN / # OF OBS      
   G12   818   818   818   818                              PRN / # OF OBS      
   G13   824   824   824   824                              PRN / # OF OBS      
   G14   914   914   914   914                              PRN / # OF OBS      
   G15   733   733   733   733                              PRN / # OF OBS      
   G16   691   691   691   691                              PRN / # OF OBS      
   G17   931   931   931   931                              PRN / # OF OBS      
   G18   936   936   936   936                              PRN / # OF OBS      
   G19   775   775   775   775                              PRN / # OF OBS      
   G20   800   800   800   800                              PRN / # OF OBS      
   G21   666   666   664   664                              PRN / # OF OBS      
   G22   775   775   774   774                              PRN / # OF OBS      
   G23   730   730   730   730                              PRN / # OF OBS      
   G24   811   811   809   809                              PRN / # OF OBS      
   G25   846   846   846   846                              PRN / # OF OBS      
   G27   833   833   833   833                              PRN / # OF OBS      
   G28   909   909   909   909                              PRN / # OF OBS      
   G29   740   740   739   739                              PRN / # OF OBS      
   G30   696   696   696   696                              PRN / # OF OBS      
   G31   780   780   780   780                              PRN / # OF OBS      
   G32   742   742   742   742                              PRN / # OF OBS      
BIT 2 OF LLI FLAGS DATA COLLECTED UNDER A/S CONDITION       COMMENT             
SNR is mapped to RINEX snr flag value [2-9]                 COMMENT             
Lx:     = 25dBHz -> 1; 26-27dBHz -> 2; 28-31dBHz -> 3       COMMENT             
       32-35dBHz -> 4; 36-38dBHz -> 5; 39-41dBHz -> 6       COMMENT             
       42-44dBHz -> 7; 45-48dBHz -> 8; >=49dBHz -> 9        COMMENT             
                                                            END OF HEADER       
 15 03 01 00 00  0.0000000  0  7G16G18G21G22G27G29G31
  21494320.915   112953457.12309  21494319.775    88015673.73648
  22621863.784   118878739.45708  22621863.762    92632801.84246
  21486152.745   112910512.85309  21486151.341    87982221.67648
  23755143.295   124834106.26407  23755145.315    97273335.10445
  22567207.667   118591530.40408  22567210.083    92409020.44747
  24380020.073   128117854.83106  24380020.592    99832089.96945
  22942572.144   120563999.38808  22942573.291    93945962.31647
 15 03 01 00 00 30.0000000  0  7G16G18G21G22G27G29G31
  21481785.484   112887583.92809  21481784.509    87964343.98048
  22611306.418   118823260.52808  22611306.420    92589571.54146
  21494731.377   112955593.02409  21494729.949    88017349.08048
  23737814.300   124743042.18407  23737815.359    97202376.42645
  22555889.898   118532055.50208  22555892.436    92362676.41647
  24394284.124   128192812.05106  24394284.306    99890498.21145
  22960209.193   120656682.08208  22960210.087    94018182.48646
 15 03 01 00 01  0.0000000  0  7G16G18G21G22G27G29G31
  21469302.961   112821987.70309  21469302.154    87913230.04448
  22600808.496   118768093.61008  22600808.510    92546584.35746
  21503369.765   113000988.59209  21503368.422    88052722.24648
  23720491.162   124652009.01307  23720491.905    97131442.08946
  22544595.296   118472701.18808  22544597.654    92316426.33047
  24408548.417   128267771.57207  24408549.491    99948908.13345
  22977878.913   120749537.30708  22977880.050    94090537.06247
 15 03 01 00 01 30.0000000  0  7G16G18G21G22G27G29G31
  21456873.180   112756668.94909  21456872.319    87862332.31948
  22590370.258   118713239.86308  22590370.210    92503841.20046
  21512067.691   113046696.43909  21512066.251    88088338.74548
  23703173.106   124561006.39107  23703174.697    97060531.11346
  22533323.076   118413465.76808  22533325.348    92270268.89947
  24422812.950   128342731.63807  24422814.066   100007318.52845
  22995580.748   120842560.91908  22995581.772    94163022.86946
 15 03 01 00 02  0.0000000  0  7G16G18G21G22G27G29G31
  21444496.516   112691628.29609  21444495.519    87811651.29848
  22579991.570   118658699.67608  22579991.457    92461342.38146
  21520824.429   113092713.65509  21520823.158    88124196.31648
  23685862.131   124470036.35407  23685863.140    96989645.40045
  22522073.224   118354347.58808  22522075.488    92224202.82447
  24437077.459   128417691.01207  24437078.307   100065728.39646
  23013314.049   120935748.20008  23013315.252    94235636.19447
 15 03 01 00 02 30.0000000  0  7G16G18G21G22G27G29G31
  21432173.132   112626868.25609  21432171.940    87761188.93148
  22569673.116   118604475.76908  22569673.058    92419090.01046
  21529640.003   113139039.03009  21529638.659    88160294.00648
  23668558.044   124379102.91607  23668558.505    96918788.25144
  22510845.833   118295347.18408  22510848.063    92178228.52047
  24451341.451   128492650.17307  24451342.711   100124137.99845
  23031077.552   121029096.72608  23031079.209    94308375.13046
 15 03 01 00 03  0.0000000  0  7G16G18G21G22G27G29G31
  21419903.179   112562389.75309  21419902.061    87710945.95148
  22559415.107   118550569.37908  22559414.943    92377085.05746
  21538513.439   113185669.12709  21538512.048    88196629.14548
  23651260.350   124288206.48407  23651261.971    96847960.05246
  22499640.554   118236463.07808  22499642.655    92132344.84047
  24465605.673   128567607.44507  24465606.336   100182546.28445
  23048871.194   121122602.16808  23048872.184    94381236.35646
 15 03 01 00 03 30.0000000  0  7G16G18G21G22G27G29G31
  21407687.640   112498196.91209  21407686.632    87660925.56148
  22549218.233   118496984.66708  22549217.919    92335330.76246
  21547444.912   113232604.08109  21547443.289    88233201.83548
  23633971.292   124197351.99508  23633973.055    96777164.55046
  22488457.640   118177697.06508  22488460.009    92086553.18347
  24479869.395   128642564.90506  24479870.363   100240954.61844
  23066694.688   121216263.57008  23066695.419    94454219.14946
 15 03 01 00 04  0.0000000  0  7G16G18G21G22G27G29G31
  21395528.051   112434297.09209  21395526.871    87611133.49948
  22539083.969   118443728.77908  22539083.735    92293832.68946
  21556434.940   113279847.12309  21556433.394    88270014.59248
  23616691.993   124106547.29107  23616693.018    96706407.75045
  22477298.070   118119054.34408  22477300.505    92040857.59847
  24494134.574   128717527.80306  24494135.990   100299367.22745
  23084548.137   121310083.23508  23084549.052    94527325.22847
 15 03 01 00 04 30.0000000  0  7G16G18G21G22G27G29G31
  21383422.292   112370681.14909  21383421.099    87561562.63648
  22529010.765   118390793.20308  22529010.504    92252584.21246
  21565481.134   113327385.34909  21565479.670    88307057.36148
  23599419.555   124015783.89307  23599421.126    96635683.27245
  22466160.056   118060523.46908  22466162.450    91995249.15647
  24508398.375   128792484.55007  24508399.292   100357775.09846
  23102428.538   121404046.69108  23102430.215    94600543.32147
 15 03 01 00 05  0.0000000  0  7G16G18G21G22G27G29G31
  21371372.113   112307357.49509  21371371.049    87512219.53748
  22518999.973   118338186.26408  22518999.611    92211591.81046
  21574584.363   113375223.38909  21574582.830    88344333.74848
  23582157.348   123925070.72907  23582159.170    96564998.00946
  22455044.420   118002110.93808  22455046.658    91949732.93747
  24522662.702   128867442.00408  24522663.037   100416183.43744
  23120337.604   121498157.56008  23120339.017    94673876.33946
 15 03 01 00 05 30.0000000  0  7G16G18G21G22G27G29G31
  21359378.832   112244332.62809  21359377.909    87463109.26048
  22509052.852   118285914.69408  22509052.538    92170860.74046
  21583745.160   113423363.57709  21583743.656    88381845.57948
  23564906.260   123834414.98907  23564907.997    96494357.49446
  22443952.125   117943820.94008  22443954.556    91904312.19947
  24536927.053   128942404.64307  24536928.368   100474595.73945
  23138274.910   121592417.08108  23138275.778    94747325.22446
 15 03 01 00 06  0.0000000  0  7G16G18G21G22G27G29G31
  21347440.357   112181595.92709  21347439.444    87414223.52448
  22499167.631   118233967.85108  22499167.395    92130382.69946
  21592960.718   113471791.04109  21592959.155    88419581.26048
  23547664.201   123743806.29907  23547665.255    96423753.56845
  22432880.822   117885640.66508  22432883.022    91858976.96347
  24551190.808   129017359.33507  24551191.802   100533001.98946
  23156237.192   121686809.57808  23156238.263    94820877.66046
 15 03 01 00 06 30.0000000  0  6G16G18G21G22G27G31
  21335552.562   112119124.51709  21335551.578    87365544.50948
  22489339.890   118182322.91308  22489339.680    92090139.91446
  21602225.713   113520479.57009  21602224.251    88457520.37348
  23530426.129   123653222.18107  23530426.950    96353168.74846
  22421825.520   117827544.90908  22421827.900    91813707.58447
  23174219.560   121781307.05508  23174220.871    94894511.89946
 15 03 01 00 07  0.0000000  0  6G16G18G21G22G27G31
  21323731.162   112057002.39309  21323730.109    87317137.66548
  22479585.680   118131063.87708  22479585.314    92050197.82246
  21611555.596   113569508.74909  21611554.070    88495724.91948
  23513209.157   123562747.44208  23513210.177    96282669.18946
  22410801.977   117769615.45508  22410804.179    91768567.79147
  23192236.931   121875988.29408  23192238.341    94968289.33247
 15 03 01 00 07 30.0000000  0  6G16G18G21G22G27G31
  21311964.935   111995170.17109  21311963.808    87268956.72148
  22469893.362   118080130.84508  22469893.026    92010509.77047
  21620938.424   113618815.06409  21620936.947    88534145.42048
  23496002.117   123472323.21307  23496002.531    96212208.97546
  22399798.287   117711790.64108  22399800.514    91723509.52847
  23210276.793   121970788.84608  23210278.286    95042159.73546
 15 03 01 00 08  0.0000000  0  6G16G18G21G22G27G31
  21300256.621   111933642.78409  21300255.651    87221013.31048
  22460266.237   118029539.64408  22460266.074    91971088.07346
  21630375.834   113668409.33109  21630374.497    88572790.29848
  23478807.402   123381964.93807  23478807.921    96141800.13946
  22388817.075   117654083.48708  22388819.078    91678542.94647
  23228341.666   122065718.48608  23228342.773    95116130.76046
 15 03 01 00 08 30.0000000  0  6G16G18G21G22G27G31
  21288607.966   111872428.75209  21288607.063    87173314.07148
  22450705.606   117979298.72508  22450705.496    91931939.32546
  21639869.023   113718296.84309  21639867.712    88611663.67748
  23461626.584   123291681.47307  23461626.956    96071449.65046
  22377859.352   117596500.17008  22377861.346    91633672.86347
  23246431.462   122160780.88407  23246432.958    95190205.19946
 15 03 01 00 09  0.0000000  0  6G16G18G21G22G27G31
  21277016.040   111811512.26609  21277014.882    87125846.68348
  22441208.716   117929392.10208  22441208.687    91893051.07246
  21649414.271   113768457.64709  21649413.193    88650750.01348
  23444457.444   123201457.94008  23444457.608    96001145.88246
  22366921.613   117539022.74208  22366923.876    91588885.28548
  23264542.510   122255955.01707  23264544.067    95264366.69446
 15 03 01 00 09 30.0000000  0  6G16G18G21G22G27G31
  21265484.929   111750916.96509  21265483.991    87078629.57948
  22431779.796   117879843.10808  22431779.632    91854441.48246
  21659015.142   113818910.81909  21659014.005    88690064.16948
  23427304.464   123111317.89008  23427304.279    95930907.05546
  22356008.238   117481672.35008  22356010.353    91544196.70147
  23282678.375   122351259.22408  23282680.076    95338629.55546
 15 03 01 00 10  0.0000000  0  6G16G18G21G22G27G31
  21254013.403   111690633.59609  21254012.434    87031655.53548
  22422417.160   117830642.65508  22422417.055    91816103.48347
  21668669.304   113869643.18509  21668667.808    88729595.87948
  23410165.279   123021253.05307  23410165.309    95860726.83646
  22345116.789   117424437.80908  22345119.020    91499598.38747
  23300836.462   122446679.30408  23300837.895    95412982.72746
 15 03 01 00 10 30.0000000  0  6G16G18G21G22G27G31
  21242602.363   111630668.92709  21242601.448    86984929.83048
  22413122.304   117781797.01408  22413121.883    91778041.96446
  21678377.045   113920657.39609  21678375.595    88769347.20948
  23393041.760   122931270.72807  23393042.069    95790610.90646
  22334248.376   117367323.66008  22334250.383    91455093.88447
  23319016.830   122542216.90907  23319018.464    95487427.46146
 15 03 01 00 11  0.0000000  0  6G16G18G21G22G27G31
  21231250.353   111571013.64509  21231249.550    86938445.20648
  22403893.051   117733297.71108  22403892.847    91740250.32147
  21688135.979   113971940.44109  21688134.480    88809308.02148
  23375932.801   122841362.32208  23375932.614    95720552.52045
  22323400.670   117310318.51808  22323402.710    91410674.32148
  23337216.520   122637857.57907  23337218.316    95561952.47046
 15 03 01 00 11 30.0000000  0  6G16G18G21G22G27G31
  21219960.627   111511685.70609  21219959.700    86892215.65548
  22394733.269   117685162.16908  22394733.153    91702742.12546
  21697948.756   114023506.18209  21697947.174    88849489.11548
  23358841.402   122751546.13607  23358840.998    95650566.02146
  22312576.473   117253437.79008  22312578.574    91366351.70148
  23355438.414   122733613.87408  23355440.268    95636567.59946
 15 03 01 00 12  0.0000000  0  6G16G18G21G22G27G31
  21208734.669   111452692.27109  21208733.594    86846246.75548
  22385644.073   117637398.02708  22385643.914    91665523.33547
  21707815.866   114075358.47909  21707814.284    88889893.49948
  23341767.945   122661829.95107  23341768.490    95580657.51846
  22301777.166   117196687.05108  22301779.312    91322130.37448
  23373683.295   122829488.74408  23373684.875    95711275.15146
 15 03 01 00 12 30.0000000  0  6G16G18G21G22G27G31
  21197567.661   111394009.78209  21197566.828    86800520.15048
  22376620.974   117589981.51008  22376620.701    91628575.41046
  21717732.147   114127469.01209  21717730.778    88930499.10348
  23324710.563   122572191.11408  23324711.154    95510809.29546
  22290997.572   117140040.31108  22290999.880    91277990.08648
  23391945.099   122925453.04808  23391946.296    95786052.39846
 15 03 01 00 13  0.0000000  0  6G16G18G21G22G27G31
  21186461.507   111335646.14109  21186460.592    86755042.00248
  22367665.605   117542920.00908  22367665.369    91591904.13847
  21727698.246   114179842.02709  21727697.022    88971309.23848
  23307669.341   122482638.20007  23307669.808    95441028.05046
  22280238.927   117083503.49508  22280241.182    91233935.45548
  23410223.819   123021509.59107  23410225.575    95860901.49146
 15 03 01 00 13 30.0000000  0  7G16G18G19G21G22G27G31
  21175419.521   111277620.95809  21175418.578    86709827.58448
  22358781.375   117496233.15708  22358780.978    91555524.79246
  24428087.303   128370465.51716  24428086.779   100028935.75154
  21737717.313   114232493.20609  21737716.222    89012336.12348
  23290647.393   122393190.85607  23290647.818    95371329.06845
  22269504.437   117027093.81008  22269506.706    91189979.88348
  23428523.111   123117673.14108  23428525.147    95935833.93246
 15 03 01 00 14  0.0000000  0  7G16G18G19G21G22G27G31
  21164439.944   111219922.38909  21164438.885    86664867.66748
  22349966.017   117449908.76408  22349965.660    91519427.88347
  24413354.255   128293041.76506  24413354.561    99968605.65344
  21747786.181   114285405.52309  21747785.062    89053566.49548
  23273644.015   122303838.00108  23273644.018    95301703.72346
  22258791.641   116970797.24708  22258793.955    91146112.45948
  23446839.891   123213926.15908  23446841.677    96010836.15446
 15 03 01 00 14 30.0000000  0  7G16G18G19G21G22G27G31
  21153524.537   111162561.10209  21153523.443    86620170.57048
  22341221.813   117403957.88208  22341221.670    91483622.01747
  24398637.548   128215706.94806  24398638.371    99908344.84945
  21757906.341   114338586.73209  21757905.146    89095006.39248
  23256660.928   122214590.96208  23256661.029    95232160.81546
  22248101.961   116914622.31808  22248104.129    91102339.81548
  23465174.429   123310274.52507  23465175.950    96085912.65446
 15 03 01 00 15  0.0000000  0  7G16G18G19G21G22G27G31
  21142672.860   111105535.09209  21142671.696    86575734.72948
  22332548.379   117358378.11808  22332548.028    91448105.33847
  24383937.640   128138457.44306  24383938.550    99848150.50945
  21768076.513   114392030.87709  21768075.274    89136651.18048
  23239697.489   122125448.17807  23239698.061    95162699.20246
  22237434.675   116858565.19608  22237436.781    91058658.96548
  23483525.892   123406711.42907  23483527.690    96161058.11746
 15 03 01 00 15 30.0000000  0  7G16G18G19G21G22G27G31
  21131884.965   111048844.94909  21131883.891    86531560.59848
  22323945.519   117313170.22008  22323945.226    91412878.42747
  24369253.420   128061291.18806  24369254.187    99788021.02745
  21778296.093   114445734.28909  21778294.487    89178497.99148
  23222754.073   122036410.99008  23222754.353    95093319.83246
  22226789.493   116802624.07708  22226791.631    91015068.50848
  23501893.161   123503232.29407  23501895.115    96236268.99546
 15 03 01 00 16  0.0000000  0  7G16G18G19G21G22G27G31
  21121162.709   110992498.11109  21121161.315    86487653.97348
  22315414.854   117268341.17708  22315414.403    91377946.72747
  24354585.721   127984213.72206  24354586.468    99727960.73245
  21788565.635   114499701.06609  21788564.221    89220550.02448
  23205832.405   121947487.33308  23205832.158    95024028.89746
  22216167.366   116746804.36108  22216169.400    90971572.65548
  23520277.067   123599839.52808  23520279.183    96311547.18146
 15 03 01 00 16 30.0000000  0  7G16G18G19G21G22G27G31
  21110504.940   110936491.34309  21110503.735    86444012.33748
  22306955.517   117223887.43608  22306955.136    91343307.47447
  24339934.118   127907219.40706  24339934.921    99667965.22145
  21798883.477   114553922.13009  21798882.130    89262800.19848
  23188931.789   121858674.43708  23188931.597    94954824.26946
  22205567.248   116691100.55008  22205569.384    90928167.11248
  23538675.720   123696524.51207  23538677.622    96386885.96446
 15 03 01 00 17  0.0000000  0  7G16G18G19G21G22G27G31
  21099911.813   110880824.21109  21099910.634    86400635.36048
  22298567.580   117179808.75208  22298567.315    91308960.46947
  24325297.923   127830305.39806  24325298.594    99608032.31645
  21809249.032   114608394.58209  21809247.892    89305246.25948
  23172052.437   121769972.47008  23172052.302    94885706.06546
  22194988.713   116635510.16408  22194990.602    90884849.95448
  23557087.702   123793281.91207  23557090.326    96462281.09745
 15 03 01 00 17 30.0000000  0  7G16G18G19G21G22G27G31
  21089385.753   110825509.73609  21089384.715    86357533.17148
  22290253.513   117136117.87708  22290253.132    91274915.65547
  24310679.080   127753482.92706  24310679.409    99548170.72745
  21819664.364   114663127.67809  21819663.252    89347895.41848
  23155196.226   121681395.16708  23155196.307    94816685.02146
  22184433.750   116580044.26808  22184435.762    90841629.80648
  23575515.788   123890119.74907  23575517.874    96537738.94845
 15 03 01 00 18  0.0000000  0  7G16G18G19G21G22G27G31
  21078925.490   110770540.37209  21078924.256    86314699.90248
  22282011.699   117092806.91708  22282011.214    91241166.87647
  24296075.870   127676742.25406  24296075.951    99488372.85545
  21830127.162   114718109.30309  21830125.968    89390738.24148
  23138362.701   121592935.92708  23138362.677    94747755.93246
  22173900.709   116524693.20008  22173902.888    90798499.13748
  23593956.591   123987025.41907  23593958.730    96613249.64346
 15 03 01 00 18 30.0000000  0  7G16G18G19G21G22G27G31
  21068531.823   110715921.93909  21068530.943    86272140.08448
  22273843.339   117049881.85909  22273842.844    91207718.80047
  24281488.742   127600087.32006  24281489.251    99428641.81845
  21840637.623   114773341.64609  21840636.286    89433776.42648
  23121553.084   121504601.14108  23121552.675    94678923.81846
  22163390.121   116469460.68908  22163392.246    90755460.84648
  23612410.140   124083999.97207  23612412.884    96688813.97446
 15 03 01 00 19  0.0000000  0  7G16G18G19G21G22G27G31
  21058205.888   110661658.62609  21058204.741    86229856.98248
  22265749.112   117007346.38109  22265748.594    91174574.29447
  24266918.094   127523519.79706  24266918.872    99368978.92545
  21851195.755   114828824.60009  21851194.250    89477009.89748
  23104767.830   121416395.06708  23104767.734    94610192.00646
  22152902.630   116414348.67908  22152904.779    90712516.45348
  23630876.928   124181042.19407  23630880.020    96764431.02746
 15 03 01 00 19 30.0000000  0  7G16G18G19G21G22G27G31
  21047946.713   110607746.83009  21047945.728    86187847.79149
  22257728.228   116965196.47709  22257727.794    91141730.23747
  24252363.471   127447034.08206  24252364.043    99309379.74244
  21861800.000   114884550.37809  21861798.558    89520432.57748
  23088006.499   121328314.89608  23088006.214    94541558.26246
  22142437.108   116359351.52008  22142439.053    90669661.55348
  23649354.922   124278143.67507  23649357.638    96840094.28545
 15 03 01 00 20  0.0000000  0  7G16G18G19G21G22G27G31
  21037756.476   110554196.02509  21037755.326    86146119.88949
  22249782.519   116923441.58709  22249781.916    91109193.97947
  24237825.544   127370637.16606  24237825.987    99249849.76846
  21872451.361   114940524.84109  21872450.197    89564049.04048
  23071271.107   121240370.75508  23071271.114    94473030.57246
  22131994.702   116304476.58508  22131996.616    90626901.89548
  23667845.012   124375308.72307  23667847.650    96915807.10346
 15 03 01 00 20 30.0000000  0  7G16G18G19G21G22G27G31
  21027634.167   110501003.65009  21027633.298    86104671.28549
  22241911.443   116882078.70909  22241911.042    91076963.19147
  24223303.799   127294324.78706  24223304.113    99190385.62145
  21883149.001   114996741.07309  21883147.568    89607853.89248
  23054561.593   121152560.94808  23054561.047    94404607.48846
  22121574.752   116249719.31608  22121576.647    90584233.92748
  23686345.661   124472529.75507  23686348.415    96991563.48746
 15 03 01 00 21  0.0000000  0  7G16G18G19G21G22G27G31
  21017580.000   110448168.64409  21017579.147    86063501.15249
  22234114.849   116841107.05109  22234114.494    91045037.25247
  24208797.541   127218093.94906  24208797.789    99130985.05745
  21893891.558   115053194.80909  21893890.355    89651843.81148
  23037877.707   121064885.16108  23037876.365    94336288.81446
  22111176.575   116195076.78008  22111178.695    90541655.36448
  23704856.028   124569801.07707  23704858.757    97067359.02646
 15 03 01 00 21 30.0000000  0  7G16G18G19G21G22G27G31
  21007595.717   110395700.47809  21007594.580    86022616.86648
  22226394.243   116800535.61609  22226393.951    91013423.17147
  24194308.080   127141951.59705  24194308.153    99071653.45045
  21904680.546   115109890.57009  21904679.322    89696022.32548
  23021220.552   120977353.28008  23021219.808    94268082.34246
  22100801.732   116140556.26708  22100803.658    90499171.88648
  23723376.538   124667126.92207  23723379.663    97143197.03945
 15 03 01 00 22  0.0000000  0  7G16G18G19G21G22G27G31
  20997680.681   110343596.86309  20997679.593    85982016.65049
  22218749.349   116760361.39609  22218748.980    90982118.60547
  24179834.528   127065893.50606  24179834.867    99012387.54745
  21915514.689   115166823.19109  21915513.285    89740385.40648
  23004590.805   120889963.71208  23004589.897    94199986.70146
  22090449.182   116086153.43508  22090451.305    90456780.10348
  23741906.510   124764499.89407  23741909.116    97219071.80245
 15 03 01 00 22 30.0000000  0  7G16G18G19G21G22G27G31
  20987836.408   110291864.01509  20987835.250    85941705.33849
  22211181.157   116720590.65409  22211180.820    90951128.44247
  24165377.929   126989923.35006  24165378.402    98953190.14645
  21926394.089   115223994.32409  21926392.642    89784934.33848
  22987989.429   120802723.11408  22987988.853    94132007.17046
  22080119.784   116031872.42908  22080121.936    90414483.25348
  23760445.614   124861921.23207  23760448.167    97294984.21145
 15 03 01 00 23  0.0000000  0  7G16G18G19G21G22G27G31
  20978062.138   110240500.18909  20978060.971    85901681.57949
  22203689.453   116681221.57809  22203689.041    90920451.26447
  24150937.231   126914037.53106  24150937.880    98894058.40345
  21937317.684   115281398.54809  21937316.195    89829664.89848
  22971416.105   120715630.52108  22971415.057    94064142.93046
  22069812.895   115977709.45408  22069815.034    90372278.36948
  23778992.300   124959384.41107  23778995.374    97370929.14146
 15 03 01 00 23 30.0000000  0  7G16G18G19G21G22G27G31
  20968357.748   110189503.65009  20968356.783    85861944.02149
  22196273.851   116642252.17009  22196273.262    90890085.51447
  24136512.155   126838232.40106  24136512.224    98834989.53345
  21948284.337   115339029.75909  21948283.194    89874572.33148
  22954870.642   120628685.18208  22954869.766    93996393.45146
  22059527.745   115923660.97208  22059529.859    90330162.70248
  23797545.941   125056882.73607  23797548.903    97446901.45946
 15 03 01 00 24  0.0000000  0  7G16G18G19G21G22G27G31
  20958726.408   110138890.61709  20958725.351    85822505.29149
  22188937.068   116603697.92709  22188936.739    90860043.27447
  24122104.693   126762521.98706  24122104.643    98775994.52245
  21959296.644   115396900.38709  21959295.576    89919666.32048
  22938356.503   120541903.76408  22938355.694    93928771.68047
  22049267.315   115869741.07608  22049269.298    90288147.23148
  23816108.640   125154427.22007  23816111.158    97522909.72845
 15 03 01 00 24 30.0000000  0  7G16G18G19G21G22G27G31
  20949165.280   110088646.02109  20949164.032    85783353.66249
  22181676.588   116565543.72209  22181676.134    90830312.74747
  24107712.259   126686889.23606  24107712.311    98717060.01746
  21970351.187   115454992.12009  21970349.987    89964932.59848
  22921871.030   120455271.64508  22921870.477    93861266.25247
  22039027.732   115815932.70708  22039029.784    90246218.66448
  23834675.708   125251997.94507  23834678.558    97598938.38045
 15 03 01 00 25  0.0000000  0  7G16G18G19G21G22G27G31
  20939676.314   110038781.91509  20939675.247    85744498.51749
  22174494.497   116527801.01509  22174493.957    90800902.87347
  24093336.255   126611343.76206  24093336.472    98658193.51745
  21981449.249   115513312.01609  21981447.832    90010376.66848
  22905415.928   120368801.68508  22905415.783    93793887.22047
  22028811.444   115762245.96908  22028813.491    90204384.87348
  23853249.634   125349602.27507  23853252.340    97674993.34945
 15 03 01 00 25 30.0000000  0  7G16G18G19G21G22G27G31
  20930260.566   109989301.36009  20930259.463    85705942.24149
  22167391.049   116490472.64809  22167390.641    90771815.85447
  24078977.208   126535886.40107  24078977.130    98599395.66145
  21992590.557   115571859.67109  21992589.180    90055998.21648
  22888992.651   120282497.34708  22888992.101    93726637.17446
  22018618.588   115708681.80608  22018620.508    90162646.59348
  23871829.584   125447238.16507  23871832.261    97751072.95745
 15 03 01 00 26  0.0000000  0  7G16G18G19G21G22G27G31
  20920916.178   109940196.92709  20920915.272    85667679.05649
  22160364.963   116453550.87509  22160364.666    90743045.66247
  24064633.362   126460508.60507  24064632.977    98540659.78045
  22003773.193   115630624.16709  22003771.576    90101788.73048
  22872599.795   120196352.71208  22872599.057    93659511.58747
  22008447.378   115655231.10908  22008449.064    90120996.72748
  23890413.102   125544893.74207  23890415.944    97827167.96946
 15 03 01 00 26 30.0000000  0  7G16G18G19G21G22G27G31
  20911645.845   109891480.80909  20911644.843    85629718.44949
  22153418.623   116417047.30009  22153418.259    90714601.34947
  24050306.274   126385219.65406  24050305.919    98481993.15746
  22014998.353   115689613.53009  22014996.983    90147754.45848
  22856239.916   120110380.03208  22856239.327    93592520.00847
  21998299.338   115601903.74008  21998301.070    90079442.95548
  23909001.593   125642575.48207  23909004.622    97903283.37145
 15 03 01 00 27  0.0000000  0  7G16G18G19G21G22G27G31
  20902449.559   109843153.71609  20902448.380    85592060.97349
  22146551.871   116380962.15209  22146551.464    90686483.06647
  24035995.825   126310018.33306  24035995.374    98423394.83646
  22026265.530   115748823.63009  22026264.440    90193892.18648
  22839912.700   120024580.83908  22839911.987    93525663.59247
  21988174.677   115548698.75508  21988176.628    90037984.55748
  23927593.916   125740279.98806  23927597.384    97979416.52946
 15 03 01 00 27 30.0000000  0  7G16G18G19G21G22G27G31
  20893326.878   109795213.42709  20893325.663    85554704.90749
  22139764.333   116345293.67809  22139763.755    90658689.46947
  24021701.297   126234900.67607  24021701.047    98364861.67445
  22037573.908   115808249.74909  22037572.836    90240198.24048
  22823618.190   119938953.60808  22823617.787    93458941.19447
  21978072.634   115495612.06908  21978074.613    89996618.33748
  23946189.675   125837999.86307  23946192.746    98055561.77145
 15 03 01 00 28  0.0000000  0  7G16G18G19G21G22G27G31
  20884278.435   109747663.15909  20884277.232    85517652.75349
  22133056.658   116310044.26609  22133055.936    90631222.41447
  24007422.944   126159867.36007  24007422.829    98306394.22946
  22048923.286   115867890.75309  22048921.980    90286671.74348
  22807357.548   119853502.14108  22807356.772    93392355.74447
  21967993.156   115442644.70908  21967995.258    89955345.09448
  23964788.172   125935733.06107  23964791.230    98131717.42446
 15 03 01 00 28 30.0000000  0  7G16G18G19G21G22G27G31
  20875304.724   109700506.43209  20875303.713    85480907.25549
  22126429.098   116275216.60909  22126428.558    90604084.00347
  23993160.781   126084919.97006  23993160.384    98247993.77345
  22060313.605   115927746.09809  22060312.163    90333312.26348
  22791130.614   119768230.77808  22791129.930    93325910.62947
  21957936.873   115389798.39708  21957938.923    89914166.17848
  23983388.541   126033478.59407  23983391.807    98207882.64745
 15 03 01 00 29  0.0000000  0  7G16G18G19G21G22G27G31
  20866406.202   109653744.50309  20866405.168    85444469.39049
  22119882.036   116240811.62809  22119881.346    90577274.95147
  23978914.900   126010057.95107  23978914.650    98189659.81445
  22071744.004   115987813.90509  22071742.692    90380118.33748
  22774938.709   119683141.46008  22774937.818    93259607.35647
  21947903.394   115337072.54708  21947905.526    89873081.12448
  24001990.143   126131232.95306  24001994.013    98284054.75746
 15 03 01 00 29 30.0000000  0  7G16G18G19G21G22G27G31
  20857583.394   109607380.95909  20857582.320    85408341.95549
  22113415.978   116206832.79409  22113415.433    90550797.96347
  23964685.728   125935282.96107  23964685.468    98131393.66046
  22083214.843   116048093.10409  22083213.501    90427089.13348
  22758782.280   119598238.66708  22758781.262    93193449.43047
  21937893.168   115284468.88908  21937895.350    89832091.28248
  24020593.516   126228994.65307  24020597.490    98360232.57345
 15 03 01 00 30  0.0000000  0  7G16G18G19G21G22G27G31
  20848836.712   109561416.99409  20848835.683    85372525.87849
  22107031.158   116173280.58809  22107030.834    90524653.41147
  23950472.798   125860593.79407  23950472.574    98073194.39045
  22094725.211   116108581.08909  22094723.940    90474222.61348
  22742661.163   119513523.93508  22742660.644    93127438.06947
  21927906.202   115231986.56208  21927908.116    89791195.98148
  24039198.175   126326760.17207  24039201.497    98436413.52845
 15 03 01 00 30 30.0000000  0  7G16G18G19G21G22G27G31
  20840166.358   109515853.97609  20840165.444    85337022.23049
  22100727.847   116140156.18709  22100727.506    90498842.21047
  23936276.182   125785990.35407  23936275.841    98015061.92645
  22106274.860   116169275.68509  22106273.948    90521517.08948
  22726576.760   119428999.58008  22726576.079    93061575.02647
  21917942.269   115179625.36608  21917944.339    89750395.07248
  24057802.433   126424526.17707  24057805.850    98512594.87045
 15 03 01 00 31  0.0000000  0  7G16G18G19G21G22G27G31
  20831573.074   109470695.05909  20831571.875    85301833.47149
  22094506.442   116107462.35609  22094505.975    90473366.52047
  23922095.913   125711460.28817  23922095.406    97956981.75755
  22117863.810   116230175.90409  22117862.757    90568971.79248
  22710529.215   119344669.66008  22710528.129    92995863.48147
  21908001.480   115127386.38708  21908003.475    89709689.39548
  24076406.042   126522290.82906  24076409.989    98588775.05145
 15 03 01 00 31 30.0000000  0  7G16G18G19G21G22G27G31
  20823055.715   109425936.31409  20823054.524    85266956.52749
  22088366.112   116075194.70709  22088365.459    90448222.91347
  23907931.078   125637023.73507  23907930.496    97898979.31745
  22129490.691   116291274.82809  22129489.653    90616581.33348
  22694517.891   119260530.95808  22694516.948    92930300.96347
  21898082.801   115075263.93608  21898084.869    89669074.51748
  24095008.174   126620045.32207  24095012.016    98664947.33945
 15 03 01 00 32  0.0000000  0  7G16G18G19G21G22G27G31
  20814616.757   109381589.20009  20814615.610    85232400.33749
  22082308.872   116043363.79009  22082308.219    90423419.62447
  23893783.392   125562677.08006  23893782.964    97841046.94645
  22141156.705   116352579.39409  22141155.551    90664351.10848
  22678545.660   119176595.32008  22678544.548    92864896.65747
  21888188.316   115023267.50508  21888190.144    89628557.83848
  24113609.618   126717796.22507  24113613.342    98741116.87646
 15 03 01 00 32 30.0000000  0  7G16G18G19G21G22G27G31
  20806255.814   109337652.80309  20806254.839    85198164.18849
  22076334.494   116011968.53109  22076333.876    90398955.81247
  23879652.049   125488417.55807  23879651.856    97783182.45245
  22152860.661   116414084.75209  22152859.536    90712277.34548
  22662611.818   119092862.72708  22662610.682    92799650.57547
  21878317.235   114971394.47008  21878319.122    89588137.30948
  24132209.320   126815538.10007  24132213.179    98817279.31945
 15 03 01 00 33  0.0000000  0  7G16G18G19G21G22G27G31
  20797973.471   109294128.01509  20797972.225    85164248.77049
  22070442.973   115981008.97409  22070442.451    90374831.50547
  23865537.187   125414244.17707  23865537.120    97725385.09245
  22164602.438   116475788.01909  22164601.219    90760357.79448
  22646717.022   119009334.98008  22646715.939    92734564.10547
  21868469.294   114919643.96908  21868471.311    89547812.26048
  24150806.657   126913267.04607  24150810.192    98893431.79044
 15 03 01 00 33 30.0000000  0  7G16G18G19G21G22G27G31
  20789769.714   109251017.07209  20789768.471    85130655.83049
  22064634.894   115950487.18709  22064634.308    90351048.31647
  23851438.815   125340157.04107  23851438.483    97667654.93646
  22176381.616   116537688.01909  22176380.417    90808591.54948
  22630861.895   118926015.07008  22630860.503    92669639.58747
  21858644.957   114868016.35508  21858646.686    89507582.97248
  24169400.901   127010980.52207  24169404.343    98969572.26344
 15 03 01 00 34  0.0000000  0  7G16G18G19G21G22G27G31
  20781643.986   109208316.43009  20781642.894    85097382.60649
  22058909.127   115920398.89309  22058908.555    90327602.91047
  23837356.026   125266151.11307  23837355.679    97609988.05446
  22188196.864   116599777.75209  22188195.842    90856973.14548
  22615045.668   118842900.20308  22615043.962    92604874.83847
  21848842.970   114816506.50608  21848844.798    89467445.44148
  24187990.199   127108670.44206  24187993.988    99045694.28445
 15 03 01 00 34 30.0000000  0  7G16G18G19G21G22G27G31
  20773598.379   109166036.04209  20773597.167    85064436.85849
  22053267.922   115890753.91009  22053267.307    90304502.94247
  23823289.886   125192233.85806  23823289.604    97552390.26346
  22200049.623   116662063.10809  22200048.426    90905507.17948
  22599270.710   118760001.05308  22599268.993    92540278.16647
  21839064.940   114765122.45608  21839066.629    89427405.94248
  24206576.188   127206341.72107  24206580.314    99121801.71246
 15 03 01 00 35  0.0000000  0  7G16G18G19G21G22G27G31
  20765632.331   109124174.21009  20765631.294    85031817.25249
  22047710.703   115861549.90209  22047710.066    90281746.59447
  23809240.200   125118402.01406  23809239.847    97494859.04446
  22211938.272   116724538.38509  22211937.155    90954189.19748
  22583536.147   118677316.55108  22583534.642    92475848.78747
  21829310.040   114713860.76209  21829311.813    89387461.78948
  24225158.186   127303988.05907  24225162.136    99197889.76146
 15 03 01 00 35 30.0000000  0  7G16G18G19G21G22G27G31
  20757746.389   109082733.27209  20757745.239    84999525.61249
  22042237.702   115832788.46109  22042237.118    90259335.10047
  23795206.583   125044655.85706  23795206.108    97437394.57346
  22223862.851   116787202.34609  22223861.699    91003018.24048
  22567843.059   118594849.69408  22567841.568    92411588.98947
  21819578.821   114662722.05108  21819580.491    89347613.46348
  24243734.602   127401606.78707  24243738.523    99273956.27044
 15 03 01 00 36  0.0000000  0  7G16G18G19G21G22G27G31
  20749941.297   109041717.98809  20749940.267    84967565.65049
  22036849.450   115804473.85209  22036848.880    90237271.79147
  23781189.830   124970997.79106  23781189.482    97379998.77046
  22235823.315   116850055.84709  22235822.097    91051994.97748
  22552192.719   118512606.41308  22552191.054    92347503.37747
  21809871.335   114611709.27608  21809873.080    89307863.27148
  24262305.799   127499198.55506  24262309.178    99350001.78044
 15 03 01 00 36 30.0000000  0  7G16G18G19G21G22G27G31
  20742217.099   109001126.58109  20742215.895    84935935.98249
  22031545.777   115776603.67509  22031545.383    90215554.79447
  23767189.340   124897424.34707  23767188.825    97322668.88946
  22247819.019   116913093.57309  22247817.904    91101115.26948
  22536584.687   118430585.62308  22536583.080    92283591.14247
  21800187.020   114560818.92008  21800188.874    89268208.47348
  24280870.065   127596756.61905  24280873.658    99426021.06545
 15 03 01 00 37  0.0000000  0  7G16G18G19G21G22G27G31
  20734574.330   108960963.21909  20734573.115    84904639.85549
  22026327.471   115749181.63309  22026327.048    90194186.99347
  23753205.509   124823938.25507  23753205.009    97265407.06446
  22259850.022   116976316.11109  22259848.633    91150379.56448
  22521019.952   118348792.38408  22521018.323    92219856.22147
  21790526.750   114510053.70109  21790528.602    89228651.17948
  24299428.307   127694280.71307  24299432.157    99502013.95445
 15 03 01 00 37 30.0000000  0  7G16G18G19G21G22G27G31
  20727012.603   108921226.72809  20727011.627    84873676.35849
  22021194.255   115722206.24709  22021193.915    90173167.23147
  23739237.571   124750536.21507  23739236.881    97208210.76045
  22271915.102   117039718.78309  22271913.788    91199784.23348
  22505498.312   118267226.11708  22505496.889    92156298.17047
  21780889.678   114459410.63908  21780891.568    89189189.07548
  24317979.078   127791764.82907  24317983.231    99577975.59646
 15 03 01 00 38  0.0000000  0  7G16G18G19G21G22G27G31
  20719533.098   108881921.04209  20719531.951    84843048.55249
  22016146.535   115695680.76809  22016146.144    90152498.04847
  23725285.897   124677220.48607  23725285.234    97151081.69246
  22284014.616   117103301.81609  22284013.248    91249329.43748
  22490020.668   118185891.80008  22490019.034    92092920.84947
  21771276.374   114408892.22909  21771278.278    89149824.10348
  24336522.159   127889208.62906  24336526.351    99653905.85446
 15 03 01 00 38 30.0000000  0  7G16G18G19G21G22G27G31
  20712136.762   108843053.40809  20712135.785    84812762.08349
  22011185.760   115669611.43809  22011185.182    90132184.29947
  23711351.303   124603995.98307  23711351.001    97094023.70846
  22296149.045   117167068.73108  22296147.594    91299017.92848
  22474588.889   118104797.15908  22474587.110    92029730.29147
  21761687.687   114358503.68009  21761689.609    89110560.32548
  24355057.534   127986614.46105  24355061.912    99729806.53245
 15 03 01 00 39  0.0000000  0  7G16G18G19G21G22G27G31
  20704823.062   108804619.31009  20704821.927    84782813.43449
  22006310.913   115643993.53609  22006310.154    90112222.31347
  23697433.312   124530856.62907  23697433.145    97037032.07445
  22308316.828   117231011.11408  22308315.605    91348843.14848
  22459202.015   118023938.77808  22459199.896    91966723.81747
  21752122.783   114308239.02109  21752124.599    89071393.08248
  24373583.805   128083973.39105  24373588.524    99805670.63144
 15 03 01 00 39 30.0000000  0  7G16G18G19G21G22G27G31
  20697591.706   108766618.25009  20697590.605    84753202.22149
  22001521.627   115618825.66809  22001520.864    90092611.00147
  23683531.215   124457800.36707  23683530.842    96980105.18646
  22320517.246   117295125.05608  22320516.139    91398802.04648
  22443859.930   117943316.85608  22443858.094    91903901.60847
  21742580.896   114258096.22309  21742582.558    89032320.79948
  24392100.708   128181279.90307  24392104.547    99881494.08643
 15 03 01 00 40  0.0000000  0  7G16G18G19G21G22G27G31
  20690443.498   108729054.97309  20690442.565    84723932.12949
  21996819.010   115594112.02909  21996817.859    90073353.63847
  23669645.357   124384829.78507  23669644.912    96923245.06145
  22332750.538   117359411.71709  22332749.419    91448895.53548
  22428564.171   117862937.26008  22428562.520    91841268.22747
  21733062.745   114208078.44309  21733064.497    88993345.93148
  24410608.067   128278534.79607  24410611.170    99957277.24245
 15 03 01 00 40 30.0000000  0  7G16G18G19G21G22G27G31
  20683379.775   108691934.42209  20683378.804    84695007.02149
  21992203.304   115569856.77009  21992202.310    90054453.45747
  23655776.437   124311947.89807  23655775.835    96866454.04146
  22345017.185   117423872.04209  22345015.794    91499124.35047
  22413315.521   117782805.28008  22413313.750    91778827.78347
  21723568.968   114158188.64809  21723570.844    88954470.79148
  24429105.219   128375737.92507  24429108.794   100033020.04246
 15 03 01 00 41  0.0000000  0  7G16G18G19G21G22G27G31
  20676400.559   108655258.89609  20676399.545    84666428.68949
  21987675.370   115546062.09609  21987674.574    90035912.16647
  23641924.560   124239155.01407  23641923.746    96809732.39446
  22357316.395   117488504.79209  22357314.986    91549487.51848
  22398114.639   117702924.23408  22398112.802    91716582.88047
  21714099.776   114108427.92909  21714101.845    88915696.22748
  24447591.607   128472887.17105  24447595.825   100108720.75045
 15 03 01 00 41 30.0000000  0  7G16G18G19G21G22G27G31
  20669504.889   108619021.93609  20669504.018    84638192.09549
  21983233.457   115522720.52809  21983232.696    90017723.95147
  23628087.909   124166443.33107  23628087.321    96753074.01546
  22369646.649   117553300.37208  22369645.195    91599977.56848
  22382960.238   117623288.37708  22382958.440    91654529.01947
  21704653.778   114058788.18609  21704655.492    88877015.93048
  24466065.761   128569971.78706  24466070.579   100184371.24745
 15 03 01 00 42  0.0000000  0  7G16G18G19G21G22G27G31
  20662695.595   108583238.22609  20662694.483    84610308.68649
  21978880.598   115499846.19509  21978879.928    89999899.81147
  23614269.002   124093825.66807  23614268.328    96696488.89646
  22382009.741   117618269.98208  22382008.581    91650603.22248
  22367855.555   117543913.70308  22367853.853    91592678.69847
  21695233.032   114009282.64509  21695235.051    88838440.20748
  24484529.910   128667001.57606  24484534.401   100259978.82644
 15 03 01 00 42 30.0000000  0  7G16G18G19G21G22G27G31
  20655970.794   108547899.53409  20655969.892    84582772.04649
  21974614.841   115477430.24309  21974614.275    89982432.86047
  23600466.238   124021292.43807  23600465.593    96639969.56446
  22394403.880   117683401.62608  22394402.793    91701355.13848
  22352799.144   117464792.88708  22352797.672    91531026.18247
  21685836.137   113959901.50509  21685838.047    88799961.42048
  24502981.485   128763964.91506  24502985.811   100335534.92144
 15 03 01 00 43  0.0000000  0  7G16G18G19G21G22G27G31
  20649331.296   108513008.42409  20649330.303    84555584.16649
  21970436.711   115455474.55409  21970436.248    89965324.54147
  23586679.607   123948843.98307  23586679.249    96583516.29146
  22406828.692   117748694.51508  22406827.521    91752232.69747
  22337791.869   117385928.50008  22337790.347    91469573.47647
  21676463.065   113910645.95809  21676464.933    88761580.49348
  24521419.862   128860858.86406  24521423.975   100411036.90343
 15 03 01 00 43 30.0000000  0  7G16G18G19G21G22G27G31
  20642777.984   108478570.10009  20642776.893    84528749.10849
  21966347.109   115433983.14409  21966346.673    89948578.00847
  23572909.814   123876483.57607  23572909.338    96527131.62046
  22419284.391   117814149.96808  22419283.155    91803236.93348
  22322834.554   117307327.59108  22322832.952    91408326.07247
  21667114.684   113861519.35209  21667116.487    88723300.04448
  24539845.006   128957684.61905  24539849.209   100486485.71644
 15 03 01 00 44  0.0000000  0  7G16G18G19G21G22G27G31
  20636311.278   108444587.45709  20636310.196    84502269.12749
  21962346.426   115412959.03509  21962345.739    89932195.60047
  23559157.283   123804213.09807  23559156.725    96470817.03146
  22431771.090   117879767.76608  22431769.834    91854367.67248
  22307928.038   117228993.75908  22307926.137    91347286.77947
  21657791.015   113812523.36009  21657792.649    88685121.35948
  24558256.926   129054440.06705  24558261.202   100561879.56244
 15 03 01 00 44 30.0000000  0  7G16G18G19G21G22G27G31
  20629930.552   108411056.20109  20629929.204    84476140.87949
  21958433.639   115392397.04709  21958432.910    89916173.28447
  23545420.495   123732026.48107  23545419.833    96414567.78646
  22444287.066   117945539.81608  22444285.867    91905618.61047
  22293071.784   117150923.49208  22293069.879    91286452.85847
  21648491.178   113763652.48309  21648492.858    88647040.17448
  24576653.967   129151117.23206  24576658.099   100637212.53144
 15 03 01 00 45  0.0000000  0  7G16G18G19G21G22G27G31
  20623636.738   108377982.67309  20623635.650    84450369.29649
  21954609.698   115372302.50609  21954609.065    89900515.21447
  23531700.623   123659927.50607  23531699.854    96358386.82846
  22456833.136   118011469.20408  22456831.984    91956992.14547
  22278266.951   117073123.44408  22278265.276    91225829.51147
  21639216.068   113714911.16909  21639217.468    88609059.94448
  24595036.266   129247717.74106  24595040.576   100712485.76345
 15 03 01 00 45 30.0000000  0  7G16G18G19G21G22G27G31
  20617431.051   108345371.28709  20617429.750    84424957.82849
  21950875.378   115352678.99009  21950874.875    89885224.17647
  23517997.847   123587919.11907  23517997.140    96302276.47446
  22469409.342   118077557.01908  22469408.164    92008489.12547
  22263514.580   116995599.43108  22263512.907    91165421.24547
  21629966.084   113666302.39309  21629967.429    88571182.98648
  24613404.302   129344241.26305  24613408.294   100787698.90743
 15 03 01 00 46  0.0000000  0  7G16G18G19G21G22G27G31
  20611311.946   108313215.89009  20611310.805    84399901.67749
  21947229.533   115333519.88509  21947229.052    89870295.01448
  23504310.795   123515993.82907  23504310.112    96246230.84846
  22482013.706   118143793.18008  22482012.383    92060101.70147
  22248813.673   116918346.17208  22248811.939    91105223.96047
  21620739.783   113617818.88309  21620741.404    88533403.64448
  24631755.577   129440677.77505  24631759.642   100862844.10644
 15 03 01 00 46 30.0000000  0  7G16G18G19G21G22G27G31
  20605280.926   108281522.73109  20605279.774    84375205.70949
  21943673.146   115314830.91009  21943672.572    89855732.19947
  23490640.665   123444156.09107  23490639.750    96190253.43946
  22494646.987   118210181.11108  22494645.599    92111832.54447
  22234165.612   116841370.84408  22234164.142    91045243.24047
  21611538.483   113569465.47509  21611540.098    88495725.67548
  24650090.858   129537029.04506  24650094.629   100937922.96944
 15 03 01 00 47  0.0000000  0  7G16G18G19G21G22G27G31
  20599338.590   108250295.10909  20599337.401    84350872.49449
  21940206.750   115296614.97309  21940206.044    89841537.97147
  23476987.462   123372408.40007  23476986.558    96134346.21546
  22507309.036   118276721.03408  22507307.668    92163681.81947
  22219571.631   116764678.33008  22219569.634    90985482.89247
  21602362.310   113521244.64309  21602364.144    88458151.02248
  24668409.615   129633294.17007  24668413.335   101012934.63445
 15 03 01 00 47 30.0000000  0  7G16G18G19G21G22G27G31
  20593484.795   108219533.61209  20593483.683    84326902.49749
  21936830.333   115278871.24809  21936829.560    89827711.70648
  23463350.883   123300748.51007  23463349.971    96078507.38846
  22519999.138   118343408.81808  22519998.027    92215646.31047
  22205031.303   116688268.98408  22205029.461    90925943.18547
  21593211.058   113473154.61409  21593212.865    88420678.28448
  24686711.308   129729469.02406  24686714.614   101087875.87644
 15 03 01 00 48  0.0000000  0  6G16G18G19G21G22G27
  20587717.749   108189227.11109  20587716.685    84303287.04549
  21933541.433   115261588.02609  21933540.798    89814244.27648
  23449728.832   123229164.08607  23449727.846    96022727.37546
  22532715.031   118410230.65708  22532713.774    92267715.26547
  22190543.160   116612133.03108  22190541.292    90866616.52647
  21584082.490   113425183.38509  21584084.270    88383298.12148
 15 03 01 00 48 30.0000000  0  6G16G18G19G21G22G27
  20582043.193   108159407.90209  20582042.239    84280051.29449
  21930345.995   115244796.63509  21930345.568    89801160.09547
  23436126.867   123157686.05507  23436126.069    95967030.27746
  22545461.820   118477215.80008  22545460.627    92319911.46747
  22176113.137   116536303.55608  22176111.406    90807528.68048
  21574982.267   113377361.85909  21574984.011    88346034.61048
 15 03 01 00 49  0.0000000  0  6G16G18G19G21G22G27
  20576457.484   108130054.70609  20576456.413    84257178.67349
  21927240.232   115228475.71109  21927239.758    89788442.50847
  23422540.815   123086291.52707  23422540.096    95911398.24146
  22558235.115   118544339.47908  22558233.888    92372215.61447
  22161737.919   116460760.74608  22161736.090    90748664.19547
  21565906.423   113329667.69309  21565908.216    88308870.34048
 15 03 01 00 49 30.0000000  0  6G16G18G19G21G22G27
  20570961.219   108101171.14309  20570960.015    84234671.99849
  21924224.429   115212627.68409  21924223.998    89776093.41547
  23408971.238   123014982.38907  23408970.129    95855832.74346
  22571034.619   118611601.92408  22571033.524    92424627.89147
  22147417.915   116385508.90009  22147415.954    90690026.44247
  21556855.161   113282102.99609  21556856.859    88271806.95248
 15 03 01 00 50  0.0000000  0  6G16G18G19G21G22G27
  20565555.560   108072764.61809  20565554.715    84212537.04349
  21921299.834   115197258.89309  21921299.266    89764117.74948
  23395418.865   122943764.62407  23395417.817    95800338.44846
  22583861.504   118679007.50108  22583860.504    92477151.70047
  22133154.998   116310556.29808  22133152.745    90631621.86347
  21547829.927   113234674.07109  21547831.567    88234849.36148
 15 03 01 00 50 30.0000000  0  6G16G18G19G21G22G27
  20560240.119   108044831.63209  20560239.259    84190771.07649
  21918465.864   115182365.68709  21918465.179    89752512.66747
  23381883.024   122872633.26907  23381881.976    95744911.47346
  22596714.295   118746549.06008  22596713.254    92529781.46847
  22118948.377   116235900.47009  22118946.247    90573448.53347
  21538829.399   113187376.19409  21538830.932    88197993.88948
 15 03 01 00 51  0.0000000  0  6G16G18G19G21G22G27
  20555015.246   108017374.77109  20555014.399    84169376.11649
  21915722.633   115167949.53709  21915721.948    89741279.31647
  23368363.937   122801589.30207  23368362.810    95689552.59346
  22609592.853   118814226.24508  22609591.615    92582516.92047
  22104798.963   116161544.70109  22104797.086    90515509.02347
  21529854.005   113140210.61509  21529855.685    88161241.50548
 15 03 01 00 51 30.0000000  0  6G16G18G19G21G22G27
  20549882.117   107990399.02509  20549881.114    84148356.05049
  21913070.895   115154014.96409  21913070.244    89730421.22048
  23354862.044   122730636.37407  23354861.007    95634264.65146
  22622497.458   118882040.71608  22622496.397    92635359.34647
  22090707.902   116087495.27109  22090705.860    90457808.21547
  21520904.646   113093181.23209  21520906.280    88124595.24748
 15 03 01 00 52  0.0000000  0  6G16G18G19G21G22G27
  20544840.483   107963905.12009  20544839.416    84127711.45049
  21910510.942   115140561.35109  21910509.973    89719937.89748
  23341377.162   122659773.68607  23341376.402    95579047.04346
  22635427.716   118949989.05608  22635426.593    92688306.08847
  22076675.263   116013753.88008  22076673.160    90400347.43648
  21511980.937   113046287.57309  21511982.557    88088054.75048
 15 03 01 00 52 30.0000000  0  6G16G18G19G21G22G27
  20539890.744   107937894.47609  20539889.761    84107443.41049
  21908042.399   115127589.79409  21908041.730    89709830.19948
  23327909.405   122589000.95707  23327908.616    95523899.52246
  22648383.368   119018071.15308  22648382.234    92741357.05147
  22062701.856   115940323.22609  22062699.599    90343128.79048
  21503083.128   112999529.92709  21503084.969    88051620.23948
 15 03 01 00 53  0.0000000  0  6G16G18G19G21G22G27
  20535032.561   107912364.76809  20535031.688    84087550.13349
  21905664.939   115115096.62509  21905664.302    89700095.28248
  23314458.212   122518314.99207  23314457.393    95468819.61046
  22661363.175   119086280.81108  22661362.172    92794507.41847
  22048787.146   115867201.52409  22048784.875    90286150.88048
  21494210.674   112952904.74209  21494212.280    88015288.93948
 15 03 01 00 53 30.0000000  0  6G16G18G19G21G22G27
  20530267.042   107887321.13909  20530265.936    84068035.61049
  21903379.452   115103086.80809  21903378.699    89690736.99248
  23301024.380   122447719.03807  23301023.350    95413809.82446
  22674367.899   119154620.00708  22674366.600    92847758.72047
  22034932.636   115794395.02009  22034930.322    90229418.58648
  21485364.312   112906416.10609  21485365.935    87979064.03948
 15 03 01 00 54  0.0000000  0  6G16G18G19G21G22G27
  20525594.173   107862765.08109  20525593.211    84048901.02049
  21901186.058   115091560.50909  21901185.442    89681755.47248
  23287607.304   122377212.80007  23287606.373    95358869.95246
  22687396.533   119223086.93908  22687395.489    92901109.56247
  22021138.432   115721906.17509  22021136.133    90172933.81148
  21476543.802   112860064.29409  21476545.254    87942945.76348
 15 03 01 00 54 30.0000000  0  6G16G18G19G21G22G27
  20521014.129   107838697.03609  20521013.030    84030146.69749
  21899084.586   115080517.91709  21899083.988    89673150.86848
  23274207.570   122306796.06507  23274206.389    95303999.82046
  22700449.301   119291679.16708  22700448.320    92954558.03347
  22007404.893   115649736.69009  22007402.602    90116697.89248
  21467749.363   112813849.02109  21467750.785    87906933.88148
 15 03 01 00 55  0.0000000  0  6G16G18G19G21G22G27
  20516526.999   107815117.50909  20516526.162    84011773.03549
  21897075.285   115069958.62409  21897074.540    89664922.86048
  23260824.574   122236468.16607  23260823.251    95249198.91946
  22713525.156   119360393.99908  22713524.305    93008102.03847
  21993732.564   115577888.11909  21993730.467    90060712.03648
  21458980.651   112767769.69209  21458982.145    87871027.92448
 15 03 01 00 55 30.0000000  0  6G16G18G19G21G22G27
  20512133.667   107792030.39309  20512132.807    83993783.07449
  21895158.478   115059885.33109  21895157.666    89657073.54947
  23247458.919   122166231.26507  23247457.542    95194468.91946
  22726624.920   119429232.15908  22726623.729    93061742.14447
  21980121.917   115506364.93109  21980119.762    90004979.72248
  21450238.319   112721828.99109  21450239.917    87835229.99348
 15 03 01 00 56  0.0000000  0  6G16G18G19G21G22G27
  20507834.572   107769438.65509  20507833.742    83976179.12349
  21893334.520   115050300.20709  21893333.612    89649604.63447
  23234110.736   122096086.59107  23234109.450    95139810.77446
  22739747.801   119498193.36408  22739746.697    93115478.13247
  21966574.197   115435171.30909  21966572.200    89949504.22248
  21441522.881   112676028.70709  21441524.539    87799541.47848
 15 03 01 00 56 30.0000000  0  6G16G18G19G21G22G27
  20503628.887   107747337.16309  20503627.946    83958957.18149
  21891602.237   115041197.43809  21891601.424    89642511.58247
  23220779.207   122026028.30908  23220777.585    95085219.95646
  22752892.744   119567270.10308  22752891.582    93169304.14547
  21953088.476   115364303.49309  21953086.313    89894282.58048
