     2.11           OBSERVATION DATA    G                   RINEX VERSION / TYPE
SPIDER V4,0,0,3554                      2015 03 12 00:04    PGM / RUN BY / DATE 
EECH                                                        MARKER NAME         
EECH                                                        MARKER NUMBER       
                                                            OBSERVER / AGENCY   
462240              LEICA GRX1200PRO    8.20/2.127          REC # / TYPE / VERS 
103299              LEIAT504                                ANT # / TYPE        
  5154282.7593   121017.3605  3742656.9418                  APPROX POSITION XYZ 
        0.0590        0.0000        0.0000                  ANTENNA: DELTA H/E/N
     1     1                                                WAVELENGTH FACT L1/2
     4    C1    L1    P2    L2                              # / TYPES OF OBSERV 
    30.000                                                  INTERVAL            
  2015    03    01    00    00    0.0000000     GPS         TIME OF FIRST OBS   
  2015    03    01    23    59   30.0000000     GPS         TIME OF LAST OBS    
    16                                                      LEAP SECONDS        
    30                                                      # OF SATELLITES     
   G 1   821   821   821   821                              PRN / # OF OBS      
   G 2   895   895   890   890                              PRN / # OF OBS      
   G 3   793   793   793   793                              PRN / # OF OBS      
   G 4   836   836   836   836                              PRN / # OF OBS      
   G 5   670   670   670   670                              PRN / # OF OBS      
   G 6   665   665   661   661                              PRN / # OF OBS      
   G 7   690   690   690   690                              PRN / # OF OBS      
   G 9   780   780   780   780                              PRN / # OF OBS      
   G10   777   777   777   777                              PRN / # OF OBS      
   G11   784   784   784   784                              PRN / # OF OBS      
   G12   807   807   807   807                              PRN / # OF OBS      
   G13   809   809   809   809                              PRN / # OF OBS      
   G14   880   880   876   876                              PRN / # OF OBS      
   G15   730   730   730   730                              PRN / # OF OBS      
   G16   690   690   690   690                              PRN / # OF OBS      
   G17   908   908   908   908                              PRN / # OF OBS      
   G18   895   895   895   895                              PRN / # OF OBS      
   G19   775   775   775   775                              PRN / # OF OBS      
   G20   784   784   784   784                              PRN / # OF OBS      
   G21   638   638   635   635                              PRN / # OF OBS      
   G22   757   757   757   757                              PRN / # OF OBS      
   G23   692   692   689   689                              PRN / # OF OBS      
   G24   818   818   818   818                              PRN / # OF OBS      
   G25   826   826   826   826                              PRN / # OF OBS      
   G27   821   821   821   821                              PRN / # OF OBS      
   G28   882   882   882   882                              PRN / # OF OBS      
   G29   731   731   731   731                              PRN / # OF OBS      
   G30   659   659   659   659                              PRN / # OF OBS      
   G31   694   694   693   693                              PRN / # OF OBS      
   G32   728   728   728   728                              PRN / # OF OBS      
BIT 2 OF LLI FLAGS DATA COLLECTED UNDER A/S CONDITION       COMMENT             
SNR is mapped to RINEX snr flag value [2-9]                 COMMENT             
Lx:     = 25dBHz -> 1; 26-27dBHz -> 2; 28-31dBHz -> 3       COMMENT             
       32-35dBHz -> 4; 36-38dBHz -> 5; 39-41dBHz -> 6       COMMENT             
       42-44dBHz -> 7; 45-48dBHz -> 8; >=49dBHz -> 9        COMMENT             
                                                            END OF HEADER       
 15 03 01 00 00  0.0000000  0  7G16G18G21G22G27G29G31
  21413548.400   112529004.30209  21413548.700    87684937.40848
  22707668.640   119329608.60708  22707669.580    92984114.71646
  21452553.460   112733946.22709  21452553.140    87844636.54148
  23892788.480   125557441.41206  23892790.900    97836974.59245
  22516135.980   118323144.77908  22516139.280    92199897.80647
  24359289.960   128008913.36705  24359291.660    99747205.73143
  23056112.380   121160651.88808  23056114.240    94410890.52246
 15 03 01 00 00 30.0000000  0  7G16G18G21G22G27G29G31
  21401354.140   112464922.91009  21401354.360    87635003.86448
  22696649.840   119271703.62908  22696650.540    92938993.97946
  21460717.820   112776850.23809  21460717.500    87878068.23748
  23875279.560   125465432.51006  23875282.060    97765279.68545
  22504495.900   118261976.62008  22504499.440    92152234.33147
  24373944.400   128085923.54204  24373946.720    99807213.63541
  23074080.420   121255074.15308  23074082.180    94484466.24747
 15 03 01 00 01  0.0000000  0  7G16G18G21G22G27G29G31
  21389215.400   112401133.29809  21389215.540    87585297.68948
  22685688.520   119214101.29108  22685689.080    92894109.06246
  21468944.300   112820080.78209  21468944.000    87911754.37548
  23857774.000   125373442.28906  23857776.700    97693599.32646
  22492880.600   118200937.82308  22492884.240    92104671.66847
  24388599.880   128162939.56805  24388602.720    99867226.10241
  23092079.100   121349657.25308  23092080.840    94558167.32146
 15 03 01 00 01 30.0000000  0  7G16G18G21G22G27G29G31
  21377131.360   112337630.95609  21377131.440    87535815.35948
  22674783.940   119156797.73608  22674784.480    92849456.97446
  21477231.440   112863629.74209  21477231.120    87945688.63448
  23840271.360   125281466.89006  23840274.220    97621930.47645
  22481288.640   118140021.83308  22481292.220    92057204.69047
  24403255.540   128239954.68505  24403258.080    99927237.78343
  23110106.580   121444392.09008  23110108.420    94631986.63347
 15 03 01 00 02  0.0000000  0  7G16G18G21G22G27G29G31
  21365103.800   112274425.05009  21365103.800    87486564.02048
  22663937.840   119099802.04708  22663938.440    92805044.77146
  21485580.240   112907502.89609  21485579.940    87979875.50448
  23822773.520   125189515.67907  23822776.320    97550280.48846
  22469721.400   118079235.60808  22469724.760    92009838.83747
  24417912.260   128316976.09804  24417914.400    99987254.48744
  23128163.560   121539282.42308  23128165.540    94705927.08746
 15 03 01 00 02 30.0000000  0  7G16G18G21G22G27G29G31
  21353133.240   112211519.10109  21353133.260    87437546.41448
  22653151.120   119043117.91008  22653151.760    92760875.34346
  21493990.680   112951700.06909  21493990.340    88014314.86748
  23805281.060   125097593.41706  23805283.800    97478653.00645
  22458179.140   118018580.79308  22458182.320    91962575.39647
  24432570.140   128394005.26104  24432572.280   100047277.13644
  23146249.900   121634326.96008  23146252.000    94779987.72247
 15 03 01 00 03  0.0000000  0  6G16G18G21G22G27G31
  21341214.400   112148885.42109  21341214.460    87388740.96148
  22642418.540   118986718.09208  22642419.080    92716927.44546
  21502456.680   112996189.31309  21502456.260    88048981.80748
  23787788.780   125005672.29207  23787791.620    97407026.35845
  22446656.140   117958027.34708  22446659.240    91915390.92047
  23164359.360   121729492.74308  23164361.420    94854142.81747
 15 03 01 00 03 30.0000000  0  6G16G18G21G22G27G31
  21329357.600   112086577.52209  21329357.600    87340189.35748
  22631750.260   118930656.18408  22631750.740    92673242.84746
  21510987.700   113041020.22809  21510987.160    88083914.99048
  23770306.980   124913806.48906  23770310.020    97335442.81945
  22435162.240   117897626.65008  22435165.420    91868325.48448
  23182501.200   121824828.25907  23182503.140    94928430.17746
 15 03 01 00 04  0.0000000  0  7G16G18G21G22G27G29G31
  21317561.320   112024587.60209  21317561.260    87291885.53248
  22621144.740   118874924.23908  22621145.380    92629815.39146
  21519581.480   113086180.97008  21519580.900    88119105.17548
  23752834.460   124821988.74107  23752837.360    97263896.71445
  22423695.580   117837368.78208  22423698.940    91821371.33047
  24476547.560   128625121.97905  24476548.420   100227373.28544
  23200672.800   121920320.65907  23200674.860    95002839.79047
 15 03 01 00 04 30.0000000  0  7G16G18G21G22G27G29G31
  21305820.040   111962886.59409  21305820.000    87243806.84348
  22610596.500   118819493.94608  22610597.420    92586622.98746
  21528231.780   113131638.79208  21528231.300    88154526.85348
  23735365.720   124730190.65507  23735368.520    97192365.95945
  22412250.160   117777222.48408  22412253.700    91774504.12248
  24491207.640   128702163.77304  24491208.560   100287405.81845
  23218867.660   122015935.55107  23218869.900    95077344.84547
 15 03 01 00 05  0.0000000  0  7G16G18G21G22G27G29G31
  21294137.520   111901495.01009  21294137.580    87195969.24948
  22600109.640   118764385.75008  22600110.760    92543681.54846
  21536941.780   113177410.48208  21536941.460    88190193.11148
  23717904.800   124638433.28707  23717907.300    97120866.99245
  22400829.480   117717206.47708  22400833.040    91727738.43248
  24505868.640   128779207.88805  24505870.640   100347441.24546
  23237088.840   122111688.79007  23237091.260    95151957.67947
 15 03 01 00 05 30.0000000  0  7G16G18G21G22G27G29G31
  21282512.940   111840408.25709  21282513.200    87148369.18848
  22589683.360   118709595.35508  22589684.580    92500987.74246
  21545709.880   113223487.39008  21545709.700    88226097.19048
  23700450.920   124546712.70707  23700453.140    97049396.62145
  22389432.260   117657313.90208  22389435.640    91681068.93747
  24520530.080   128856255.58905  24520531.980   100407478.32843
  23255334.480   122207570.56707  23255337.040    95226670.68446
 15 03 01 00 06  0.0000000  0  7G16G18G21G22G27G29G31
  21270948.700   111779638.55109  21270949.140    87101016.18548
  22579319.960   118655135.08908  22579321.140    92458551.18846
  21554537.600   113269877.55009  21554537.460    88262245.35948
  23683006.420   124455041.57707  23683008.360    96977964.75045
  22378060.380   117597554.94708  22378063.500    91634503.53447
  24535193.200   128933312.66705  24535195.160   100467522.74644
  23273605.980   122303588.07107  23273608.680    95301489.43947
 15 03 01 00 06 30.0000000  0  7G16G18G21G22G27G29G31
  21259442.660   111719174.20509  21259443.040    87053901.11448
  22569017.200   118600993.37808  22569018.260    92416362.86446
  21563422.140   113316566.04708  21563421.920    88298626.00648
  23665569.120   124363408.60107  23665570.640    96906562.64046
  22366711.300   117537915.65208  22366714.200    91588031.37848
  24549855.900   129010365.08505  24549857.780   100527563.58644
  23291900.160   122399724.50507  23291903.000    95376400.85547
 15 03 01 00 07  0.0000000  0  6G16G18G21G22G27G31
  21247987.340   111658976.26609  21247987.600    87006993.63748
  22558767.700   118547131.32008  22558768.620    92374392.44546
  21572355.160   113363509.55708  21572354.900    88335205.36748
  23648131.860   124271775.61807  23648133.020    96835160.53845
  22355377.360   117478354.99908  22355380.100    91541620.50247
  23310208.700   122495935.82007  23310211.640    95451370.60246
 15 03 01 00 07 30.0000000  0  6G16G18G21G22G27G31
  21236604.600   111599159.82109  21236604.820    86960383.42648
  22548593.260   118493663.59308  22548594.020    92332729.30846
  21581357.800   113410819.13109  21581357.560    88372069.97448
  23630716.560   124180258.13207  23630717.660    96763848.43145
  22344079.940   117418985.86508  22344082.700    91495358.87648
  23328552.520   122592332.04108  23328555.460    95526484.43946
 15 03 01 00 08  0.0000000  0  6G16G18G21G22G27G31
  21225282.020   111539659.23809  21225282.180    86914019.34648
  22538481.500   118440525.54708  22538482.160    92291323.05546
  21590416.900   113458425.13008  21590416.700    88409165.55848
  23613310.520   124088791.33107  23613311.920    96692575.87546
  22332806.040   117359740.85008  22332809.080    91449193.96448
  23346918.120   122688842.48307  23346920.940    95601687.28046
 15 03 01 00 08 30.0000000  0  6G16G18G21G22G27G31
  21214021.340   111480483.29709  21214021.400    86867908.23248
  22528434.100   118387725.98508  22528434.780    92250180.57646
  21599533.500   113506333.13708  21599533.320    88446496.47648
  23595915.860   123997384.07507  23595917.500    96621349.68946
  22321556.860   117300626.48308  22321560.260    91403130.83348
  23365306.100   122785471.01107  23365308.740    95676982.12946
 15 03 01 00 09  0.0000000  0  6G16G18G21G22G27G31
  21202820.140   111421619.79309  21202820.120    86822040.57248
  22518448.740   118335252.58508  22518449.520    92209292.22146
  21608704.460   113554526.89408  21608704.340    88484050.05348
  23578530.640   123906025.09407  23578532.220    96550161.18446
  22310329.760   117241628.48408  22310333.420    91357158.39347
  23383713.100   122882200.33607  23383715.740    95752355.49846
 15 03 01 00 09 30.0000000  0  6G16G18G21G22G27G31
  21191682.220   111363089.69909  21191682.240    86776432.71948
  22508529.320   118283126.12608  22508530.220    92168674.21746
  21617932.980   113603022.95408  21617932.880    88521839.18948
  23561158.520   123814735.60307  23561160.240    96479026.82146
  22299128.340   117182765.50708  22299132.000    91311291.16948
  23402142.240   122979046.20207  23402145.000    95827819.66546
 15 03 01 00 10  0.0000000  0  7G16G18G19G21G22G27G31
  21180602.360   111304864.71809  21180602.400    86731062.60648
  22498670.540   118231318.54908  22498671.540    92128304.69747
  24504558.200   128772318.44406  24504560.140   100342075.67745
  21627212.960   113651789.13209  21627212.860    88559838.80348
  23543794.300   123723488.30007  23543796.180    96407925.32946
  22287946.960   117124007.40508  22287950.460    91265505.65248
  23420587.360   123075975.37807  23420590.240    95903348.74046
 15 03 01 00 10 30.0000000  0  7G16G18G19G21G22G27G31
  21169592.180   111247005.76109  21169592.200    86685977.71448
  22488883.920   118179890.36008  22488884.960    92088230.80246
  24489302.120   128692151.37506  24489304.260   100279607.87445
  21636555.160   113700882.30609  21636555.020    88598093.21748
  23526450.040   123632344.45207  23526452.100    96336904.44446
  22276796.840   117065412.92408  22276800.140    91219847.64748
  23439059.000   123173043.76607  23439061.880    95978986.26146
 15 03 01 00 11  0.0000000  0  7G16G18G19G21G22G27G31
  21158644.700   111189476.16309  21158644.680    86641149.46048
  22479162.840   118128805.81908  22479163.840    92048424.69246
  24474061.700   128612068.66305  24474064.180   100217205.83645
  21645951.920   113750262.18308  21645951.740    88636571.04048
  23509118.920   123541268.06407  23509120.560    96265936.16146
  22265670.540   117006943.48108  22265673.780    91174287.06948
  23457549.180   123270209.58507  23457552.040    96054699.71646
 15 03 01 00 11 30.0000000  0  7G16G18G19G21G22G27G31
  21147759.280   111132273.18609  21147759.360    86596575.72948
  22469506.580   118078061.75908  22469507.580    92008883.89147
  24458836.680   128532065.10405  24458839.520   100154865.49145
  21655401.920   113799922.03908  21655401.720    88675267.03548
  23491799.920   123450256.71407  23491801.500    96195018.48346
  22254566.960   116948593.85908  22254570.260    91128819.87048
  23476056.400   123367464.76507  23476059.120    96130482.80346
 15 03 01 00 12  0.0000000  0  7G16G18G19G21G22G27G31
  21136936.380   111075398.82809  21136936.520    86552258.05548
  22459915.620   118027660.73208  22459916.580    91969610.39946
  24443627.580   128452141.27006  24443630.580   100092587.26445
  21664904.920   113849860.63309  21664904.720    88714180.22348
  23474493.660   123359313.23307  23474495.340    96124153.68646
  22243486.280   116890364.64708  22243489.560    91083446.48548
  23494580.220   123464807.15007  23494582.920    96206333.84747
 15 03 01 00 12 30.0000000  0  7G16G18G19G21G22G27G31
  21126177.020   111018858.53509  21126177.220    86508200.69048
  22450390.920   117977608.06908  22450391.880    91930608.35446
  24428434.880   128372300.54406  24428437.460   100030373.82245
  21674461.060   113900078.74009  21674460.900    88753311.21148
  23457201.380   123268443.74307  23457203.360    96053346.52346
  22232429.140   116832258.93508  22232432.200    91038169.32048
  23513120.600   123562236.63307  23513123.360    96282252.74846
 15 03 01 00 13  0.0000000  0  7G16G18G19G21G22G27G31
  21115485.020   110962672.14809  21115485.320    86464419.09848
  22440936.080   117927923.19408  22440937.100    91891892.89346
  24413261.000   128292560.46706  24413263.360    99968238.74945
  21684073.520   113950592.63209  21684073.320    88792672.67748
  23439927.120   123177668.89407  23439929.380    95982613.09546
  22221398.920   116774294.64808  22221401.780    90993002.36648
  23531680.360   123659768.09407  23531683.280    96358251.13346
 15 03 01 00 13 30.0000000  0  7G16G18G19G21G22G27G31
  21104858.660   110906830.48809  21104859.080    86420906.12448
  22431549.520   117878597.06908  22431550.520    91853456.98546
  24398103.640   128212909.82606  24398106.100    99906173.36344
  21693739.820   114001389.26109  21693739.540    88832254.47048
  23422669.360   123086979.68807  23422671.520    95911946.39746
  22210393.440   116716460.33708  22210396.200    90947936.71048
  23550256.760   123757387.54307  23550259.920    96434318.07146
 15 03 01 00 14  0.0000000  0  7G16G18G19G21G22G27G31
  21094297.140   110851329.12609  21094297.580    86377658.30848
  22422230.360   117829624.98108  22422231.320    91815296.92846
  24382962.320   128133341.91806  24382964.080    99844172.48044
  21703458.080   114052459.11409  21703457.820    88872049.15948
  23405427.160   122996372.43507  23405429.120    95841343.53746
  22199411.360   116658749.53208  22199414.320    90902967.28748
  23568848.040   123855085.00307  23568851.340    96510445.81246
 15 03 01 00 14 30.0000000  0  7G16G18G19G21G22G27G31
  21083801.060   110796171.89009  21083801.520    86334678.66048
  22412979.380   117781011.31008  22412980.380    91777416.17046
  24367837.280   128053858.68906  24367838.080    99782237.62344
  21713228.500   114103803.23109  21713228.260    88912057.55748
  23388201.540   122905851.66907  23388203.220    95770808.05746
  22188453.020   116601164.05208  22188456.360    90858095.51948
  23587454.100   123952859.53907  23587457.280    96586633.64146
 15 03 01 00 15  0.0000000  0  7G16G18G19G21G22G27G31
  21073372.800   110741370.82009  21073373.180    86291976.52948
  22403798.920   117732767.71108  22403799.860    91739823.78946
  24352730.060   127974470.58206  24352730.560    99720376.86345
  21723052.660   114155429.70009  21723052.400    88952285.97348
  23370994.880   122815429.95307  23370996.360    95700349.75146
  22177520.520   116543714.11008  22177524.160    90813329.35548
  23606076.180   124050718.34707  23606079.080    96662887.07646
 15 03 01 00 15 30.0000000  0  7G16G18G19G21G22G27G31
  21063011.800   110686923.27609  21063012.100    86249549.88448
  22394688.520   117684891.83908  22394689.400    91702517.94946
  24337639.820   127895172.50705  24337640.700    99658586.17145
  21732929.320   114207331.73609  21732928.980    88992729.11348
  23353806.740   122725105.37607  23353807.960    95629967.11746
  22166613.080   116486394.88708  22166616.760    90768665.05648
  23624712.840   124148653.67607  23624715.500    96739200.14746
 15 03 01 00 16  0.0000000  0  7G16G18G19G21G22G27G31
  21052716.300   110632820.01409  21052716.600    86207391.50449
  22385646.340   117637374.16408  22385647.140    91665491.21646
  24322565.100   127815953.45106  24322566.180    99596857.06845
  21742856.060   114259496.87508  21742855.640    89033377.27048
  23336635.260   122634869.33807  23336636.180    95559653.47946
  22155728.520   116429195.20008  22155732.000    90724093.90448
  23643361.340   124246651.46407  23643363.860    96815561.88046
 15 03 01 00 16 30.0000000  0  7G16G18G19G21G22G27G31
  21042487.960   110579069.87709  21042488.340    86165508.29148
  22376673.900   117590223.24508  22376674.640    91628750.28347
  24307507.060   127736819.86706  24307507.800    99535194.65346
  21752833.420   114311928.16408  21752833.020    89074232.81348
  23319482.580   122544731.10207  23319483.160    95489416.06146
  22144867.920   116372121.69908  22144871.120    90679621.06148
  23662022.340   124344715.14207  23662024.860    96891974.96646
 15 03 01 00 17  0.0000000  0  7G16G18G19G21G22G27G31
  21032328.920   110525683.84009  21032329.340    86123908.78648
  22367773.320   117543450.40308  22367774.020    91592303.93747
  24292466.880   127657780.54706  24292467.120    99473605.70245
  21762863.040   114364634.21208  21762862.700    89115302.45948
  23302350.640   122454702.30207  23302350.980    95419263.90146
  22134032.960   116315183.47408  22134036.040    90635253.63948
  23680697.020   124442850.84607  23680699.600    96968444.13446
 15 03 01 00 17 30.0000000  0  7G16G18G19G21G22G27G31
  21022239.780   110472665.03609  21022240.160    86082595.44049
  22358945.280   117497058.56808  22358945.880    91556154.49146
  24277444.420   127578836.95006  24277444.780    99412091.31945
  21772944.800   114417614.46808  21772944.580    89156585.77448
  23285240.120   122364786.90307  23285240.500    95349200.08045
  22123223.920   116258381.78008  22123227.060    90590992.60948
  23699385.100   124541056.98607  23699387.840    97044968.21146
 15 03 01 00 18  0.0000000  0  7G16G18G19G21G22G27G31
  21012220.600   110420014.05009  21012220.880    86041568.70249
  22350189.860   117451048.15808  22350190.280    91520302.23947
  24262439.360   127499987.65406  24262440.380    99350650.36545
  21783078.000   114470865.02508  21783077.900    89198079.70448
  23268151.380   122274986.39507  23268151.840    95279225.77746
  22112440.500   116201715.18808  22112443.820    90546836.85448
  23718085.740   124639329.02307  23718088.660    97121543.65046
 15 03 01 00 18 30.0000000  0  7G16G18G19G21G22G27G31
  21002270.360   110367725.17309  21002270.600    86000824.12849
  22341505.860   117405413.66608  22341506.220    91484742.92046
  24247450.780   127421225.11206  24247452.520    99289277.03946
  21793260.920   114524376.62508  21793260.860    89239777.05148
  23251083.540   122185295.67807  23251083.940    95209337.04846
  22101681.280   116145176.05108  22101684.820    90502780.40848
  23736796.980   124737656.35507  23736800.020    97198162.13346
 15 03 01 00 19  0.0000000  0  7G16G18G19G21G22G27G31
  20992389.520   110315800.79509  20992389.800    85960363.58649
  22332893.680   117360157.09308  22332894.220    91449478.09647
  24232478.980   127342549.37706  24232481.060    99227971.36845
  21803493.180   114578147.47808  21803493.180    89281676.40248
  23234037.160   122095717.30007  23234037.440    95139535.86046
  22090946.420   116088764.61108  22090950.020    90458823.47148
  23755518.280   124836036.31507  23755521.300    97274821.63446
 15 03 01 00 19 30.0000000  0  7G16G18G19G21G22G27G31
  20982577.760   110264239.31209  20982578.040    85920185.81449
  22324353.120   117315276.56508  22324353.820    91414506.27747
  24217523.480   127263956.94306  24217525.060    99166730.61945
  21813773.640   114632171.83608  21813773.700    89323773.29648
  23217011.960   122006250.44207  23217012.380    95069821.55046
  22080235.280   116032477.31908  22080238.740    90414963.26448
  23774248.400   124934462.50407  23774251.320    97351517.17546
 15 03 01 00 20  0.0000000  0  7G16G18G19G21G22G27G31
  20972836.740   110213049.84109  20972836.980    85880297.92049
  22315885.940   117270781.28208  22315886.740    91379834.64647
  24202585.180   127185454.58806  24202585.920    99105560.05345
  21824103.400   114686455.30108  21824103.500    89366072.09448
  23200009.880   121916904.97807  23200010.580    95000201.83146
  22069549.200   115976321.33208  22069552.420    90371205.38548
  23792988.080   125032938.85207  23792990.800    97428251.81246
 15 03 01 00 20 30.0000000  0  7G16G18G19G21G22G27G31
  20963167.640   110162238.34309  20963167.820    85840704.54949
  22307493.060   117226676.87208  22307493.940    91345467.61247
  24187664.700   127107046.77006  24187664.960    99044463.12445
  21834482.740   114740999.58708  21834482.900    89408574.12948
  23183032.520   121827687.67907  23183033.240    94930681.99746
  22058888.900   115920300.72308  22058891.900    90327552.98748
  23811737.480   125131466.46407  23811740.060    97505026.34646
 15 03 01 00 21  0.0000000  0  7G16G18G19G21G22G27G31
  20953569.320   110111798.86809  20953569.520    85801401.06649
  22299173.480   117182957.78908  22299174.440    91311400.82147
  24172760.720   127028725.67706  24172761.080    98983433.80345
  21844910.020   114795795.60208  21844910.180    89451272.30848
  23166078.500   121738593.49807  23166079.060    94861258.11346
  22048252.820   115864407.77208  22048255.720    90284000.06648
  23830494.680   125230034.79907  23830497.100    97581832.65745
 15 03 01 00 21 30.0000000  0  7G16G18G19G21G22G27G31
  20944043.380   110061740.05909  20944043.700    85762394.21549
  22290928.900   117139632.32308  22290929.860    91277640.75447
  24157874.140   126950497.64806  24157875.220    98922476.95446
  21855386.000   114850847.14908  21855386.080    89494169.61348
  23149149.520   121649631.59107  23149150.040    94791937.26946
  22037642.200   115808649.08708  22037645.160    90240551.75648
  23849260.220   125328647.38607  23849262.560    97658673.40946
 15 03 01 00 22  0.0000000  0  7G16G18G19G21G22G27G31
  20934589.280   110012058.43709  20934589.640    85723681.26449
  22282758.540   117096696.38908  22282759.420    91244184.21347
  24143004.320   126872357.28106  24143005.840    98861588.44046
  21865909.460   114906147.94708  21865909.460    89537261.13248
  23132245.180   121560799.10807  23132245.700    94722717.25547
  22027056.120   115753019.23908  22027059.140    90197203.84048
  23868032.520   125427295.71907  23868034.920    97735541.96345
 15 03 01 00 22 30.0000000  0  7G16G18G19G21G22G27G31
  20925206.940   109962753.67809  20925207.220    85685261.98049
  22274662.260   117054149.88308  22274663.100    91211031.10647
  24128151.020   126794301.85007  24128152.080    98800766.12145
  21876479.480   114961693.18908  21876479.400    89580543.12848
  23115365.560   121472096.28707  23115366.060    94653598.27947
  22016494.220   115697515.95608  22016497.220    90153954.53948
  23886810.620   125525974.60407  23886813.200    97812434.36246
 15 03 01 00 23  0.0000000  0  7G16G18G19G21G22G27G31
  20915898.120   109913835.20809  20915898.280    85647143.68949
  22266641.760   117012002.20208  22266642.580    91178188.78647
  24113315.440   126716339.04807  24113315.780    98740015.99045
  21887097.100   115017488.70608  21887096.960    89624020.15148
  23098512.520   121383533.34507  23098513.040    94584588.29646
  22005957.940   115642146.70908  22005960.860    90110809.69148
  23905595.380   125624688.72706  23905598.240    97889354.19546
 15 03 01 00 23 30.0000000  0  7G16G18G19G21G22G27G31
  20906663.180   109865305.30709  20906663.300    85609328.18249
  22258697.500   116970255.54608  22258698.360    91145658.95047
  24098497.340   126638469.49106  24098497.140    98679338.49945
  21897761.880   115073532.51208  21897761.800    89667690.63648
  23081686.720   121295113.61107  23081687.160    94515689.91246
  21995447.200   115586912.12108  21995450.140    90067769.76948
  23924386.380   125723435.54906  23924389.560    97966299.49345
 15 03 01 00 24  0.0000000  0  7G16G18G19G21G22G27G31
  20897502.420   109817165.14109  20897502.500    85571816.36449
  22250829.720   116928910.45108  22250830.560    91113442.01647
  24083696.580   126560692.30406  24083696.560    98618732.95345
  21908473.420   115129822.04208  21908473.380    89711552.59648
  23064888.460   121206838.78708  23064888.820    94446904.43646
  21984961.780   115531811.33508  21984964.880    90024834.12048
  23943182.940   125822211.21106  23943186.320    98043267.31246
 15 03 01 00 24 30.0000000  0  7G16G18G19G21G22G27G31
  20888415.160   109769411.23109  20888415.160    85534605.52549
  22243037.820   116887963.52208  22243038.620    91081535.34247
  24068912.440   126483002.07006  24068913.000    98558195.16545
  21919230.540   115186350.69208  21919230.420    89755600.88248
  23048117.340   121118705.78007  23048117.500    94378229.48846
  21974500.780   115476839.02708  21974504.100    89981998.59248
  23961983.360   125921007.21506  23961986.840    98120250.95946
 15 03 01 00 25  0.0000000  0  7G16G18G19G21G22G27G31
  20879401.140   109722042.54309  20879401.160    85497694.86849
  22235321.420   116847413.28208  22235322.240    91049937.78647
  24054144.560   126405395.52207  24054145.380    98497722.61945
  21930032.060   115243112.51108  21930031.780    89799830.86348
  23031373.000   121030714.58607  23031373.160    94309665.01046
  21964063.740   115421992.32408  21964067.120    89939260.93248
  23980786.500   126019817.93406  23980790.000    98197246.05446
 15 03 01 00 25 30.0000000  0  7G16G18G19G21G22G27G31
  20870463.380   109675074.30009  20870463.440    85461096.23549
  22227683.320   116807274.84908  22227684.180    91018661.10547
  24039395.000   126327885.70706  24039395.840    98437325.48246
  21940880.180   115300119.34408  21940879.740    89844251.76348
  23014658.700   120942880.82208  23014658.860    94241223.21646
  21953653.200   115367284.45408  21953656.480    89896631.44248
  23999594.360   126118653.47206  23999597.740    98274260.52745
 15 03 01 00 26  0.0000000  0  7G16G18G19G21G22G27G31
  20861602.540   109628510.29309  20861602.660    85424812.59349
  22220124.220   116767551.83108  22220125.080    90987708.12247
  24024663.900   126250475.53706  24024664.920    98377005.96246
  21951774.920   115357371.58408  21951774.420    89888863.88648
  22997975.520   120855209.81808  22997975.340    94172908.24646
  21943269.560   115312717.63708  21943272.620    89854111.87348
  24018406.880   126217513.33006  24018410.200    98351293.90045
 15 03 01 00 26 30.0000000  0  7G16G18G19G21G22G27G31
  20852816.720   109582340.69709  20852816.900    85388836.28049
  22212642.320   116728233.95508  22212642.980    90957070.84347
  24009949.200   126173152.40906  24009950.780    98316754.23346
  21962713.640   115414855.28408  21962713.200    89933656.36748
  22981321.520   120767691.89508  22981320.980    94104712.57046
  21932910.480   115258279.84208  21932913.260    89811692.83448
  24037221.160   126316382.09806  24037224.420    98428334.19845
 15 03 01 00 27  0.0000000  0  7G16G18G19G21G22G27G31
  20844105.620   109536563.71009  20844105.860    85353165.90049
  22205237.100   116689319.04308  22205237.600    90926747.54547
  23995250.900   126095912.75806  23995252.700    98256567.58445
  21973695.160   115472563.94708  21973694.840    89978624.14948
  22964696.240   120680326.14207  22964695.800    94036635.43046
  21922575.200   115203967.73608  21922577.880    89769371.73548
  24056036.100   126415253.98206  24056039.440    98505376.95245
 15 03 01 00 27 30.0000000  0  7G16G18G19G21G22G27G31
  20835470.420   109491185.28009  20835470.640    85317806.07949
  22197909.740   116650813.65108  22197910.100    90896743.37447
  23980569.760   126018760.82006  23980571.100    98196449.28145
  21984720.120   115530501.10008  21984720.000    90023769.96548
  22948101.160   120593119.30108  22948100.920    93968682.11546
  21912264.600   115149785.52008  21912267.280    89727151.84548
  24074851.740   126514129.66606  24074855.280    98582422.62045
 15 03 01 00 28  0.0000000  0  7G16G18G19G21G22G27G31
  20826913.580   109446218.50109  20826913.760    85282767.03749
  22190662.700   116612730.20408  22190662.880    90867067.97547
  23965907.060   125941707.39106  23965908.040    98136407.73846
  21995790.260   115588675.55108  21995790.300    90069100.69648
  22931538.980   120506085.00408  22931538.740    93900863.27946
  21901980.780   115095744.22508  21901983.640    89685041.76548
  24093669.780   126613017.35506  24093673.460    98659477.66345
 15 03 01 00 28 30.0000000  0  7G16G18G19G21G22G27G31
  20818434.660   109401661.38909  20818434.800    85248047.20349
  22183495.520   116575066.02408  22183495.480    90837719.27847
  23951261.840   125864748.68706  23951262.740    98076440.02146
  22006904.500   115647081.33408  22006904.520    90114611.68248
  22915009.480   120419222.29208  22915009.280    93833178.12647
  21891723.060   115041840.19908  21891726.160    89643038.65348
  24112489.020   126711910.55307  24112492.580    98736536.97346
 15 03 01 00 29  0.0000000  0  7G16G18G19G21G22G27G31
  20810032.680   109357509.05409  20810032.760    85213642.78649
  22176407.040   116537816.00208  22176406.960    90808693.32447
  23936633.360   125787878.13906  23936634.440    98016540.98146
  22018061.300   115705710.54108  22018061.240    90160296.76748
  22898511.800   120332526.91408  22898511.800    93765623.37247
  21881490.200   114988066.81408  21881493.560    89601137.34748
  24131307.660   126810799.56107  24131310.820    98813593.02546
 15 03 01 00 29 30.0000000  0  7G16G18G19G21G22G27G31
  20801707.220   109313758.55909  20801707.280    85179551.48949
  22169396.800   116500977.24508  22169396.880    90779987.83447
  23922021.340   125711090.98007  23922022.380    97956706.94546
  22029259.180   115764555.63908  22029259.060    90206150.07348
  22882045.660   120245996.94808  22882045.820    93698197.50247
  21871281.340   114934419.38608  21871284.900    89559334.19348
  24150124.020   126909676.69007  24150126.860    98890639.78546
 15 03 01 00 30  0.0000000  0  7G16G18G19G21G22G27G31
  20793459.920   109270418.78909  20793460.040    85145780.24049
  22162466.420   116464558.06708  22162466.740    90751609.27247
  23907426.800   125634393.91307  23907427.540    97896943.12046
  22040499.180   115823621.82308  22040499.000    90252175.66248
  22865612.820   120159641.68808  22865613.000    93630907.78047
  21861097.860   114880904.93008  21861101.480    89517634.64748
  24168938.680   127008545.98107  24168941.600    98967680.41045
 15 03 01 00 30 30.0000000  0  7G16G18G19G21G22G27G31
  20785292.580   109227499.54009  20785292.800    85112336.66349
  22155617.760   116428568.22108  22155618.180    90723565.24947
  23892850.680   125557795.40706  23892851.380    97837256.07346
  22051782.480   115882915.40808  22051782.200    90298378.44348
  22849215.240   120073471.97408  22849215.460    93563762.63347
  21850941.300   114827531.75508  21850944.860    89476045.18348
  24187752.600   127107412.66807  24187755.840    99044718.97745
 15 03 01 00 31  0.0000000  0  7G16G18G19G21G22G27G31
  20777204.860   109184998.53409  20777205.080    85079218.99649
  22148850.320   116393005.18408  22148850.740    90695853.79747
  23878292.120   125481290.80907  23878292.640    97777642.21145
  22063107.820   115942430.09008  22063107.520    90344753.50848
  22832852.600   119987486.50308  22832852.860    93496761.04647
  21840810.820   114774295.63908  21840814.260    89434562.51848
  24206564.600   127206269.78607  24206568.360    99121750.12945
 15 03 01 00 31 30.0000000  0  7G16G18G19G21G22G27G31
  20769196.320   109142913.43809  20769196.440    85046425.41749
  22142163.640   116357866.30208  22142164.020    90668472.85447
  23863750.700   125404876.00307  23863750.960    97718098.31145
  22074474.160   116002160.63108  22074473.980    90391296.77248
  22816524.820   119901683.69708  22816524.960    93429901.79947
  21830705.580   114721192.62008  21830708.940    89393183.56348
  24225373.440   127305110.29007  24225377.580    99198768.36645
 15 03 01 00 32  0.0000000  0  7G16G18G19G21G22G27G31
  20761267.040   109101244.33309  20761267.080    85013955.98049
  22135557.460   116323150.89608  22135557.900    90641421.91547
  23849226.360   125328549.12507  23849226.320    97658622.90545
  22085880.760   116062102.69708  22085880.660    90438004.85848
  22800232.020   119816064.10108  22800231.960    93363185.30647
  21820625.320   114668220.93808  21820628.600    89351906.96048
  24244178.200   127403929.32707  24244182.620    99275769.86245
 15 03 01 00 32 30.0000000  0  7G16G18G19G21G22G27G31
  20753418.700   109060000.70709  20753418.720    84981818.09049
  22129033.640   116288868.45008  22129034.160    90614708.33347
  23834720.020   125252318.08006  23834719.960    97599222.16146
  22097328.700   116122261.88408  22097328.620    90484882.13548
  22783976.020   119730638.18608  22783975.780    93296619.72847
  21810571.600   114615388.50308  21810574.800    89310738.86448
  24262979.840   127502732.01507  24262984.460    99352758.63145
 15 03 01 00 33  0.0000000  0  7G16G18G19G21G22G27G31
  20745652.220   109019187.48209  20745652.180    84950015.57549
  22122593.040   116255023.16608  22122593.580    90588335.40547
  23820232.040   125176185.93006  23820232.560    97539898.47945
  22108818.240   116182639.46108  22108818.080    90531929.58048
  22767757.840   119645411.87408  22767757.500    93230209.69246
  21800545.100   114562698.59308  21800548.180    89269681.81348
  24281778.300   127601518.53107  24281783.000    99429734.86045
 15 03 01 00 33 30.0000000  0  7G16G18G19G21G22G27G31
  20737965.600   108978793.83809  20737965.460    84918540.01449
  22116233.580   116221604.27508  22116234.100    90562294.72147
  23805760.520   125100139.90206  23805761.280    97480641.89146
  22120346.640   116243221.29408  22120346.380    90579136.18748
  22751575.680   119560375.17408  22751575.320    93163947.40846
  21790543.360   114510138.68508  21790546.380    89228726.06148
  24300570.660   127700273.46807  24300575.520    99506686.51145
 15 03 01 00 34  0.0000000  0  7G16G18G19G21G22G27G31
  20730359.620   108938824.10609  20730359.460    84887394.76249
  22109955.960   116188615.44808  22109956.620    90536589.16447
  23791306.340   125024182.93306  23791307.160    97421454.74746
  22131914.060   116304008.31308  22131913.720    90626502.68248
  22735430.700   119475533.24608  22735430.300    93097836.88946
  21780566.920   114457711.59808  21780569.900    89187873.80648
  24319356.980   127798996.60306  24319362.060    99583613.41445
 15 03 01 00 34 30.0000000  0  7G16G18G19G21G22G27G31
  20722835.320   108899283.70809  20722835.320    84856584.06749
  22103761.300   116156062.13308  22103762.060    90511222.97547
  23776869.900   124948318.23306  23776870.680    97362339.48046
  22143520.780   116365001.99908  22143520.380    90674030.21648
  22719324.020   119390892.32708  22719323.660    93031882.98547
  21770616.360   114405420.97008  21770619.400    89147127.88148
  24338137.360   127897688.68106  24338142.760    99660516.16245
 15 03 01 00 35  0.0000000  0  7G16G18G19G21G22G27G31
  20715393.500   108860176.68309  20715393.600    84826111.05849
  22097650.200   116123947.94108  22097650.980    90486198.95247
  23762451.360   124872548.31506  23762452.120    97303298.06846
  22155166.820   116426202.45708  22155166.420    90721718.86848
  22703256.380   119306457.14408  22703256.120    92966089.40847
  21760692.160   114353269.24208  21760695.340    89106490.19748
  24356911.740   127996349.11306  24356917.460    99737394.28445
 15 03 01 00 35 30.0000000  0  7G16G18G19G21G22G27G31
  20708034.140   108821503.43209  20708034.300    84795976.06349
  22091622.620   116092272.60808  22091623.340    90461516.89947
  23748050.380   124796871.73106  23748051.380    97244329.40446
  22166851.620   116487606.62708  22166851.240    90769566.25948
  22687228.100   119222228.86308  22687227.920    92900457.03647
  21750794.200   114301255.19808  21750797.420    89065959.79548
  24375679.420   128094973.67706  24375685.300    99814244.55345
 15 03 01 00 36  0.0000000  0  7G16G18G19G21G22G27G31
  20700757.220   108783263.47909  20700757.420    84766178.70049
  22085678.420   116061035.41308  22085678.980    90437176.23847
  23733666.860   124721285.87107  23733667.400    97185431.40845
  22178574.360   116549210.19908  22178574.040    90817569.02848
  22671239.420   119138208.24508  22671239.240    92834986.48847
  21740922.140   114249376.72509  21740925.220    89025535.03048
  24394439.440   128193557.35906  24394445.380    99891062.93145
 15 03 01 00 36 30.0000000  0  7G16G18G19G21G22G27G31
  20693563.460   108745460.05209  20693563.640    84736721.49049
  22079818.120   116030239.05308  22079818.600    90413179.10747
  23719301.120   124645792.34407  23719301.080    97126605.37246
  22190335.020   116611012.97108  22190334.840    90865727.01048
  22655291.060   119054399.32608  22655290.860    92769680.89047
  21731076.220   114197635.44409  21731079.080    88985217.16748
  24413191.380   128292098.69405  24413197.280    99967848.37845
 15 03 01 00 37  0.0000000  0  7G16G18G19G21G22G27G31
  20686453.840   108708098.33709  20686453.960    84707608.45949
  22074042.560   115999888.45308  22074043.060    90389529.31147
  23704953.560   124570395.08707  23704953.460    97067854.33046
  22202133.900   116673016.63508  22202133.820    90914041.53948
  22639384.240   118970808.24108  22639383.940    92704545.05647
  21721257.020   114146035.19208  21721259.780    88945009.20348
  24431935.420   128390598.61406  24431941.080   100044601.58945
 15 03 01 00 37 30.0000000  0  7G16G18G19G21G22G27G31
  20679427.860   108671176.54209  20679427.960    84678838.23149
  22068351.420   115969981.62108  22068351.920    90366225.31147
  23690623.360   124495090.33407  23690623.680    97009175.34446
  22213970.040   116735215.99408  22213970.040    90962508.56048
  22623518.660   118887433.91908  22623518.240    92639578.11147
  21711463.940   114094572.50309  21711466.700    88904908.41948
  24450670.380   128489050.83106  24450675.760   100121317.70944
 15 03 01 00 38  0.0000000  0  7G16G18G19G21G22G27G31
  20672486.260   108634698.23009  20672486.320    84650413.57049
  22062745.320   115940521.65808  22062745.760    90343269.50847
  23676311.080   124419880.12206  23676312.060    96950570.03546
  22225843.380   116797610.98808  22225843.420    91011128.01948
  22607695.200   118804281.06008  22607694.740    92574783.74047
  21701697.460   114043249.67509  21701700.340    88864916.62148
  24469395.980   128587454.40006  24469401.080   100197995.96045
 15 03 01 00 38 30.0000000  0  7G16G18G19G21G22G27G31
  20665629.040   108598663.34509  20665629.160    84622334.44649
  22057224.160   115911507.63508  22057224.500    90320661.19747
  23662016.440   124344762.19306  23662017.540    96892036.66046
  22237753.240   116860197.90608  22237753.340    91059897.03048
  22591913.900   118721350.15508  22591913.520    92510162.32047
  21691957.260   113992064.68909  21691960.220    88825032.23148
  24488110.800   128685895.15305  24488116.220   100274741.08745
 15 03 01 00 39  0.0000000  0  7G16G18G19G21G22G27G31
  20658856.580   108563073.97009  20658856.780    84594602.46149
  22051788.280   115882941.60408  22051788.640    90298401.95647
  23647739.540   124269737.28906  23647740.600    96833575.73946
  22249699.320   116922975.05908  22249699.500    91108814.27148
  22576175.480   118638644.48808  22576175.180    92445716.40147
  21682243.440   113941018.33309  21682246.400    88785255.86048
  24506815.420   128784189.27006  24506821.160   100351334.00845
 15 03 01 00 39 30.0000000  0  7G16G18G19G21G22G27G31
  20652169.240   108527931.81109  20652169.520    84567218.96649
  22046437.800   115854824.52908  22046438.240    90276492.56747
  23633480.380   124194805.70707  23633481.300    96775187.54946
  22261681.320   116985940.81808  22261681.540    91157878.48847
  22560480.520   118556166.56208  22560480.100    92381447.94947
  21672556.040   113890110.92908  21672558.960    88745587.76748
  24525508.880   128882424.97406  24525514.980   100427881.48845
 15 03 01 00 40  0.0000000  0  7G16G18G19G21G22G27G31
  20645567.560   108493239.35909  20645567.740    84540185.88949
  22041173.120   115827158.51708  22041173.640    90254934.65847
  23619239.260   124119967.91407  23619240.060    96716872.43046
  22273699.080   117049094.18108  22273699.220    91207088.88547
  22544829.600   118473920.08108  22544829.040    92317359.84347
  21662895.220   113839343.46008  21662898.120    88706028.71548
  24544190.940   128980600.32505  24544197.080   100504381.84544
 15 03 01 00 40 30.0000000  0  7G16G18G19G21G22G27G31
  20639051.080   108458994.93909  20639051.260    84513501.92849
  22035993.780   115799941.28808  22035994.320    90233726.45247
  23605015.660   124045220.49507  23605016.120    96658627.73946
  22285751.460   117112429.59008  22285751.500    91256441.13948
  22529222.480   118391903.79908  22529221.800    92253451.11347
  21653260.340   113788712.46308  21653263.260    88666576.00448
  24562860.340   129078708.66006  24562866.520   100580829.96846
 15 03 01 00 41  0.0000000  0  7G16G18G19G21G22G27G31
  20632620.900   108425204.38809  20632621.200    84487171.62449
  22030900.980   115773178.73208  22030901.460    90212872.53147
  23590810.080   123970567.42707  23590809.900    96600456.57346
  22297838.940   117175949.42608  22297838.900    91305937.10047
  22513660.520   118310124.69308  22513659.780    92189727.19647
  21643652.360   113738222.66008  21643655.280    88627233.32148
  24581517.280   129176751.77005  24581523.480   100657227.32444
 15 03 01 00 41 30.0000000  0  7G16G18G19G21G22G27G31
  20626278.340   108391873.82209  20626278.620    84461199.75049
  22025895.760   115746876.15509  22025896.200    90192377.03547
  23576623.200   123896013.66007  23576622.460    96542362.77646
  22309962.100   117239656.76308  22309962.000    91355579.16548
  22498144.840   118228589.71408  22498144.280    92126193.50247
  21634072.220   113687878.69008  21634075.160    88588004.27248
  24600162.080   129274731.34405  24600168.200   100733575.20844
 15 03 01 00 42  0.0000000  0  7G16G18G19G21G22G27G31
  20620022.200   108358997.83109  20620022.520    84435582.09949
  22020976.940   115721027.72308  22020977.420    90172235.42047
  23562453.560   123821552.14907  23562452.600    96484340.87246
  22322119.300   117303542.80208  22322119.120    91405360.48247
  22482674.740   118147294.85708  22482674.340    92062846.91147
  21624518.620   113637673.82809  21624521.580    88548883.60848
  24618793.020   129372637.81006  24618798.980   100809866.02644
 15 03 01 00 42 30.0000000  0  7G16G18G19G21G22G27G31
  20613853.960   108326583.71309  20613854.260    84410324.34749
  22016145.820   115695640.32908  22016146.380    90152453.05247
  23548302.300   123747188.91706  23548301.700    96426395.55246
  22334311.160   117367611.16408  22334310.940    91455283.86347
  22467251.900   118066248.40008  22467251.620    91999693.87847
  21614992.600   113587613.90609  21614995.580    88509875.89748
  24637410.740   129470474.17105  24637416.380   100886102.19244
 15 03 01 00 43  0.0000000  0  7G16G18G19G21G22G27G31
  20607773.180   108294628.85209  20607773.420    84385424.45349
  22011401.800   115670710.79808  22011402.460    90133027.46647
  23534168.760   123672919.34107  23534169.200    96368523.22047
  22346536.580   117431855.99108  22346536.280    91505344.75947
  22451876.040   117985447.87608  22451875.700    91936732.48647
  21605493.420   113537695.08909  21605496.360    88470978.13648
  24656013.840   129568233.18106  24656018.980   100962278.17345
 15 03 01 00 43 30.0000000  0  7G16G18G19G21G22G27G31
  20601780.320   108263135.96309  20601780.480    84360884.53949
  22006745.240   115646240.86008  22006745.860    90113959.98747
  23520053.420   123598744.34407  23520054.880    96310724.56947
  22358795.300   117496276.16508  22358794.980    91555542.28947
  22436547.920   117904897.88508  22436547.460    91873966.32347
  21596021.180   113487918.33409  21596024.060    88432191.07948
  24674601.860   129665913.30205  24674606.540   101038392.56144
 15 03 01 00 44  0.0000000  0  7G16G18G19G21G22G27G31
  20595874.920   108232102.95009  20595875.000    84336702.96749
  22002175.860   115622228.70808  22002176.340    90095249.22847
  23505955.900   123524660.99507  23505957.780    96252997.33146
  22371086.360   117560866.64408  22371086.100    91605872.51247
  22421267.280   117824597.22008  22421266.680    91811394.43647
  21586575.340   113438280.50908  21586578.180    88393512.27548
  24693173.580   129763508.22606  24693178.040   101114440.64045
 15 03 01 00 44 30.0000000  0  6G16G18G19G21G22G27
  20590056.640   108201527.79209  20590056.720    84312878.16549
  21997693.060   115598671.63708  21997693.440    90076893.08147
  23491875.320   123450665.64507  23491876.820    96195338.67646
  22383408.700   117625621.65808  22383408.560    91656330.95847
  22406033.840   117744544.73708  22406033.060    91749015.91747
  21577155.300   113388778.49308  21577158.200    88354939.29448
 15 03 01 00 45  0.0000000  0  6G16G18G19G21G22G27
  20584328.880   108171428.10009  20584328.940    84289423.85949
  21993300.060   115575586.43208  21993300.460    90058904.62247
  23477814.480   123376773.51407  23477815.000    96137760.43746
  22395765.160   117690555.66408  22395765.140    91706928.86947
  22390850.920   117664758.46908  22390850.120    91686844.84447
  21567764.140   113339428.14509  21567767.140    88316484.49148
 15 03 01 00 45 30.0000000  0  6G16G18G19G21G22G27
  20578690.780   108141799.48709  20578690.820    84266336.62049
  21988995.940   115552968.01308  21988996.340    90041279.88247
  23463772.020   123302978.94307  23463771.580    96080258.22745
  22408154.280   117755661.03708  22408154.380    91757660.30947
  22375718.080   117585235.51808  22375717.300    91624878.95347
  21558400.860   113290223.76009  21558403.940    88278143.43148
 15 03 01 00 46  0.0000000  0  6G16G18G19G21G22G27
  20573142.360   108112642.18309  20573142.420    84243616.64549
  21984780.660   115530816.32608  21984781.060    90024018.85147
  23449747.660   123229280.97207  23449746.740    96022831.30746
  22420575.420   117820934.19008  22420575.580    91808522.49647
  22360635.720   117505977.09708  22360634.840    91563119.17947
  21549065.220   113241164.58809  21549068.360    88239915.52348
 15 03 01 00 46 30.0000000  0  6G16G18G19G21G22G27
  20567683.800   108083956.77309  20567683.780    84221264.37549
  21980654.220   115509131.62908  21980654.660    90007121.69847
  23435741.420   123155678.59107  23435740.660    95965478.85146
  22433028.120   117886372.97308  22433028.340    91859513.74447
  22345604.000   117426984.85108  22345603.040    91501566.82547
  21539757.040   113192249.94308  21539760.260    88201800.23448
 15 03 01 00 47  0.0000000  0  6G16G18G19G21G22G27
  20562315.020   108055743.36809  20562314.940    84199279.90049
  21976616.600   115487913.82708  21976617.040    89990588.36447
  23421753.260   123082171.25207  23421752.940    95908200.44846
  22445511.780   117951974.51408  22445512.020    91910631.81147
  22330623.300   117348260.59708  22330622.260    91440223.28947
  21530476.220   113143479.26809  21530479.500    88163797.12848
 15 03 01 00 47 30.0000000  0  6G16G18G19G21G22G27
  20557037.440   108028009.65809  20557037.380    84177669.21349
  21972669.060   115467169.39108  21972669.500    89974423.87447
  23407783.820   123008764.01906  23407784.380    95851000.04547
  22458026.940   118017741.89508  22458027.200    91961879.10447
  22315694.940   117269811.90108  22315693.980    91379094.49447
  21521223.860   113094858.00309  21521227.140    88125910.45548
 15 03 01 00 48  0.0000000  0  6G16G18G19G21G22G27
  20551849.880   108000748.96009  20551849.820    84156427.11049
  21968810.300   115446891.20708  21968810.660    89958622.69847
  23393832.220   122935449.13507  23393833.160    95793871.61847
  22470571.860   118083665.83108  22470572.040    92013248.38947
  22300818.020   117191633.54808  22300817.120    91318176.34247
  21511998.560   113046378.71609  21512001.800    88088134.40648
 15 03 01 00 48 30.0000000  0  6G16G18G19G21G22G27
  20546753.260   107973965.74609  20546753.160    84135557.07149
  21965041.060   115427083.01609  21965041.160    89943187.73647
  23379899.120   122862229.87207  23379899.960    95736817.70646
  22483146.800   118149747.85208  22483146.900    92064740.86147
  22285993.520   117113730.92308  22285992.720    91257473.06047
  21502800.940   112998044.66809  21502804.140    88050471.52848
 15 03 01 00 49  0.0000000  0  6G16G18G19G21G22G27
  20541747.980   107947662.56209  20541747.880    84115061.08849
  21961361.700   115407747.41008  21961361.620    89928121.02847
  23365984.480   122789107.28807  23365985.040    95679839.12446
  22495751.680   118215987.12208  22495751.660    92116355.86247
  22271222.400   117036108.14808  22271221.560    91196987.82347
  21493631.260   112949857.44909  21493634.420    88012923.06048
 15 03 01 00 49 30.0000000  0  6G16G18G19G21G22G27
  20536834.220   107921840.68709  20536834.140    84094940.14249
  21957772.160   115388884.67508  21957772.180    89913422.80547
  23352088.240   122716081.12107  23352088.160    95622935.67146
  22508386.080   118282381.58908  22508385.960    92168091.79847
  22256505.000   116958767.30508  22256504.180    91136722.27748
  21484489.500   112901816.93409  21484492.620    87975488.91549
 15 03 01 00 50  0.0000000  0  6G16G18G19G21G22G27
  20532012.540   107896502.70609  20532012.480    84075196.25849
  21954272.960   115370496.52608  21954273.160    89899094.38947
  23338210.620   122643152.76407  23338209.780    95566108.43146
  22521049.980   118348930.92508  22521049.760    92219948.42147
  22241841.920   116881711.97908  22241841.160    91076679.21548
  21475375.940   112853924.75309  21475379.020    87938170.35549
 15 03 01 00 50 30.0000000  0  6G16G18G19G21G22G27
  20527283.520   107871651.72509  20527283.480    84055831.85849
  21950864.760   115352586.15609  21950865.060    89885138.27647
  23324351.720   122570324.03407  23324350.700    95509358.84746
  22533743.280   118415634.70608  22533743.040    92271925.38147
  22227233.920   116804946.47408  22227233.280    91016861.98148
  21466291.000   112806182.95609  21466294.000    87900968.97048
 15 03 01 00 51  0.0000000  0  6G16G18G19G21G22G27
  20522647.260   107847288.09309  20522647.240    84036847.20749
  21947547.320   115335152.92008  21947547.620    89871553.93847
  23310511.440   122497593.80707  23310510.660    95452686.01046
  22546465.480   118482490.40308  22546465.320    92324020.71547
  22212681.180   116728471.88408  22212680.720    90957271.43248
  21457234.560   112758590.68209  21457237.400    87863884.09848
 15 03 01 00 51 30.0000000  0  6G16G18G19G21G22G27
  20518103.340   107823409.98909  20518103.400    84018240.89749
  21944320.240   115318194.79808  21944320.480    89858339.81247
  23296689.440   122424959.15907  23296689.080    95396087.62446
  22559215.660   118549492.99308  22559215.560    92376230.51347
  22198183.740   116652287.86408  22198183.380    90897907.30048
  21448206.020   112711145.17909  21448208.760    87826913.59948
 15 03 01 00 52  0.0000000  0  6G16G18G19G21G22G27
  20513652.720   107800022.23309  20513652.880    84000016.66949
  21941184.200   115301715.37708  21941184.560    89845498.72647
  23282886.300   122352423.43907  23282886.300    95339566.34547
  22571993.960   118616643.23108  22571993.900    92428555.36447
  22183742.620   116576400.29108  22183742.320    90838774.18147
  21439206.100   112663850.15709  21439208.740    87790060.35448
 15 03 01 00 52 30.0000000  0  6G16G18G19G21G22G27
  20509295.820   107777126.92909  20509296.100    83982176.17349
  21938139.580   115285716.65008  21938140.200    89833032.21047
  23269101.960   122279987.29207  23269102.380    95283122.66646
  22584800.480   118683941.81908  22584800.480    92480995.81047
  22169358.660   116500812.73108  22169358.320    90779874.83247
  21430234.980   112616706.76609  21430237.560    87753325.26449
 15 03 01 00 53  0.0000000  0  6G16G18G19G21G22G27
  20505032.560   107754723.40709  20505032.900    83964718.88149
  21935186.140   115270196.85108  21935186.920    89820938.88047
  23255336.300   122207649.39007  23255336.940    95226755.53146
  22597634.380   118751384.23508  22597634.440    92533548.33247
  22155031.880   116425525.14108  22155031.460    90721209.22147
  21421292.320   112569713.22009  21421294.920    87716706.92948
 15 03 01 00 53 30.0000000  0  6G16G18G19G21G22G27
  20500863.100   107732812.16609  20500863.360    83947645.18949
  21932324.060   115255156.46708  21932324.820    89809219.10747
  23241589.240   122135408.46007  23241589.840    95170463.95647
  22610495.200   118818968.01108  22610495.300    92586211.01047
  22140762.560   116350539.28408  22140762.080    90662778.72947
  21412378.120   112522869.12209  21412380.760    87680205.05749
 15 03 01 00 54  0.0000000  0  6G16G18G19G21G22G27
  20496787.660   107711395.19009  20496787.780    83930956.63649
  21929553.380   115240596.31608  21929554.100    89797873.54947
  23227860.900   122063264.91007  23227861.260    95114248.26547
  22623382.680   118886691.86108  22623382.780    92638982.82947
  22126551.260   116275858.25408  22126550.740    90604585.75348
  21403492.580   112476175.35209  21403495.240    87643820.32548
 15 03 01 00 54 30.0000000  0  6G16G18G19G21G22G27
  20492806.500   107690473.91409  20492806.580    83914654.34349
  21926874.340   115226517.83208  21926874.960    89786903.31247
  23214151.380   121991219.66407  23214151.380    95058109.17647
  22636296.520   118954554.49308  22636296.680    92691862.79847
  22112398.420   116201484.86708  22112397.980    90546632.50148
  21394635.880   112429632.80609  21394638.500    87607553.42748
 15 03 01 00 55  0.0000000  0  6G16G18G19G21G22G27
  20488920.420   107670052.27109  20488920.540    83898741.37449
  21924287.600   115212924.20609  21924288.120    89776310.89047
  23200461.100   121919275.65607  23200460.780    95002048.96146
  22649236.840   119022556.71208  22649237.100    92744851.53547
  22098305.080   116127424.23908  22098304.660    90488922.94348
  21385808.460   112383244.41409  21385811.060    87571406.65349
 15 03 01 00 55 30.0000000  0  6G16G18G19G21G22G27
  20485129.500   107650130.94409  20485129.700    83883218.26449
  21921793.140   115199815.09409  21921793.520    89766096.01047
  23186789.700   121847431.98807  23186789.280    94946066.95546
  22662203.260   119090696.07908  22662203.600    92797947.14047
  22084271.520   116053677.72508  22084271.060    90431458.16848
  21377010.240   112337009.77109  21377012.840    87535379.68149
 15 03 01 00 56  0.0000000  0  6G16G18G19G21G22G27
  20481434.760   107630714.86209  20481434.960    83868088.84649
  21919391.720   115187194.90309  21919392.020    89756262.11247
  23173137.780   121775692.07007  23173137.560    94890165.79046
  22675196.120   119158974.47608  22675196.560    92851151.07647
  22070298.920   115980251.69408  22070298.400    90374243.12047
  21368242.060   112290932.81909  21368244.600    87499475.58048
 15 03 01 00 56 30.0000000  0  6G16G18G19G21G22G27
  20477835.140   107611798.70009  20477835.320    83853348.98349
  21917082.160   115175057.78108  21917082.480    89746804.63348
  23159504.400   121704050.08407  23159504.540    94834340.92646
  22688214.040   119227384.24408  22688214.440    92904457.38747
  22056386.640   115907142.27508  22056386.000    90317274.77847
  21359502.780   112245007.64209  21359505.300    87463689.74748
