     2.11           OBSERVATION DATA    G                   RINEX VERSION / TYPE
SPIDER V4,0,0,3554                      2015 03 13 02:55    PGM / RUN BY / DATE 
EMHD                                                        MARKER NAME         
EMHD                                                        MARKER NUMBER       
                                                            OBSERVER / AGENCY   
462397              LEICA GRX1200PRO    8.20/2.127          REC # / TYPE / VERS 
103297              LEIAT504                                ANT # / TYPE        
  5146535.6892   265261.6083  3747697.6292                  APPROX POSITION XYZ 
        0.0470        0.0000        0.0000                  ANTENNA: DELTA H/E/N
     1     1                                                WAVELENGTH FACT L1/2
     4    C1    L1    P2    L2                              # / TYPES OF OBSERV 
    30.000                                                  INTERVAL            
  2015    03    01    00    00    0.0000000     GPS         TIME OF FIRST OBS   
  2015    03    01    23    59   30.0000000     GPS         TIME OF LAST OBS    
    16                                                      LEAP SECONDS        
    30                                                      # OF SATELLITES     
   G 1   778   778   778   778                              PRN / # OF OBS      
   G 2   874   874   874   874                              PRN / # OF OBS      
   G 3   783   783   783   783                              PRN / # OF OBS      
   G 4   817   817   817   817                              PRN / # OF OBS      
   G 5   646   646   646   646                              PRN / # OF OBS      
   G 6   684   684   684   684                              PRN / # OF OBS      
   G 7   640   640   639   639                              PRN / # OF OBS      
   G 9   741   741   741   741                              PRN / # OF OBS      
   G10   720   720   720   720                              PRN / # OF OBS      
   G11   750   750   750   750                              PRN / # OF OBS      
   G12   802   802   802   802                              PRN / # OF OBS      
   G13   766   766   766   766                              PRN / # OF OBS      
   G14   806   806   806   806                              PRN / # OF OBS      
   G15   705   705   705   705                              PRN / # OF OBS      
   G16   642   642   642   642                              PRN / # OF OBS      
   G17   910   910   909   909                              PRN / # OF OBS      
   G18   821   821   821   821                              PRN / # OF OBS      
   G19   753   753   752   752                              PRN / # OF OBS      
   G20   735   735   735   735                              PRN / # OF OBS      
   G21   628   628   628   628                              PRN / # OF OBS      
   G22   706   706   706   706                              PRN / # OF OBS      
   G23   730   730   729   729                              PRN / # OF OBS      
   G24   736   736   736   736                              PRN / # OF OBS      
   G25   780   780   780   780                              PRN / # OF OBS      
   G27   788   788   788   788                              PRN / # OF OBS      
   G28   827   827   827   827                              PRN / # OF OBS      
   G29   730   730   730   730                              PRN / # OF OBS      
   G30   663   663   663   663                              PRN / # OF OBS      
   G31   794   794   794   794                              PRN / # OF OBS      
   G32   730   730   730   730                              PRN / # OF OBS      
BIT 2 OF LLI FLAGS DATA COLLECTED UNDER A/S CONDITION       COMMENT             
SNR is mapped to RINEX snr flag value [2-9]                 COMMENT             
Lx:     = 25dBHz -> 1; 26-27dBHz -> 2; 28-31dBHz -> 3       COMMENT             
       32-35dBHz -> 4; 36-38dBHz -> 5; 39-41dBHz -> 6       COMMENT             
       42-44dBHz -> 7; 45-48dBHz -> 8; >=49dBHz -> 9        COMMENT             
                                                            END OF HEADER       
 15 03 01 00 00  0.0000000  0  7G16G18G21G22G27G29G31
  21470983.560   112830807.67607  21470980.940    87920114.46848
  22613137.880   118832871.72906  22613136.320    92597057.28546
  21399247.160   112453816.09807  21399244.380    87626347.17848
  23859929.100   125384775.27504  23859928.520    97702415.06746
  22631598.120   118929884.88906  22631598.940    92672655.36647
  24221838.520   127286602.47804  24221837.820    99184355.65844
  23106749.860   121426772.06905  23106748.900    94618248.94647
 15 03 01 00 00 30.0000000  0  7G16G18G21G22G27G29G31
  21458491.620   112765162.21707  21458489.080    87868962.16848
  22602007.280   118774380.49106  22602005.720    92551479.73446
  21407172.100   112495461.69207  21407169.300    87658798.29448
  23842203.380   125291627.09605  23842202.800    97629832.08545
  22619628.380   118866983.54606  22619629.260    92623641.37247
  24236326.700   127362738.02804  24236326.040    99243681.99146
  23124606.840   121520610.37805  23124605.780    94691369.81747
 15 03 01 00 01  0.0000000  0  7G16G18G21G22G27G29G31
  21446056.080   112699813.26607  21446053.620    87818040.91848
  22590935.700   118716199.15606  22590934.040    92506143.64946
  21415158.640   112537431.00107  21415155.780    87691501.64848
  23824482.440   125198502.87304  23824481.700    97557267.58545
  22607681.560   118804202.06106  22607682.320    92574720.76047
  24250818.120   127438890.65504  24250817.200    99303021.63246
  23142493.460   121614604.67205  23142492.340    94764612.10446
 15 03 01 00 01 30.0000000  0  7G16G18G21G22G27G29G31
  21433676.860   112634759.90507  21433674.420    87767349.99348
  22579922.980   118658327.42106  22579921.280    92461048.82146
  21423205.900   112579719.52807  21423203.020    87724453.74048
  23806766.280   125105403.00905  23806765.340    97484722.33746
  22595756.900   118741537.39706  22595757.620    92525891.19147
  24265312.100   127515056.94404  24265311.140    99362371.92247
  23160408.680   121708749.37406  23160407.400    94837971.46847
 15 03 01 00 02  0.0000000  0  7G16G18G21G22G27G29G31
  21421354.800   112570006.72707  21421352.320    87716892.97848
  22568970.040   118600769.73506  22568968.360    92416198.69646
  21431314.060   112622328.35107  21431311.240    87757655.41548
  23789055.580   125012332.38405  23789054.460    97412199.99745
  22583854.880   118678992.00406  22583855.480    92477154.55247
  24279809.040   127591239.64304  24279808.320    99421735.03345
  23178352.340   121803043.91405  23178351.140    94911447.58047
 15 03 01 00 02 30.0000000  0  7G16G18G21G22G27G29G31
  21409089.760   112505553.43307  21409087.280    87666669.63048
  22558076.940   118543525.89206  22558075.180    92371593.12946
  21439482.440   112665253.53307  21439479.660    87791103.60248
  23771350.340   124919290.86504  23771349.240    97339700.03445
  22571975.060   118616563.66706  22571975.600    92428509.13147
  24294308.620   127667436.29604  24294308.100    99481108.95045
  23196323.580   121897483.28105  23196322.540    94985036.63847
 15 03 01 00 03  0.0000000  0  7G16G18G21G22G27G29G31
  21396881.980   112441401.11407  21396879.480    87616680.81548
  22547243.940   118486597.39106  22547241.980    92327233.26946
  21447710.420   112708491.85207  21447707.640    87824795.79548
  23753651.060   124826280.40504  23753649.900    97267224.50744
  22560117.220   118554251.13106  22560117.840    92379953.94147
  24308810.720   127743645.39604  24308810.340    99540492.65445
  23214321.600   121992063.25206  23214320.680    95058735.36847
 15 03 01 00 03 30.0000000  0  7G16G18G21G22G27G29G31
  21384731.820   112377551.79907  21384729.340    87566928.10348
  22536471.340   118429986.25806  22536469.340    92283120.72846
  21455997.580   112752041.42607  21455994.820    87858730.52448
  23735957.920   124733302.56804  23735956.640    97194774.08945
  22548281.460   118492054.25206  22548282.180    92331488.87547
  24323315.400   127819866.80004  24323314.860    99599885.88945
  23232345.640   122086780.45005  23232344.720    95132540.91946
 15 03 01 00 04  0.0000000  0  7G16G18G21G22G27G29G31
  21372640.060   112314009.24307  21372637.560    87517414.42148
  22525759.660   118373696.09706  22525757.760    92239258.29646
  21464343.960   112795901.91007  21464341.180    87892907.52048
  23718271.960   124640361.72505  23718270.440    97122352.25146
  22536468.100   118429974.67906  22536468.960    92283115.21447
  24337822.660   127896102.13304  24337822.200    99659289.98545
  23250395.480   122181633.38105  23250394.600    95206452.13446
 15 03 01 00 04 30.0000000  0  7G16G18G21G22G27G29G31
  21360607.740   112250779.25807  21360605.240    87468144.30748
  22515110.200   118317733.31906  22515108.400    92195650.95746
  21472749.940   112840075.38307  21472747.060    87927328.41148
  23700594.760   124547466.23704  23700593.120    97049966.52146
  22524677.700   118368015.96106  22524678.680    92234835.73547
  24352333.040   127972354.57904  24352332.760    99718707.41845
  23268471.420   122276622.73705  23268470.580    95280469.61147
 15 03 01 00 05  0.0000000  0  7G16G18G21G22G27G29G31
  21348634.280   112187858.32507  21348631.780    87419115.02048
  22504522.300   118262094.40206  22504520.680    92152295.97546
  21481214.100   112884554.65007  21481211.220    87961987.57148
  23682925.020   124454611.51304  23682923.480    96977612.47546
  22512909.340   118306172.84806  22512910.240    92186646.33447
  24366845.720   128048619.13004  24366845.480    99778134.31646
  23286571.800   122371740.25605  23286570.920    95354586.91347
 15 03 01 00 05 30.0000000  0  7G16G18G21G22G27G29G31
  21336720.460   112125250.78307  21336718.000    87370329.92548
  22493997.040   118206783.89706  22493995.500    92109196.90146
  21489736.440   112929339.95407  21489733.620    87996885.20548
  23665263.700   124361802.15604  23665262.380    96905293.56545
  22501163.240   118244447.40406  22501164.180    92138548.62047
  24381361.120   128124897.89804  24381360.820    99837572.26244
  23304696.420   122466985.14905  23304695.620    95428803.55547
 15 03 01 00 06  0.0000000  0  7G16G18G21G22G27G29G31
  21324866.820   112062959.51907  21324864.400    87321791.28848
  22483534.960   118151804.65206  22483533.280    92066355.95946
  21498316.780   112974429.94507  21498313.940    88032020.26048
  23647611.500   124269041.81404  23647610.340    96833012.77243
  22489439.640   118182840.47406  22489440.660    92090543.25247
  24395879.380   128201191.32804  24395879.000    99897021.63545
  23322844.840   122562355.05905  23322844.060    95503117.55446
 15 03 01 00 06 30.0000000  0  7G16G18G21G22G27G29G31
  21313073.640   112000986.08707  21313071.260    87273500.31248
  22473136.200   118097158.33406  22473134.320    92023774.43946
  21506954.820   113019822.93607  21506951.940    88067391.42048
  23629969.360   124176332.93104  23629968.320    96760772.28646
  22477738.560   118121351.33506  22477739.620    92042629.66647
  24410400.200   128277498.67904  24410399.760    99956481.87443
  23341016.380   122657846.21105  23341015.500    95577525.91247
 15 03 01 00 07  0.0000000  0  7G16G18G21G22G27G29G31
  21301340.880   111939329.93507  21301338.480    87225456.56448
  22462800.520   118042844.41606  22462798.660    91981451.93446
  21515649.500   113065514.03207  21515646.700    88102994.87048
  23612337.140   124083675.38604  23612335.980    96688571.87245
  22466059.500   118059977.32906  22466060.600    91994805.80948
  24424923.120   128353817.03904  24424922.720   100015950.70745
  23359210.100   122753453.18605  23359208.960    95652024.54446
 15 03 01 00 07 30.0000000  0  7G16G18G21G22G27G29G31
  21289669.500   111877996.18807  21289667.020    87177664.03248
  22452528.940   117988867.47406  22452527.120    91939391.99846
  21524401.100   113111504.26607  21524398.380    88138831.40948
  23594715.680   123991075.09704  23594714.660    96616416.32745
  22454403.000   117998721.40906  22454404.060    91947073.95447
  24439448.720   128430149.43204  24439448.280   100075430.45144
  23377425.960   122849176.03305  23377424.720    95726613.53646
 15 03 01 00 08  0.0000000  0  7G16G18G21G22G27G29G31
  21278060.020   111816987.96407  21278057.540    87130125.16448
  22442322.280   117935231.63206  22442320.440    91897597.85146
  21533209.480   113157792.67307  21533206.760    88174900.29448
  23577105.640   123898535.01305  23577104.640    96544307.58446
  22442769.080   117937584.89706  22442770.160    91899435.13948
  24453977.160   128506496.82404  24453976.700   100134921.88446
  23395663.440   122945012.51405  23395662.100    95801291.00246
 15 03 01 00 08 30.0000000  0  7G16G18G21G22G27G29G31
  21266512.700   111756306.39907  21266510.220    87082840.83548
  22432180.880   117881937.94706  22432179.060    91856070.32946
  21542074.300   113204377.28807  21542071.560    88211199.99248
  23559507.360   123806056.65205  23559506.400    96472246.87345
  22431157.740   117876566.66006  22431158.700    91851888.49247
  24468508.380   128582858.40904  24468507.900   100194424.39944
  23413921.720   123040958.95405  23413920.420    95876054.10446
 15 03 01 00 09  0.0000000  0  7G16G18G21G22G27G29G31
  21255028.020   111695954.33207  21255025.620    87035813.26348
  22422105.220   117828989.06906  22422103.300    91814811.49246
  21550995.260   113251256.79507  21550992.500    88247729.47048
  23541921.420   123713643.65604  23541920.460    96400237.06246
  22419569.060   117815667.49306  22419570.000    91804434.62347
  24483042.380   128659234.73404  24483041.800   100253938.38845
  23432200.480   123137013.06705  23432199.240    95950901.10446
 15 03 01 00 09 30.0000000  0  7G16G18G21G22G27G29G31
  21243606.020   111635931.44007  21243603.640    86989042.18548
  22412094.880   117776384.44806  22412092.960    91773820.90146
  21559971.280   113298426.45007  21559968.620    88284485.03948
  23524348.000   123621295.98204  23524347.000    96328278.09546
  22408002.580   117754884.72106  22408003.400    91757071.46047
  24497578.620   128735623.08304  24497578.100   100313461.73046
  23450498.700   123233169.10705  23450497.420    96025827.46347
 15 03 01 00 10  0.0000000  0  7G16G18G21G22G27G29G31
  21232247.620   111576242.78407  21232245.260    86942531.55448
  22402150.940   117724129.30506  22402149.140    91733102.63147
  21569002.700   113345887.40807  21569000.160    88321467.59648
  23506788.200   123529019.60904  23506787.260    96256374.69645
  22396458.800   117694221.55106  22396459.460    91709801.49647
  24512117.600   128812026.28604  24512117.180   100372996.67345
  23468816.360   123329427.37305  23468815.120    96100833.51346
 15 03 01 00 10 30.0000000  0  6G16G18G21G22G27G31
  21220945.080   111516847.67507  21220942.760    86896249.66748
  22392265.680   117672182.47806  22392263.940    91692624.61446
  21578081.020   113393594.93007  21578078.580    88358642.28048
  23489234.340   123436774.16905  23489233.120    96184495.38045
  22384929.500   117633635.17506  22384930.120    91662591.36647
  23487144.600   123425742.08405  23487143.560    96175883.61546
 15 03 01 00 11  0.0000000  0  7G16G18G21G22G27G29G31
  21209724.560   111457883.24507  21209722.200    86850303.36448
  22382465.400   117620681.99006  22382463.720    91652494.38246
  21587231.720   113441682.52407  21587229.300    88396113.12848
  23471712.640   123344697.55305  23471711.180    96112747.59346
  22373440.460   117573260.78206  22373441.080    91615546.41947
  24541205.780   128964903.08204  24541204.900   100492128.57845
  23505508.700   123522245.15805  23505507.900    96251080.47046
 15 03 01 00 11 30.0000000  0  6G16G18G21G22G27G31
  21198549.720   111399158.98007  21198547.300    86804544.21148
  22372713.740   117569436.84706  22372711.980    91612563.12046
  21596417.760   113489955.64807  21596415.360    88433728.54148
  23454186.780   123252599.49104  23454185.180    96040983.08646
  22361955.020   117512905.37806  22361955.740    91568516.25748
  23523871.380   123618740.73905  23523870.740    96326271.50446
 15 03 01 00 12  0.0000000  0  6G16G18G21G22G27G31
  21187451.820   111340839.13007  21187449.340    86759100.17848
  22363042.060   117518611.74706  22363040.340    91572959.16546
  21605669.800   113538575.31507  21605667.420    88471613.98448
  23436688.080   123160644.95405  23436686.500    95969330.39745
  22350504.260   117452731.76606  22350505.120    91521627.76347
  23542263.260   123715388.74305  23542262.580    96401581.29946
 15 03 01 00 12 30.0000000  0  6G16G18G21G22G27G31
  21176417.160   111282851.43507  21176414.600    86713914.96548
  22353436.580   117468134.27806  22353434.880    91533626.09846
  21614973.180   113587464.54707  21614970.760    88509709.47548
  23419203.200   123068762.39604  23419201.560    95897733.79146
  22339073.980   117392665.35806  22339074.860    91474822.79848
  23560669.280   123812111.41505  23560668.640    96476949.27346
 15 03 01 00 13  0.0000000  0  6G16G18G21G22G27G31
  21165445.860   111225196.86907  21165443.240    86668989.33848
  22343897.380   117418004.97606  22343895.580    91494564.32746
  21624327.400   113636620.78507  21624324.860    88548013.03148
  23401732.360   122976953.49704  23401730.660    95826194.55546
  22327664.060   117332705.25106  22327664.840    91428100.65748
  23579088.580   123908904.73505  23579088.160    96552372.32446
 15 03 01 00 13 30.0000000  0  6G16G18G21G22G27G31
  21154542.840   111167901.18607  21154540.200    86624343.36348
  22334429.180   117368249.59106  22334427.380    91455793.90746
  21633736.600   113686065.83107  21633733.920    88586541.63848
  23384280.620   122885244.20805  23384278.760    95754732.97246
  22316278.840   117272874.85606  22316279.580    91381479.61247
  23597525.320   124005789.47005  23597525.120    96627866.61847
 15 03 01 00 14  0.0000000  0  6G16G18G21G22G27G31
  21143706.700   111110956.74207  21143704.060    86579971.07948
  22325030.620   117318860.22606  22325028.800    91417308.71746
  21643198.280   113735787.04007  21643195.560    88625285.42348
  23366846.540   122793627.53805  23366844.540    95683343.49146
  22304916.420   117213164.59206  22304917.160    91334952.17447
  23615977.080   124102752.51505  23615976.900    96703421.92246
 15 03 01 00 14 30.0000000  0  6G16G18G21G22G27G31
  21132939.840   111054376.71807  21132937.280    86535882.76348
  22315704.400   117269850.48906  22315702.520    91379119.31546
  21652714.440   113785794.68807  21652711.720    88664252.41148
  23349432.540   122702117.27605  23349430.540    95612036.98145
  22293578.760   117153585.53806  22293579.640    91288526.96448
  23634445.420   124199802.11905  23634445.040    96779044.70946
 15 03 01 00 15  0.0000000  0  6G16G18G21G22G27G31
  21122239.300   110998145.14007  21122236.800    86492065.96248
  22306447.280   117221204.01006  22306445.340    91341212.98947
  21662281.340   113836068.90807  21662278.600    88703427.12048
  23332035.860   122610698.00605  23332033.880    95540801.32046
  22282262.600   117094119.97706  22282263.560    91242190.19847
  23652926.200   124296917.69405  23652925.900    96854718.94046
 15 03 01 00 15 30.0000000  0  6G16G18G21G22G27G31
  21111605.440   110942263.92307  21111602.920    86448522.16248
  22297259.640   117172922.94906  22297257.720    91303591.40346
  21671898.440   113886607.44107  21671895.720    88742807.78548
  23314656.960   122519372.29505  23314654.920    95469638.57745
  22270968.160   117034767.61206  22270969.040    91195941.62047
  23671418.740   124394095.90404  23671418.640    96930442.05946
 15 03 01 00 16  0.0000000  0  6G16G18G21G22G27G31
  21101039.320   110886738.43807  21101036.720    86405255.56148
  22288142.460   117125012.24706  22288140.700    91266258.40147
  21681566.200   113937412.41207  21681563.540    88782396.06348
  23297297.140   122428146.09905  23297294.960    95398553.36046
  22259696.080   116975531.85906  22259696.800    91149783.92148
  23689923.300   124491337.30605  23689923.320    97006214.50446
 15 03 01 00 16 30.0000000  0  6G16G18G21G22G27G31
  21090542.920   110831579.37908  21090540.260    86362274.47348
  22279097.840   117077482.34506  22279096.160    91229222.13246
  21691285.640   113988488.69507  21691283.060    88822195.75248
  23279958.400   122337030.52305  23279956.140    95327554.34245
  22248447.760   116916421.22306  22248448.400    91103723.72047
  23708440.780   124588647.04704  23708440.960    97082040.21345
 15 03 01 00 17  0.0000000  0  6G16G18G21G22G27G31
  21080115.260   110776781.49507  21080112.560    86319574.83648
  22270124.740   117030328.23706  22270123.120    91192478.69046
  21701055.340   114039828.68607  21701052.840    88862200.93048
  23262639.900   122246020.92605  23262637.540    95256637.89146
  22237221.900   116857428.62606  22237222.520    91057755.47548
  23726969.180   124686014.98704  23726969.620    97157911.24945
 15 03 01 00 17 30.0000000  0  6G16G18G21G22G27G31
  21069756.800   110722347.54707  21069754.120    86277158.78348
  22261223.580   116983552.43306  22261221.960    91156030.02846
  21710875.120   114091431.45607  21710872.580    88902410.86648
  23245342.180   122155120.82805  23245339.720    95185806.80046
  22226018.660   116798554.92606  22226019.240    91011879.89847
  23745508.240   124783439.03004  23745508.840    97233826.06146
 15 03 01 00 18  0.0000000  0  7G16G18G19G21G22G27G31
  21059469.440   110668287.11807  21059466.720    86235033.77848
  22252396.080   116937164.24306  22252394.500    91119883.39947
  24402036.280   128233565.36614                                
  21720745.820   114143302.06407  21720743.220    88942829.51348
  23228067.020   122064340.63205  23228064.680    95115069.09346
  22214839.460   116739807.70006  22214840.000    90966102.86948
  23764058.820   124880923.38004  23764059.660    97309787.77845
 15 03 01 00 18 30.0000000  0  7G16G18G19G21G22G27G31
  21049254.900   110614609.17707  21049252.100    86193206.81148
  22243644.040   116891172.86706  22243642.680    91084045.98746
  24386908.540   128154070.87603  24386908.200    99860312.54445
  21730668.460   114195445.96207  21730665.780    88983461.11048
  23210816.560   121973689.98005  23210814.260    95044432.33246
  22203685.540   116681194.01706  22203686.160    90920429.90048
  23782621.660   124978472.35405  23782622.740    97385799.83046
 15 03 01 00 19  0.0000000  0  7G16G18G19G21G22G27G31
  21039107.400   110561283.73407  21039104.600    86151654.52148
  22234961.840   116845547.81106  22234960.580    91048494.00346
  24371792.140   128074634.55104  24371791.700    99798414.17545
  21740636.660   114247828.91307  21740633.920    89024278.97948
  23193585.120   121883138.85805  23193582.860    94973873.13146
  22192550.900   116622681.72506  22192551.600    90874835.92847
  23801190.260   125076050.71704  23801191.380    97461834.74245
 15 03 01 00 19 30.0000000  0  7G16G18G19G21G22G27G31
  21029030.080   110508327.11007  21029027.300    86110389.61948
  22226352.440   116800305.09806  22226351.180    91013239.96447
  24356689.940   127995270.76104  24356688.980    99736572.38841
  21750652.700   114300463.11907  21750649.940    89065292.63948
  23176375.940   121792704.49805  23176373.800    94903404.89746
  22181438.360   116564285.21706  22181439.080    90829332.18548
  23819766.640   125173670.01104  23819767.880    97537901.49746
 15 03 01 00 20  0.0000000  0  7G16G18G19G21G22G27G31
  21019025.380   110455752.21707  21019022.660    86069422.17448
  22217818.300   116755457.61106  22217817.020    90978293.89946
  24341603.680   127915991.01004  24341602.560    99674792.27345
  21760718.280   114353357.98107  21760715.560    89106509.39348
  23159191.580   121702400.43905  23159189.600    94833038.21046
  22170349.980   116506015.43906  22170350.680    90783927.18848
  23838352.420   125271337.86404  23838353.520    97614006.12346
 15 03 01 00 20 30.0000000  0  7G16G18G19G21G22G27G31
  21009092.760   110403556.25607  21009090.100    86028749.99748
  22209358.700   116711002.19906  22209357.380    90943653.34146
  24326532.060   127836788.97604  24326530.940    99613076.52945
  21770832.120   114406506.42207  21770829.400    89147923.74748
  23142031.580   121612224.68205  23142029.720    94762771.48546
  22159284.820   116447867.73106  22159285.540    90738617.31248
  23856945.940   125369046.80404  23856947.060    97690142.73245
 15 03 01 00 21  0.0000000  0  7G16G18G19G21G22G27G31
  20999233.960   110351748.16007  20999231.340    85988380.05848
  22200975.400   116666948.16206  22200974.040    90909325.54047
  24311476.520   127757672.69304  24311475.300    99551427.57645
  21780995.320   114459914.23307  21780992.520    89189540.21648
  23124897.920   121522186.95705  23124896.000    94692612.30446
  22148244.260   116389849.26706  22148244.980    90693408.15248
  23875548.080   125466800.92604  23875549.160    97766314.56245
 15 03 01 00 21 30.0000000  0  7G16G18G19G21G22G27G31
  20989448.160   110300323.48607  20989445.560    85948308.87848
  22192667.620   116623290.58606  22192666.160    90875306.66647
  24296435.720   127678635.39703  24296435.100    99489840.15845
  21791206.120   114513572.11807  21791203.240    89231351.54948
  23107789.860   121432283.28205  23107787.780    94622557.59346
  22137227.060   116331953.58206  22137227.800    90648294.64648
  23894157.160   125564590.75104  23894158.060    97842514.18746
 15 03 01 00 22  0.0000000  0  7G16G18G19G21G22G27G31
  20979735.420   110249282.67707  20979732.840    85908536.81548
  22184435.220   116580029.28206  22184433.760    90841596.57147
  24281409.440   127599664.64704  24281409.340    99428310.19846
  21801464.000   114567477.73307  21801461.160    89273355.91248
  23090707.400   121342514.71405  23090705.200    94552608.15146
  22126232.920   116274179.16306  22126233.620    90603275.64648
  23912772.180   125662411.48904  23912772.940    97918737.84746
 15 03 01 00 22 30.0000000  0  7G16G18G19G21G22G27G31
  20970093.300   110198613.13107  20970090.760    85869054.05048
  22176275.880   116537151.77406  22176274.440    90808185.55147
  24266396.440   127520767.36504  24266395.700    99366831.88145
  21811765.780   114621613.96007  21811763.000    89315539.96348
  23073648.360   121252869.21405  23073645.980    94482754.60546
  22115258.980   116216511.47806  22115259.740    90558339.82348
  23931389.760   125760245.69304  23931390.500    97994971.96045
 15 03 01 00 23  0.0000000  0  7G16G18G19G21G22G27G31
  20960527.800   110148346.18707  20960525.300    85829885.00248
  22168195.520   116494689.36406  22168194.080    90775097.98347
  24251400.620   127441962.09704  24251399.580    99305425.31744
  21822116.720   114676008.55907  21822113.980    89357925.35548
  23056618.880   121163378.78905  23056616.420    94413021.90546
  22104311.060   116158979.96506  22104311.780    90513510.10348
  23950015.020   125858120.14804  23950015.680    98071237.55546
 15 03 01 00 23 30.0000000  0  7G16G18G19G21G22G27G31
  20951035.480   110098463.72408  20951033.040    85791015.54648
  22160190.720   116452623.75606  22160189.180    90742319.60347
  24236418.680   127363229.09004  24236417.100    99244075.01345
  21832512.520   114730639.08207  21832509.760    89400494.58648
  23039615.580   121074026.40205  23039613.140    94343396.75045
  22093385.340   116101564.83206  22093385.980    90468771.06548
  23968643.440   125956011.68204  23968644.140    98147516.42446
 15 03 01 00 24  0.0000000  0  7G16G18G19G21G22G27G31
  20941618.120   110048975.00807  20941615.680    85752452.91348
  22152263.100   116410963.55306  22152261.460    90709857.13247
  24221451.780   127284575.44804  24221449.680    99182786.56543
  21842954.240   114785511.17007  21842951.480    89443252.05448
  23022640.220   120984821.75205  23022637.960    94273886.72347
  22082483.100   116044273.35806  22082483.800    90424128.39548
  23987275.800   126053924.51404  23987276.580    98223811.92146
 15 03 01 00 24 30.0000000  0  7G16G18G19G21G22G27G31
  20932277.220   109999888.18707  20932274.780    85714203.44048
  22144414.160   116369716.91406  22144412.480    90677716.91447
  24206500.720   127206007.42804  24206498.680    99121564.84645
  21853442.940   114840629.75707  21853440.200    89486201.58948
  23005694.700   120895773.39405  23005692.460    94204498.46446
  22071605.620   115987111.82006  22071606.320    90379586.95948
  24005912.760   126151861.75104  24005913.640    98300126.37446
 15 03 01 00 25  0.0000000  0  7G16G18G19G21G22G27G31
  20923013.140   109951205.04707  20923010.680    85676268.52348
  22136644.160   116328885.11206  22136642.480    90645899.95347
  24191565.260   127127524.50303  24191563.680    99060409.41646
  21863977.940   114895991.72207  21863975.320    89529340.76548
  22988779.580   120806884.08805  22988777.280    94135234.14046
  22060752.840   115930080.18906  22060753.540    90335146.75248
  24024553.840   126249820.52804  24024554.800    98376457.63546
 15 03 01 00 25 30.0000000  0  7G16G18G19G21G22G27G31
  20913823.960   109902915.82207  20913821.520    85638640.55848
  22128951.180   116288458.22406  22128949.540    90614398.49246
  24176643.840   127049114.83604  24176642.740    98999311.09346
  21874556.860   114951583.92507  21874554.220    89572659.34448
  22971893.020   120718144.32505  22971890.540    94066086.35047
  22049922.480   115873166.74906  22049923.240    90290798.64148
  24043196.260   126347785.96404  24043197.280    98452794.07845
 15 03 01 00 26  0.0000000  0  6G16G18G21G22G27G31
  20904713.680   109855041.04808  20904711.260    85601335.54148
  22121339.080   116248456.56306  22121337.400    90583228.39547
  21885182.820   115007423.52407  21885180.180    89616170.71747
  22955039.160   120629576.26505  22955036.520    93997072.34847
  22039118.320   115816390.46306  22039119.060    90246557.40448
  24061842.960   126445774.22204  24061844.080    98529148.29645
 15 03 01 00 26 30.0000000  0  7G16G18G19G21G22G27G31
  20895674.920   109807541.99708  20895672.460    85564323.28948
  22113800.520   116208840.85507  22113798.720    90552359.03347
  24146846.300   126892536.28304  24146846.060    98877298.93646
  21895847.700   115063467.64507  21895845.000    89659841.45848
  22938210.660   120541141.21205  22938207.820    93928162.00046
  22028332.600   115759710.43406  22028333.200    90202391.18248
  24080485.460   126543740.90804  24080486.600    98605485.67745
 15 03 01 00 27  0.0000000  0  7G16G18G19G21G22G27G31
  20886713.220   109760447.74607  20886710.720    85527626.46848
  22106340.860   116169639.79406  22106338.940    90521812.76347
  24131968.480   126814349.25604  24131967.160    98816374.04144
  21906556.140   115119740.69307  21906553.420    89703690.57648
  22921413.100   120452869.11506  22921410.160    93859378.62946
  22017570.380   115703154.23906  22017570.920    90158321.44748
  24099128.600   126641711.17804  24099129.960    98681825.80345
 15 03 01 00 27 30.0000000  0  7G16G18G19G21G22G27G31
  20877831.540   109713774.09407  20877829.000    85491257.38748
  22098963.160   116130869.70306  22098961.280    90491602.32547
  24117107.880   126736254.87604  24117106.160    98755521.38644
  21917310.640   115176255.99007  21917307.980    89747728.45848
  22904649.720   120364776.48006  22904646.580    93790735.08846
  22006834.360   115646735.91506  22006834.780    90114359.14748
  24117774.480   126739695.56304  24117776.020    98758176.92246
 15 03 01 00 28  0.0000000  0  7G16G18G19G21G22G27G31
  20869028.780   109667515.28607  20869026.240    85455211.56748
  22091666.240   116092524.11107  22091664.380    90461722.65647
  24102262.920   126658244.97204  24102261.260    98694734.53046
  21928109.340   115233003.54707  21928106.740    89791947.31347
  22887919.360   120276858.16305  22887916.260    93722227.38446
  21996123.040   115590447.68006  21996123.400    90070498.21848
  24136421.160   126837683.22704  24136422.780    98834530.62846
 15 03 01 00 28 30.0000000  0  7G16G18G19G21G22G27G31
  20860303.280   109621662.41908  20860300.740    85419482.06048
  22084448.280   116054593.36506  22084446.300    90432166.25547
  24087432.040   126580308.96304  24087430.560    98634005.31345
  21938949.800   115289970.50407  21938947.220    89836337.14348
  22871220.480   120189106.11205  22871217.560    93653849.23246
  21985434.440   115534279.01806  21985434.840    90026730.46248
  24155066.240   126935660.88604  24155067.700    98910876.52646
 15 03 01 00 29  0.0000000  0  7G16G18G19G21G22G27G31
  20851656.220   109576221.59408  20851653.660    85384073.62548
  22077310.340   116017083.28407  22077308.300    90402937.64546
  24072616.240   126502451.14604  24072614.620    98573336.97245
  21949832.600   115347159.88007  21949829.960    89880900.28547
  22854554.660   120101527.13705  22854551.700    93585605.94446
  21974769.380   115478234.27006  21974769.880    89983059.25448
  24173709.540   127033629.85004  24173711.020    98987215.63744
 15 03 01 00 29 30.0000000  0  7G16G18G19G21G22G27G31
  20843088.780   109531199.14607  20843086.180    85348991.19848
  22070253.660   115980000.15906  22070251.580    90374041.71846
  24057816.160   126424676.11904  24057814.460    98512733.16045
  21960758.060   115404573.46007  21960755.380    89925638.13647
  22837923.180   120014128.47705  22837920.020    93517503.15346
  21964128.820   115422318.07806  21964129.420    89939488.22048
  24192351.160   127131591.65404  24192352.780    99063549.23845
 15 03 01 00 30  0.0000000  0  7G16G18G19G21G22G27G31
  20834601.080   109486595.75307  20834598.400    85314235.30748
  22063278.160   115943344.08806  22063276.200    90345478.56247
  24043031.340   126346982.31704  24043029.600    98452192.60644
  21971725.620   115462208.20907  21971722.940    89970548.32148
  22821326.240   119926911.25205  22821323.080    93449541.74746
  21953512.500   115366529.23706  21953513.160    89896016.42448
  24210990.780   127229542.22804  24210992.520    99139874.16045
 15 03 01 00 30 30.0000000  0  7G16G18G19G21G22G27G31
  20826193.120   109442411.58008  20826190.400    85279806.08248
  22056383.880   115907115.10306  22056382.020    90317248.20546
  24028261.740   126269368.52204  24028260.200    98391714.40346
  21982734.640   115520060.84207  21982732.000    90015628.28348
  22804764.000   119839876.51606  22804760.900    93381722.53046
  21942920.160   115310866.51706  21942920.920    89852642.90548
  24229627.420   127327476.96304  24229628.980    99216186.68545
 15 03 01 00 31  0.0000000  0  7G16G18G19G21G22G27G31
  20817865.580   109398649.90707  20817862.820    85245706.07748
  22049571.520   115871316.21206  22049569.780    90289352.97747
  24013507.480   126191835.66804  24013506.000    98331299.27246
  21993784.940   115578130.61006  21993782.360    90060877.43947
  22788237.360   119753028.53705  22788234.200    93314048.83146
  21932352.060   115255331.20206  21932352.900    89809368.65248
  24248260.700   127425394.38104  24248262.400    99292485.80146
 15 03 01 00 31 30.0000000  0  7G16G18G19G21G22G27G31
  20809617.620   109355306.69007  20809614.880    85211932.14748
  22042840.180   115835942.94507  22042838.500    90261789.41747
  23998767.740   126114377.93004  23998766.120    98270942.67745
  22004875.240   115636410.55606  22004872.640    90106290.37847
  22771745.520   119666364.00806  22771742.400    93246518.09546
  21921807.180   115199917.68306  21921808.060    89766189.30748
  24266889.020   127523285.55704  24266890.780    99368764.36845
 15 03 01 00 32  0.0000000  0  7G16G18G19G21G22G27G31
  20801450.980   109312391.08507  20801448.320    85178491.41648
  22036191.480   115801003.69307  22036189.700    90234564.05247
  23984043.740   126037002.42504  23984041.880    98210650.14945
  22016006.380   115694905.41206  22016003.760    90151870.78548
  22755290.500   119579892.51006  22755287.480    93179137.77446
  21911286.880   115144633.32806  21911287.720    89723110.60548
  24285513.060   127621154.85404  24285514.920    99445025.95945
 15 03 01 00 32 30.0000000  0  7G16G18G19G21G22G27G31
  20793366.020   109269904.49407  20793363.380    85145384.98248
  22029625.620   115766499.77107  22029623.720    90207677.89247
  23969335.400   125959708.94104  23969333.240    98150421.53845
  22027177.920   115753612.74306  22027175.400    90197616.75447
  22738872.600   119493616.38006  22738869.700    93111909.67746
  21900791.180   115089477.96006  21900791.920    89680132.40948
  24304132.440   127718999.21404  24304134.400    99521268.08445
 15 03 01 00 33  0.0000000  0  7G16G18G19G21G22G27G31
  20785363.120   109227849.28907  20785360.540    85112614.69648
  22023142.920   115732432.80807  22023140.980    90181132.22547
  23954642.540   125882498.09004  23954640.260    98090257.33045
  22038389.620   115812531.23406  22038387.260    90243527.24248
  22722492.540   119407538.95206  22722489.620    93044836.41547
  21890320.200   115034452.35506  21890320.820    89637255.33048
  24322746.680   127816816.16004  24322748.620    99597488.81145
 15 03 01 00 33 30.0000000  0  7G16G18G19G21G22G27G31
  20777442.400   109186225.89507  20777439.880    85080180.88248
  22016743.440   115698803.12707  22016741.480    90154927.28947
  23939965.040   125805368.29204  23939962.840    98030156.25945
  22049641.040   115871657.99706  22049638.780    90289600.02447
  22706150.620   119321661.42006  22706147.640    92977918.90346
  21879873.680   114979555.19907  21879874.220    89594478.34648
  24341354.960   127914601.51904  24341356.780    99673684.92844
 15 03 01 00 34  0.0000000  0  7G16G18G19G21G22G27G31
  20769603.540   109145032.79907  20769601.120    85048082.37648
  22010426.660   115665608.62407  22010424.780    90129061.45847
  23925302.540   125728316.77304  23925300.280    97970116.16845
  22060931.300   115930988.15906  22060928.960    90335831.31048
  22689846.660   119235983.10406  22689843.480    92911156.62747
  21869450.960   114924783.59606  21869451.500    89551799.19548
  24359956.040   128012349.32704  24359957.940    99749851.83645
 15 03 01 00 34 30.0000000  0  7G16G18G19G21G22G27G31
  20761847.620   109104275.30107  20761845.260    85016323.28548
  22004193.740   115632854.51307  22004191.800    90103538.79747
  23910655.500   125651346.41004  23910653.340    97910139.37645
  22072260.520   115990523.03707  22072258.000    90382222.12147
  22673581.700   119150510.01706  22673578.340    92844554.28247
  21859052.780   114870141.02207  21859053.380    89509220.58948
  24378549.860   128110059.94104  24378551.740    99825989.65545
 15 03 01 00 35  0.0000000  0  7G16G18G19G21G22G27G31
  20754175.680   109063958.94707  20754173.360    84984907.94949
  21998045.560   115600545.82207  21998043.640    90078363.20646
  23896024.560   125574461.25604  23896022.680    97850228.91345
  22083628.920   116050264.32406  22083626.260    90428773.77647
  22657356.840   119065248.43106  22657353.520    92778116.73747
  21848679.920   114815631.49807  21848680.600    89466745.65048
  24397136.780   128207734.47804  24397138.860    99902099.46945
 15 03 01 00 35 30.0000000  0  7G16G18G19G21G22G27G31
  20746587.160   109024080.55107  20746584.760    84953833.87649
  21991981.440   115568678.70607  21991979.500    90053531.70447
  23881409.100   125497656.30304  23881407.220    97790380.95346
  22095035.160   116110205.31406  22095032.620    90475481.03247
  22641171.760   118980195.80506  22641168.500    92711842.01347
  21838331.540   114761250.25007  21838332.160    89424370.65948
  24415715.260   128305365.03404  24415717.720    99978174.98145
 15 03 01 00 36  0.0000000  0  7G16G18G19G21G22G27G31
  20739082.380   108984642.59807  20739079.960    84923103.00548
  21986001.760   115537255.28407  21985999.860    90029045.94047
  23866808.900   125420931.86304  23866807.080    97730595.71846
  22106479.260   116170344.70106  22106476.820    90522342.87447
  22625027.160   118895355.88006  22625024.040    92645733.02746
  21828007.740   114706998.10707  21828008.280    89382096.28948
  24434285.160   128402949.61004  24434287.720   100054214.69246
 15 03 01 00 36 30.0000000  0  7G16G18G19G21G22G27G31
  20731661.440   108945645.25807  20731659.000    84892715.46348
  21980106.400   115506275.21507  21980104.560    90004905.63847
  23852223.920   125344286.54304  23852221.960    97670872.18246
  22117960.640   116230679.21907  22117958.200    90569356.77647
  22608923.320   118810729.59506  22608920.200    92579790.51747
  21817708.160   114652873.74606  21817708.720    89339921.47648
  24452845.600   128500483.67004  24452847.960   100130215.06245
 15 03 01 00 37  0.0000000  0  7G16G18G19G21G22G27G31
  20724326.140   108907097.88807  20724323.720    84862678.55249
  21974297.160   115475747.49007  21974295.360    89981117.81047
  23837655.220   125267728.37504  23837653.220    97611216.50846
  22129480.280   116291214.72706  22129477.800    90616527.29348
  22592862.140   118726327.23006  22592859.020    92514022.49446
  21807434.400   114598885.12707  21807434.940    89297852.44548
  24471397.400   128597972.09004  24471399.520   100206179.88044
 15 03 01 00 37 30.0000000  0  7G16G18G19G21G22G27G31
  20717075.280   108868994.46207  20717072.880    84832987.57048
  21968572.840   115445665.83007  21968571.060    89957677.57047
  23823101.680   125191249.37604  23823099.640    97551622.58145
  22141036.340   116351941.85106  22141033.760    90663847.12447
  22576842.500   118642143.40906  22576839.320    92448424.76446
  21797185.080   114545024.66907  21797185.580    89255883.27348
  24489938.440   128695404.51804  24489940.380   100282101.08044
 15 03 01 00 38  0.0000000  0  7G16G18G19G21G22G27G31
  20709910.280   108831342.06407  20709907.880    84803648.04848
  21962934.640   115416036.83407  21962932.820    89934590.05947
  23808564.300   125114855.08904  23808561.960    97492094.60245
  22152629.440   116412864.03906  22152626.840    90711318.95547
  22560865.880   118558186.31406  22560862.760    92383003.70547
  21786961.280   114491298.16907  21786961.720    89214018.48248
  24508468.780   128792783.34204  24508471.180   100357980.45045
 15 03 01 00 38 30.0000000  0  7G16G18G19G21G22G27G31
  20702831.020   108794140.12607  20702828.520    84774659.52548
  21957382.240   115386858.99307  21957380.420    89911854.08547
  23794042.320   125038542.84304  23794040.120    97432630.59745
  22164258.880   116473977.08306  22164256.200    90758939.50047
  22544932.460   118474455.90506  22544929.260    92317759.27747
  21776762.460   114437703.12607  21776762.880    89172256.13448
  24526988.040   128890103.29004  24526990.860   100433813.99246
 15 03 01 00 39  0.0000000  0  6G16G18G19G21G22G27
  20695837.420   108757388.48107  20695834.840    84746021.88149
  21951915.580   115358132.04207  21951913.900    89889469.46447
  23779535.740   124962311.05204  23779533.580    97373229.24645
  22175923.980   116535277.05006  22175921.220    90806705.70047
  22529042.380   118390953.20206  22529039.120    92252692.29247
  21766588.420   114384238.16907  21766588.820    89130595.14148
 15 03 01 00 39 30.0000000  0  6G16G18G19G21G22G27
  20688929.680   108721088.15207  20688927.100    84717735.91248
  21946534.820   115329856.21007  21946533.240    89867436.35647
  23765044.380   124886159.23804  23765042.400    97313890.24546
  22187624.180   116596761.67006  22187621.420    90854615.78347
  22513195.920   118307679.92706  22513192.720    92187804.08847
  21756439.060   114330902.92007  21756439.440    89089035.22348
 15 03 01 00 40  0.0000000  0  6G16G18G19G21G22G27
  20682108.460   108685242.58207  20682105.920    84689804.30049
  21941240.540   115302034.51807  21941238.940    89845757.13447
  23750568.820   124810088.98604  23750566.720    97254614.77646
  22199359.420   116658430.86106  22199356.780    90902669.67847
  22497394.040   118224640.79406  22497390.840    92123098.31446
  21746314.780   114277699.37807  21746315.080    89047577.93548
 15 03 01 00 40 30.0000000  0  7G16G18G19G21G22G27G31
  20675377.000   108649868.64507  20675374.480    84662240.20149
  21936035.780   115274683.14907  21936034.040    89824444.39147
  23736111.620   124734115.32304  23736109.540    97195414.57245
  22211132.220   116720297.66606  22211129.680    90950877.57247
  22481640.040   118141852.97606  22481636.840    92058588.38547
  21736218.400   114224642.68207  21736218.700    89006235.07048
  24600943.320   129278830.70804  24600946.360   100736763.25044
 15 03 01 00 41  0.0000000  0  7G16G18G19G21G22G27G31
  20668731.620   108614947.00007  20668729.100    84635028.52849
  21930916.860   115247782.83507  21930915.080    89803483.11647
  23721668.620   124658217.09504  23721666.760    97136273.16745
  22222938.300   116782339.26906  22222935.800    90999221.65647
  22465930.440   118059298.27906  22465927.220    91994260.09647
  21726146.060   114171712.39107  21726146.360    88964990.70848
  24619399.200   129375817.84004  24619402.380   100812337.43647
 15 03 01 00 41 30.0000000  0  7G16G18G19G21G22G27G31
  20662173.700   108580484.98507  20662171.180    84608175.00949
  21925885.000   115221339.96907  21925883.160    89782878.29847
  23707241.140   124582400.45704  23707239.280    97077195.32546
  22234778.540   116844560.00306  22234775.960    91047705.34247
  22450266.760   117976984.83806  22450263.480    91930119.80847
  21716098.980   114118914.42407  21716099.200    88923849.44548
  24637840.820   129472726.46104  24637843.680   100887857.00045
 15 03 01 00 42  0.0000000  0  7G16G18G19G21G22G27G31
  20655704.520   108546489.09607  20655702.000    84581684.70749
  21920941.320   115195360.61907  21920939.440    89762634.65847
  23692829.980   124506670.23304  23692828.220    97018184.82046
  22246653.480   116906962.99006  22246650.800    91096331.04047
  22434650.340   117894920.50906  22434647.120    91866173.63547
  21706078.040   114066253.96607  21706078.200    88882815.34648
  24656268.240   129569563.24404  24656271.700   100963314.06845
 15 03 01 00 42 30.0000000  0  7G16G18G19G21G22G27G31
  20649323.500   108512956.47607  20649320.960    84555555.39249
  21916085.200   115169841.43407  21916083.320    89742749.59947
  23678434.460   124431022.36604  23678432.820    96959238.49845
  22258561.780   116969541.72306  22258559.140    91145093.67147
  22419080.860   117813103.38506  22419077.740    91802420.07747
  21696082.360   114013726.77507  21696082.520    88841885.08648
  24674680.480   129666318.93604  24674683.640   101038707.90945
 15 03 01 00 43  0.0000000  0  7G16G18G19G21G22G27G31
  20643030.900   108479888.38507  20643028.360    84529788.04649
  21911316.800   115144783.12307  21911314.900    89723223.65547
  23664054.620   124355456.10104  23664052.980    96900355.74945
  22270503.140   117032294.24006  22270500.600    91193991.70847
  22403558.700   117731534.85906  22403555.640    91738860.24247
  21686112.060   113961332.95807  21686112.260    88801058.75148
  24693076.900   129762990.09304  24693079.940   101114036.02844
 15 03 01 00 43 30.0000000  0  6G16G18G19G21G22G27
  20636825.240   108447277.39207  20636822.760    84504376.88749
  21906634.460   115120177.18107  21906632.500    89704050.21347
  23649688.780   124279962.12504  23649686.720    96841529.33245
  22282475.440   117095209.27506  22282472.960    91243016.40447
  22388082.900   117650209.33606  22388079.800    91675489.76047
  21676165.460   113909063.30307  21676165.720    88760329.16548
 15 03 01 00 44  0.0000000  0  6G16G18G19G21G22G27
  20630712.460   108415154.44307  20630710.000    84479346.01849
  21902044.200   115096054.78707  21902042.120    89685253.55447
  23635342.280   124204570.63804  23635339.860    96782782.78045
  22294484.120   117158314.86506  22294481.500    91292189.58547
  22372659.480   117569158.62206  22372656.300    91612333.40647
  21666248.220   113856947.82107  21666248.500    88719719.71948
 15 03 01 00 44 30.0000000  0  6G16G18G19G21G22G27
  20624688.680   108383499.49707  20624686.240    84454679.83249
  21897541.880   115072395.16707  21897539.880    89666817.50347
  23621011.040   124129260.03304  23621008.680    96724099.22746
  22306524.560   117221587.18706  22306521.840    91341492.69347
  22357284.640   117488363.50306  22357281.480    91549376.22447
  21656356.200   113804965.37307  21656356.600    88679213.93148
 15 03 01 00 45  0.0000000  0  6G16G18G19G21G22G27
  20618755.160   108352318.91507  20618752.720    84430383.27049
  21893128.580   115049203.78607  21893126.700    89648746.31247
  23606695.960   124054034.19304  23606693.740    96665481.73246
  22318597.280   117285029.50606  22318594.600    91390928.25047
  22341959.740   117407830.71706  22341956.580    91486623.44947
  21646490.440   113753120.65107  21646490.920    88638815.45948
 15 03 01 00 45 30.0000000  0  6G16G18G19G21G22G27
  20612912.520   108321615.59507  20612910.020    84406458.60649
  21888804.760   115026482.84407  21888802.980    89631041.69047
  23592397.240   123978894.80304  23592395.080    96606931.59747
  22330702.180   117348641.55006  22330699.700    91440496.05247
  22326685.680   117327564.68006  22326682.440    91424078.52447
  21636651.300   113701415.29607  21636651.740    88598525.58448
 15 03 01 00 46  0.0000000  0  6G16G18G19G21G22G27
  20607160.480   108291388.22907  20607157.940    84382904.81449
  21884570.300   115004230.66707  21884568.460    89613702.35347
  23578114.440   123903839.37204  23578112.540    96548446.91146
  22342838.360   117412418.15806  22342836.040    91490192.09247
  22311462.340   117247564.96806  22311459.040    91361741.13147
  21626838.220   113649847.00707  21626838.660    88558342.52148
 15 03 01 00 46 30.0000000  0  6G16G18G19G21G22G27
  20601499.220   108261638.04107  20601496.700    84359722.85149
  21880425.300   114982448.12507  21880423.300    89596728.97047
  23563847.600   123828867.52604  23563846.020    96490027.35846
  22355005.680   117476357.82006  22355003.340    91540015.19047
  22296290.060   117167833.87606  22296286.680    91299613.06247
  21617051.140   113598415.83307  21617051.680    88518266.30248
 15 03 01 00 47  0.0000000  0  6G16G18G19G21G22G27
  20595928.880   108232365.84107  20595926.380    84336913.34949
  21876369.660   114961135.74507  21876367.620    89580121.93647
  23549596.900   123753979.41904  23549595.320    96431673.04447
  22367203.680   117540458.44606  22367201.200    91589963.73447
  22281169.220   117088373.84506  22281165.860    91237696.20347
  21607290.180   113547121.94207  21607290.740    88478297.04448
 15 03 01 00 47 30.0000000  0  6G16G18G19G21G22G27
  20590450.220   108203575.29107  20590447.720    84314479.15249
  21872403.960   114940295.96107  21872401.960    89563883.15347
  23535362.500   123679176.13504  23535360.840    96373384.84746
  22379432.060   117604719.08406  22379429.480    91640036.94947
  22266100.560   117009188.41706  22266097.320    91175993.31247
  21597555.660   113495966.80407  21597556.220    88438435.91848
 15 03 01 00 48  0.0000000  0  6G16G18G19G21G22G27
  20585063.960   108175270.29807  20585061.460    84292423.31449
  21868528.920   114919932.15007  21868526.900    89548015.26047
  23521144.760   123604460.42504  23521142.660    96315164.85045
  22391691.140   117669141.07406  22391688.520    91690235.89147
  22251085.260   116930282.94506  22251082.100    91114508.57047
  21587848.200   113444953.64707  21587848.740    88398685.41848
 15 03 01 00 48 30.0000000  0  6G16G18G19G21G22G27
  20579770.100   108147450.85207  20579767.620    84270745.82649
  21864744.340   114900043.50407  21864742.220    89532517.63747
  23506943.340   123529831.17804  23506941.120    96257012.25746
  22403980.460   117733721.46906  22403977.780    91740558.26547
  22236123.540   116851658.29006  22236120.360    91053242.65247
  21578167.520   113394081.24407  21578168.100    88359044.59948
 15 03 01 00 49  0.0000000  0  6G16G18G19G21G22G27
  20574569.260   108120120.44307  20574566.840    84249449.40349
  21861050.780   114880633.57807  21861048.600    89517393.03847
  23492758.540   123455290.39704  23492756.280    96198928.55745
  22416299.960   117798460.40006  22416297.260    91791004.17347
  22221216.160   116773319.43206  22221212.960    90992199.42947
  21568514.160   113343352.22707  21568514.660    88319515.50348
 15 03 01 00 49 30.0000000  0  6G16G18G19G21G22G27
  20569461.080   108093277.00207  20569458.700    84228532.43549
  21857447.640   114861699.27007  21857445.440    89502639.05247
  23478590.020   123380834.60805  23478587.700    96140911.11446
  22428648.520   117863352.53906  22428645.960    91841569.45847
  22206362.900   116695265.17906  22206359.660    90931377.96647
  21558887.480   113292763.21907  21558887.860    88280095.51848
 15 03 01 00 50  0.0000000  0  6G16G18G19G21G22G27
  20564445.860   108066922.00307  20564443.500    84207996.07349
  21853935.140   114843241.10307  21853932.940    89488256.08747
  23464437.800   123306463.91704  23464435.640    96082959.99846
  22441025.960   117928396.45706  22441023.480    91892253.01447
  22191564.180   116617497.92706  22191561.000    90870780.15047
  21549287.520   113242314.71907  21549287.740    88240785.01448
 15 03 01 00 50 30.0000000  0  6G16G18G19G21G22G27
  20559524.520   108041060.25007  20559522.140    84187844.05749
  21850514.120   114825263.87307  21850511.940    89474247.87347
  23450302.460   123232181.94405  23450300.240    96025078.00445
  22453432.500   117993593.38506  22453430.060    91943055.79947
  22176821.220   116540023.58506  22176818.040    90810410.56647
  21539714.920   113192010.55807  21539715.140    88201586.98348
 15 03 01 00 51  0.0000000  0  6G16G18G19G21G22G27
  20554696.980   108015691.71307  20554694.680    84168076.37149
  21847184.400   114807766.59707  21847182.300    89460613.65447
  23436183.620   123157987.19605  23436181.360    95967264.00746
  22465867.640   118058940.52706  22465865.200    91993975.64947
  22162134.220   116462842.92406  22162130.900    90750269.84247
  21530169.560   113141849.55207  21530169.840    88162500.50348
 15 03 01 00 51 30.0000000  0  6G16G18G19G21G22G27
  20549963.760   107990818.49507  20549961.500    84148694.64249
  21843946.380   114790751.05007  21843944.380    89447354.80247
  23422081.500   123083880.64405  23422079.040    95909518.67745
  22478331.180   118124436.77206  22478328.700    92045011.67247
  22147503.800   116385959.47406  22147500.380    90690360.69647
  21520651.720   113091832.91007  21520651.960    88123526.51348
 15 03 01 00 52  0.0000000  0  6G16G18G19G21G22G27
  20545325.060   107966441.85707  20545322.780    84129699.85749
  21840800.100   114774217.27607  21840798.180    89434471.35947
  23407996.120   123009862.17705  23407993.540    95851842.00646
  22490822.600   118190079.30906  22490820.040    92096161.69547
  22132930.280   116309375.51206  22132926.940    90630684.92847
  21511161.360   113041960.83207  21511161.540    88084665.17848
 15 03 01 00 52 30.0000000  0  6G16G18G19G21G22G27
  20540780.660   107942560.76107  20540778.320    84111091.20949
  21837745.240   114758164.05407  21837743.320    89421962.37147
  23393927.160   122935929.28805  23393924.520    95794232.01846
  22503341.380   118255865.79706  22503338.800    92147423.87547
  22118413.820   116233091.45706  22118410.580    90571242.83647
  21501698.060   112992231.43307  21501698.300    88045915.01548
 15 03 01 00 53  0.0000000  0  6G16G18G19G21G22G27
  20536331.420   107919180.01007  20536329.100    84092872.44649
  21834782.560   114742595.05007  21834780.580    89409830.70247
  23379875.160   122862086.16804  23379872.560    95736691.97846
  22515887.740   118321797.20406  22515885.160    92198798.99547
  22103955.540   116157112.67506  22103952.200    90512038.62947
  21492262.660   112942648.42607  21492262.980    88007278.91248
 15 03 01 00 53 30.0000000  0  6G16G18G19G21G22G27
  20531977.220   107896298.66307  20531974.920    84075042.82549
  21831911.760   114727509.23607  21831909.820    89398075.53647
  23365839.820   122788330.05005  23365837.200    95679219.73246
  22528460.920   118387869.60306  22528458.360    92250283.97747
  22089555.400   116081439.48606  22089552.000    90453072.55947
  21482854.760   112893210.05007  21482855.200    87968755.52548
 15 03 01 00 54  0.0000000  0  6G16G18G19G21G22G27
  20527718.720   107873920.19507  20527716.440    84057605.05949
  21829133.440   114712908.94507  21829131.500    89386698.69447
  23351821.440   122714662.89805  23351818.760    95621816.81146
  22541060.940   118454083.28106  22541058.440    92301879.04147
  22075214.300   116006076.40206  22075210.860    90394348.11347
  21473474.900   112843918.71107  21473475.380    87930346.70848
 15 03 01 00 54 30.0000000  0  6G16G18G19G21G22G27
  20523556.320   107852046.44807  20523554.020    84040560.58249
  21826447.880   114698795.90607  21826445.920    89375701.54447
  23337820.200   122641086.12405  23337817.380    95564484.31346
  22553687.640   118520437.31806  22553685.220    92353583.47347
  22060932.840   115931026.66606  22060929.380    90335867.83847
  21464123.360   112794775.76607  21464123.740    87892053.52448
 15 03 01 00 55  0.0000000  0  6G16G18G19G21G22G27
  20519489.760   107830676.33407  20519487.420    84023908.54149
  21823854.700   114685168.25907  21823852.660    89365082.61247
  23323835.820   122567597.58805  23323833.000    95507220.56646
  22566340.340   118586927.58506  22566337.880    92405394.06647
  22046710.900   115856290.32906  22046707.480    90277631.77447
  21454799.640   112745779.21107  21454799.940    87853874.40948
 15 03 01 00 55 30.0000000  0  6G16G18G19G21G22G27
  20515519.440   107809811.97507  20515517.060    84007650.60349
  21821354.020   114672027.07107  21821351.920    89354842.73647
  23309868.360   122494197.91905  23309865.420    95450026.08946
  22579018.820   118653553.14506  22579016.320    92457310.07747
  22032549.140   115781870.19306  22032545.720    90219642.09747
  21445504.060   112696930.14807  21445504.300    87815810.21848
 15 03 01 00 56  0.0000000  0  6G16G18G19G21G22G27
  20511645.900   107789456.69807  20511643.580    83991789.34849
  21818946.360   114659375.14207  21818944.280    89344984.10847
  23295918.060   122420888.96005  23295915.140    95392902.27846
  22591723.100   118720314.25806  22591720.520    92509331.71347
  22018448.540   115707770.97706  22018445.080    90161902.49547
  21436236.940   112648230.98007  21436237.160    87777862.83848
 15 03 01 00 56 30.0000000  0  6G16G18G19G21G22G27
  20507869.460   107769611.55807  20507867.180    83976325.60049
  21816631.900   114647212.88007  21816629.800    89335507.03747
  23281984.980   122347671.25005  23281982.320    95335849.57646
  22604452.860   118787209.68506  22604450.280    92561458.02247
  22004409.440   115633995.11906  22004405.940    90104414.84847
  21426998.420   112599682.18307  21426998.620    87740032.62048
 15 03 01 00 57  0.0000000  0  6G16G18G19G21G22G27
  20504190.020   107750275.67407  20504187.700    83961258.67549
  21814410.320   114635538.60807  21814408.200    89326410.20947
  23268068.940   122274542.53605  23268066.300    95278866.19246
  22617207.380   118854235.28506  22617204.760    92613685.76046
  21990431.880   115560542.74006  21990428.380    90047179.26747
  21417788.180   112551282.16807  21417788.400    87702318.33948
 15 03 01 00 57 30.0000000  0  6G16G18G19G21G22G27
  20500607.860   107731450.91207  20500605.500    83946590.03049
  21812281.840   114624353.61707  21812279.780    89317694.64447
  23254170.120   122201503.62905  23254167.480    95221952.82147
  22629986.500   118921390.00606  22629983.860    92666014.10447
  21976516.460   115487416.79307  21976512.900    89990198.05247
