     2.11           OBSERVATION DATA    G                   RINEX VERSION / TYPE
SPIDER V4,0,0,3554                      2015 03 19 02:18    PGM / RUN BY / DATE 
OBHM                                                        MARKER NAME         
OBHM                                                        MARKER NUMBER       
                                                            OBSERVER / AGENCY   
496638              LEICA GRX1200+GNSS  8.20/4.007          REC # / TYPE / VERS 
10321015            LEIAR25         NONE                    ANT # / TYPE        
  5268006.0133   -44062.8765  3585543.8986                  APPROX POSITION XYZ 
        0.1200        0.0000        0.0000                  ANTENNA: DELTA H/E/N
     1     1                                                WAVELENGTH FACT L1/2
     4    C1    L1    P2    L2                              # / TYPES OF OBSERV 
    30.000                                                  INTERVAL            
  2015    03    01    00    00    0.0000000     GPS         TIME OF FIRST OBS   
  2015    03    01    23    59   30.0000000     GPS         TIME OF LAST OBS    
    16                                                      LEAP SECONDS        
    30                                                      # OF SATELLITES     
   G 1   844   844   844   844                              PRN / # OF OBS      
   G 2   919   919   919   919                              PRN / # OF OBS      
   G 3   842   842   842   842                              PRN / # OF OBS      
   G 4   853   853   853   853                              PRN / # OF OBS      
   G 5   682   682   682   682                              PRN / # OF OBS      
   G 6   644   644   644   644                              PRN / # OF OBS      
   G 7   742   742   742   742                              PRN / # OF OBS      
   G 9   780   780   780   780                              PRN / # OF OBS      
   G10   796   795   795   795                              PRN / # OF OBS      
   G11   809   809   808   808                              PRN / # OF OBS      
   G12   812   812   811   811                              PRN / # OF OBS      
   G13   834   834   834   834                              PRN / # OF OBS      
   G14   919   917   917   917                              PRN / # OF OBS      
   G15   742   742   741   741                              PRN / # OF OBS      
   G16   702   702   702   702                              PRN / # OF OBS      
   G17   925   925   925   925                              PRN / # OF OBS      
   G18   944   944   944   944                              PRN / # OF OBS      
   G19   795   795   795   795                              PRN / # OF OBS      
   G20   812   812   811   811                              PRN / # OF OBS      
   G21   689   678   672   672                              PRN / # OF OBS      
   G22   819   818   817   817                              PRN / # OF OBS      
   G23   723   723   723   723                              PRN / # OF OBS      
   G24   848   824   801   796                              PRN / # OF OBS      
   G25   861   861   861   861                              PRN / # OF OBS      
   G27   844   843   843   843                              PRN / # OF OBS      
   G28   917   917   917   917                              PRN / # OF OBS      
   G29   737   737   737   737                              PRN / # OF OBS      
   G30   687   687   687   687                              PRN / # OF OBS      
   G31   745   745   745   745                              PRN / # OF OBS      
   G32   735   735   735   735                              PRN / # OF OBS      
BIT 2 OF LLI FLAGS DATA COLLECTED UNDER A/S CONDITION       COMMENT             
SNR is mapped to RINEX snr flag value [2-9]                 COMMENT             
Lx:     = 25dBHz -> 1; 26-27dBHz -> 2; 28-31dBHz -> 3       COMMENT             
       32-35dBHz -> 4; 36-38dBHz -> 5; 39-41dBHz -> 6       COMMENT             
       42-44dBHz -> 7; 45-48dBHz -> 8; >=49dBHz -> 9        COMMENT             
                                                            END OF HEADER       
 15 03 01 00 00  0.0000000  0  6G16G18G21G22G27G31
  21443674.240   112687306.93809  21443671.460    87808297.43148
  22728693.120   119440118.17009  22728691.340    93070262.69246
  21570859.700   113355658.84709  21570857.000    88329085.66848
  23765058.680   124886262.76708  23765056.300    97313977.19946
  22429703.000   117868994.84209  22429703.660    91846002.41948
  22847358.040   120063645.17009  22847357.640    93556071.93347
 15 03 01 00 00 30.0000000  0  6G16G18G21G22G27G31
  21431455.620   112623097.91409  21431452.940    87758264.43548
  22718413.220   119386096.88309  22718411.420    93028168.22246
  21579856.380   113402936.77009  21579853.680    88365925.59548
  23748080.660   124797040.92208  23748078.320    97244452.69946
  22418926.240   117812362.42009  22418926.840    91801873.29448
  22865041.540   120156572.41709  22865041.200    93628482.67647
 15 03 01 00 01  0.0000000  0  6G16G18G21G22G27G31
  21419287.400   112559153.70709  21419284.780    87708437.79548
  22708190.980   119332378.42409  22708189.120    92986309.71547
  21588912.860   113450528.82509  21588910.100    88403010.29748
  23731107.540   124707843.74008  23731105.280    97174947.56146
  22408173.980   117755859.11009  22408174.560    91757844.77548
  22882759.280   120249679.85509  22882759.080    93701033.81147
 15 03 01 00 01 30.0000000  0  6G16G18G21G22G27G31
  21407176.660   112495511.74309  21407174.120    87658846.66548
  22698033.620   119279000.90009  22698031.700    92944716.88446
  21598035.640   113498468.85009  21598032.800    88440366.16748
  23714146.500   124618709.49908  23714145.180    97105459.57146
  22397452.920   117699520.14809  22397453.560    91713944.31848
  22900517.660   120343000.34609  22900517.480    93773750.97847
 15 03 01 00 02  0.0000000  0  6G16G18G21G22G27G31
  21395106.200   112432081.29809  21395103.680    87609420.34948
  22687923.840   119225873.50309  22687921.900    92903318.94947
  21607206.720   113546662.59709  21607203.780    88477919.72548
  23697180.260   124529547.71408  23697178.480    97035982.29244
  22386745.440   117643252.54909  22386746.240    91670099.46348
  22918298.360   120436437.91209  22918298.160    93846559.37747
 15 03 01 00 02 30.0000000  0  6G16G18G21G22G27G31
  21383092.560   112368949.40909  21383090.100    87560226.68248
  22677878.300   119173083.43209  22677876.240    92862183.86446
  21616441.920   113595193.37209  21616438.920    88515735.90248
  23680225.500   124440446.52508  23680223.540    96966552.24447
  22376067.720   117587141.32709  22376068.700    91626376.45748
  22936116.980   120530074.66909  22936116.760    93919522.97147
 15 03 01 00 03  0.0000000  0  6G16G18G21G22G27G31
  21371130.040   112306086.16309  21371127.620    87511242.34548
  22667891.260   119120601.20909  22667889.160    92821288.66646
  21625734.720   113644026.95609  21625731.640    88553788.03948
  23663276.580   124351376.02308  23663274.460    96897146.17746
  22365413.620   117531154.15809  22365414.780    91582750.12348
  22953966.800   120623875.58909  22953966.680    93992614.49647
 15 03 01 00 03 30.0000000  0  7G16G18G19G21G22G27G31
  21359220.340   112243500.17509  21359217.920    87462474.04448
  22657964.380   119068435.53309  22657962.300    92780640.11846
  24542188.900   128970076.31708  24542189.120   100496166.69946
  21635085.980   113693167.97209  21635082.880    88592079.72848
  23646335.220   124262345.71708  23646332.980    96827771.58245
  22354784.380   117475297.31409  22354785.660    91539225.32648
  22971848.520   120717844.28309  22971848.500    94065836.74548
 15 03 01 00 04  0.0000000  0  7G16G18G19G21G22G27G31
  21347362.700   112181187.82209  21347360.320    87413918.98548
  22648097.040   119016582.62209  22648094.960    92740235.29346
  24527362.420   128892163.27208  24527362.540   100435455.41645
  21644494.220   113742608.67809  21644491.160    88630604.95548
  23629400.780   124173353.06308  23629398.680    96758426.85346
  22344178.920   117419565.04309  22344180.160    91495797.62148
  22989760.520   120811972.00309  22989760.580    94139182.92847
 15 03 01 00 04 30.0000000  0  7G16G18G19G21G22G27G31
  21335558.860   112119158.41609  21335556.520    87365584.39348
  22638291.140   118965052.49809  22638289.020    92700081.97546
  24512555.500   128814352.81308  24512555.660   100374824.06846
  21653960.480   113792354.63809  21653957.520    88669368.03348
  23612475.260   124084408.52908  23612473.240    96689120.19045
  22333598.440   117363964.28309  22333599.660    91452472.38248
  23007703.540   120906262.86009  23007703.660    94212656.19847
 15 03 01 00 05  0.0000000  0  7G16G18G19G21G22G27G31
  21323809.060   112057412.90809  21323806.720    87317471.02248
  22628546.820   118913846.04809  22628544.600    92660180.88546
  24497767.920   128736643.95308  24497768.040   100314271.88945
  21663484.360   113842403.02109  21663481.420    88708366.77248
  23595558.580   123995513.01208  23595556.680    96619852.23847
  22323042.800   117308494.06709  22323043.960    91409248.86848
  23025676.940   121000713.15009  23025677.100    94286253.74747
 15 03 01 00 05 30.0000000  0  7G16G18G19G21G22G27G31
  21312113.360   111995951.48709  21312110.940    87269579.01848
  22618864.140   118862963.76709  22618862.000    92620532.38846
  24482999.360   128659034.84308  24482999.280   100253797.42046
  21673065.060   113892749.87609  21673062.100    88747598.06848
  23578650.700   123906664.52909  23578648.680    96550619.68746
  22312511.560   117253152.25309  22312512.660    91366125.41148
  23043679.740   121095317.79009  23043679.840    94359971.52847
 15 03 01 00 06  0.0000000  0  7G16G18G19G21G22G27G31
  21300471.540   111934773.32809  21300469.080    87221907.73048
  22609243.040   118812404.89809  22609241.020    92581135.89546
  24468249.200   128581522.46608  24468248.880   100193398.32445
  21682701.620   113943390.15409  21682698.600    88787058.01448
  23561752.060   123817863.95708  23561750.080    96481423.99645
  22302004.160   117197935.85409  22302005.240    91323099.66848
  23061710.800   121190071.04309  23061710.840    94433805.12947
 15 03 01 00 06 30.0000000  0  7G16G18G19G21G22G27G31
  21288885.240   111873886.53309  21288882.660    87174463.47948
  22599685.080   118762177.62309  22599683.200    92541997.79246
  24453518.500   128504112.56108  24453517.840   100133079.06445
  21692394.940   113994328.64709  21692391.900    88826750.33048
  23544864.720   123729121.33308  23544862.760    96412273.66946
  22291521.780   117142850.54609  22291522.800    91280176.08448
  23079770.720   121284975.92509  23079770.760    94507756.89347
 15 03 01 00 07  0.0000000  0  7G16G18G19G21G22G27G31
  21277353.940   111813288.79009  21277351.260    87127244.46548
  22590189.880   118712279.70909  22590188.020    92503116.32846
  24438806.400   128426800.55108  24438805.500   100072836.08646
  21702143.720   114045558.61709  21702140.640    88866669.77748
  23527988.140   123640434.31908  23527986.120    96343166.56246
  22281063.520   117087891.83809  22281064.460    91237351.15648
  23097858.060   121380024.96009  23097858.080    94581820.95147
 15 03 01 00 07 30.0000000  0  7G16G18G19G21G22G27G31
  21265878.500   111752984.59409  21265875.720    87080254.18948
  22580758.140   118662715.17609  22580756.300    92464494.64546
  24424113.420   128349589.21608  24424112.440   100012671.53846
  21711948.080   114097080.44809  21711944.900    88906816.65048
  23511123.280   123551807.99409  23511121.280    96274106.61247
  22270629.780   117033061.91909  22270630.680    91194626.57748
  23115972.680   121475217.57609  23115972.740    94655996.88047
 15 03 01 00 08  0.0000000  0  7G16G18G19G21G22G27G31
  21254458.960   111692974.12809  21254456.060    87033492.79748
  22571390.040   118613485.16509  22571388.220    92426133.64546
  24409439.220   128272476.71708  24409438.300    99952584.00446
  21721807.180   114148890.18909  21721803.980    88947187.86948
  23494270.340   123463243.62808  23494268.300    96205095.03946
  22260220.220   116978359.04709  22260221.060    91152000.99948
  23134113.720   121570548.95109  23134113.860    94730280.92747
 15 03 01 00 08 30.0000000  0  7G16G18G19G21G22G27G31
  21243096.640   111633264.60909  21243093.660    86986965.90048
  22562086.960   118564596.91909  22562085.160    92388038.92847
  24394784.760   128195468.10108  24394783.960    99892577.41346
  21731721.840   114200991.89809  21731718.620    88987786.57448
  23477430.760   123374749.20608  23477428.760    96136138.26346
  22249835.740   116923788.06009  22249836.540    91109478.17048
  23152281.620   121666021.48909  23152281.820    94804674.95547
 15 03 01 00 09  0.0000000  0  7G16G18G19G21G22G27G31
  21231790.060   111573848.33309  21231787.080    86940667.51048
  22552847.400   118516042.55109  22552845.540    92350204.38646
  24380148.260   128118553.51808  24380147.480    99832644.09446
  21741689.780   114253373.63409  21741686.560    89028603.50848
  23460603.240   123286318.82208  23460601.320    96067232.17747
  22239474.440   116869339.04609  22239475.200    91067050.39548
  23170473.980   121761622.34309  23170474.200    94879169.00047
 15 03 01 00 09 30.0000000  0  7G16G18G19G21G22G27G31
  21220541.580   111514737.24209  21220538.580    86894606.92148
  22543673.560   118467833.79609  22543671.780    92312639.15447
  24365531.440   128041741.82308  24365530.620    99772790.93246
  21751712.400   114306042.91809  21751709.220    89069644.50048
  23443789.620   123197963.14408  23443787.660    95998384.34447
  22229138.180   116815021.50709  22229138.860    91024725.06548
  23188692.020   121857358.31109  23188692.260    94953768.37247
 15 03 01 00 10  0.0000000  0  7G16G18G19G21G22G27G31
  21209350.620   111455928.77109  21209347.680    86848782.15448
  22534565.040   118419968.29509  22534563.360    92275341.40447
  24350933.540   127965029.12308  24350932.640    99713014.92346
  21761788.440   114358993.17909  21761785.300    89110904.44148
  23426989.620   123109679.97009  23426987.620    95929592.66747
  22218826.100   116760830.86309  22218826.640    90982498.62048
  23206934.280   121953221.75109  23206934.600    95028467.03747
 15 03 01 00 10 30.0000000  0  7G16G18G19G21G22G27G31
  21198218.140   111397427.73209  21198215.300    86803196.92748
  22525522.680   118372450.43509  22525521.040    92238314.52347
  24336354.840   127888417.97808  24336353.880    99653318.02247
  21771918.080   114412225.11409  21771914.960    89152383.84948
  23410204.360   123021474.83509  23410202.440    95860861.58247
  22208538.640   116706769.69409  22208539.040    90940373.05648
  23225200.760   122049212.62209  23225201.180    95103265.03147
 15 03 01 00 11  0.0000000  0  7G16G18G19G21G22G27G31
  21187143.840   111339232.48409  21187141.120    86757849.97848
  22516546.340   118325279.42909  22516544.720    92201557.92147
  24321794.740   127811904.72808  24321793.820    99593697.41946
  21782100.320   114465733.44909  21782097.280    89194078.64348
  23393433.880   122933347.63309  23393432.200    95792191.47347
  22198275.040   116652834.26709  22198275.460    90898345.47548
  23243490.160   122145324.00509  23243490.760    95178156.92747
 15 03 01 00 11 30.0000000  0  7G16G18G19G21G22G27G31
  21176128.980   111281349.53509  21176126.400    86712746.39248
  22507637.180   118278461.33609  22507635.580    92165076.32947
  24307253.940   127735493.28307  24307253.200    99534156.14847
  21792335.660   114519520.53909  21792332.660    89235990.64948
  23376679.520   122845304.93708  23376677.900    95723587.29147
  22188036.060   116599028.47109  22188036.560    90856418.91048
  23261802.740   122241557.17508  23261803.360    95253143.74447
 15 03 01 00 12  0.0000000  0  7G16G18G19G21G22G27G31
  21165173.120   111223776.55909  21165170.620    86667884.33548
  22498794.900   118231994.36209  22498793.280    92128868.32447
  24292731.760   127659179.77608  24292731.180    99474691.19146
  21802623.000   114573580.80509  21802620.020    89278115.51148
  23359940.940   122757345.08408  23359939.240    95655047.63347
  22177820.940   116545348.40709  22177821.560    90814590.31548
  23280137.260   122337905.63609  23280137.900    95328220.40547
 15 03 01 00 12 30.0000000  0  7G16G18G19G21G22G27G31
  21154276.520   111166514.94509  21154274.100    86623264.89748
  22490019.700   118185879.73109  22490017.960    92092934.87047
  24278228.240   127582963.45108  24278227.700    99415301.94647
  21812961.680   114627910.82209  21812958.720    89320450.56648
  23343218.560   122669470.07109  23343216.720    95586574.03547
  22167629.480   116491792.96409  22167630.240    90772858.82648
  23298492.920   122434365.13909  23298493.620    95403383.57047
 15 03 01 00 13  0.0000000  0  7G16G18G19G21G22G27G31
  21143440.380   111109570.97009  21143438.020    86578892.97348
  22481312.620   118140123.23609  22481310.780    92057280.48947
  24263744.000   127506848.14808  24263743.340    99355991.42146
  21823352.160   114682513.26509  21823349.240    89362997.90448
  23326513.700   122581687.13408  23326511.760    95518172.19247
  22157462.560   116438366.40109  22157463.440    90731227.76648
  23316869.940   122530936.93909  23316870.740    95478634.22947
 15 03 01 00 13 30.0000000  0  7G16G18G19G21G22G27G31
  21132665.160   111052947.27709  21132662.900    86534770.62948
  22472674.200   118094727.62809  22472672.260    92021907.32347
  24249279.080   127430834.38308  24249278.320    99296760.03947
  21833794.240   114737386.83708  21833791.340    89405756.53048
  23309826.860   122493998.95808  23309824.820    95449844.12047
  22147320.240   116385068.94809  22147321.200    90689697.32448
  23335267.960   122627618.83408  23335268.800    95553970.65447
 15 03 01 00 14  0.0000000  0  7G16G18G19G21G22G27G31
  21121950.960   110996643.85809  21121948.740    86490897.84348
  22464104.380   118049692.59409  22464102.380    91986815.12147
  24234832.960   127354919.81008  24234832.160    99237605.92046
  21844286.920   114792526.36308  21844284.020    89448722.38048
  23293158.100   122406405.82808  23293156.040    95381589.81147
  22137202.240   116331898.41009  22137203.160    90648265.75948
  23353685.880   122724405.31308  23353686.780    95629388.52447
 15 03 01 00 14 30.0000000  0  7G16G18G19G21G22G27G31
  21111298.640   110940665.54609  21111296.440    86447278.38648
  22455604.140   118005023.43209  22455602.060    91952008.00647
  24220406.200   127279107.23408  24220405.340    99178531.28246
  21854830.580   114847933.74708  21854827.660    89491896.94648
  23276508.580   122318913.69408  23276506.560    95313414.14747
  22127109.000   116278857.44209  22127109.760    90606935.15548
  23372123.800   122821296.46708  23372124.680    95704888.01347
 15 03 01 00 15  0.0000000  0  7G16G18G19G21G22G27G31
  21100707.960   110885010.84209  21100705.740    86403911.09648
  22447173.140   117960718.27809  22447171.060    91917484.53447
  24205998.240   127203393.49508  24205997.320    99119533.66146
  21865424.140   114903603.55409  21865421.200    89535276.00448
  23259878.260   122231521.91008  23259876.360    95245316.67547
  22117039.800   116225942.64609  22117040.380    90565702.86748
  23390580.400   122918286.02608  23390581.280    95780464.16947
 15 03 01 00 15 30.0000000  0  7G16G18G19G21G22G27G31
  21090179.200   110829681.42809  21090176.980    86360797.28748
  22438811.700   117916779.00509  22438809.640    91883246.17747
  24191608.900   127127777.63008  24191607.900    99060612.31346
  21876067.200   114959533.17209  21876064.260    89578857.51548
  23243267.560   122144232.66508  23243265.680    95177299.12147
  22106994.380   116173153.28909  22106994.940    90524568.34048
  23409055.020   123015370.41008  23409055.980    95856114.18247
 15 03 01 00 16  0.0000000  0  7G16G18G19G21G22G27G31
  21079713.240   110774681.99809  21079710.960    86317940.59748
  22430520.720   117873209.94809  22430518.680    91849296.28647
  24177238.780   127052262.48208  24177237.740    99001769.43946
  21886760.000   115015723.97909  21886757.020    89622642.54548
  23226677.400   122057050.95708  23226675.520    95109365.07646
  22096973.300   116120491.98009  22096973.800    90483533.58248
  23427547.640   123112549.49308  23427548.700    95931837.97747
 15 03 01 00 16 30.0000000  0  7G16G18G19G21G22G27G31
  21069310.320   110720013.78009  21069307.960    86275342.00048
  22422300.320   117830012.05909  22422298.340    91815635.62247
  24162887.620   126976846.88408  24162886.480    98943004.14046
  21897501.640   115072171.34709  21897498.600    89666627.48648
  23210108.200   121969978.23008  23210106.260    95041515.63546
  22086976.300   116067957.65609  22086976.820    90442597.77248
  23446057.500   123209819.21608  23446058.580    96007632.44447
 15 03 01 00 17  0.0000000  0  7G16G18G19G21G22G27G31
  21058971.220   110665681.27209  21058968.800    86233004.99348
  22414151.420   117787190.07009  22414149.520    91782267.86347
  24148555.720   126901532.94808  24148554.620    98884318.05546
  21908292.520   115128877.30209  21908289.400    89710813.92248
  23193561.100   121883020.74908  23193559.120    94973756.20946
  22077003.880   116015552.72909  22077004.480    90401762.79048
  23464584.600   123307179.15908  23464585.680    96083497.24847
 15 03 01 00 17 30.0000000  0  7G16G18G19G21G22G27G31
  21048695.540   110611682.37209  21048693.140    86190927.94648
  22406073.560   117744741.65609  22406071.780    91749191.20847
  24134242.440   126826316.75608  24134241.360    98825708.15146
  21919131.480   115185835.99309  21919128.360    89755197.30248
  23177035.760   121796177.74609  23177033.720    94906086.41248
  22067055.320   115963273.08509  22067055.920    90361025.44048
  23483127.520   123404622.31208  23483128.520    96159426.87547
 15 03 01 00 18  0.0000000  0  7G16G18G19G21G22G27G31
  21038484.140   110558021.48409  21038481.800    86149114.27948
  22398067.660   117702670.93309  22398065.900    91716408.84747
  24119948.180   126751200.60408  24119947.080    98767176.19346
  21930018.460   115243047.24608  21930015.380    89799777.47848
  23160532.760   121709452.96509  23160530.580    94838508.48348
  22057131.100   115911120.99109  22057131.660    90320387.46548
  23501686.180   123502147.96608  23501687.040    96235420.78347
 15 03 01 00 18 30.0000000  0  7G16G18G19G21G22G27G31
  21028337.100   110504698.78409  21028334.800    86107564.14048
  22390133.740   117660978.30109  22390131.960    91683921.11947
  24105672.660   126676182.72108  24105671.500    98708720.81345
  21940952.780   115300507.60408  21940949.800    89844551.77148
  23144052.360   121622847.32108  23144050.280    94771023.11147
  22047230.760   115859094.49009  22047231.340    90279847.37148
  23520259.660   123599751.48708  23520260.460    96311475.37147
 15 03 01 00 19  0.0000000  0  7G16G18G19G21G22G27G31
  21018255.300   110451718.81109  21018253.000    86066281.05748
  22382272.540   117619667.82409  22382270.780    91651731.16347
  24091416.240   126601265.14008  24091414.980    98650343.58446
  21951934.520   115358217.29508  21951931.640    89889520.34948
  23127595.740   121536366.76108  23127593.800    94703635.62944
  22037354.740   115807195.80909  22037355.360    90239406.87448
  23538847.840   123697432.21008  23538848.620    96387590.12947
 15 03 01 00 19 30.0000000  0  7G16G18G19G21G22G27G31
  21008238.740   110399081.61709  21008236.460    86025265.07148
  22374484.000   117578739.21409  22374482.260    91619838.75647
  24077178.620   126526445.93708  24077177.360    98592043.00846
  21962962.860   115416172.17208  21962960.120    89934679.96748
  23111162.940   121450011.41509  23111161.020    94636345.62447
  22027502.620   115755422.92409  22027503.340    90199064.39048
  23557449.800   123795185.36008  23557450.500    96463761.29547
 15 03 01 00 20  0.0000000  0  7G16G18G19G21G22G27G31
  20998288.660   110346793.62509  20998286.360    85984521.19448
  22366769.360   117538198.88509  22366767.700    91588248.91847
  24062960.440   126451729.04708  24062959.020    98533822.15146
  21974038.400   115474375.06108  21974035.780    89980032.86348
  23094755.360   121363788.45908  23094753.400    94569158.81546
  22017675.280   115703780.10109  22017676.000    90158823.26448
  23576065.780   123893012.18608  23576066.400    96539989.89847
 15 03 01 00 20 30.0000000  0  7G16G18G19G21G22G27G31
  20988404.400   110294851.60409  20988402.060    85944046.90648
  22359127.900   117498043.26509  22359126.300    91556958.85347
  24048760.860   126377109.56908  24048759.380    98475677.19946
  21985159.660   115532818.37608  21985157.140    90025573.10048
  23078372.580   121277695.71708  23078370.580    94502073.61147
  22007871.740   115652262.10609  22007872.380    90118679.40148
  23594694.220   123990904.56408  23594694.760    96616269.55246
 15 03 01 00 21  0.0000000  0  7G16G18G19G21G22G27G31
  20978587.100   110243261.35809  20978584.720    85903846.72448
  22351560.900   117458278.43009  22351559.260    91525973.28847
  24034580.460   126302591.36308  24034579.040    98417611.16846
  21996327.220   115591504.67308  21996324.720    90071302.66048
  23062015.820   121191739.98509  23062013.700    94435095.38447
  21998092.700   115600872.77709  21998093.240    90078635.79548
  23613335.260   124088863.47708  23613335.840    96692600.99746
 15 03 01 00 21 30.0000000  0  7G16G18G19G21G22G27G31
  20968836.320   110192020.64209  20968833.940    85863918.89848
  22344067.800   117418901.72909  22344066.080    91495290.16147
  24020418.460   126228169.71108  24020417.100    98359620.35046
  22007539.740   115650426.78408  22007537.160    90117215.98747
  23045684.720   121105919.25408  23045682.440    94368222.39547
  21988337.360   115549607.65209  21988337.740    90038688.96748
  23631987.580   124186881.81008  23631988.300    96768978.75446
 15 03 01 00 22  0.0000000  0  7G16G18G19G21G22G27G31
  20959152.920   110141134.23109  20959150.600    85824267.15548
  22336649.320   117379917.25909  22336647.480    91464912.67447
  24006275.400   126153847.35308  24006274.080    98301706.91646
  22018797.520   115709586.58408  22018794.800    90163314.52048
  23029380.180   121020238.79409  23029377.860    94301458.69847
  21978606.140   115498469.42809  21978606.420    89998841.02048
  23650651.140   124284959.05108  23650651.940    96845402.39746
 15 03 01 00 22 30.0000000  0  7G16G18G19G21G22G27G31
  20949537.960   110090607.39109  20949535.680    85784895.59148
  22329306.540   117341330.40909  22329304.520    91434845.00747
  23992151.740   126079627.04008  23992150.260    98243872.97846
  22030100.700   115768984.76708  22030097.860    90209598.79848
  23013103.340   120934703.94509  23013100.960    94234808.20448
  21968899.660   115447461.23209  21968899.880    89959094.39648
  23669326.020   124383095.68508  23669326.920    96921872.34546
 15 03 01 00 23  0.0000000  0  7G16G18G19G21G22G27G31
  20939990.720   110040436.30109  20939988.400    85745801.23648
  22322038.640   117303137.31509  22322036.540    91405084.17547
  23978046.440   126005503.10908  23978044.780    98186114.13246
  22041447.860   115828613.81809  22041444.820    90256062.97548
  22996853.680   120849311.96809  22996851.260    94168268.92747
  21959216.680   115396577.11709  21959217.000    89919444.47048
  23688010.540   124481283.03008  23688011.500    96998381.80746
 15 03 01 00 23 30.0000000  0  7G16G18G19G21G22G27G31
  20930512.200   109990626.47609  20930509.860    85706988.38948
  22314846.660   117265343.26609  22314844.480    91375634.28947
  23963960.120   125931479.17708  23963958.200    98128433.21746
  22052839.180   115888474.87009  22052835.960    90302707.93448
  22980632.520   120764069.94509  22980630.220    94101846.68748
  21949557.960   115345820.77409  21949558.460    89879894.10548
  23706704.820   124579521.75908  23706705.800    97074931.30846
 15 03 01 00 24  0.0000000  0  7G16G18G19G21G22G27G31
  20921102.720   109941179.49609  20921100.440    85668458.28148
  22307730.820   117227949.18509  22307728.580    91346496.06947
  23949892.680   125857554.66208  23949890.560    98070829.76646
  22064274.240   115948565.70709  22064270.820    90349531.94947
  22964440.260   120678979.71508  22964437.980    94035542.77147
  21939923.440   115295191.59709  21939924.060    89840442.83348
  23725408.220   124677808.29008  23725409.320    97151518.06446
 15 03 01 00 24 30.0000000  0  7G16G18G19G21G22G27G31
  20911762.920   109892098.62309  20911760.660    85630213.44548
  22300691.660   117190958.27809  22300689.420    91317672.00447
  23935844.300   125783730.77508  23935842.240    98013304.73846
  22075752.940   116008886.30909  22075749.480    90396535.00147
  22948277.520   120594044.77609  22948275.260    93969359.79747
  21930313.340   115244690.80609  21930314.060    89801091.60048
  23744120.340   124776140.94008  23744121.660    97228140.72046
 15 03 01 00 25  0.0000000  0  7G16G18G19G21G22G27G31
  20902493.340   109843386.55209  20902491.100    85592255.98148
  22293729.580   117154372.74509  22293727.380    91289163.81547
  23921815.120   125710007.80608  23921813.100    97955858.31846
  22087274.860   116069434.41308  22087271.460    90443715.31747
  22932145.060   120509268.82809  22932142.840    93903300.70347
  21920727.860   115194319.08709  21920728.560    89761840.93048
  23762840.920   124874517.53908  23762842.280    97304797.59546
 15 03 01 00 25 30.0000000  0  7G16G18G19G21G22G27G31
  20893293.800   109795042.45609  20893291.540    85554585.25748
  22286844.460   117118191.56309  22286842.280    91260970.71047
  23907804.620   125636382.66508  23907802.620    97898488.16046
  22098839.260   116130205.66909  22098836.000    90491069.53447
  22916042.880   120424652.11009  22916040.740    93837365.98347
  21911166.400   115144073.43509  21911167.060    89722688.50648
  23781568.760   124972932.29108  23781570.220    97381484.23746
 15 03 01 00 26  0.0000000  0  7G16G18G19G21G22G27G31
  20884164.580   109747067.75009  20884162.260    85517202.36148
  22280036.520   117082415.87809  22280034.340    91233093.57247
  23893812.860   125562855.64108  23893810.820    97841194.43646
  22110445.640   116191197.99908  22110442.640    90538596.00748
  22899971.360   120340196.77709  22899969.180    93771556.94247
  21901628.920   115093953.52909  21901629.480    89683634.05448
  23800303.320   125071382.21208  23800304.840    97458198.27447
 15 03 01 00 26 30.0000000  0  7G16G18G19G21G22G27G31
  20875107.040   109699469.75709  20875104.680    85480113.01148
  22273307.080   117047052.45809  22273304.800    91205537.67747
  23879840.640   125489431.20608  23879838.520    97783980.65646
  22122094.700   116252414.53009  22122091.840    90586297.18348
  22883931.940   120255909.97609  22883929.580    93705878.99347
  21892116.360   115043964.31409  21892116.820    89644681.43548
  23819044.900   125169869.02308  23819046.420    97534941.08446
 15 03 01 00 27  0.0000000  0  7G16G18G19G21G22G27G31
  20866120.860   109652246.64909  20866118.400    85443315.78148
  22266655.680   117012099.02909  22266653.340    91178301.25847
  23865887.120   125416105.53608  23865885.180    97726843.83646
  22133785.140   116313848.58708  22133782.440    90634167.85748
  22867924.580   120171791.43809  22867922.180    93640332.29747
  21882628.000   114994102.23009  21882628.400    89605827.88548
  23837792.340   125268386.73108  23837793.860    97611707.95146
 15 03 01 00 27 30.0000000  0  7G16G18G19G21G22G27G31
  20857206.360   109605400.28409  20857203.800    85406812.12548
  22260082.740   116977557.97509  22260080.440    91151386.18847
  23851952.380   125342878.68508  23851950.540    97669784.02146
  22145516.860   116375499.53408  22145514.320    90682207.55047
  22851949.800   120087843.95209  22851947.340    93574919.09647
  21873163.780   114944367.20009  21873164.100    89567073.34748
  23856545.000   125366931.92008  23856546.620    97688496.24046
 15 03 01 00 28  0.0000000  0  7G16G18G19G21G22G27G31
  20848363.980   109558933.28909  20848361.400    85370604.08048
  22253588.560   116943431.13609  22253586.280    91124793.86747
  23838036.560   125269750.79308  23838034.680    97612801.31746
  22157289.580   116437365.59708  22157287.080    90730414.85447
  22836008.060   120004070.16509  22836005.460    93509641.19547
  21863723.780   114894759.62309  21863724.060    89528418.11948
  23875302.400   125465502.39408  23875304.120    97765304.28746
 15 03 01 00 28 30.0000000  0  7G16G18G19G21G22G27G31
  20839594.060   109512846.98809  20839591.440    85334692.68048
  22247173.300   116909719.03809  22247171.040    91098524.73247
  23824139.500   125196721.25808  23824137.500    97555895.24746
  22169102.740   116499444.02209  22169100.180    90778787.63447
  22820099.720   119920471.79509  22820096.980    93444499.66147
  21854307.960   114845278.97409  21854308.160    89489861.79448
  23894063.980   125564094.71508  23894065.640    97842129.36246
 15 03 01 00 29  0.0000000  0  7G16G18G19G21G22G27G31
  20830897.080   109467143.91909  20830894.360    85299079.90348
  22240837.380   116876423.93709  22240835.160    91072580.51847
  23810261.260   125123790.71708  23810259.160    97499066.31946
  22180956.260   116561734.19109  22180953.620    90827325.42448
  22804225.500   119837052.61509  22804222.740    93379497.72747
  21844916.340   114795925.85409  21844916.480    89451404.84648
  23912829.320   125662706.68808  23912830.940    97918969.80746
 15 03 01 00 29 30.0000000  0  7G16G18G19G21G22G27G31
  20822273.560   109421827.19409  20822270.760    85263768.17348
  22234581.400   116843548.83409  22234579.160    91046963.58047
  23796402.060   125050960.37408  23796399.940    97442315.46446
  22192849.780   116624234.51909  22192846.980    90876026.95847
  22788386.160   119753816.68209  22788383.400    93314638.50547
  21835549.160   114746701.44309  21835549.340    89413048.19248
  23931598.060   125761336.46008  23931599.580    97995824.09346
 15 03 01 00 30  0.0000000  0  7G16G18G19G21G22G27G31
  20813723.860   109376898.29809  20813721.020    85228758.64548
  22228405.560   116811094.58109  22228403.300    91021674.57447
  23782561.720   124978229.31708  23782559.560    97385641.96846
  22204782.860   116686942.70009  22204779.900    90924890.45948
  22772582.000   119670765.70209  22772579.380    93249923.33948
  21826206.280   114697605.13909  21826206.560    89374791.35748
  23950369.540   125859980.57008  23950370.980    98072689.52946
 15 03 01 00 30 30.0000000  0  7G16G18G19G21G22G27G31
  20805248.140   109332357.87909  20805245.220    85194051.82648
  22222309.900   116779061.64309  22222307.620    90996713.86947
  23768740.060   124905596.69208  23768737.920    97329045.18546
  22216754.920   116749855.80309  22216751.800    90973913.65047
  22756813.480   119587902.04609  22756811.020    93185354.37147
  21816887.600   114648635.92809  21816887.980    89336633.56748
  23969143.000   125958634.90108  23969144.300    98149562.81346
 15 03 01 00 31  0.0000000  0  7G16G18G19G21G22G27G31
  20796846.960   109288209.24109  20796843.980    85159650.29448
  22216295.020   116747453.00709  22216292.640    90972083.78247
  23754937.280   124833063.23908  23754935.280    97272525.67947
  22228765.720   116812972.97808  22228762.580    91023095.84147
  22741081.180   119505228.83709  22741078.840    93120933.48248
  21807593.440   114599795.00309  21807593.840    89298575.72848
  23987918.180   126057298.21608  23987919.440    98226443.19346
 15 03 01 00 31 30.0000000  0  7G16G18G19G21G22G27G31
  20788520.960   109244455.67609  20788517.960    85125556.61648
  22210361.440   116716271.51009  22210359.000    90947786.54047
  23741153.660   124760630.33508  23741151.700    97216084.52846
  22240815.400   116876294.48708  22240812.260    91072437.26347
  22725386.100   119422750.83209  22725383.820    93056664.74948
  21798324.000   114551083.81709  21798324.420    89260618.99248
  24006694.760   126155968.95008  24006695.960    98303329.41246
 15 03 01 00 32  0.0000000  0  7G16G18G19G21G22G27G31
  20780269.980   109201096.67809  20780267.080    85091770.38348
  22204508.840   116685515.80809  22204506.380    90923821.08147
  23727388.700   124688295.36308  23727386.780    97159719.68947
  22252902.960   116939815.28809  22252899.920    91121933.97847
  22709728.240   119340468.39609  22709726.080    92992548.75448
  21789078.800   114502499.82909  21789079.180    89222761.36048
  24025471.680   126254641.72708  24025472.920    98380217.30846
 15 03 01 00 32 30.0000000  0  7G16G18G19G21G22G27G31
  20772094.940   109158136.56409  20772092.080    85058294.97848
  22198738.100   116655190.07009  22198735.540    90900190.65847
  23713642.940   124616060.82708  23713640.960    97103433.10447
  22265028.480   117003535.72508  22265025.580    91171586.25547
  22694108.500   119258385.91109  22694106.220    92928588.37248
  21779858.280   114454045.56909  21779858.660    89185004.82548
  24044248.860   126353316.29708  24044250.140    98457106.66447
 15 03 01 00 33  0.0000000  0  7G16G18G19G21G22G27G31
  20763995.280   109115572.75709  20763992.540    85025128.37548
  22193048.580   116625290.89509  22193045.920    90876892.62047
  23699915.500   124543922.13408  23699913.360    97047221.19847
  22277190.760   117067449.40808  22277188.000    91221389.10248
  22678526.580   119176501.95909  22678524.100    92864782.67847
  21770661.540   114405716.60609  21770661.920    89147345.91248
  24063024.840   126451984.86408  24063026.120    98533991.21846
 15 03 01 00 33 30.0000000  0  7G16G18G19G21G22G27G31
  20755972.600   109073413.42909  20755969.960    84992276.96148
  22187441.800   116595826.36309  22187439.020    90853933.26947
  23686207.480   124471885.34808  23686205.120    96991088.70947
  22289390.800   117131561.10608  22289388.140    91271346.25147
  22662984.180   119094825.83509  22662981.580    92801139.00947
  21761489.840   114357519.18909  21761490.200    89109789.50648
  24081800.380   126550650.96408  24081801.700    98610873.77147
 15 03 01 00 34  0.0000000  0  7G16G18G19G21G22G27G31
  20748026.900   109031658.44109  20748024.320    84959740.61349
  22181917.580   116566795.64409  22181914.640    90831311.95847
  23672518.540   124399948.83908  23672516.000    96935034.36147
  22301627.820   117195867.17208  22301625.240    91321454.86647
  22647481.300   119013357.86909  22647478.580    92737657.54547
  21752342.840   114309451.53709  21752343.160    89072334.21148
  24100574.560   126649310.11208  24100575.940    98687750.92047
 15 03 01 00 34 30.0000000  0  7G16G18G19G21G22G27G31
  20740157.860   108990306.16709  20740155.260    84927518.06848
  22176475.560   116538196.96109  22176472.540    90809027.28647
  23658847.820   124328108.41608  23658845.200    96879054.88446
  22313900.780   117260361.89208  22313898.160    91371710.47147
  22632017.840   118932097.19609  22632015.000    92674337.59747
  21743219.840   114261509.99309  21743220.140    89034977.18048
  24119346.180   126747955.72708  24119347.620    98764617.53346
 15 03 01 00 35  0.0000000  0  7G16G18G19G21G22G27G31
  20732366.780   108949363.70809  20732364.180    84895614.85748
  22171116.940   116510036.82309  22171113.920    90787084.34947
  23645196.380   124256369.59108  23645193.760    96823154.56647
  22326210.240   117325048.31409  22326207.540    91422115.46547
  22616595.340   118851051.66909  22616592.380    92611185.31647
  21734121.840   114213699.86709  21734122.200    88997722.55148
  24138115.680   126846590.14708  24138117.180    98841475.36345
 15 03 01 00 35 30.0000000  0  7G16G18G19G21G22G27G31
  20724653.460   108908830.16909  20724650.880    84864030.29748
  22165841.380   116482313.63709  22165838.400    90765481.89847
  23631563.580   124184729.35808  23631560.960    96767331.09447
  22338555.360   117389921.95909  22338552.580    91472666.34947
  22601213.700   118770220.97509  22601210.720    92548200.42847
  21725048.280   114166018.44409  21725048.760    88960568.22748
  24156882.100   126945208.13708  24156883.680    98918320.58046
 15 03 01 00 36  0.0000000  0  7G16G18G19G21G22G27G31
  20717018.420   108868708.11809  20717015.840    84832766.36148
  22160649.340   116455029.51609  22160646.420    90744221.55747
  23617949.520   124113187.93008  23617947.020    96711584.59746
  22350935.860   117454981.45709  22350933.000    91523362.04647
  22585873.680   118689608.90209  22585870.740    92485385.86847
  21715999.320   114118466.43709  21715999.980    88923514.73748
  24175645.000   127043807.41608  24175646.520    98995151.28246
 15 03 01 00 36 30.0000000  0  7G16G18G19G21G22G27G31
  20709462.320   108829000.89309  20709459.780    84801825.67148
  22155541.360   116428187.19709  22155538.540    90723305.48747
  23604354.580   124041746.95008  23604352.260    96655916.37046
  22363351.660   117520226.56409  22363348.760    91574202.37247
  22570576.120   118609219.57909  22570573.220    92422744.90147
  21706975.300   114071045.36309  21706976.080    88886563.27748
  24194404.080   127142386.69208  24194405.420    99071966.48046
 15 03 01 00 37  0.0000000  0  7G16G18G19G21G22G27G31
  20701984.800   108789706.89409  20701982.320    84771206.97448
  22150517.100   116401784.67509  22150514.320    90702732.11747
  23590778.220   123970403.27008  23590775.880    96600323.94747
  22375801.780   117585652.06608  22375798.860    91625183.26447
  22555320.820   118529052.35309  22555317.920    92360277.02647
  21697975.680   114023752.08009  21697976.440    88849711.38748
  24213158.000   127240939.38608  24213159.280    99148760.77246
 15 03 01 00 37 30.0000000  0  7G16G18G19G21G22G27G31
  20694586.740   108750830.72709  20694584.400    84740913.87048
  22145577.300   116375826.22109  22145574.620    90682504.78147
  23577220.880   123899159.35908  23577218.620    96544809.28546
  22388286.420   117651259.04708  22388283.460    91676305.58347
  22540108.700   118449112.44009  22540105.840    92297986.34347
  21689001.000   113976589.31909  21689001.580    88812961.20448
  24231906.880   127339465.96408  24231908.180    99225534.82046
 15 03 01 00 38  0.0000000  0  7G16G18G19G21G22G27G31
  20687268.640   108712374.66409  20687266.420    84710948.10548
  22140722.320   116350313.51209  22140719.680    90662624.76547
  23563682.660   123828015.79808  23563680.400    96489372.80346
  22400805.260   117717046.03809  22400802.280    91727568.15147
  22524940.380   118369403.06909  22524937.540    92235875.25548
  21680051.360   113929557.84409  21680051.700    88776313.31048
  24250650.340   127437964.07908  24250651.660    99302286.69646
 15 03 01 00 38 30.0000000  0  7G16G18G19G21G22G27G31
  20680029.880   108674335.19909  20680027.780    84681306.96148
  22135951.280   116325242.04309  22135948.740    90643088.57647
  23550162.440   123756966.69608  23550160.180    96434009.92446
  22413356.960   117783005.74009  22413354.020    91778965.30347
  22509815.360   118289921.33009  22509812.500    92173941.57447
  21671125.640   113882651.99409  21671125.780    88739763.30748
  24269386.780   127536425.43408  24269388.140    99379010.04746
 15 03 01 00 39  0.0000000  0  7G16G18G19G21G22G27G31
  20672872.840   108636724.48709  20672870.720    84651999.91948
  22131266.440   116300623.80709  22131264.020    90623905.55947
  23536662.220   123686022.60908  23536659.980    96378728.88746
  22425943.100   117849146.40708  22425940.200    91830503.47747
  22494736.180   118210680.46409  22494733.340    92112195.61048
  21662225.820   113835882.39709  21662225.780    88703319.48348
  24288117.600   127634857.37008  24288119.100    99455710.37146
 15 03 01 00 39 30.0000000  0  7G16G18G19G21G22G27G31
  20665796.440   108599537.33109  20665794.320    84623022.90448
  22126666.680   116276452.71209  22126664.420    90605070.96647
  23523180.720   123615176.73808  23523178.420    96323524.35146
  22438562.100   117915459.38509  22438559.120    91882175.90647
  22479701.940   118131675.82709  22479699.180    92050633.64648
  21653350.600   113789242.25709  21653350.440    88666976.52548
  24306840.960   127733249.91908  24306842.460    99532379.83446
 15 03 01 00 40  0.0000000  0  7G16G18G19G21G22G27G31
  20658801.360   108562777.40709  20658799.160    84594378.81348
  22122152.600   116252731.91509  22122150.540    90586587.25347
  23509718.120   123544430.52808  23509715.780    96268397.49646
  22451213.900   117981944.69009  22451210.820    91933982.63247
  22464713.680   118052912.50209  22464710.880    91989259.75947
  21644500.340   113742733.52409  21644500.180    88630735.98148
  24325556.820   127831602.46108  24325558.280    99609017.93946
 15 03 01 00 40 30.0000000  0  7G16G18G19G21G22G27G31
  20651887.940   108526446.47509  20651885.640    84566068.99049
  22117724.440   116229462.45009  22117722.480    90568455.22147
  23496274.400   123473783.81808  23496272.060    96213348.15446
  22463898.040   118048600.09908  22463894.880    91985921.89547
  22449771.740   117974392.35609  22449768.840    91928075.29748
  21635675.000   113696355.96809  21635674.840    88594597.63848
  24344264.620   127929912.14808  24344266.080    99685622.78646
 15 03 01 00 41  0.0000000  0  7G16G18G19G21G22G27G31
  20645056.800   108490547.78309  20645054.320    84538095.98749
  22113382.820   116206647.45109  22113380.880    90550677.32047
  23482849.820   123403237.76508  23482847.520    96158377.25746
  22476614.400   118115425.24208  22476611.300    92037993.41947
  22434876.900   117896119.58209  22434873.860    91867083.50148
  21626874.940   113650111.48809  21626874.800    88558562.99548
  24362964.140   128028178.04308  24362965.520    99762193.61745
 15 03 01 00 41 30.0000000  0  7G16G18G19G21G22G27G31
  20638307.680   108455080.17409  20638305.040    84510458.88149
  22109127.320   116184284.80809  22109125.320    90533251.90047
  23469443.960   123332789.86308  23469441.760    96103482.83547
  22489362.240   118182415.80608  22489359.200    92090193.83647
  22420029.160   117818094.02409  22420026.040    91806284.31847
  21618099.640   113603997.22009  21618099.520    88522629.80548
  24381654.160   128126394.18008  24381655.440    99838725.71545
 15 03 01 00 42  0.0000000  0  7G16G18G19G21G22G27G31
  20631640.980   108420045.67509  20631638.180    84483159.27248
  22104958.180   116162375.99509  22104956.080    90516180.12847
  23456056.800   123262440.24108  23456054.680    96048665.00347
  22502141.200   118249570.27808  22502138.300    92142521.97747
  22405229.160   117740319.20309  22405226.020    91745680.61848
  21609349.140   113558013.63109  21609349.120    88486798.45548
  24400334.260   128224558.31708  24400335.460    99915217.27345
 15 03 01 00 42 30.0000000  0  7G16G18G19G21G22G27G31
  20625057.580   108385449.26009  20625054.680    84456201.02849
  22100876.240   116140925.39709  22100874.100    90499465.40647
  23442689.020   123192192.42208  23442687.040    95993926.50247
  22514951.540   118316889.84408  22514948.820    92194978.76347
  22390477.980   117662800.70009  22390474.780    91685276.60747
  21600624.160   113512164.05309  21600624.280    88451071.53048
  24419004.580   128322671.14508  24419005.720    99991668.83645
 15 03 01 00 43  0.0000000  0  7G16G18G19G21G22G27G31
  20618556.980   108351288.17109  20618553.940    84429582.00449
  22096880.800   116119929.59909  22096878.660    90483105.06847
  23429339.700   123122041.40608  23429337.820    95939263.42647
  22527792.180   118384368.33008  22527789.540    92247559.38847
  22375774.960   117585535.79609  22375771.820    91625070.13848
  21591923.900   113466444.24909  21591924.140    88415445.73148
  24437663.600   128420724.76508  24437664.880   100068074.22146
 15 03 01 00 43 30.0000000  0  7G16G18G19G21G22G27G31
  20612140.360   108317568.66309  20612137.260    84403307.06348
  22092972.880   116099393.67509  22092970.760    90467103.07447
  23416009.620   123051991.44908  23416007.740    95884679.09347
  22540663.520   118452008.08308  22540660.980    92300265.66447
  22361121.800   117508533.04109  22361118.760    91565068.09848
  21583249.140   113420858.52409  21583249.520    88379924.40548
  24456311.800   128518721.75708  24456313.120   100144435.64645
 15 03 01 00 44  0.0000000  0  7G16G18G19G21G22G27G31
  20605807.620   108284290.09709  20605804.500    84377375.71748
  22089152.400   116079317.11909  22089150.340    90451459.02547
  23402698.420   122982040.83908  23402696.560    95830172.19047
  22553564.840   118519805.28008  22553562.320    92353094.63647
  22346518.500   117431792.50209  22346515.540    91505270.54648
  21574599.520   113375404.92909  21574599.980    88344506.04948
  24474948.040   128616656.58208  24474949.560   100220748.53846
 15 03 01 00 44 30.0000000  0  7G16G18G19G21G22G27G31
  20599559.040   108251453.90109  20599555.960    84351789.07448
  22085419.480   116059700.55209  22085417.440    90436173.40947
  23389405.980   122912189.20508  23389404.180    95775742.41347
  22566495.720   118587757.52108  22566493.160    92406044.42047
  22331965.360   117355315.82609  22331962.420    91445678.46848
  21565975.060   113330083.57009  21565975.560    88309190.72648
  24493571.900   128714526.26306  24493573.580   100297010.60044
 15 03 01 00 45  0.0000000  0  7G16G18G19G21G22G27G31
  20593395.280   108219063.64609  20593392.320    84326549.91349
  22081774.640   116040546.53709  22081772.620    90421248.22647
  23376132.460   122842437.45908  23376130.760    95721390.46647
  22579456.160   118655865.06908  22579453.560    92459115.22047
  22317463.220   117279107.30709  22317460.280    91386295.40748
  21557376.100   113284896.05609  21557376.600    88273979.69248
  24512183.260   128812330.20008  24512185.020   100373221.64345
 15 03 01 00 45 30.0000000  0  7G16G18G19G21G22G27G31
  20587316.320   108187119.20509  20587313.560    84301658.14648
  22078217.680   116021854.12109  22078215.620    90406682.73047
  23362877.680   122772784.01808  23362876.040    95667115.11947
  22592445.500   118724124.40608  22592442.860    92512304.30447
  22303012.340   117203167.97209  22303009.380    91327122.03248
  21548802.360   113239840.70309  21548802.820    88238871.64648
  24530781.280   128910063.91508  24530783.080   100449378.10546
 15 03 01 00 46  0.0000000  0  7G16G18G19G21G22G27G31
  20581322.700   108155623.12909  20581320.140    84277115.74749
  22074748.880   116003625.38809  22074746.780    90392478.55547
  23349641.920   122703229.94808  23349640.040    95612917.20847
  22605463.500   118792534.14008  22605460.840    92565610.57047
  22288613.420   117127501.48409  22288610.420    91268161.31748
  21540254.100   113194918.84409  21540254.420    88203867.61248
  24549365.420   129007724.88608  24549367.100   100525477.65046
 15 03 01 00 46 30.0000000  0  7G16G18G19G21G22G27G31
  20575414.960   108124578.12709  20575412.540    84252924.83949
  22071368.680   115985862.57509  22071366.580    90378637.43547
  23336425.300   122633776.20108  23336423.240    95558797.47947
  22618510.100   118861094.08408  22618507.440    92619033.89247
  22274267.080   117052111.34209  22274264.020    91209415.92148
  21531731.480   113150131.67509  21531731.640    88168968.54248
  24567935.460   129105311.72308  24567937.000   100601519.28945
 15 03 01 00 47  0.0000000  0  7G16G18G19G21G22G27G31
  20569593.020   108093983.74109  20569590.680    84229085.05249
  22068076.920   115968564.84209  22068074.860    90365158.71347
  23323227.580   122564421.34408  23323225.380    95504754.79947
  22631584.640   118929800.66108  22631581.980    92672571.47347
  22259973.500   116976998.62109  22259970.400    91150886.62948
  21523234.180   113105477.82309  21523234.220    88134173.34748
  24586490.620   129202819.81808  24586491.960   100677499.54344
 15 03 01 00 47 30.0000000  0  7G16G18G19G21G22G27G31
  20563857.720   108063844.15809  20563855.320    84205599.66449
  22064874.220   115951734.97409  22064872.180    90352044.55447
  23310048.960   122495166.76908  23310046.540    95450790.25447
  22644686.940   118998653.29708  22644684.280    92726222.85947
  22245733.360   116902167.30209  22245730.380    91092576.58248
  21514762.500   113060959.03009  21514762.560    88099483.39948
  24605030.700   129300248.33008  24605031.940   100753417.41645
 15 03 01 00 48  0.0000000  0  7G16G18G19G21G22G27G31
  20558208.900   108034158.82209  20558206.380    84182468.23248
  22061760.340   115935371.82609  22061758.300    90339294.06047
  23296889.000   122426010.56308  23296886.440    95396902.35847
  22657816.440   119067648.68408  22657813.700    92779985.47847
  22231546.880   116827618.37609  22231544.140    91034486.61448
  21506316.200   113016573.72609  21506316.300    88064897.46048
  24623555.120   129397594.06608  24623556.480   100829271.14447
 15 03 01 00 48 30.0000000  0  7G16G18G19G21G22G27G31
  20552647.620   108004933.38109  20552644.940    84159695.15748
  22058736.220   115919480.13409  22058734.160    90326910.92947
  23283748.580   122356957.01908  23283745.920    95343094.47447
  22670973.600   119136789.39608  22670970.820    92833861.34147
  22217415.320   116753358.16609  22217412.760    90976621.61048
  21497896.080   112972326.07809  21497896.260    88030418.79248
  24642063.680   129494856.68707  24642064.980   100905059.91544
 15 03 01 00 49  0.0000000  0  7G16G18G19G21G22G27G31
  20547173.960   107976168.58609  20547171.140    84137281.03349
  22055801.940   115904060.56709  22055799.920    90314895.69747
  23270627.400   122288005.13608  23270624.780    95289365.79147
  22684157.800   119206072.63208  22684155.040    92887848.25747
  22203339.120   116679388.58909  22203336.660    90918982.91548
  21489502.100   112928215.68109  21489502.360    87996047.07048
  24660556.040   129592034.09808  24660557.420   100980782.29346
 15 03 01 00 49 30.0000000  0  7G16G18G19G21G22G27G31
  20541787.280   107947861.21309  20541784.380    84115223.35049
  22052956.620   115889108.72209  22052954.720    90303244.92747
  23257524.620   122219149.91208  23257522.020    95235712.43547
  22697367.840   119275491.70308  22697365.060    92941941.03447
  22189317.980   116605707.71609  22189315.500    90861569.29248
  21481133.300   112884237.66609  21481133.660    87961778.50549
  24679030.480   129689117.20006  24679032.600   101056430.73243
 15 03 01 00 50  0.0000000  0  6G16G18G19G21G22G27
  20536487.760   107920012.15009  20536484.860    84093522.78149
  22050200.320   115874624.45409  22050198.460    90291958.50147
  23244440.100   122150390.74708  23244437.580    95182133.93347
  22710603.240   119345044.41208  22710600.540    92996137.93647
  22175352.220   116532317.08909  22175349.480    90804381.84248
  21472789.600   112840391.69209  21472790.120    87927612.83649
 15 03 01 00 50 30.0000000  0  6G16G18G19G21G22G27
  20531277.400   107892631.78409  20531274.520    84072187.43549
  22047534.920   115860617.99309  22047533.120    90281044.39347
  23231375.580   122081736.56508  23231373.120    95128637.23547
  22723865.300   119414737.46308  22723862.740    93050444.18847
  22161443.980   116459228.35309  22161440.960    90747429.78148
  21464472.780   112796686.88609  21464473.380    87893557.16349
 15 03 01 00 51  0.0000000  0  6G16G18G19G21G22G27
  20526155.520   107865716.36209  20526152.700    84051214.37549
  22044959.580   115847084.53909  22044957.760    90270498.86047
  23218330.040   122013181.84408  23218327.560    95075218.03847
  22737152.800   119484564.09108  22737150.320    93104854.52547
  22147592.540   116386437.97409  22147589.200    90690710.08148
  21456181.800   112753117.99909  21456182.500    87859607.39448
 15 03 01 00 51 30.0000000  0  6G16G18G19G21G22G27
  20521122.560   107839267.88909  20521119.780    84030605.17749
  22042474.580   115834025.58709  22042472.740    90260323.07947
  23205303.520   121944727.19308  23205300.920    95021876.81947
  22750465.480   119554522.87008  22750463.100    93159367.84347
  22133798.480   116313949.35309  22133794.880    90634225.47048
  21447916.900   112709685.83809  21447917.600    87825764.16749
 15 03 01 00 52  0.0000000  0  6G16G18G19G21G22G27
  20516179.200   107813290.17809  20516176.440    84010362.80149
  22040080.360   115821443.67909  22040078.520    90250519.02247
  23192296.420   121876374.82608  23192293.740    94968615.28347
  22763803.280   119624613.48408  22763800.960    93213983.89047
  22120062.700   116241767.39909  22120058.980    90577979.81048
  21439678.560   112666392.91409  21439679.180    87792029.43648
 15 03 01 00 52 30.0000000  0  6G16G18G19G21G22G27
  20511325.100   107787781.67109  20511322.360    83990486.04449
  22037776.540   115809336.82609  22037774.680    90241085.13947
  23179308.140   121808121.38508  23179305.460    94915430.85847
  22777165.580   119694832.73208  22777163.260    93268700.17547
  22106385.160   116169891.80209  22106381.460    90521972.86148
  21431466.220   112623236.43209  21431466.720    87758401.02749
 15 03 01 00 53  0.0000000  0  6G16G18G19G21G22G27
  20506560.840   107762745.48909  20506558.140    83970977.32749
  22035563.500   115797706.93609  22035561.580    90232022.91047
  23166339.120   121739969.10108  23166336.460    94862325.24147
  22790552.220   119765179.80508  22790549.840    93323516.05647
  22092766.620   116098326.28509  22092762.960    90466207.53648
  21423280.220   112580218.15209  21423280.560    87724880.29749
 15 03 01 00 53 30.0000000  0  6G16G18G19G21G22G27
  20501886.640   107738182.78609  20501883.960    83951837.56249
  22033441.400   115786554.88909  22033439.420    90223333.01347
  23153389.200   121671917.10308  23153386.560    94809297.77647
  22803962.820   119835652.67108  22803960.380    93378429.96347
  22079207.520   116027073.22009  22079203.960    90410685.76348
  21415120.500   112537338.08909  21415120.720    87691467.28049
 15 03 01 00 54  0.0000000  0  6G16G18G19G21G22G27
  20497302.760   107714094.74409  20497300.140    83933067.64949
  22031410.160   115775880.61109  22031408.140    90215015.40447
  23140458.260   121603964.75508  23140455.640    94756347.94747
  22817396.940   119906249.08808  22817394.460    93433440.13647
  22065708.220   115956134.47409  22065704.760    90355408.84948
  21406987.020   112494596.05409  21406987.180    87658161.80448
 15 03 01 00 54 30.0000000  0  6G16G18G19G21G22G27
  20492809.680   107690483.77809  20492807.120    83914669.49449
  22029470.240   115765686.29709  22029468.180    90207071.80947
  23127546.600   121536113.72808  23127544.040    94703477.07947
  22830854.480   119976968.59408  22830851.940    93488546.23047
  22052269.500   115885513.91809  22052266.080    90300379.89148
  21398880.100   112451993.65709  21398880.200    87624965.14849
 15 03 01 00 55  0.0000000  0  6G16G18G19G21G22G27
  20488407.380   107667349.86409  20488404.860    83896643.06349
  22027621.480   115755970.98709  22027619.320    90199501.45047
  23114654.000   121468362.69508  23114651.400    94650684.11547
  22844334.840   120047807.87008  22844332.200    93543745.64147
  22038891.540   115815212.48909  22038888.180    90245599.58248
  21390799.460   112409529.64909  21390799.580    87591876.31649
 15 03 01 00 55 30.0000000  0  6G16G18G19G21G22G27
  20484096.700   107644697.28709  20484094.200    83878991.70949
  22025864.420   115746737.77409  22025862.260    90192306.76647
  23101780.900   121400714.17408  23101778.300    94597971.04147
  22857838.180   120118767.96208  22857835.440    93599039.20147
  22025575.220   115745235.03609  22025571.900    90191071.72148
  21382745.680   112367206.96009  21382745.840    87558897.61649
 15 03 01 00 56  0.0000000  0  6G16G18G19G21G22G27
