     2.11           OBSERVATION DATA    G                   RINEX VERSION / TYPE
SPIDER V4,0,0,3554                      2015 03 24 05:27    PGM / RUN BY / DATE 
OJGS                                                        MARKER NAME         
OJGS                                                        MARKER NUMBER       
                                                            OBSERVER / AGENCY   
496552              LEICA GRX1200+GNSS  8.20/4.007          REC # / TYPE / VERS 
10401003            LEIAR25         NONE                    ANT # / TYPE        
  5198100.9450    88691.2920  3684205.7148                  APPROX POSITION XYZ 
        0.1200        0.0000        0.0000                  ANTENNA: DELTA H/E/N
     1     1                                                WAVELENGTH FACT L1/2
     4    C1    L1    P2    L2                              # / TYPES OF OBSERV 
    30.000                                                  INTERVAL            
  2015    03    01    00    00    0.0000000     GPS         TIME OF FIRST OBS   
  2015    03    01    23    59   30.0000000     GPS         TIME OF LAST OBS    
    16                                                      LEAP SECONDS        
    30                                                      # OF SATELLITES     
   G 1   833   833   833   833                              PRN / # OF OBS      
   G 2   925   924   924   924                              PRN / # OF OBS      
   G 3   839   839   839   839                              PRN / # OF OBS      
   G 4   845   845   844   844                              PRN / # OF OBS      
   G 5   673   673   673   673                              PRN / # OF OBS      
   G 6   732   732   731   731                              PRN / # OF OBS      
   G 7   723   723   722   722                              PRN / # OF OBS      
   G 9   782   782   782   782                              PRN / # OF OBS      
   G10   784   784   783   783                              PRN / # OF OBS      
   G11   798   798   798   798                              PRN / # OF OBS      
   G12   811   811   811   811                              PRN / # OF OBS      
   G13   821   821   821   821                              PRN / # OF OBS      
   G14   933   932   930   930                              PRN / # OF OBS      
   G15   733   733   733   733                              PRN / # OF OBS      
   G16   693   693   693   693                              PRN / # OF OBS      
   G17   930   930   929   929                              PRN / # OF OBS      
   G18   938   938   938   938                              PRN / # OF OBS      
   G19   782   782   782   782                              PRN / # OF OBS      
   G20   800   800   800   800                              PRN / # OF OBS      
   G21   672   657   642   641                              PRN / # OF OBS      
   G22   802   800   800   799                              PRN / # OF OBS      
   G23   726   726   726   726                              PRN / # OF OBS      
   G24   834   826   824   821                              PRN / # OF OBS      
   G25   821   821   821   821                              PRN / # OF OBS      
   G27   831   831   831   831                              PRN / # OF OBS      
   G28   913   913   913   913                              PRN / # OF OBS      
   G29   718   718   718   718                              PRN / # OF OBS      
   G30   692   692   692   692                              PRN / # OF OBS      
   G31   763   763   763   763                              PRN / # OF OBS      
   G32   740   740   740   740                              PRN / # OF OBS      
BIT 2 OF LLI FLAGS DATA COLLECTED UNDER A/S CONDITION       COMMENT             
SNR is mapped to RINEX snr flag value [2-9]                 COMMENT             
Lx:     = 25dBHz -> 1; 26-27dBHz -> 2; 28-31dBHz -> 3       COMMENT             
       32-35dBHz -> 4; 36-38dBHz -> 5; 39-41dBHz -> 6       COMMENT             
       42-44dBHz -> 7; 45-48dBHz -> 8; >=49dBHz -> 9        COMMENT             
                                                            END OF HEADER       
 15 03 01 00 00  0.0000000  0  7G16G18G21G22G27G29G31
  21435688.240   112645335.19809  21435685.840    87775601.69748
  22693710.260   119256328.63009  22693708.500    92927027.15746
  21484498.760   112901814.45609  21484495.560    87975433.81148
  23835305.260   125255352.22708  23835305.400    97601586.49346
  22506452.580   118272286.20908  22506453.380    92160252.76148
  24410172.620   128276307.87208  24410172.060    99955554.22846
  22985356.120   120788831.11009  22985355.460    94121151.28947
 15 03 01 00 00 30.0000000  0  7G16G18G21G22G27G29G31
  21423413.900   112580833.66609  21423411.540    87725340.77748
  22682947.980   119199772.36509  22682946.220    92882957.37146
  21492936.860   112946156.82409  21492933.540    88009986.30548
  23817946.700   125164133.26408  23817946.940    97530506.72846
  22495067.840   118212459.80108  22495068.720    92113634.81748
  24424686.320   128352576.94208  24424685.600   100014984.64045
  23003196.720   120882583.72009  23003196.080    94194205.18347
 15 03 01 00 01  0.0000000  0  7G16G18G21G22G27G29G31
  21411193.560   112516615.81109  21411191.280    87675300.90548
  22672243.860   119143521.70809  22672242.040    92839125.70546
  21501436.320   112990821.67708  21501432.880    88044790.08748
  23800592.720   125072937.95408  23800592.960    97459445.59346
  22483707.620   118152761.82008  22483708.420    92067116.96148
  24439200.320   128428847.43408  24439199.360   100074416.17745
  23021069.400   120976504.79409  23021068.700    94267390.31647
 15 03 01 00 01 30.0000000  0  7G16G18G21G22G27G29G31
  21399027.620   112452683.42809  21399025.380    87625483.46748
  22661598.320   119087579.11309  22661596.560    92795534.10046
  21509996.820   113035807.20909  21509993.260    88079843.75448
  23783243.660   124981768.54408  23783243.880    97388404.72146
  22472371.780   118093191.99908  22472372.440    92020698.95648
  24453714.360   128505118.87208  24453713.140   100133848.40945
  23038973.600   121070591.52209  23038972.860    94340704.56147
 15 03 01 00 02  0.0000000  0  7G16G18G21G22G27G29G31
  21386915.540   112389034.02309  21386913.280    87575886.54148
  22651010.900   119031942.00309  22651009.180    92752180.53146
  21518617.200   113081107.49309  21518613.640    88115142.67548
  23765899.060   124890622.52808  23765899.180    97317381.94446
  22461059.560   118033745.59808  22461060.040    91974377.10948
  24468227.620   128581386.82508  24468226.660   100193277.93245
  23056907.820   121164836.06909  23056907.040    94414141.75447
 15 03 01 00 02 30.0000000  0  7G16G18G21G22G27G29G31
  21374858.240   112325672.60509  21374855.940    87526514.02648
  22640482.660   118976615.54909  22640480.840    92709069.03346
  21527297.720   113126723.80009  21527294.180    88150687.85948
  23748560.080   124799506.39308  23748560.140    97246382.52446
  22449771.420   117974425.66708  22449771.840    91928153.82248
  24482740.900   128657654.24008  24482740.080   100252707.01346
  23074872.100   121259238.56409  23074871.260    94487702.03147
 15 03 01 00 03  0.0000000  0  7G16G18G21G22G27G29G31
  21362856.220   112262601.67209  21362853.940    87477367.85048
  22630014.060   118921602.65609  22630012.260    92666201.87046
  21536038.060   113172654.35708  21536034.520    88186477.90048
  23731227.280   124708422.63708  23731227.340    97175408.38446
  22438507.380   117915232.34108  22438507.720    91882029.18448
  24497254.080   128733921.12208  24497253.320   100312135.68846
  23092865.900   121353796.28709  23092865.060    94561383.25747
 15 03 01 00 03 30.0000000  0  7G16G18G21G22G27G29G31
  21350909.520   112199821.47909  21350907.200    87428448.23848
  22619605.200   118866903.67509  22619603.320    92623579.31846
  21544837.440   113218895.45909  21544833.980    88222509.93548
  23713900.780   124617372.20308  23713900.880    97104460.35646
  22427267.100   117856163.66908  22427267.300    91836001.69348
  24511766.780   128810185.54908  24511766.120   100371562.48045
  23110888.360   121448504.46509  23110887.540    94635181.69847
 15 03 01 00 04  0.0000000  0  7G16G18G21G22G27G29G31
  21339019.120   112137337.21009  21339016.860    87379759.21348
  22609257.040   118812523.59609  22609255.000    92581205.24746
  21553696.140   113265448.21009  21553692.720    88258784.80848
  23696581.600   124526360.53808  23696581.720    97033542.51547
  22416051.140   117797222.68409  22416051.220    91790073.68148
  24526279.560   128886450.73108  24526279.040   100430989.83546
  23128939.480   121543363.16009  23128938.720    94709097.42347
 15 03 01 00 04 30.0000000  0  7G16G18G21G22G27G29G31
  21327185.260   112075149.94809  21327183.040    87331301.62148
  22598969.900   118758464.20509  22598967.780    92539081.07746
  21562613.660   113312309.98909  21562610.260    88295300.48248
  23679270.140   124435389.25308  23679270.140    96962656.03746
  22404859.200   117738408.22209  22404859.160    91744244.26548
  24540792.180   128962715.12908  24540791.700   100490416.55546
  23147018.460   121638368.22109  23147017.700    94783127.20847
 15 03 01 00 05  0.0000000  0  7G16G18G21G22G27G29G31
  21315407.880   112013258.99109  21315405.580    87283074.89748
  22588743.580   118704724.79409  22588741.540    92497206.22146
  21571589.120   113359476.36009  21571585.800    88332053.48848
  23661966.320   124344458.20008  23661966.300    96891800.90545
  22393690.860   117679717.71609  22393690.700    91698511.42648
  24555304.280   129038976.56708  24555303.840   100549841.00046
  23165124.280   121733514.21709  23165123.520    94857266.78147
 15 03 01 00 05 30.0000000  0  6G16G18G21G22G27G31
  21303681.900   111951638.44509  21303679.580    87235058.91048
  22578573.220   118651279.75109  22578571.300    92455560.76446
  21580616.840   113406917.30409  21580613.580    88369020.45948
  23644665.400   124253542.38908  23644665.360    96820957.58446
  22382540.700   117621123.05309  22382540.460    91652853.27848
  23183250.980   121828770.05409  23183250.320    94931491.94047
 15 03 01 00 06  0.0000000  0  6G16G18G21G22G27G31
  21292019.540   111890352.03009  21292017.140    87187303.26648
  22568471.000   118598192.79709  22568469.120    92414194.31946
  21589708.100   113454692.31109  21589704.920    88406247.73148
  23627379.600   124162705.94308  23627379.420    96750176.10745
  22371420.460   117562685.77709  22371420.140    91607317.76948
  23201409.760   121924194.39009  23201409.200    95005848.39947
 15 03 01 00 06 30.0000000  0  6G16G18G21G22G27G31
  21280415.020   111829369.73409  21280412.540    87139784.61348
  22558431.240   118545434.07709  22558429.380    92373083.65946
  21598856.620   113502768.14209  21598853.540    88443709.42048
  23610103.240   124071919.23808  23610103.060    96679433.42147
  22360324.020   117504373.60409  22360323.660    91561879.74348
  23219593.960   122019752.22609  23219593.460    95080308.89647
 15 03 01 00 07  0.0000000  0  6G16G18G21G22G27G31
  21268868.760   111768693.62609  21268866.220    87092504.53048
  22548454.360   118493005.69709  22548452.560    92332230.39846
  21608061.920   113551142.45109  21608058.960    88481403.68148
  23592836.980   123981185.31008  23592836.820    96608731.91946
  22349251.340   117446186.46709  22349251.020    91516539.14548
  23237802.960   122115440.40209  23237802.540    95154870.95647
 15 03 01 00 07 30.0000000  0  6G16G18G21G22G27G31
  21257380.920   111708324.44109  21257378.300    87045463.61948
  22538540.440   118440907.91409  22538538.720    92291634.74546
  21617323.340   113599811.91009  21617320.500    88519327.92648
  23575581.000   123890505.23008  23575580.720    96538072.43746
  22338202.200   117388122.84709  22338201.880    91471294.78848
  23256035.940   122211254.59409  23256035.460    95229531.20346
 15 03 01 00 08  0.0000000  0  7G16G18G19G21G22G27G31
  21245952.360   111648266.66109  21245949.680    86998665.36148
  22528690.500   118389146.21409  22528688.800    92251300.97646
  24535731.760   128936134.31408  24535729.180   100469711.31544
  21626641.000   113648776.91908  21626638.200    88557482.48148
  23558336.160   123799884.01408  23558335.740    96467458.78746
  22327177.060   117330185.38209  22327176.820    91426148.74948
  23274292.780   122307194.22109  23274292.260    95304289.20947
 15 03 01 00 08 30.0000000  0  7G16G18G19G21G22G27G31
  21234581.740   111588513.42109  21234579.100    86952104.40348
  22518903.240   118337713.71809  22518901.560    92211223.72346
  24520635.900   128856803.78308  24520633.040   100407895.38745
  21636012.940   113698027.47708  21636010.200    88595859.52948
  23541101.320   123709315.14908  23541100.740    96396885.90446
  22316174.240   117272364.96309  22316173.980    91381093.89348
  23292571.260   122403247.60109  23292570.740    95379135.83746
 15 03 01 00 09  0.0000000  0  7G16G18G19G21G22G27G31
  21223276.360   111529103.32209  21223273.720    86905810.82348
  22509185.920   118286648.86209  22509184.180    92171432.94646
  24505561.720   128777590.62908  24505559.880   100346170.96045
  21645445.800   113747597.98708  21645443.160    88634485.89448
  23523883.880   123618837.95208  23523883.140    96326384.43846
  22305200.520   117214698.00309  22305200.220    91336158.63048
  23310877.720   122499448.12509  23310877.260    95454097.11647
 15 03 01 00 09 30.0000000  0  7G16G18G19G21G22G27G31
  21212029.280   111470000.03509  21212026.780    86859756.34148
  22499531.600   118235915.13909  22499529.800    92131900.19446
  24490502.660   128698455.53908  24490501.280   100284507.34745
  21654931.860   113797447.73509  21654929.280    88673329.85548
  23506677.120   123528416.52508  23506676.240    96255926.43746
  22294248.680   117157145.86609  22294248.300    91291312.85048
  23329204.260   122595754.27809  23329203.920    95529140.72046
 15 03 01 00 10  0.0000000  0  7G16G18G19G21G22G27G31
  21200842.600   111411213.92109  21200840.080    86813948.98648
  22489942.300   118185523.08309  22489940.460    92092633.68146
  24475460.300   128619407.50608  24475458.960   100222911.56845
  21664472.300   113847583.12209  21664469.780    88712396.38548
  23489483.140   123438062.19708  23489482.140    96185520.72546
  22283320.340   117099716.92609  22283319.880    91246563.05348
  23347551.880   122692171.49609  23347551.720    95604270.87647
 15 03 01 00 10 30.0000000  0  7G16G18G19G21G22G27G31
  21189717.840   111352752.97309  21189715.220    86768395.00248
  22480419.460   118135480.27309  22480417.640    92053639.30447
  24460435.400   128540452.30107  24460433.880   100161388.10146
  21674067.880   113898008.05708  21674065.300    88751688.53948
  23472303.540   123347783.26508  23472302.340    96115173.76946
  22272416.560   117042417.04709  22272416.040    91201913.82748
  23365921.220   122788702.66108  23365921.160    95679489.80247
 15 03 01 00 11  0.0000000  0  7G16G18G19G21G22G27G31
  21178654.200   111294613.15309  21178651.500    86723091.25048
  22470962.460   118085783.57409  22470960.720    92014914.62646
  24445427.100   128461583.94008  24445425.640   100099932.33445
  21683717.100   113948714.91109  21683714.360    88791200.36648
  23455137.620   123257576.54308  23455136.320    96044883.08546
  22261536.180   116985240.18009  22261535.500    91157360.45148
  23384310.580   122885338.68809  23384310.520    95754790.48246
 15 03 01 00 11 30.0000000  0  7G16G18G19G21G22G27G31
  21167651.920   111236796.04909  21167649.280    86678038.97448
  22461571.540   118036434.11409  22461569.840    91976460.52646
  24430435.320   128382801.55508  24430433.760   100038543.50745
  21693419.540   113999701.19109  21693416.620    88830929.93047
  23437985.780   123167443.81908  23437984.360    95974650.08546
  22250678.920   116928185.39009  22250678.240    91112902.20048
  23402719.180   122982075.81908  23402719.100    95830169.94846
 15 03 01 00 12  0.0000000  0  7G16G18G19G21G22G27G31
  21156713.220   111179312.80009  21156710.620    86633246.83448
  22452248.940   117987443.56709  22452247.180    91938286.09246
  24415461.560   128304114.60908  24415460.040    99977229.11445
  21703176.620   114050974.77709  21703173.680    88870883.37247
  23420850.300   123077397.09408  23420848.660    95904484.07846
  22239846.720   116871262.30409  22239846.200    91068546.58248
  23421148.320   123078920.84709  23421148.220    95905633.43847
 15 03 01 00 12 30.0000000  0  7G16G18G19G21G22G27G31
  21145835.960   111122152.44209  21145833.420    86588706.31448
  22442992.540   117938800.82509  22442990.820    91900382.68846
  24400503.800   128225510.26408  24400502.260    99915979.04545
  21712985.400   114102519.98809  21712982.380    88911048.46947
  23403729.240   122987426.09408  23403727.460    95834377.07546
  22229037.060   116814457.60409  22229036.600    91024283.21248
  23439594.840   123175857.43808  23439594.760    95981168.28246
 15 03 01 00 13  0.0000000  0  7G16G18G19G21G22G27G31
  21135023.160   111065330.47409  21135020.540    86544429.45948
  22433805.200   117890520.90709  22433803.460    91862762.00146
  24385564.040   128147001.40008  24385562.800    99854803.39345
  21722848.120   114154348.72608  21722845.020    88951434.49947
  23386625.660   122897547.05008  23386623.760    95764341.71246
  22218252.580   116757784.79009  22218252.040    90980122.61048
  23458060.740   123272895.94608  23458060.760    96056782.54646
 15 03 01 00 13 30.0000000  0  7G16G18G19G21G22G27G31
  21124274.100   111008843.60909  21124271.340    86500413.72148
  22424686.300   117842600.66209  22424684.540    91825421.57246
  24370641.440   128068582.83107  24370640.240    99793698.08046
  21732763.380   114206453.79308  21732760.240    88992035.84447
  23369539.000   122807756.87808  23369537.000    95694375.59946
  22207492.080   116701238.28809  22207491.620    90936060.43848
  23476544.520   123370028.30308  23476544.620    96132469.92147
 15 03 01 00 14  0.0000000  0  7G16G18G19G21G22G27G31
  21113589.320   110952694.27309  21113586.400    86456660.99948
  22415636.260   117795042.22009  22415634.480    91788363.07546
  24355736.040   127990254.65108  24355734.860    99732663.23545
  21742730.700   114258832.52308  21742727.500    89032850.43747
  23352469.900   122718058.73809  23352467.700    95624481.18846
  22196755.640   116644818.38809  22196755.280    90892096.91848
  23495045.560   123467251.39608  23495045.780    96208227.98147
 15 03 01 00 14 30.0000000  0  7G16G18G19G21G22G27G31
  21102969.120   110896884.71909  21102966.220    86413173.04348
  22406655.560   117747848.31009  22406653.720    91751588.62246
  24340847.840   127912017.08208  24340846.560    99671698.97145
  21752750.020   114311484.27908  21752746.760    89073877.77348
  23335418.860   122628455.55409  23335416.440    95554660.74846
  22186043.320   116588525.29509  22186043.140    90848232.19948
  23513563.400   123564562.68508  23513563.680    96284054.79147
 15 03 01 00 15  0.0000000  0  7G16G18G19G21G22G27G31
  21092413.340   110841413.53609  21092410.440    86369948.75148
  22397743.900   117701017.14409  22397741.980    91715096.83646
  24325976.420   127833867.21808  24325974.560    99610803.01845
  21762820.280   114364403.71908  21762817.060    89115113.70647
  23318385.740   122538946.47709  23318383.100    95484913.64146
  22175354.540   116532355.72909  22175354.460    90804463.74548
  23532096.840   123661956.00208  23532097.240    96359945.54047
 15 03 01 00 15 30.0000000  0  7G16G18G19G21G22G27G31
  21081922.480   110786283.61609  21081919.600    86326990.38048
  22388901.880   117654551.88209  22388899.940    91678890.16846
  24311121.720   127755805.29808  24311119.660    99549975.58345
  21772941.180   114417589.54108  21772938.040    89156557.20047
  23301371.160   122449535.07809  23301368.420    95415242.63646
  22164689.340   116476310.27909  22164689.360    90760791.99848
  23550645.420   123759428.99008  23550645.840    96435898.32247
 15 03 01 00 16  0.0000000  0  7G16G18G19G21G22G27G31
  21071499.220   110731508.81009  21071496.300    86284308.71948
  22380132.020   117608466.01409  22380130.040    91642979.12946
  24296285.820   127677843.35808  24296284.000    99489226.09745
  21783114.780   114471052.34108  21783111.700    89198216.50848
  23284377.980   122360235.92709  23284375.200    95345659.10046
  22154050.040   116420400.86609  22154050.200    90717226.24748
  23569210.940   123856990.71808  23569211.400    96511920.25546
 15 03 01 00 16 30.0000000  0  7G16G18G19G21G22G27G31
  21061140.820   110677075.05909  21061137.920    86241892.82348
  22371431.600   117562745.20309  22371429.600    91607352.55846
  24281465.980   127599965.04808  24281463.800    99428541.77845
  21793337.320   114524772.17208  21793334.280    89240076.11947
  23267403.520   122271035.29909  23267400.660    95276152.33347
  22143433.560   116364611.16809  22143433.780    90673753.78448
  23587789.620   123954621.73908  23587790.180    96587996.21546
 15 03 01 00 17  0.0000000  0  7G16G18G19G21G22G27G31
  21050850.140   110622996.83909  21050847.180    86199753.95348
  22362803.460   117517404.19809  22362801.400    91572021.92546
  24266664.120   127522182.48307  24266662.200    99367932.07546
  21803611.100   114578761.16608  21803608.080    89282145.45947
  23250450.640   122181948.34109  23250447.840    95206734.11446
  22132842.260   116308953.69809  22132842.560    90630384.35348
  23606383.320   124052331.59308  23606383.920    96664133.57247
 15 03 01 00 17 30.0000000  0  7G16G18G19G21G22G27G31
  21040626.160   110569269.17509  21040623.100    86157888.24748
  22354246.620   117472437.82109  22354244.540    91536983.22046
  24251879.340   127444489.07508  24251877.780    99307391.85146
  21813934.400   114633010.60508  21813931.460    89324417.74348
  23233518.660   122092970.90809  23233515.820    95137401.24246
  22122274.740   116253421.55709  22122275.160    90587112.58348
  23624990.200   124150110.46908  23624990.800    96740324.68946
 15 03 01 00 18  0.0000000  0  7G16G18G19G21G22G27G31
  21030469.060   110515893.40209  21030466.020    86116296.75148
  22345761.300   117427847.15309  22345759.160    91502237.27046
  24237111.400   127366883.88608  24237110.040    99246920.37145
  21824306.640   114687517.30708  21824303.800    89366890.48347
  23216607.940   122004105.21809  23216605.040    95068155.43247
  22111730.860   116198014.03709  22111731.420    90543937.91548
  23643609.420   124247954.68708  23643610.080    96816566.74046
 15 03 01 00 18 30.0000000  0  7G16G18G19G21G22G27G31
  21020379.600   110462872.97609  21020376.500    86074982.13648
  22337348.180   117383635.87709  22337345.960    91467786.95446
  24222360.680   127289368.68408  24222359.380    99186518.98245
  21834727.800   114742281.14108  21834725.100    89409563.59248
  23199719.280   121915355.33409  23199716.300    94998999.85647
  22101210.960   116142732.54109  22101211.720    90500861.44748
  23662240.820   124345862.75808  23662241.560    96892858.52847
 15 03 01 00 19  0.0000000  0  7G16G18G19G21G22G27G31
  21010358.160   110410210.00109  21010355.040    86033946.06448
  22329007.520   117339805.66009  22329005.320    91433633.56746
  24207627.120   127211943.08808  24207625.900    99126187.43545
  21845197.540   114797299.94008  21845194.840    89452435.38248
  23182853.040   121826723.50609  23182850.040    94929936.26847
  22090715.040   116087576.98909  22090715.940    90457883.12348
  23680883.820   124443831.59108  23680884.620    96969197.62947
 15 03 01 00 19 30.0000000  0  7G16G18G19G21G22G27G31
  21000405.960   110357910.87909  21000402.880    85993193.51448
  22320740.520   117296362.55809  22320738.340    91399781.83846
  24192911.380   127134611.52008  24192910.120    99065929.17745
  21855716.240   114852575.98708  21855713.560    89495507.62248
  23166010.640   121738216.95909  23166007.580    94860970.29547
  22080243.940   116032551.79109  22080245.020    90415006.36648
  23699538.760   124541862.95308  23699539.600    97045585.48646
 15 03 01 00 20  0.0000000  0  7G16G18G19G21G22G27G31
  20990522.640   110305973.59809  20990519.620    85952722.91548
  22312546.820   117253304.64409  22312544.720    91366230.23946
  24178212.720   127057369.71108  24178211.460    99005740.80845
  21866282.860   114908103.69008  21866280.180    89538775.95647
  23149191.800   121649834.38309  23149188.740    94792100.91346
  22069796.860   115977652.89509  22069798.120    90372228.02648
  23718204.220   124639949.47208  23718205.140    97122016.30746
 15 03 01 00 20 30.0000000  0  7G16G18G19G21G22G27G31
  20980709.120   110254403.19109  20980706.080    85912538.19148
  22304427.280   117210636.56809  22304425.260    91332982.41846
  24163531.660   126980220.89608  24163530.460    98945624.94645
  21876897.500   114963883.81908  21876894.840    89582240.97948
  23132397.700   121561581.65609  23132394.740    94723332.71047
  22059374.420   115922883.40509  22059375.820    90329550.52248
  23736880.240   124738091.49808  23736881.180    97198490.37746
 15 03 01 00 21  0.0000000  0  7G16G18G19G21G22G27G31
  20970964.760   110203195.94209  20970961.640    85872636.44348
  22296381.300   117168354.95709  22296379.380    91300035.73346
  24148867.340   126903159.62408  24148865.840    98885577.27345
  21887558.860   115019909.41808  21887556.220    89625897.28448
  23115627.780   121473455.89609  23115624.800    94654663.42847
  22048975.520   115868237.75709  22048977.040    90286969.51248
  23755565.160   124836280.55608  23755566.160    97275001.12046
 15 03 01 00 21 30.0000000  0  7G16G18G19G21G22G27G31
  20961291.060   110152360.40609  20961287.860    85833024.33448
  22288410.440   117126467.97609  22288408.560    91267396.55946
  24134220.720   126826191.98107  24134219.280    98825602.56645
  21898267.700   115076184.18908  21898264.880    89669747.75347
  23098883.720   121385466.14509  23098880.760    94586100.11947
  22038601.500   115813722.40009  22038603.100    90244490.03048
  23774259.720   124934520.12008  23774260.680    97351551.20746
 15 03 01 00 22  0.0000000  0  7G16G18G19G21G22G27G31
  20951687.600   110101894.14509  20951684.480    85793699.98448
  22280514.100   117084972.56609  22280512.240    91235062.49847
  24119591.120   126749313.62608  24119590.000    98765697.45145
  21909022.880   115132702.88708  21909019.980    89713788.27647
  23082165.200   121297610.63309  23082162.280    94517641.42247
  22028251.580   115759332.91709  22028253.160    90202108.63548
  23792962.420   125032802.63908  23792963.440    97428134.76946
 15 03 01 00 22 30.0000000  0  7G16G18G19G21G22G27G31
  20942155.420   110051802.40109  20942152.360    85754667.46648
  22272693.300   117043874.08909  22272691.440    91203037.73846
  24104979.140   126672527.36508  24104977.880    98705864.10045
  21919824.580   115189466.15908  21919821.660    89758019.39547
  23065473.340   121209895.10009  23065470.540    94449291.79147
  22017926.260   115705072.50609  22017927.720    90159827.81348
  23811673.400   125131128.46208  23811674.420    97504752.08946
 15 03 01 00 23  0.0000000  0  7G16G18G19G21G22G27G31
  20932695.080   110002087.85009  20932691.960    85715928.85748
  22264948.560   117003175.21909  22264946.620    91171324.36147
  24090384.780   126595834.00608  24090383.500    98646103.14745
  21930672.620   115246473.10908  21930669.720    89802440.38948
  23048808.780   121122323.05209  23048806.080    94381053.97147
  22007625.600   115650941.84609  22007626.960    90117648.10348
  23830392.220   125229495.43808  23830393.200    97581401.44646
 15 03 01 00 23 30.0000000  0  7G16G18G19G21G22G27G31
  20923305.680   109952746.54309  20923302.620    85677481.08948
  22257279.060   116962871.84309  22257277.100    91139919.15647
  24075807.100   126519227.96208  24075806.020    98586410.19945
  21941565.460   115303715.44108  21941562.580    89847044.79147
  23032171.020   121034891.59009  23032168.300    94312925.67847
  21997348.520   115596935.26909  21997349.800    90075565.06648
  23849117.200   125327894.87308  23849118.160    97658076.09846
 15 03 01 00 24  0.0000000  0  7G16G18G19G21G22G27G31
  20913988.480   109903784.59009  20913985.480    85639328.92848
  22249685.880   116922969.42309  22249683.940    91108826.39247
  24061246.860   126442713.09808  24061245.860    98526788.33445
  21952503.580   115361195.53408  21952500.620    89891834.48047
  23015561.240   120947607.28809  23015558.460    94244912.06947
  21987095.840   115543056.77709  21987097.080    90033581.86048
  23867848.520   125426327.66208  23867849.540    97734776.72346
 15 03 01 00 24 30.0000000  0  7G16G18G19G21G22G27G31
  20904744.060   109855205.06609  20904741.120    85601474.75148
  22242169.620   116883471.03909  22242167.620    91078048.44747
  24046704.180   126366290.62308  24046702.960    98467238.42145
  21963486.900   115418913.24308  21963483.980    89936809.30147
  22998980.160   120860473.64709  22998977.260    94177015.83847
  21976867.840   115489307.55209  21976868.860    89991699.36648
  23886585.860   125524792.03708  23886586.920    97811501.96846
 15 03 01 00 25  0.0000000  0  7G16G18G19G21G22G27G31
  20895572.500   109807008.27209  20895569.600    85563918.80648
  22234730.180   116844376.50009  22234728.060    91047585.20247
  24032178.640   126289958.44508  24032177.140    98407758.91045
  21974514.520   115476863.93808  21974511.540    89981965.68447
  22982427.940   120773491.92708  22982425.080    94109237.98947
  21966664.180   115435685.98509  21966664.920    89949916.35348
  23905328.360   125623283.52308  23905329.520    97888248.32846
 15 03 01 00 25 30.0000000  0  7G16G18G19G21G22G27G31
  20886474.580   109759198.54009  20886471.720    85526664.47548
  22227368.380   116805690.02709  22227366.180    91017439.91946
  24017670.800   126213718.74508  24017669.160    98348351.46445
  21985586.600   115535048.52108  21985583.520    90027304.32247
  22965905.540   120686666.84909  22965902.680    94041582.19947
  21956485.280   115382194.33509  21956485.760    89908234.57048
  23924075.860   125721801.28608  23924077.100    97965015.15246
 15 03 01 00 26  0.0000000  0  7G16G18G19G21G22G27G31
  20877450.280   109711775.91409  20877447.500    85489711.78048
  22220084.180   116767411.40009  22220081.940    90987612.43647
  24003180.260   126137570.53308  24003178.440    98289015.26245
  21996702.580   115593463.61408  21996699.540    90072822.57047
  22949413.280   120599999.99508  22949410.380    93974049.70047
  21946330.780   115328831.02109  21946331.020    89866652.79648
  23942827.580   125820341.11008  23942828.900    98041799.14246
 15 03 01 00 26 30.0000000  0  7G16G18G19G21G22G27G31
  20868500.040   109664742.38009  20868497.320    85453062.27148
  22212877.820   116729542.10109  22212875.660    90958103.92247
  23988707.000   126061513.03808  23988704.920    98229749.77045
  22007862.040   115652107.02908  22007858.960    90118518.73047
  22932951.500   120513493.47708  22932948.660    93906642.12847
  21936200.620   115275595.76209  21936200.620    89825170.80648
  23961582.760   125918899.32608  23961584.220    98118597.43546
 15 03 01 00 27  0.0000000  0  7G16G18G19G21G22G27G31
  20859624.800   109618102.91309  20859622.040    85416719.83348
  22205750.220   116692086.73109  22205748.160    90928917.94247
  23974251.460   125985549.30108  23974249.640    98170557.35445
  22019064.960   115710978.97908  22019061.900    90164392.97847
  22916521.320   120427153.12108  22916518.500    93839364.04347
  21926095.420   115222491.93309  21926095.240    89783791.23148
  23980341.680   126017476.93608  23980343.140    98195410.85046
 15 03 01 00 27 30.0000000  0  7G16G18G19G21G22G27G31
  20850824.560   109571857.62609  20850821.860    85380684.54748
  22198701.540   116655045.94309  22198699.440    90900055.00547
  23959813.420   125909677.77708  23959811.640    98111436.77645
  22030310.860   115770077.13908  22030307.980    90210443.47047
  22900122.940   120340979.83809  22900120.180    93772216.12447
  21916014.860   115169517.82609  21916014.560    89742512.74048
  23999103.240   126116068.76908  23999104.760    98272235.32746
 15 03 01 00 28  0.0000000  0  7G16G18G19G21G22G27G31
  20842099.600   109526007.88009  20842096.920    85344957.47248
  22191731.920   116618420.34309  22191729.800    90871515.60947
  23945392.700   125833897.36708  23945390.700    98052387.19445
  22041599.240   115829398.53908  22041596.520    90256667.92547
  22883756.720   120254975.51008  22883754.020    93705199.87347
  21905958.800   115116672.68509  21905958.440    89701334.73948
  24017866.840   126214671.18608  24017868.500    98349068.05046
 15 03 01 00 28 30.0000000  0  7G16G18G19G21G22G27G31
  20833450.020   109480554.21509  20833447.380    85309539.02548
  22184841.260   116582209.75409  22184839.160    90843299.58247
  23930989.180   125758206.81808  23930986.960    97993407.63245
  22052929.580   115888939.68008  22052926.780    90303063.60647
  22867422.900   120169141.62608  22867420.300    93638316.42347
  21895927.000   115063955.30109  21895926.620    89660256.28748
  24036631.700   126313280.20008  24036633.560    98425905.90146
 15 03 01 00 29  0.0000000  0  7G16G18G19G21G22G27G31
  20824876.340   109435499.26409  20824873.760    85274431.27048
  22178030.020   116546416.54309  22178027.900    90815408.79347
  23916602.920   125682606.93208  23916600.720    97934498.70345
  22064301.740   115948700.10708  22064298.840    90349630.16947
  22851122.160   120083481.52108  22851119.700    93571568.39047
  21885919.580   115011366.49609  21885919.240    89619278.03548
  24055397.480   126411893.62908  24055399.360    98502747.17946
 15 03 01 00 29 30.0000000  0  7G16G18G19G21G22G27G31
  20816379.240   109390846.76509  20816376.720    85239637.12148
  22171298.900   116511044.44009  22171296.760    90787846.13947
  23902234.300   125607099.66908  23902232.160    97875661.93845
  22075715.480   116008678.97708  22075712.440    90396366.94547
  22834855.380   119997999.87408  22834852.980    93504959.40547
  21875936.940   114958908.21409  21875936.740    89578401.48848
  24074164.000   126510510.47808  24074165.760    98579591.12946
 15 03 01 00 30  0.0000000  0  7G16G18G19G21G22G27G31
  20807959.220   109346599.50309  20807956.840    85205158.73748
  22164648.300   116476095.60309  22164646.120    90760613.30647
  23887883.440   125531685.49008  23887881.140    97816897.74245
  22087170.500   116068875.30808  22087167.540    90443273.15947
  22818623.180   119912699.88608  22818620.880    93438491.97047
  21865979.280   114906581.27809  21865979.200    89537627.28048
  24092930.740   126609128.73408  24092932.520    98656436.23246
 15 03 01 00 30 30.0000000  0  7G16G18G19G21G22G27G31
  20799616.260   109302757.02909  20799613.880    85170995.76248
  22158078.160   116441569.46609  22158075.960    90733709.83947
  23873549.900   125456362.50808  23873547.740    97758204.59645
  22098666.140   116129285.14908  22098663.360    90490345.74247
  22802425.620   119827582.07208  22802423.520    93372166.48647
  21856046.240   114854383.68309  21856046.300    89496953.85248
  24111696.700   126707743.27608  24111698.540    98733278.44446
 15 03 01 00 31  0.0000000  0  7G16G18G19G21G22G27G31
  20791350.780   109259321.65909  20791348.380    85137150.03148
  22151588.880   116407468.07709  22151586.660    90707137.35347
  23859233.760   125381130.66608  23859231.920    97699582.45246
  22110202.100   116189906.71808  22110199.340    90537583.32247
  22786263.340   119742649.73108  22786261.360    93305985.53247
  21846137.900   114802315.76109  21846138.000    89456381.47448
  24130461.460   126806351.54408  24130463.360    98810115.76146
 15 03 01 00 31 30.0000000  0  7G16G18G19G21G22G27G31
  20783163.740   109216298.63409  20783161.300    85103625.59848
  22145181.320   116373796.26909  22145179.080    90680899.60547
  23844935.580   125305993.31208  23844933.860    97641033.96346
  22121778.780   116250742.29608  22121776.000    90584987.64447
  22770137.580   119657908.84008  22770135.620    93239953.75247
  21836254.920   114750381.02409  21836255.060    89415912.87048
  24149225.100   126904954.01308  24149227.040    98886948.59246
 15 03 01 00 32  0.0000000  0  7G16G18G19G21G22G27G31
  20775055.140   109173687.89009  20775052.720    85070422.41948
  22138855.320   116340553.18809  22138853.140    90654995.93447
  23830654.900   125230948.37308  23830653.340    97582557.47145
  22133395.320   116311787.36008  22133392.460    90632555.21647
  22754048.360   119573359.76808  22754046.420    93174071.44247
  21826396.920   114698577.50909  21826397.120    89375546.51848
  24167986.680   127003545.84408  24167988.720    98963773.17146
 15 03 01 00 32 30.0000000  0  7G16G18G19G21G22G27G31
  20767025.420   109131491.27709  20767022.940    85037541.94348
  22132611.300   116307740.61509  22132609.120    90629427.71647
  23816391.860   125155996.03408  23816390.360    97524153.13046
  22145051.280   116373039.86208  22145048.320    90680284.43047
  22737996.200   119489005.34208  22737994.240    93108340.80147
  21816563.920   114646905.42309  21816564.180    89335282.57348
  24186745.800   127102124.28408  24186747.820    99040587.35245
 15 03 01 00 33  0.0000000  0  7G16G18G19G21G22G27G31
  20759074.740   109089709.91909  20759072.220    85004985.04748
  22126449.260   116275358.88909  22126447.060    90604195.23147
  23802146.280   125081135.50708  23802144.840    97465820.34346
  22156746.200   116434497.18608  22156743.260    90728173.24047
  22721981.480   119404847.61508  22721979.460    93042763.42747
  21806755.860   114595364.14609  21806756.160    89295120.56348
  24205501.620   127200685.81708  24205503.660    99117388.40545
 15 03 01 00 33 30.0000000  0  7G16G18G19G21G22G27G31
  20751203.580   109048346.56009  20751201.100    84972753.86448
  22120369.720   116243410.77009  22120367.620    90579300.61147
  23787918.380   125006367.55408  23787916.660    97407559.69845
  22168479.980   116496158.73208  22168477.140    90776221.17747
  22706004.900   119320890.18308  22706002.820    92977342.12747
  21796972.900   114543954.66209  21796973.260    89255061.24648
  24224253.840   127299228.55408  24224255.900    99194174.90945
 15 03 01 00 34  0.0000000  0  7G16G18G19G21G22G27G31
  20743411.980   109007401.10509  20743409.460    84940848.31548
  22114372.540   116211895.42909  22114370.440    90554743.22347
  23773707.900   124931690.63808  23773705.980    97349369.95745
  22180252.000   116558020.94908  22180249.120    90824425.49247
  22690066.600   119237133.70908  22690064.440    92912077.42247
  21787214.740   114492675.28509  21787215.140    89215103.31048
  24243001.520   127397747.73608  24243003.660    99270943.05646
 15 03 01 00 34 30.0000000  0  7G16G18G19G21G22G27G31
  20735700.860   108966878.54409  20735698.320    84909272.29148
  22108458.700   116180817.83209  22108456.520    90530526.93447
  23759515.200   124857107.34908  23759512.800    97291253.17445
  22192062.400   116620084.85408  22192059.540    90872786.96447
  22674167.640   119153583.98209  22674165.400    92846973.81247
  21777482.000   114441529.18609  21777482.400    89175249.22748
  24261744.720   127496243.63908  24261746.980    99347693.13645
 15 03 01 00 35  0.0000000  0  7G16G18G19G21G22G27G31
  20728070.360   108926779.65409  20728067.780    84878026.41448
  22102628.180   116150178.24809  22102625.940    90506651.95647
  23745340.100   124782616.95108  23745337.480    97233208.78446
  22203910.520   116682347.23508  22203907.680    90921303.09047
  22658308.320   119070242.48008  22658305.960    92782032.45048
  21767774.440   114390515.45109  21767774.880    89135498.28548
  24280482.760   127594712.39108  24280484.880    99424422.15946
 15 03 01 00 35 30.0000000  0  7G16G18G19G21G22G27G31
  20720521.220   108887108.40609  20720518.600    84847113.74448
  22096881.600   116119979.94209  22096879.380    90483120.82347
  23731182.940   124708221.44808  23731180.460    97175238.32545
  22215796.500   116744808.52308  22215793.520    90969974.21847
  22642489.500   118987113.81709  22642486.980    92717256.94447
  21758092.560   114339636.34209  21758092.940    89095852.24748
  24299215.400   127693153.02908  24299217.520    99501129.25444
 15 03 01 00 36  0.0000000  0  7G16G18G19G21G22G27G31
  20713053.640   108847865.89009  20713050.980    84816535.16948
  22091219.140   116090223.68009  22091216.980    90459934.13747
  23717043.420   124633919.64508  23717040.980    97117340.91146
  22227719.840   116807465.97708  22227716.840    91018798.19447
  22626711.620   118904200.36409  22626708.980    92652649.11847
  21748436.220   114288891.26809  21748436.500    89056310.63948
  24317942.020   127791562.39608  24317944.180    99577811.97646
 15 03 01 00 36 30.0000000  0  7G16G18G19G21G22G27G31
  20705667.480   108809051.21009  20705664.780    84786289.97248
  22085640.520   116060907.98609  22085638.440    90437090.76447
  23702921.340   124559709.10308  23702919.540    97059514.61346
  22239679.680   116870315.16808  22239676.680    91067771.58847
  22610974.640   118821501.95009  22610971.940    92588208.87548
  21738804.820   114238277.61009  21738805.020    89016871.45148
  24336661.560   127889934.52408  24336663.760    99654465.68046
 15 03 01 00 37  0.0000000  0  7G16G18G19G21G22G27G31
  20698363.300   108770667.43309  20698360.540    84756380.53348
  22080146.220   116032035.60209  22080144.220    90414592.82547
  23688817.060   124485591.45808  23688815.460    97001760.69145
  22251675.820   116933355.66708  22251673.020    91116894.03147
  22595279.400   118739022.63109  22595276.620    92523939.33548
  21729198.760   114187797.05609  21729198.900    88977535.96948
  24355373.780   127988268.32909  24355376.000    99731089.53546
 15 03 01 00 37 30.0000000  0  7G16G18G19G21G22G27G31
  20691141.380   108732716.21609  20691138.660    84726808.15848
  22074736.580   116003607.93609  22074734.560    90392441.41747
  23674730.540   124411566.34608  23674728.660    96944078.85346
  22263708.020   116996585.66708  22263705.340    91166164.14147
  22579626.220   118656764.69109  22579623.380    92459842.29947
  21719618.000   114137449.48609  21719618.100    88938304.11748
  24374078.080   128086560.56508  24374080.240    99807680.80446
 15 03 01 00 38  0.0000000  0  7G16G18G19G21G22G27G31
  20684001.960   108695198.18409  20683999.200    84697573.32848
  22069411.580   115975625.07209  22069409.560    90370636.60947
  23660661.500   124337632.83108  23660659.600    96886468.38246
  22275775.720   117060002.09808  22275772.980    91215579.52947
  22564015.460   118574729.87509  22564012.560    92395919.13348
  21710062.360   114087234.18809  21710062.480    88899175.33248
  24392773.820   128184807.72308  24392776.140    99884237.04146
 15 03 01 00 38 30.0000000  0  7G16G18G19G21G22G27G31
  20676945.920   108658118.36009  20676943.160    84668679.95648
  22064172.020   115948091.08209  22064169.940    90349181.56847
  23646610.480   124263793.65308  23646608.480    96828931.44446
  22287879.200   117123606.28808  22287876.480    91265141.22447
  22548448.220   118492923.70009  22548445.320    92332174.12947
  21700532.480   114037154.14109  21700532.600    88860151.93948
  24411461.040   128283010.01008  24411463.400    99960758.32445
 15 03 01 00 39  0.0000000  0  7G16G18G19G21G22G27G31
  20669973.180   108621476.24509  20669970.400    84640127.66248
  22059017.740   115921005.42109  22059015.680    90328075.87447
  23632576.980   124190046.81508  23632574.780    96771466.44946
  22300017.620   117187393.97408  22300014.860    91314845.89247
  22532924.660   118411346.86809  22532921.700    92268607.82648
  21691028.000   113987207.50209  21691028.160    88821232.50048
  24430138.760   128381162.58308  24430141.240   100037240.95745
 15 03 01 00 39 30.0000000  0  7G16G18G19G21G22G27G31
  20663084.720   108585277.08909  20663081.940    84611920.52248
  22053949.600   115894372.46709  22053947.560    90307322.94847
  23618561.660   124116396.11108  23618559.380    96714076.34646
  22312191.300   117251366.92308  22312188.460    91364694.93147
  22517445.880   118330005.36209  22517442.860    92205224.89948
  21681549.600   113937398.04509  21681549.740    88782419.95148
  24448807.140   128479265.99408  24448809.700   100113685.24346
 15 03 01 00 40  0.0000000  0  7G16G18G19G21G22G27G31
  20656280.020   108549518.27709  20656277.300    84584056.52048
  22048967.060   115868189.20109  22048965.000    90286920.41947
  23604563.760   124042836.78908  23604561.480    96656757.46946
  22324399.060   117315519.04108  22324396.220    91414683.57947
  22502011.580   118248897.72809  22502008.480    92142024.21548
  21672096.440   113887721.55309  21672096.560    88743711.02148
  24467464.860   128577313.40308  24467467.500   100190085.94246
 15 03 01 00 40 30.0000000  0  7G16G18G19G21G22G27G31
  20649560.020   108514204.84609  20649557.340    84556539.56048
  22044070.980   115842459.99009  22044068.880    90266871.70247
  23590583.820   123969372.16408  23590581.800    96599512.36446
  22336641.160   117379851.41308  22336638.340    91464812.68247
  22486622.860   118168029.47209  22486619.620    92079010.04148
  21662669.100   113838181.22009  21662669.280    88705108.18848
  24486111.900   128675304.86908  24486114.520   100266443.01945
 15 03 01 00 41  0.0000000  0  7G16G18G19G21G22G27G31
  20642924.800   108479336.90009  20642922.120    84529369.72448
  22039261.320   115817184.90409  22039259.240    90247176.85047
  23576621.580   123896000.30508  23576619.700    96542339.55246
  22348916.920   117444360.60808  22348914.080    91515079.56647
  22471279.820   118087401.69909  22471276.620    92016183.26648
  21653267.480   113788775.95109  21653267.660    88666610.59748
  24504747.500   128773236.09908  24504750.080   100342753.04645
 15 03 01 00 41 30.0000000  0  7G16G18G19G21G22G27G31
  20636374.400   108444914.45009  20636371.720    84502547.03848
  22034537.980   115792363.06709  22034535.800    90227835.17547
  23562676.880   123822720.05208  23562674.860    96485238.10946
  22361225.780   117509043.56808  22361222.800    91565481.86147
  22455982.680   118007015.28709  22455979.500    91953544.56648
  21643891.320   113739504.20509  21643891.440    88628217.04948
  24523370.820   128871102.82708  24523373.420   100419012.89544
 15 03 01 00 42  0.0000000  0  7G16G18G19G21G22G27G31
  20629910.340   108410945.60109  20629907.700    84476077.80348
  22029902.300   115768002.10509  22029900.080    90208852.62847
  23548750.740   123749537.69208  23548748.440    96428212.94346
  22373568.640   117573904.94908  22373565.380    91616023.19547
  22440733.300   117926879.65709  22440730.080    91891101.28248
  21634541.780   113690372.67209  21634541.860    88589932.75648
  24541982.580   128968909.08708  24541985.400   100495225.64146
 15 03 01 00 42 30.0000000  0  7G16G18G19G21G22G27G31
  20623532.140   108377427.85309  20623529.520    84449960.07548
  22025353.700   115744099.03209  22025351.480    90190226.87547
  23534842.340   123676449.43408  23534839.840    96371261.12445
  22385944.180   117638938.55408  22385940.880    91666698.71046
  22425531.400   117846993.28309  22425528.160    91828852.21148
  21625218.120   113641377.33809  21625218.220    88551754.59448
  24560581.460   129066647.55808  24560584.340   100571385.44746
 15 03 01 00 43  0.0000000  0  7G16G18G19G21G22G27G31
  20617240.040   108344362.53109  20617237.400    84424194.88748
  22020892.340   115720654.58209  22020890.140    90171958.48747
  23520951.800   123603454.49508  23520949.020    96314381.99646
  22398352.060   117704142.39008  22398348.700    91717506.88847
  22410377.180   117767357.56609  22410373.900    91766798.46748
  21615920.400   113592518.21209  21615920.480    88513682.56048
  24579166.980   129164315.35808  24579169.860   100647490.28645
 15 03 01 00 43 30.0000000  0  7G16G18G19G21G22G27G31
  20611034.180   108311750.54809  20611031.500    84398782.94848
  22016518.200   115697668.58909  22016516.040    90154047.34447
  23507078.900   123530551.95908  23507076.440    96257574.86146
  22410791.780   117769513.51508  22410788.460    91768445.41347
  22395271.220   117687975.33709  22395267.880    91704942.23248
  21606648.420   113543794.38009  21606648.520    88475715.96048
  24597738.440   129261909.08708  24597741.300   100723537.38045
 15 03 01 00 44  0.0000000  0  7G16G18G19G21G22G27G31
  20604915.860   108279598.21809  20604913.060    84373729.18048
  22012232.540   115675147.57709  22012230.460    90136498.51447
  23493224.680   123457747.12608  23493222.200    96200843.87646
  22423263.900   117835055.20008  22423260.600    91819516.83446
  22380214.840   117608853.69409  22380211.500    91643289.05748
  21597403.220   113495211.00709  21597403.380    88437858.80748
  24616296.020   129359430.11708  24616298.860   100799527.66246
 15 03 01 00 44 30.0000000  0  7G16G18G19G21G22G27G31
  20598884.580   108247903.32809  20598881.720    84349031.86348
  22008034.860   115653088.56209  22008032.760    90119309.69247
  23479388.400   123385036.20108  23479385.720    96144186.05546
  22435767.340   117900761.41808  22435764.140    91870716.47047
  22365207.780   117529991.21909  22365204.440    91581837.83148
  21588184.140   113446764.74009  21588184.280    88400108.49048
  24634838.720   129456872.52608  24634841.420   100875456.68845
 15 03 01 00 45  0.0000000  0  7G16G18G19G21G22G27G31
  20592940.360   108216666.03309  20592937.460    84324691.11648
  22003924.960   115631490.81109  22003922.800    90102480.29547
  23465569.560   123312416.78708  23465566.780    96087599.54646
  22448301.560   117966629.14708  22448298.460    91922041.96446
  22350250.140   117451388.48509  22350246.780    91520588.99848
  21578990.880   113398453.91209  21578991.100    88362463.71148
  24653365.620   129554231.68008  24653368.140   100951320.73845
 15 03 01 00 45 30.0000000  0  7G16G18G19G21G22G27G31
  20587084.940   108185895.43109  20587081.980    84300714.01348
  21999904.380   115610362.66509  21999902.200    90086016.81148
  23451769.360   123239896.58808  23451766.780    96031090.37646
  22460867.640   118032664.19108  22460864.520    91973497.82646
  22335343.920   117373056.05109  22335340.540    91459550.78548
  21569824.940   113350286.15709  21569825.160    88324930.41448
  24671877.660   129651512.60008  24671880.300   101027123.86645
 15 03 01 00 46  0.0000000  0  7G16G18G19G21G22G27G31
  20581317.740   108155588.51709  20581314.780    84277098.23248
  21995972.540   115589700.78209  21995970.360    90069916.66148
  23437987.080   123167471.37908  23437984.660    95974655.18546
  22473464.200   118098859.67608  22473461.020    92025078.71347
  22320488.780   117294991.82609  22320485.360    91398721.57348
  21560685.480   113302257.47109  21560685.740    88287505.48648
  24690373.520   129748708.36208  24690376.180   101102860.76045
 15 03 01 00 46 30.0000000  0  6G16G18G19G21G22G27
  20575637.120   108125736.82809  20575634.300    84253837.18448
  21992127.720   115569496.27209  21992125.560    90054172.90148
  23424221.000   123095131.03108  23424218.500    95918286.14046
  22486089.200   118165204.35708  22486085.940    92076775.86747
  22305683.280   117217188.41709  22305679.840    91338095.58048
  21551570.620   113254358.00709  21551570.880    88250181.25348
 15 03 01 00 47  0.0000000  0  6G16G18G19G21G22G27
  20570046.540   108096358.16809  20570043.820    84230944.72248
  21988373.260   115549766.65609  21988371.140    90038799.18747
  23410474.380   123022892.52608  23410471.860    95861996.45346
  22498745.360   118231712.98708  22498742.180    92128600.76446
  22290931.120   117139665.20609  22290927.620    91277687.93548
  21542483.600   113206604.82409  21542483.820    88212970.99748
 15 03 01 00 47 30.0000000  0  6G16G18G19G21G22G27
  20564545.980   108067452.31809  20564543.280    84208420.68048
  21984708.900   115530510.42709  21984706.780    90023794.34648
  23396746.580   122950752.99408  23396743.980    95805783.87946
  22511431.800   118298380.66808  22511428.760    92180549.58847
  22276232.200   117062421.84509  22276228.720    91217498.34348
  21533423.920   113158995.38009  21533424.080    88175872.74748
 15 03 01 00 48  0.0000000  0  6G16G18G19G21G22G27
  20559134.780   108039015.99709  20559131.980    84186262.50648
  21981133.900   115511723.77009  21981131.740    90009155.40748
  23383036.800   122878707.94508  23383034.060    95749644.92946
  22524147.400   118365201.50008  22524144.420    92232617.75247
  22261586.160   116985456.44509  22261582.640    91157525.34848
  21524390.740   113111525.54609  21524390.880    88138883.28548
 15 03 01 00 48 30.0000000  0  6G16G18G19G21G22G27
  20553813.260   108011051.03609  20553810.400    84164471.63048
  21977648.420   115493407.73609  21977646.260    89994883.18248
  23369345.140   122806757.94608  23369342.540    95693580.07547
  22536891.860   118432174.29508  22536889.160    92284804.32946
  22246993.500   116908771.74409  22246989.960    91097771.08448
  21515384.160   113064195.85409  21515384.340    88102003.03648
 15 03 01 00 49  0.0000000  0  6G16G18G19G21G22G27
  20548581.600   107983558.30409  20548578.680    84143048.72248
  21974252.720   115475563.17709  21974250.540    89980978.34648
  23355671.540   122734902.37008  23355668.880    95637588.78146
  22549664.660   118499296.48908  22549661.980    92337107.32247
  22232454.740   116832370.09409  22232451.140    91038237.37448
  21506404.280   113017006.16309  21506404.420    88065231.86348
 15 03 01 00 49 30.0000000  0  6G16G18G19G21G22G27
  20543440.560   107956541.64909  20543437.540    84121996.78348
  21970947.280   115458192.84209  21970945.060    89967443.03248
  23342016.360   122663143.32308  23342013.280    95581672.71046
  22562466.020   118566568.53208  22562463.520    92389527.08246
  22217970.720   116756256.11909  22217967.080    90978927.83248
  21497451.500   112969958.83709  21497451.620    88028571.62148
 15 03 01 00 50  0.0000000  0  6G16G18G19G21G22G27
  20538390.000   107930000.78809  20538386.920    84101315.58648
  21967731.900   115441295.56209  21967729.600    89954276.31848
  23328379.180   122591479.29608  23328375.980    95525830.64646
  22575295.320   118633987.22108  22575292.780    92442061.10147
  22203541.560   116680430.50509  22203537.900    90919842.97348
  21488525.540   112923052.56109  21488525.540    87992021.28448
 15 03 01 00 50 30.0000000  0  6G16G18G19G21G22G27
  20533430.560   107903939.10709  20533427.540    84081007.78948
  21964607.120   115424874.61909  21964604.740    89941480.79848
  23314760.400   122519912.26608  23314757.220    95470064.19646
  22588152.540   118701552.27908  22588150.060    92494709.18246
  22189168.120   116604897.72609  22189164.400    90860986.31548
  21479626.780   112876289.54609  21479626.740    87955582.58748
 15 03 01 00 51  0.0000000  0  6G16G18G19G21G22G27
  20528562.900   107878359.59609  20528559.960    84061075.70748
  21961573.360   115408932.02409  21961570.880    89929058.00948
  23301160.160   122448443.63408  23301157.240    95414374.41447
  22601037.640   118769263.82608  22601035.240    92547471.41247
  22174851.140   116529661.53509  22174847.340    90802360.75748
  21470755.580   112829671.49309  21470755.540    87919256.84648
 15 03 01 00 51 30.0000000  0  6G16G18G19G21G22G27
  20523786.920   107853261.85409  20523784.100    84041519.02048
  21958630.460   115393467.01109  21958628.020    89917007.36048
  23287578.260   122377071.78908  23287575.660    95358760.07047
  22613949.860   118837118.13708  22613947.620    92600344.86846
  22160590.780   116454722.88209  22160586.940    90743967.04148
  21461911.620   112783196.97109  21461911.700    87883042.94148
 15 03 01 00 52  0.0000000  0  6G16G18G19G21G22G27
  20519102.900   107828647.22309  20519100.140    84022338.78949
  21955778.460   115378479.72409  21955776.080    89905328.97348
  23274014.740   122305796.64208  23274012.480    95303221.04347
  22626888.840   118905112.47808  22626886.520    92653327.45847
  22146387.460   116380084.17609  22146383.620    90685807.06548
  21453095.000   112736866.15309  21453095.220    87846941.03248
 15 03 01 00 52 30.0000000  0  6G16G18G19G21G22G27
  20514510.700   107804515.28309  20514507.960    84003534.68448
  21953017.240   115363969.48009  21953014.900    89894022.29848
  23260469.340   122234616.10408  23260467.380    95247755.76547
  22639854.100   118973244.97208  22639851.540    92706417.69746
  22132241.420   116305746.40809  22132237.560    90627881.57848
  21444305.460   112690677.59909  21444305.800    87810949.97148
 15 03 01 00 53  0.0000000  0  6G16G18G19G21G22G27
  20510011.340   107780871.05809  20510008.600    83985110.61048
  21950347.540   115349940.12809  21950345.120    89883090.33948
  23246942.880   122163534.47108  23246940.900    95192367.53947
  22652845.860   119041516.73008  22652843.240    92759616.43846
  22118153.680   116231715.11309  22118149.800    90570194.90448
  21435543.740   112644635.09909  21435544.200    87775072.71348
 15 03 01 00 53 30.0000000  0  6G16G18G19G21G22G27
  20505603.980   107757710.41409  20505601.260    83967063.35549
  21947768.500   115336387.40209  21947766.060    89872529.79448
  23233434.160   122092545.73608  23233431.940    95137051.69947
  22665862.760   119109920.55208  22665859.980    92812918.10546
  22104123.680   116157987.38809  22104119.820    90512744.78348
  21426808.900   112598733.54609  21426809.480    87739305.29248
 15 03 01 00 54  0.0000000  0  6G16G18G19G21G22G27
  20501290.100   107735041.35509  20501287.500    83949399.15548
  21945281.440   115323318.13109  21945279.040    89862345.95748
  23219944.300   122021656.24308  23219942.100    95081813.18846
  22678905.740   119178461.16508  22678902.800    92866326.36746
  22090153.180   116084572.25409  22090149.360    90455538.23048
  21418102.260   112552979.76609  21418102.880    87703653.00948
 15 03 01 00 54 30.0000000  0  6G16G18G19G21G22G27
  20497070.060   107712865.48909  20497067.560    83932119.26548
  21942886.660   115310733.81109  21942884.300    89852540.00648
  23206473.520   121950867.04508  23206471.540    95026652.84247
  22691974.420   119247137.37608  22691971.340    92919840.27746
  22076242.760   116011472.72509  22076238.920    90398577.61948
  21409423.960   112507374.72109  21409424.540    87668116.62548
 15 03 01 00 55  0.0000000  0  6G16G18G19G21G22G27
  20492942.880   107691177.25609  20492940.420    83915219.32949
  21940582.980   115298628.00909  21940580.600    89843106.92548
  23193020.680   121880171.42408  23193018.480    94971565.38947
  22705067.200   119315940.41308  22705064.240    92973453.00446
  22062391.540   115938684.27209  22062387.680    90341859.37648
  21400772.660   112461911.74009  21400773.160    87632690.94448
 15 03 01 00 55 30.0000000  0  6G16G18G19G21G22G27
  20488909.760   107669983.28309  20488907.420    83898704.54748
  21938371.420   115287006.34609  21938369.000    89834051.10048
  23179586.600   121809574.36508  23179584.240    94916554.75847
  22718184.760   119384873.80508  22718181.840    93027167.32646
  22048600.860   115866214.22409  22048597.080    90285389.25748
  21392149.400   112416596.34809  21392149.880    87597380.26348
 15 03 01 00 56  0.0000000  0  6G16G18G19G21G22G27
  20484971.220   107649286.27809  20484969.000    83882577.01348
  21936252.380   115275870.84709  21936250.000    89825374.10448
  23166171.520   121739077.00008  23166168.920    94861621.80247
  22731327.040   119453937.06608  22731324.240    93080982.83946
  22034871.540   115794066.61809  22034867.840    90229170.39248
