     2.11           OBSERVATION DATA    G                   RINEX VERSION / TYPE
SPIDER V4,0,0,3554                      2015 03 16 00:09    PGM / RUN BY / DATE 
OLHC                                                        MARKER NAME         
OLHC                                                        MARKER NUMBER       
                                                            OBSERVER / AGENCY   
496563              LEICA GRX1200+GNSS  8.20/4.007          REC # / TYPE / VERS 
10401012            LEIAR25         NONE                    ANT # / TYPE        
  5213038.6056  -137570.4416  3660672.8464                  APPROX POSITION XYZ 
        0.0750        0.0000        0.0000                  ANTENNA: DELTA H/E/N
     1     1                                                WAVELENGTH FACT L1/2
     4    C1    L1    P2    L2                              # / TYPES OF OBSERV 
    30.000                                                  INTERVAL            
  2015    03    01    11    54    0.0000000     GPS         TIME OF FIRST OBS   
  2015    03    01    23    59   30.0000000     GPS         TIME OF LAST OBS    
    16                                                      LEAP SECONDS        
    24                                                      # OF SATELLITES     
   G 2   556   556   556   556                              PRN / # OF OBS      
   G 5   495   495   495   495                              PRN / # OF OBS      
   G 6    72    72    72    72                              PRN / # OF OBS      
   G 7   189   189   189   189                              PRN / # OF OBS      
   G 9    88    88    88    88                              PRN / # OF OBS      
   G10   269   269   269   269                              PRN / # OF OBS      
   G12   802   802   802   802                              PRN / # OF OBS      
   G13   700   700   700   700                              PRN / # OF OBS      
   G14   533   528   523   523                              PRN / # OF OBS      
   G15   746   746   746   746                              PRN / # OF OBS      
   G16   222   222   222   222                              PRN / # OF OBS      
   G17   379   379   379   379                              PRN / # OF OBS      
   G18   544   544   544   544                              PRN / # OF OBS      
   G19     8     8     8     8                              PRN / # OF OBS      
   G20   214   214   214   214                              PRN / # OF OBS      
   G21   418   418   418   418                              PRN / # OF OBS      
   G22   259   258   256   256                              PRN / # OF OBS      
   G24   839   829   821   821                              PRN / # OF OBS      
   G25   841   840   840   840                              PRN / # OF OBS      
   G27   181   181   180   180                              PRN / # OF OBS      
   G28   515   515   515   515                              PRN / # OF OBS      
   G29   717   717   717   717                              PRN / # OF OBS      
   G30   345   345   345   345                              PRN / # OF OBS      
   G31   543   543   543   543                              PRN / # OF OBS      
BIT 2 OF LLI FLAGS DATA COLLECTED UNDER A/S CONDITION       COMMENT             
SNR is mapped to RINEX snr flag value [2-9]                 COMMENT             
Lx:     = 25dBHz -> 1; 26-27dBHz -> 2; 28-31dBHz -> 3       COMMENT             
       32-35dBHz -> 4; 36-38dBHz -> 5; 39-41dBHz -> 6       COMMENT             
       42-44dBHz -> 7; 45-48dBHz -> 8; >=49dBHz -> 9        COMMENT             
                                                            END OF HEADER       
 15 03 01 11 54  0.0000000  0 10G02G05G06G07G09G10G13G20G28G30
  21502453.000   112996155.84809  21502451.720    88048944.55948
  21652969.160   113787122.00009  21652969.640    88665291.81548
  23255026.480   122205985.11508  23255034.180    95225468.45447
  21514788.320   113060979.55109  21514788.880    88099462.19848
  23497085.800   123478020.19608  23497090.240    96216651.56846
  20670495.240   108624183.91509  20670495.400    84642223.14548
  22894658.900   120312244.69408  22894660.160    93749809.55146
  21008023.740   110397909.81809  21008023.700    86024343.77148
  23620675.760   124127501.65408  23620683.380    96722748.74346
  20352250.740   106951800.68609  20352252.560    83339072.81249
 15 03 01 11 54 30.0000000  0 10G02G05G06G07G09G10G13G20G28G30
  21509888.980   113035232.01409  21509887.780    88079393.43947
  21639689.900   113717339.03909  21639690.300    88610915.50448
  23274582.140   122308750.20608  23274589.760    95305544.88746
  21526900.640   113124630.20109  21526901.180    88149060.05847
  23510833.180   123550262.67208  23510837.380    96272944.27145
  20678908.860   108668397.96009  20678909.160    84676675.60748
  22882126.220   120246385.65209  22882127.560    93698490.86645
  21019565.300   110458560.83109  21019565.200    86071604.24147
  23605086.820   124045582.17208  23605094.520    96658915.61845
  20353790.980   106959895.20909  20353792.880    83345380.21448
 15 03 01 11 55  0.0000000  0 10G02G05G06G07G09G10G13G20G28G30
  21517420.740   113074811.25409  21517419.580    88110234.33448
  21626460.040   113647816.35109  21626460.400    88556742.02048
  23294159.380   122411628.35308  23294167.000    95385709.42047
  21539080.800   113188636.98009  21539081.280    88198935.42348
  23524588.260   123622545.49308  23524592.340    96329268.41846
  20687401.180   108713025.60309  20687401.620    84711450.35048
  22869620.520   120180668.76208  22869621.980    93647282.94746
  21031181.400   110519603.71209  21031181.220    86119170.06748
  23589516.480   123963761.02608  23589524.280    96595159.15945
  20355434.400   106968531.67609  20355436.300    83352109.91248
 15 03 01 11 55 30.0000000  0 10G02G05G06G07G09G10G13G20G28G30
  21525048.080   113114892.68909  21525046.820    88141466.55948
  21613280.340   113578557.04609  21613280.660    88502773.75348
  23313757.780   122514617.59708  23313765.460    95465960.52347
  21551328.500   113252998.49209  21551328.900    88249087.20448
  23538351.160   123694869.48708  23538355.440    96385624.65146
  20695972.360   108758067.69709  20695972.880    84746548.04148
  22857142.060   120115094.79208  22857143.580    93596186.38446
  21042872.280   110581039.41209  21042872.020    86167041.97848
  23573965.820   123882042.35008  23573973.340    96531482.53145
  20357181.040   106977710.20809  20357182.940    83359261.99848
 15 03 01 11 56  0.0000000  0 10G02G05G06G07G09G10G13G20G28G30
  21532770.820   113155475.33409  21532769.360    88173089.34848
  21600151.340   113509564.04009  21600151.720    88449013.00948
  23333376.780   122617715.51508  23333384.520    95546296.30546
  21563643.420   113317713.13509  21563643.740    88299514.16548
  23552121.920   123767235.02808  23552126.480    96442013.26747
  20704622.460   108803524.26909  20704622.920    84781968.71548
  22844690.940   120049664.47208  22844692.520    93545201.77446
  21054637.820   110642867.66809  21054637.540    86215219.79548
  23558435.540   123800429.71808  23558442.660    96467888.55045
  20359030.740   106987430.37309  20359032.680    83366836.14748
 15 03 01 11 56 30.0000000  0 10G02G05G06G07G09G10G13G20G28G30
  21540588.620   113196557.54809  21540587.060    88205101.39848
  21587073.420   113440839.55409  21587073.820    88395461.48348
  23353015.940   122720919.51708  23353023.780    95626714.73746
  21576025.160   113382779.06809  21576025.420    88350214.84148
  23565900.640   123839642.34308  23565905.500    96498434.43146
  20713351.540   108849395.51309  20713351.840    84817712.50548
  22832267.240   119984378.11509  22832268.820    93494329.32946
  21066478.000   110705087.99709  21066477.680    86263703.12148
  23542926.200   123718926.42508  23542932.740    96404379.77745
  20360983.400   106997691.59509  20360985.300    83374831.88148
 15 03 01 11 57  0.0000000  0 10G02G05G06G07G09G10G13G20G28G30
  21548500.860   113238136.18809  21548499.240    88237500.26648
  21574046.900   113372384.87609  21574047.380    88342120.20448
  23372674.560   122824225.72308  23372682.520    95707212.82046
  21588473.120   113448193.05409  21588473.320    88401186.72748
  23579687.180   123912090.34608  23579692.120    96554887.30346
  20722159.320   108895680.16509  20722159.440    84853778.43548
  22819870.940   119919234.87009  22819872.380    93443568.40446
  21078392.460   110767698.78909  21078392.180    86312490.69848
  23527438.080   123637534.31008  23527443.880    96340957.63145
  20363038.620   107008492.00409  20363040.480    83383247.77048
 15 03 01 11 57 30.0000000  0 10G02G05G06G07G09G10G13G20G28G30
  21556507.640   113280211.57509  21556505.980    88270286.22347
  21561072.620   113304204.68209  21561073.180    88288992.81548
  23392352.600   122927633.42608  23392360.600    95787789.98446
  21600987.340   113513955.27409  21600987.560    88452429.96448
  23593481.940   123984581.16908  23593486.680    96611373.53046
  20731046.120   108942380.28609  20731046.120    84890168.10748
  22807502.180   119854236.63108  22807503.620    93392920.47946
  21090381.400   110830701.28809  21090381.260    86361583.50548
  23511972.100   123556259.02208  23511977.120    96277626.54345
  20365196.680   107019832.85109  20365198.520    83392084.78248
 15 03 01 11 58  0.0000000  0 10G02G05G06G07G09G10G13G20G28G30
  21564608.100   113322779.67509  21564606.560    88303456.10947
  21548150.600   113236298.96409  21548151.140    88236079.29548
  23412049.080   123031137.53408  23412057.040    95868442.26246
  21613566.960   113580061.21609  21613567.160    88503941.04748
  23607284.360   124057112.48208  23607288.820    96667891.32046
  20740011.500   108989493.29709  20740011.440    84926879.51848
  22795160.540   119789381.40609  22795162.000    93342384.01445
  21102444.320   110894092.58409  21102444.280    86410979.27348
  23496528.280   123475101.26308  23496532.840    96214387.03445
  20367456.900   107031710.96009  20367458.860    83401340.44548
 15 03 01 11 58 30.0000000  0 10G02G05G06G07G09G10G13G20G28G30
  21572802.060   113365839.75609  21572800.660    88337009.35648
  21535281.440   113168671.07209  21535281.960    88183382.26548
  23431763.560   123134736.14208  23431771.360    95949168.16547
  21626211.800   113646509.63409  21626211.900    88555718.99448
  23621094.520   124129685.14708  23621098.720    96724441.32846
  20749055.600   109037019.84909  20749055.540    84963913.16548
  22782846.380   119724670.25309  22782847.820    93291959.79646
  21114581.260   110957872.90809  21114581.300    86460678.18148
  23481107.380   123394065.00908  23481111.840    96151242.22445
  20369819.300   107044126.35709  20369821.360    83411014.76649
 15 03 01 11 59  0.0000000  0 10G02G05G06G07G09G10G13G20G28G30
  21581089.740   113409392.08909  21581088.280    88370946.18848
  21522465.980   113101325.38309  21522466.440    88130905.13048
  23451495.780   123238428.57808  23451503.540    96029967.18746
  21638921.760   113713300.46509  21638921.800    88607763.75248
  23634912.960   124202301.34808  23634917.060    96781025.25746
  20758178.740   109084961.94709  20758178.720    85001270.61648
  22770560.080   119660105.46809  22770561.380    93241649.64146
  21126792.520   111022043.81709  21126792.680    86510681.43448
  23465710.460   123313155.66308  23465714.980    96088196.31245
  20372284.260   107057080.26909  20372286.340    83421108.71948
 15 03 01 11 59 30.0000000  0 10G02G05G06G07G09G10G13G20G28G30
  21589470.520   113453433.12509  21589468.940    88405263.82348
  21509704.340   113034262.38309  21509704.660    88078648.27348
  23471244.900   123342210.51008  23471252.740    96110835.93946
  21651696.160   113780430.08809  21651696.180    88660072.50048
  23648739.380   124274959.60708  23648743.500    96837641.97246
  20767380.580   109133317.79609  20767380.640    85038950.47148
  22758301.280   119595685.46809  22758302.500    93191452.30846
  21139077.680   111086603.00509  21139077.920    86560987.25048
  23450337.840   123232374.75308  23450342.540    96025250.48545
  20374851.320   107070570.22109  20374853.380    83431620.37048
 15 03 01 12 00  0.0000000  0 10G02G05G06G07G09G10G13G20G28G30
  21597943.520   113497958.62609  21597941.900    88439958.95848
  21496996.580   112967482.52309  21496996.720    88026612.04148
  23491009.920   123446076.73808  23491017.900    96191770.37946
  21664534.180   113847894.13909  21664534.080    88712641.84548
  23662573.400   124347657.54208  23662577.720    96894289.58446
  20776660.540   109182084.60409  20776660.760    85076950.55148
  22746069.640   119531408.07309  22746070.760    93141366.09846
  21151436.120   111151547.21109  21151436.440    86611593.07348
  23434989.760   123151723.19908  23434994.840    95962405.46445
  20377519.840   107084592.86809  20377521.800    83442547.10048
 15 03 01 12 00 30.0000000  0 10G02G05G06G07G09G10G13G20G28G30
  21606508.420   113542967.54509  21606506.960    88475030.78247
  21484343.320   112900988.99809  21484343.320    87974798.91948
  23510790.760   123550025.84808  23510798.860    96272769.40846
  21677435.640   113915691.89509  21677435.420    88765471.22347
  23676415.280   124420396.52608  23676419.820    96950969.18146
  20786018.820   109231263.34909  20786019.160    85115271.61648
  22733865.360   119467274.63809  22733866.480    93091392.06246
  21163868.000   111216877.35509  21163868.380    86662499.62648
  23419667.280   123071205.30908  23419672.700    95899664.59545
  20380289.820   107099148.63609  20380291.680    83453889.25348
 15 03 01 12 01  0.0000000  0 10G02G05G06G07G09G10G13G20G28G30
  21615164.760   113588457.40409  21615163.560    88510477.37347
  21471744.880   112834783.54109  21471744.780    87923210.27448
  23530586.860   123654054.15508  23530594.920    96353830.14745
  21690400.000   113983820.32109  21690399.740    88818558.26148
  23690264.800   124493175.68008  23690269.620    97007680.09246
  20795455.260   109280852.96409  20795455.720    85153912.83648
  22721688.300   119403284.40409  22721689.440    93041529.61946
  21176372.940   111282591.66309  21176373.440    86713705.52948
  23404370.820   122990823.47208  23404376.360    95837029.75745
  20383160.920   107114235.64009  20383162.680    83465645.35848
 15 03 01 12 01 30.0000000  0 10G02G05G06G07G09G10G13G20G28G30
  21623912.240   113634425.91409  21623911.220    88546296.94748
  21459201.560   112768868.03909  21459201.420    87871847.56448
  23550397.620   123758158.60108  23550405.460    96434950.21746
  21703426.800   114052277.15109  21703426.600    88871901.18848
  23704121.840   124565994.73508  23704126.960    97064422.08446
  20804969.820   109330852.71909  20804970.240    85192873.65148
  22709538.580   119339437.39709  22709539.720    92991778.77346
  21188950.720   111348688.66809  21188951.340    86765209.63048
  23389100.780   122910580.40008  23389106.300    95774503.06045
  20386132.920   107129852.57809  20386134.520    83477814.40548
 15 03 01 12 02  0.0000000  0 10G02G05G06G07G09G10G13G20G28G30
  21632751.260   113680874.99409  21632750.280    88582490.99748
  21446714.620   112703248.73209  21446714.480    87820715.66048
  23570223.200   123862340.26308  23570230.800    96516130.44146
  21716516.340   114121063.79409  21716516.340    88925501.11648
  23717987.160   124638857.59708  23717992.560    97121198.21046
  20814563.220   109381266.42609  20814563.560    85232157.01648
  22697416.900   119275737.58409  22697418.080    92942142.61846
  21201602.020   111415171.78809  21201602.740    86817014.61148
  23373858.600   122830483.40408  23373864.100    95712090.20045
  20389206.220   107146002.28009  20389207.780    83490398.59448
 15 03 01 12 02 30.0000000  0 10G02G05G06G07G09G10G13G20G28G30
  21641680.160   113727796.27509  21641679.080    88619052.97948
  21434283.300   112637921.66009  21434283.140    87769811.47148
  23590061.700   123966589.86108  23590069.120    96597363.59646
  21729667.040   114190171.72209  21729667.260    88979351.39348
  23731859.560   124711757.80808  23731865.080    97178003.43746
  20824234.140   109432087.33009  20824234.420    85271757.67748
  22685321.960   119212178.40009  22685323.160    92892616.04946
  21214325.440   111482033.93209  21214326.280    86869114.92448
  23358643.640   122750528.87508  23358649.040    95649788.34645
  20392379.400   107162677.21909  20392380.980    83503392.05549
 15 03 01 12 03  0.0000000  0 10G02G05G06G07G09G10G13G20G28G30
  21650699.220   113775191.86609  21650698.120    88655984.55347
  21421908.780   112572892.96809  21421908.620    87719139.79248
  23609913.280   124070908.66108  23609920.780    96678650.67746
  21742879.220   114259602.77009  21742879.680    89033453.45848
  23745739.960   124784699.44008  23745745.300    97234840.93746
  20833983.240   109483319.04409  20833983.520    85311678.44848
  22673254.640   119148764.12908  22673255.740    92843202.39946
  21227121.500   111549278.08109  21227122.460    86921512.90848
  23343457.080   122670724.01208  23343462.280    95587603.11545
  20395653.060   107179880.36409  20395654.680    83516797.12148
 15 03 01 12 03 30.0000000  0 10G02G05G06G07G09G10G13G20G28G30
  21659807.560   113823056.62609  21659806.360    88693281.70547
  21409590.860   112508162.11209  21409590.800    87668700.18848
  23629776.740   124175291.04608  23629784.620    96759987.29646
  21756152.100   114329352.24609  21756152.660    89087803.64247
  23759627.860   124857679.74408  23759632.780    97291708.55445
  20843809.980   109534958.40909  20843810.220    85351916.87648
  22661214.260   119085491.94708  22661215.380    92793899.45746
  21239989.720   111616900.79709  21239990.640    86974205.88347
  23328298.980   122591069.10908  23328303.860    95525534.72844
  20399026.480   107197607.79509  20399028.120    83530610.71048
 15 03 01 12 04  0.0000000  0 10G02G05G06G07G09G10G13G20G28G30
  21669005.760   113871393.08909  21669004.420    88730946.42447
  21397330.940   112443736.30909  21397330.960    87618498.29548
  23649652.500   124279738.93308  23649660.900    96841374.96146
  21769486.000   114399422.22409  21769486.620    89142403.57247
  23773524.020   124930703.41208  23773528.540    97348609.95645
  20853715.100   109587009.65109  20853715.340    85392476.24448
  22649201.840   119022366.74208  22649203.060    92744711.05246
  21252930.760   111684905.90109  21252931.580    87027196.81747
  23313170.880   122511572.17008  23313175.460    95463589.41845
  20402500.320   107215863.11609  20402502.000    83544835.63548
 15 03 01 12 04 30.0000000  0 10G02G05G06G07G09G10G13G20G28G30
  21678292.740   113920195.75209  21678291.280    88768974.42847
  21385128.740   112379614.00409  21385128.840    87568532.89348
  23669539.480   124384245.86808  23669548.380    96922808.63147
  21782879.940   114469807.40709  21782880.480    89197249.11448
  23787427.700   125003766.80008  23787432.000    97405542.30546
  20863697.740   109639468.59409  20863698.080    85433353.30048
  22637216.680   118959384.94509  22637217.980    92695634.39746
  21265943.780   111753288.90509  21265944.480    87080482.21648
  23298072.680   122432232.56108  23298077.160    95401766.69445
  20406073.660   107234641.45109  20406075.360    83559468.10749
 15 03 01 12 05  0.0000000  0 10G02G05G06G07G09G10G13G20G28G30
  21687667.620   113969460.61409  21687666.180    88807362.59148
  21372984.540   112315796.23609  21372984.620    87518804.79648
  23689437.040   124488807.50308  23689446.160    97004284.93746
  21796333.080   114540503.67509  21796333.580    89252337.07448
  23801338.580   125076868.42708  23801343.040    97462504.47246
  20873757.560   109692333.42109  20873758.020    85474546.63948
  22625258.560   118896544.99209  22625259.860    92646668.26546
  21279028.180   111822047.02409  21279028.780    87134059.92048
  23283004.720   122353051.72308  23283009.140    95340067.68645
  20409746.040   107253940.15909  20409747.720    83574506.07349
 15 03 01 12 05 30.0000000  0 10G02G05G06G07G09G10G13G20G28G30
  21697130.320   114019187.46409  21697128.980    88846110.73148
  21360898.980   112252286.58109  21360899.060    87469316.79348
  23709345.000   124593422.70508  23709353.980    97085802.98746
  21809845.340   114611510.61309  21809845.780    89307667.10448
  23815256.980   125150009.94408  23815261.820    97519497.73946
  20883894.800   109745605.04809  20883895.340    85516056.95848
  22613327.680   118833848.27209  22613329.020    92597813.75246
  21292184.120   111891181.21709  21292184.660    87187930.66648
  23267968.020   122274034.70608  23267972.160    95278496.30745
  20413517.520   107273759.63609  20413519.180    83589949.81948
 15 03 01 12 06  0.0000000  0 10G02G05G06G07G09G10G13G20G28G30
  21706680.040   114069371.01409  21706678.620    88885214.74247
  21348871.940   112189084.46909  21348872.020    87420068.42848
  23729262.140   124698085.52508  23729270.780    97167358.13546
  21823415.700   114682822.93909  21823416.060    89363235.09648
  23829182.420   125223188.19908  23829187.560    97576519.62446
  20894108.820   109799279.90609  20894109.360    85557881.48748
  22601423.680   118771292.34109  22601424.880    92549068.93846
  21305410.820   111960687.51909  21305411.300    87242091.37048
  23252962.440   122195181.04608  23252966.320    95217052.21945
  20417387.180   107294095.54609  20417388.900    83605795.98548
 15 03 01 12 06 30.0000000  0 10G02G05G06G07G09G10G13G20G28G30
  21716317.240   114120013.94309  21716315.660    88924676.71848
  21336904.780   112126197.25709  21336904.920    87371065.44148
  23749188.820   124802798.43408  23749197.000    97248952.31046
  21837044.800   114754443.74909  21837045.080    89419043.46448
  23843115.900   125296408.53708  23843121.240    97633574.29946
  20904400.480   109853363.10809  20904401.060    85600024.20448
  22589547.420   118708882.32809  22589548.440    92500437.82346
  21318709.160   112030570.25509  21318709.560    87296545.40348
  23237989.580   122116499.47808  23237993.460    95155742.21745
  20421355.900   107314951.92209  20421357.700    83622047.71148
 15 03 01 12 07  0.0000000  0 10G02G05G06G07G09G10G13G20G28G30
  21726040.340   114171108.62709  21726038.740    88964490.71047
  21324996.900   112063621.59609  21324997.140    87322305.21848
  23769123.340   124907552.95508  23769131.120    97330578.90246
  21850731.120   114826365.13709  21850731.320    89475086.04848
  23857056.340   125369665.23208  23857061.700    97690657.28846
  20914768.640   109907848.43709  20914769.260    85642480.26448
  22577697.880   118646612.66209  22577698.860    92451916.07446
  21332077.820   112100822.70109  21332078.220    87351287.52148
  23223048.980   122037987.20208  23223052.800    95094564.11345
  20425422.320   107336321.80809  20425424.200    83638699.58448
 15 03 01 12 07 30.0000000  0 10G02G05G06G07G09G10G13G20G28G30
  21735850.080   114222659.57909  21735848.620    89004660.21547
  21313150.040   112001366.48009  21313150.360    87273794.76548
  23789066.360   125012352.94508  23789074.040    97412240.92346
  21864475.540   114898591.64809  21864475.660    89531366.38348
  23871005.000   125442965.06008  23871010.260    97747773.88646
  20925214.440   109962741.86509  20925215.160    85685254.32348
  22565876.340   118584489.89009  22565877.260    92403508.77246
  21345517.940   112171450.79809  21345518.360    87406322.35148
  23208142.420   121959653.86408  23208146.160    95033525.41345
  20429587.440   107358210.59909  20429589.460    83655755.79148
 15 03 01 12 08  0.0000000  0 10G02G05G06G07G09G10G13G20G28G30
  21745745.040   114274658.71909  21745743.760    89045178.97747
  21301363.580   111939428.53009  21301363.920    87225531.45648
  23809016.320   125117190.03308  23809024.200    97493931.85346
  21878276.580   114971115.32809  21878276.600    89587878.28848
  23884960.760   125516302.41208  23884965.900    97804919.73946
  20935736.740   110018037.11909  20935737.540    85728341.50348
  22554081.600   118522508.49309  22554082.480    92355211.65446
  21359028.220   112242447.47609  21359028.640    87461644.39848
  23193269.440   121881497.58208  23193273.200    94972624.68645
  20433850.020   107380611.43909  20433852.200    83673210.99748
 15 03 01 12 08 30.0000000  0 10G02G05G06G07G09G10G13G20G28G30
  21755725.680   114327107.88809  21755724.600    89086048.38648
  21289638.640   111877814.01509  21289639.000    87177520.17048
  23828973.520   125222065.41908  23828981.820    97575652.61846
  21892134.480   115043937.93109  21892134.420    89644623.10448
  23898924.360   125589681.27308  23898929.280    97862097.90946
  20946336.160   110073737.76809  20946337.060    85771744.56748
  22542314.600   118460672.78009  22542315.520    92307028.03346
  21372609.240   112313815.98609  21372609.640    87517256.18448
  23178431.320   121803524.69208  23178435.160    94911866.83445
  20438210.660   107403526.95409  20438212.880    83691067.24049
 15 03 01 12 09  0.0000000  0 10G02G05G06G07G09G10G13G20G28G30
  21765790.880   114380001.22909  21765789.940    89127263.90248
  21277975.040   111816521.61409  21277975.360    87129759.88848
  23848936.820   125326972.61208  23848945.500    97657398.17646
  21906048.120   115117053.74009  21906048.000    89701596.39848
  23912895.160   125663097.98608  23912899.960    97919305.58046
  20957012.120   110129839.95409  20957013.020    85815460.52548
  22530574.560   118398978.90309  22530575.540    92258954.93746
  21386260.080   112385551.52409  21386260.460    87573153.96348
  23163628.080   121725734.68908  23163632.040    94851251.49445
  20442668.380   107426952.10509  20442670.540    83709320.60748
 15 03 01 12 09 30.0000000  0 10G02G05G06G07G09G10G13G20G28G30
  21775940.360   114433336.95109  21775939.460    89168824.12847
  21266373.300   111755554.02509  21266373.600    87082252.70148
  23868905.840   125431909.58008  23868914.920    97739166.93046
  21920017.180   115190461.13909  21920017.060    89758796.89548
  23926873.360   125736553.34508  23926878.220    97976543.36446
  20967764.580   110186343.69009  20967765.360    85859489.37448
  22518861.660   118337427.62909  22518862.620    92210992.96146
  21399980.800   112457654.15009  21399981.120    87629337.77647
  23148860.520   121648131.92508  23148864.480    94790782.03145
  20447223.060   107450886.29009  20447225.040    83727970.61548
 15 03 01 12 10  0.0000000  0 10G02G05G06G07G09G10G13G20G28G30
  21786174.300   114487116.19309  21786173.460    89210729.95947
  21254834.540   111694916.99609  21254834.740    87035003.09848
  23888880.640   125536876.89508  23888890.040    97820959.34546
  21934041.920   115264161.38809  21934041.840    89816225.58748
  23940859.540   125810050.67008  23940864.580    98033813.84146
  20978593.880   110243251.47509  20978594.560    85903833.07648
  22507176.500   118276022.14008  22507177.420    92163144.57946
  21413771.720   112530125.81309  21413772.040    87685809.15347
  23134129.720   121570722.12008  23134133.720    94730462.91445
  20451874.980   107475331.46909  20451876.800    83747018.80748
 15 03 01 12 10 30.0000000  0 10G02G05G06G07G09G10G13G20G28G30
  21796491.200   114541331.33309  21796490.380    89252975.45647
  21243358.100   111634607.44209  21243358.220    86988008.67748
  23908859.640   125641866.45308  23908869.300    97902769.07846
  21948120.840   115338146.76409  21948120.820    89873876.46448
  23954852.740   125883584.73108  23954857.960    98091112.95446
  20989498.880   110300557.44009  20989499.520    85948487.04848
  22495518.100   118214757.40508  22495519.080    92115405.87946
  21427631.740   112602960.47909  21427632.040    87742563.38448
  23119435.300   121493503.20008  23119439.260    94670292.52745
  20456622.900   107500280.95109  20456624.500    83766459.95548
 15 03 01 12 11  0.0000000  0 10G02G05G06G07G09G10G13G20G28G30
  21806891.000   114595981.74909  21806890.100    89295560.13347
  21231944.800   111574629.48309  21231944.820    86941272.64348
  23928842.620   125746877.34507  23928852.580    97984595.43346
  21962253.900   115412416.97409  21962253.920    89931749.28748
  23968853.280   125957157.43508  23968858.700    98148442.17846
  21000479.820   110358263.01909  21000480.460    85993452.40548
  22483886.900   118153635.68008  22483888.060    92067778.62146
  21441560.900   112676158.37509  21441561.120    87799600.65548
  23104778.220   121416480.21008  23104782.060    94610274.81045
  20461466.780   107525735.14709  20461468.300    83786294.39048
 15 03 01 12 11 30.0000000  0 10G02G05G06G07G09G10G13G20G28G30
  21817373.620   114651067.67709  21817372.540    89338484.17147
  21220595.460   111514988.04709  21220595.400    86894798.84348
  23948829.600   125851909.43208  23948839.820    98066438.31046
  21976441.200   115486972.38509  21976441.300    89989844.34148
  23982861.640   126030771.45608  23982867.260    98205803.62246
  21011537.180   110416370.01109  21011537.820    86038730.55048
  22472283.400   118092659.31209  22472284.640    92020264.63146
  21455559.520   112749721.34409  21455559.740    87856922.39948
  23090159.520   121339658.81808  23090163.180    94550414.16946
  20466406.820   107551695.33009  20466408.320    83806523.10048
 15 03 01 12 12  0.0000000  0 10G02G05G06G07G09G10G13G20G28G30
  21827937.660   114706581.48809  21827936.460    89381741.59847
  21209309.500   111455680.52809  21209309.520    86848585.22748
  23968819.180   125956954.79508  23968829.560    98148291.52745
  21990681.340   115561805.78209  21990681.660    90048155.99547
  23996876.900   126104421.64508  23996882.680    98263193.23046
  21022669.880   110474872.70509  21022670.520    86084317.02648
  22460706.540   118031823.07509  22460707.780    91972859.82746
  21469626.500   112823643.38609  21469626.700    87914523.93447
  23075578.800   121263037.04808  23075582.360    94490709.07845
  20471441.860   107578154.87009  20471443.360    83827140.90848
 15 03 01 12 12 30.0000000  0 10G02G05G06G07G09G10G13G20G28G30
  21838583.140   114762523.17509  21838581.800    89425332.43547
  21198087.760   111396710.88309  21198087.900    86802634.89548
  23988811.260   126062012.77608  23988821.600    98230154.57346
  22004974.380   115636916.96309  22004974.860    90106684.10448
  24010899.480   126178110.10208  24010905.340    98320612.65546
  21033878.220   110533772.47709  21033878.800    86130212.92048
  22449156.820   117971129.11809  22449157.940    91925565.90246
  21483761.820   112897925.09209  21483762.060    87972405.72547
  23061037.080   121186620.17708  23061040.540    94431163.65046
  20476572.020   107605114.35209  20476573.600    83848148.28748
 15 03 01 12 13  0.0000000  0 10G02G05G06G07G09G10G13G20G28G30
  21849309.680   114818890.89509  21849308.300    89469255.24247
  21186930.860   111338082.07809  21186931.100    86756950.14748
  24008805.440   126167081.14108  24008815.560    98312025.71346
  22019320.100   115712304.40109  22019320.700    90165427.48448
  24024929.440   126251837.50008  24024935.380    98378062.44546
  21045162.180   110593069.31809  21045162.660    86176418.21148
  22437634.440   117910578.47609  22437635.300    91878383.63546
  21497965.460   112972566.20709  21497965.820    88030567.58047
  23046534.920   121110411.39508  23046538.380    94371780.36446
  20481797.140   107632572.93009  20481798.840    83869544.56148
 15 03 01 12 13 30.0000000  0 10G02G05G06G07G09G10G13G20G28G30
  21860116.660   114875681.85009  21860115.400    89513507.83447
  21175839.320   111279796.32309  21175839.660    86711532.70648
  24028801.140   126272157.30608  24028811.080    98393902.92146
  22033718.040   115787965.81309  22033718.700    90224384.35548
  24038966.800   126325603.98608  24038972.700    98435542.67245
  21056521.480   110652762.51909  21056521.980    86222932.35148
  22426139.300   117850170.93209  22426140.040    91831312.87846
  21512237.280   113047566.03609  21512237.820    88089008.95247
  23032072.920   121034413.96808  23032076.280    94312561.79346
  20487117.020   107660529.18209  20487118.760    83891328.62948
 15 03 01 12 14  0.0000000  0 10G02G05G06G07G09G10G13G20G28G30
  21871003.300   114932891.84509  21871002.200    89558086.96947
  21164813.240   111221853.94409  21164813.520    86666382.82948
  24048797.380   126377236.72208  24048807.240    98475782.66246
  22048167.460   115863897.31609  22048168.140    90283551.68048
  24053011.180   126399407.81408  24053017.000    98493052.01545
  21067955.680   110712849.69509  21067956.220    86269753.49148
  22414671.020   117789904.88209  22414671.820    91784352.39546
  21526576.700   113122920.95909  21526577.480    88147727.02047
  23017651.320   120958629.07608  23017654.620    94253508.83546
  20492531.000   107688979.85209  20492532.780    83913497.96648
 15 03 01 12 14 30.0000000  0 10G02G05G06G07G09G10G13G20G28G30
  21881969.820   114990521.45409  21881968.840    89602993.09047
  21153853.600   111164260.07209  21153853.720    86621504.50448
  24068794.160   126482319.24908  24068804.020    98557664.82745
  22062668.360   115940099.22409  22062669.000    90342929.71747
  24067063.220   126473251.73008  24067068.940    98550592.60845
  21079465.160   110773332.81009  21079465.740    86316883.15548
  22403230.180   117729783.04009  22403231.040    91737504.26946
  21540984.120   113198632.72009  21540985.020    88206723.14647
  23003271.280   120883062.51708  23003274.580    94194626.00245
  20498039.280   107717926.01409  20498041.080    83936053.39748
 15 03 01 12 15  0.0000000  0 10G02G05G06G07G09G10G13G20G28G30
  21893015.420   115048566.87609  21893014.640    89648223.21547
  21142960.380   111107015.37309  21142960.400    86576898.26148
  24088790.620   126587400.74108  24088800.680    98639546.20646
  22077219.980   116016567.99609  22077220.640    90402515.69347
  24081122.660   126547134.20508  24081128.420    98608163.24546
  21091049.540   110834209.61809  21091050.160    86364319.59548
  22391816.480   117669804.05509  22391817.360    91690767.46246
  21555459.080   113274698.68809  21555459.940    88265995.27847
  22988933.100   120807715.84708  22988936.460    94135914.51245
  20503641.260   107747364.69209  20503643.080    83958992.60148
 15 03 01 12 15 30.0000000  0 10G02G05G06G07G09G10G13G20G28G30
  21904139.340   115107023.69309  21904138.740    89693773.88447
  21132133.740   111050120.77009  21132133.720    86532564.80848
  24108786.140   126692477.15108  24108796.340    98721423.59646
  22091821.640   116093299.78009  22091822.340    90462306.60848
  24095189.300   126621054.08308  24095195.160    98665763.01746
  21102708.540   110895478.23709  21102709.140    86412061.33148
  22380429.620   117609966.54209  22380430.560    91644140.87646
  21570001.080   113351116.38709  21570001.800    88325541.47747
  22974637.060   120732590.76208  22974640.460    94077375.67546
  20509336.420   107777293.02809  20509338.260    83982313.35648
 15 03 01 12 16  0.0000000  0 10G02G05G06G07G09G10G13G20G28G30
  21915341.600   115165891.98509  21915341.140    89739645.18647
  21121374.540   110993580.81909  21121374.600    86488507.72448
  24128780.680   126797548.14108  24128791.000    98803296.78145
  22106473.400   116170294.98109  22106474.200    90522302.80048
  24109263.500   126695013.79308  24109269.560    98723393.82946
  21114442.420   110957139.89109  21114442.920    86460109.33748
  22369070.100   117550272.90509  22369071.140    91597626.41346
  21584610.260   113427887.10809  21584610.800    88385362.76947
  22960384.220   120657692.72808  22960387.520    94019013.76145
  20515124.940   107807711.84309  20515126.840    84006016.30848
 15 03 01 12 16 30.0000000  0 10G02G05G06G07G09G10G13G20G28G30
  21926621.240   115225166.23909  21926620.700    89785832.81447
  21110682.680   110937394.82009  21110682.780    86444726.44548
  24148773.180   126902607.89008  24148783.580    98885161.21445
  22121174.300   116247548.37209  22121175.180    90582500.17648
  24123344.700   126769010.28408  24123350.920    98781053.30146
  21126250.540   111019191.09709  21126250.900    86508460.88448
  22357737.400   117490720.12909  22357738.520    91551221.71846
  21599285.740   113505006.45309  21599286.100    88445455.70647
  22946174.600   120583021.73208  22946177.820    93960828.76646
  20521005.940   107838616.43309  20521007.820    84030097.78848
 15 03 01 12 17  0.0000000  0 10G02G05G06G07G09G10G13G20G28G30
  21937978.420   115284847.24909  21937977.580    89832337.40947
  21100059.220   110881568.27709  21100059.340    86401225.25848
  24168763.740   127007657.08108  24168774.260    98967017.41745
  22135924.520   116325061.00409  22135925.480    90642899.55447
  24137433.540   126843047.02608  24137439.920    98838744.13445
  21138133.300   111081634.51309  21138133.600    86557118.04848
  22346432.220   117431311.68209  22346433.420    91504929.48146
  21614027.920   113582476.62809  21614028.180    88505822.02347
  22932009.380   120508584.01508  22932012.680    93902825.54745
  20526979.660   107870008.60109  20526981.560    84054559.20448
 15 03 01 12 17 30.0000000  0 10G02G05G06G07G09G10G13G20G28G30
  21949411.620   115344928.23009  21949410.540    89879153.66347
  21089503.820   110826099.21709  21089503.880    86358002.63748
  24188751.020   127112688.68408  24188761.580    99048859.92446
  22150722.780   116402826.43509  22150723.880    90703495.92847
  24151529.240   126917119.81708  24151535.720    98896463.05546
  21150089.680   111144464.81109  21150089.960    86606076.67848
  22335153.780   117372043.49209  22335155.060    91458746.53846
  21628835.740   113660292.06609  21628836.000    88566457.37247
  22917888.360   120434378.19508  22917891.600    93845003.03346
  20533045.060   107901882.44109  20533047.000    84079395.93748
 15 03 01 12 18  0.0000000  0 10G02G05G06G07G09G10G13G20G28G30
  21960920.980   115405410.39608  21960919.960    89926282.53647
  21079017.600   110770993.68109  21079017.620    86315063.28148
  24208735.200   127217703.91308  24208745.700    99130689.66546
  22165569.480   116480846.38609  22165570.640    90764290.61747
  24165632.520   126991232.55508  24165638.960    98954213.08846
  21162120.220   111207685.03409  21162120.580    86655339.13948
  22323902.800   117312919.34309  22323904.020    91412675.83646
  21643709.740   113738455.57909  21643710.120    88627363.94447
  22903812.880   120360411.37708  22903815.980    93787366.75646
  20539202.580   107934240.20309  20539204.520    84104609.76248
 15 03 01 12 18 30.0000000  0 10G02G05G06G07G09G10G13G20G28G30
  21972505.260   115466286.48709  21972504.420    89973718.35347
  21068600.000   110716248.70209  21068599.940    86272404.87648
  24228714.760   127322695.22008  24228725.220    99212500.78345
  22180463.240   116559113.58909  22180464.440    90825277.96847
  24179742.500   127065380.50908  24179748.780    99011990.57345
  21174223.880   111271289.81309  21174224.320    86704901.25348
  22312678.400   117253934.39709  22312679.480    91366713.59146
  21658648.780   113816961.03209  21658649.300    88688536.95947
  22889782.540   120286681.51109  22889785.480    93729915.11146
  20545450.920   107967075.41209  20545452.820    84130195.62548
 15 03 01 12 19  0.0000000  0 10G02G05G06G07G09G10G13G20G28G30
  21984165.100   115527559.26509  21984164.320    90021463.28747
  21058252.540   110661872.33009  21058252.440    86230033.70848
  24248690.220   127427665.61808  24248700.700    99294295.61146
  22195404.780   116637631.65409  22195406.000    90886460.80747
  24193860.320   127139569.44408  24193866.440    99069799.99245
  21186401.520   111335283.89009  21186402.080    86754766.72748
  22301481.620   117195094.58009  22301482.500    91320864.45646
  21673653.740   113895812.88909  21673654.400    88749979.90547
  22875799.000   120213197.36508  22875801.780    93672654.94246
  20551790.840   108000392.10909  20551792.680    84156156.67548
 15 03 01 12 19 30.0000000  0 10G02G05G06G07G09G10G13G20G28G30
  21995899.320   115589222.23509  21995898.480    90069512.26047
  21047974.840   110607862.57409  21047974.700    86187948.21848
  24268660.240   127532608.18508  24268670.820    99376068.74345
  22210392.860   116716394.13409  22210394.040    90947834.09847
  24207985.200   127213795.25708  24207991.140    99127638.14445
  21198652.240   111399662.20809  21198652.900    86804931.59048
  22290311.720   117136395.78109  22290312.360    91275125.19246
  21688723.640   113975005.44809  21688724.340    88811688.32147
  22861861.900   120139957.71808  22861864.580    93615585.28246
  20558221.260   108034184.42009  20558223.060    84182488.33148
 15 03 01 12 20  0.0000000  0 10G02G05G06G07G09G10G13G20G28G30
  22007707.720   115651274.75309  22007706.860    90117864.76947
  21037767.700   110554223.62309  21037767.500    86146151.66448
  24288624.800   127637522.29008  24288635.480    99457819.68745
  22225427.500   116795400.94409  22225428.580    91009397.77247
  24222117.500   127288060.04608  24222123.200    99185506.64345
  21210976.300   111464425.85909  21210977.060    86855396.71248
  22279168.940   117077839.87209  22279169.420    91229497.26846
  21703858.600   114054539.40709  21703859.220    88873662.75847
  22847972.180   120066967.50108  22847974.900    93558709.98246
  20564742.260   108068452.68209  20564744.100    84209190.85748
 15 03 01 12 20 30.0000000  0 10G02G05G06G07G09G10G13G20G28G30
  22019589.640   115713713.71009  22019588.780    90166518.39947
  21027631.400   110500957.35109  21027631.220    86104645.51948
  24308583.220   127742404.75807  24308594.020    99539545.96846
  22240508.100   116874649.47409  22240509.100    91071149.79448
  24236257.140   127362363.36208  24236262.640    99243405.17246
  21223373.360   111529573.39509  21223374.220    86906160.96248
  22268053.220   117019426.36909  22268053.700    91183980.31747
  21719058.180   114134413.31309  21719058.740    88935902.08847
  22834130.340   119994229.09408  22834133.060    93502030.87946
  20571353.480   108103194.69109  20571355.300    84236262.53848
 15 03 01 12 21  0.0000000  0 10G02G05G06G07G09G10G13G20G28G30
  22031544.320   115776535.39909  22031543.400    90215470.26247
  21017566.340   110448065.55309  21017566.180    86063431.17848
  24328534.960   127847252.22507  24328545.940    99621244.98545
  22255634.080   116954136.65509  22255635.040    91133087.78547
  24250404.100   127436704.67008  24250409.400    99301333.31045
  21235843.240   111595103.39609  21235844.160    86957223.24348
  22256964.500   116961154.77609  22256965.000    91138573.93846
  21734322.080   114214625.17809  21734322.500    88998404.77347
  22820336.880   119921745.01308  22820339.660    93445549.95546
  20578054.420   108138408.06609  20578056.200    84263701.52448
 15 03 01 12 21 30.0000000  0 10G02G05G06G07G09G10G13G20G28G30
  22043571.200   115839736.59709  22043570.180    90264717.84647
  21007572.640   110395548.82009  21007572.480    86022509.09348
  24348479.440   127952061.12707  24348490.560    99702913.96945
  22270804.920   117033859.52409  22270805.840    91195209.42347
  24264558.200   127511083.07808  24264563.280    99359290.32746
  21248385.580   111661014.06109  21248386.580    87008582.14348
  22245902.560   116903024.32009  22245903.120    91093277.53146
  21749649.760   114295172.52309  21749650.140    89061168.87247
  22806592.160   119849516.87908  22806595.020    93389268.47246
  20584844.560   108174090.16409  20584846.300    84291505.74148
 15 03 01 12 22  0.0000000  0 10G02G05G06G07G09G10G13G20G28G30
  22055669.940   115903315.29009  22055668.840    90314259.58947
  20997650.960   110343410.14709  20997650.740    85981881.60148
  24368416.280   128056829.58707  24368427.520    99784551.45845
  22286020.240   117113816.22609  22286021.120    91257513.27947
  24278719.520   127585499.44708  24278724.500    99417276.95045
  21261000.420   111727305.25609  21261001.420    87060237.56948
  22234867.720   116845036.14309  22234868.240    91048091.99346
  21765041.120   114376054.84409  21765041.560    89124193.98347
  22792897.060   119777549.03208  22792899.840    93333189.81446
  20591723.680   108210239.99509  20591725.400    84319674.42648
 15 03 01 12 22 30.0000000  0 10G02G05G06G07G09G10G13G20G28G30
  22067840.620   115967272.10609  22067839.500    90364095.96347
  20987802.340   110291655.14509  20987802.020    85941553.07148
  24388345.660   128161558.24207  24388357.040    99866157.91246
  22301280.400   117194008.51609  22301281.260    91320000.70747
  24292888.600   127659957.17408  24292893.540    99475295.78446
  21273688.200   111793979.37809  21273689.140    87112191.36948
  22223860.520   116787193.13009  22223860.960    91003019.55646
  21780496.660   114457274.35209  21780497.120    89187481.83847
  22779252.640   119705847.40209  22779255.340    93277318.59246
  20598692.080   108246859.14209  20598693.840    84348208.81048
 15 03 01 12 23  0.0000000  0 10G02G05G06G07G09G10G13G20G28G30
  22080082.060   116031600.92409  22080081.060    90414222.21647
  20978026.560   110240283.06409  20978026.160    85901522.92548
  24408266.400   128266241.06108  24408277.980    99947728.67346
  22316584.220   117274430.51709  22316585.080    91382667.13847
  24307064.660   127734453.05908  24307069.900    99533344.38746
  21286447.960   111861032.06409  21286448.980    87164440.15848
  22212880.380   116729492.30709  22212880.780    90958057.92346
  21796015.480   114538826.11509  21796016.000    89251028.59947
  22765658.760   119634411.55809  22765661.360    93221654.47446
  20605748.840   108283942.50609  20605750.640    84377104.92848
 15 03 01 12 23 30.0000000  0 10G02G05G06G07G09G10G13G20G28G30
  22092393.920   116096299.72309  22092393.080    90464636.75447
  20968324.100   110189296.34709  20968323.680    85861793.04748
  24428178.120   128370875.91408  24428189.920   100029262.02845
  22331931.320   117355080.16409  22331932.200    91445510.93647
  24321247.800   127808987.54207  24321253.680    99591423.04745
  21299279.600   111928462.85609  21299280.740    87216983.57148
  22201927.300   116671933.83809  22201927.780    90913207.20246
  21811597.440   114620709.46109  21811598.000    89314833.72347
  22752116.080   119563244.89908  22752118.580    93166200.09646
  20612893.700   108321488.71709  20612895.520    84406361.68948
 15 03 01 12 24  0.0000000  0 10G02G05G06G07G09G10G13G20G28G30
  22104775.600   116161365.30409  22104774.960    90515337.09647
  20958695.140   110138695.96609  20958694.720    85822364.21348
  24448080.260   128475459.86708  24448092.180   100110755.70445
  22347321.300   117435955.38909  22347322.300    91508530.51847
  24335438.280   127883560.51508  24335444.720    99649531.70445
  21312183.000   111996270.76209  21312184.300    87269820.84748
  22191001.340   116614517.76209  22191001.760    90868467.44646
  21827242.160   114702922.58309  21827242.720    89378895.81747
  22738625.160   119492350.23009  22738627.540    93110957.65746
  20620126.220   108359495.73009  20620128.040    84435977.52948
 15 03 01 12 24 30.0000000  0 10G02G05G06G07G09G10G13G20G28G30
  22117225.840   116226791.46509  22117225.380    90566318.40047
  20949139.520   110088481.03509  20949139.160    85783235.72248
  24467971.560   128579986.60807  24467983.340   100192204.80346
  22362753.100   117517050.41009  22362754.220    91571721.37447
  24349635.660   127958168.43208  24349642.360    99707667.59346
  21325157.220   112064450.94509  21325158.700    87322948.20348
  22180101.840   116557240.64209  22180102.220    90823835.96346
  21842948.740   114785460.43709  21842949.280    89443210.93647
  22725185.840   119421726.69109  22725188.120    93055926.47546
  20627445.360   108397958.03109  20627447.160    84465948.13448
 15 03 01 12 25  0.0000000  0 10G02G05G06G07G09G10G13G20G28G30
  22129745.220   116292581.01009  22129744.820    90617582.86747
  20939658.680   110038659.28709  20939658.420    85744413.60948
  24487852.460   128684459.12807  24487864.280   100273611.64446
  22378227.440   117598368.64709  22378228.620    91635086.16147
  24363841.060   128032816.86508  24363847.720    99765835.02546
  21338203.220   112133008.10109  21338204.800    87376369.30648
  22169229.740   116500107.76509  22169230.200    90779316.88946
  21858717.900   114868326.92409  21858718.440    89507782.14647
  22711799.700   119351382.50809  22711801.920    93001112.98246
  20634851.860   108436879.43209  20634853.680    84496276.47948
 15 03 01 12 25 30.0000000  0 10G02G05G06G07G09G10G13G20G28G30
  22142332.380   116358726.90609  22142331.960    90669125.02847
  20930252.300   109989228.78109  20930252.100    85705896.35748
  24507721.680   128788870.82307  24507733.540   100354971.06346
  22393743.120   117679903.65209  22393744.220    91698619.86547
  24378053.680   128107502.07808  24378059.980    99824031.11146
  21351320.020   112201937.03209  21351321.560    87430080.10448
  22158384.440   116443115.53609  22158385.000    90734907.40347
  21874548.680   114951517.18309  21874549.180    89572605.64747
  22698466.560   119281316.73109  22698468.620    92946516.42246
  20642344.560   108476254.17309  20642346.420    84526958.09149
 15 03 01 12 26  0.0000000  0 10G02G05G06G07G09G10G13G20G28G30
  22154987.200   116425228.45709  22154986.760    90720944.30647
  20920921.180   109940193.83709  20920921.060    85667687.32648
  24527579.000   128893221.18207  24527591.080   100436282.73046
  22409300.120   117761655.37709  22409301.060    91762322.43247
  24392273.720   128182226.15808  24392279.560    99882257.46845
  21364507.840   112271238.86109  21364509.240    87484081.46448
  22147566.260   116386265.99509  22147566.980    90690609.11746
  21890441.120   115035031.59409  21890441.560    89637681.73147
  22685187.320   119211534.28509  22685189.280    92892140.63146
  20649923.540   108516082.42609  20649925.460    84557993.06848
 15 03 01 12 26 30.0000000  0 10G02G05G06G07G09G10G13G20G28G30
  22167709.240   116492083.33609  22167708.880    90773038.89647
  20911665.800   109891556.76809  20911665.720    85629788.32248
  24547424.080   128997507.65807  24547436.500   100517544.59346
  22424897.980   117843621.68909  22424898.740    91826192.21247
  24406501.000   128256989.29208  24406506.600    99940514.26545
  21377766.480   112340912.68809  21377767.700    87538372.68848
  22136775.280   116329559.41709  22136776.100    90646422.22447
  21906394.940   115118868.95309  21906395.420    89703009.46647
  22671962.640   119142038.49809  22671964.520    92837988.21146
  20657588.500   108556362.48009  20657590.460    84589380.10348
 15 03 01 12 27  0.0000000  0 10G02G05G06G07G09G10G13G20G28G30
  22180498.340   116559290.71008  22180498.200    90825408.15147
  20902486.840   109843321.26609  20902486.760    85592202.23248
  24567257.000   129101729.65708  24567269.580   100598756.22346
  22440536.660   117925802.52909  22440537.260    91890229.15747
  24420735.780   128331793.62907  24420741.420    99998803.18345
  21391096.140   112410959.64709  21391097.180    87592954.67248
  22126012.000   116272997.94909  22126012.740    90602348.40247
  21922410.200   115203029.76009  21922410.700    89768589.22947
  22658793.380   119072834.11909  22658795.260    92784062.86646
  20665339.540   108597094.47609  20665341.480    84621119.30848
 15 03 01 12 27 30.0000000  0 10G02G05G06G07G09G10G13G20G28G30
  22193353.520   116626845.46508  22193353.700    90878048.08747
  20893384.340   109795487.41309  20893384.300    85554929.10848
  24587076.840   129205882.48608  24587089.440   100679913.91246
  22456215.300   118008193.60309  22456215.800    91954429.91147
  24434977.700   128406637.18407  24434983.800   100057122.65445
  21404496.120   112481376.48609  21404497.060    87647824.86348
  22115276.000   116216579.50709  22115276.560    90558386.02347
  21938486.280   115287510.42209  21938486.800    89834418.22547
  22645679.600   119003921.67509  22645681.500    92730364.99646
  20673175.920   108638274.45209  20673177.780    84653207.57948
 15 03 01 12 28  0.0000000  0 10G02G05G06G07G09G10G13G20G28G30
  22206273.980   116694742.82008  22206274.340    90930954.98847
  20884358.260   109748055.19009  20884358.260    85517968.94648
  24606882.680   129309961.38608  24606895.340   100761014.01545
  22471933.140   118090790.68209  22471933.540    92018791.19047
  24449226.460   128481517.76907  24449233.320   100115470.99445
  21417965.780   112552160.11109  21417966.780    87702980.86748
  22104566.760   116160301.92109  22104567.300    90514533.41247
  21954622.560   115372307.30109  21954623.100    89900493.62047
  22632621.460   118935301.92409  22632623.460    92676895.19546
  20681096.760   108679898.28009  20681098.520    84685641.71048
 15 03 01 12 28 30.0000000  0 10G02G05G06G07G09G10G13G20G28G30
  22219259.400   116762981.09308  22219259.760    90984127.55147
  20875409.300   109701028.36609  20875409.340    85481324.68648
  24626674.320   129413965.26407  24626686.920   100842055.66946
  22487690.000   118173593.07009  22487690.360    92083312.44747
  24463482.740   128556437.01507  24463490.280   100173849.44546
  21431505.240   112623310.90609  21431506.380    87758422.97748
  22093884.520   116104166.56609  22093885.180    90470791.63147
  21970819.080   115457420.65909  21970819.740    89966815.62547
  22619619.820   118866979.33709  22619621.880    92623656.96546
  20689101.960   108721965.54009  20689103.640    84718421.37348
 15 03 01 12 29  0.0000000  0 10G02G05G06G07G09G10G13G20G28G30
  22232308.720   116831554.68409  22232308.900    91037561.40647
  20866537.300   109654405.93309  20866537.360    85444995.54348
  24646450.660   129517888.43308  24646463.060   100923034.41144
  22503484.920   118256595.45909  22503485.260    92147989.54947
  24477746.180   128631391.96407  24477754.060   100232255.71645
  21445113.780   112694824.55009  21445115.080    87814147.82948
  22083228.880   116048170.68709  22083229.420    90427158.52646
  21987074.920   115542845.62209  21987075.760    90033380.44047
  22606674.760   118798953.61509  22606676.760    92570650.04046
  20697190.600   108764471.27009  20697192.200    84751542.70548
 15 03 01 12 29 30.0000000  0 10G02G05G06G07G09G10G13G20G28G30
  22245421.900   116900463.45109  22245421.740    91091256.42247
  20857743.100   109608192.26009  20857743.120    85408984.90948
  24666211.620   129621731.00307  24666223.980   101003950.32945
  22519317.980   118339798.17809  22519318.300    92212822.74347
  24492017.260   128706385.45608  24492025.000   100290692.00145
  21458791.640   112766702.57009  21458793.100    87870156.60248
  22072600.240   115992317.07709  22072600.680    90383636.26447
  22003390.400   115628583.47309  22003391.340    90100189.05647
  22593787.320   118731230.22609  22593789.140    92517878.70946
  20705362.800   108807416.20109  20705364.360    84785006.25248
 15 03 01 12 30  0.0000000  0  9G02G05G07G09G10G13G20G28G30
  22258597.120   116969698.62508  22258596.620    91145205.79247
  20849026.080   109562383.94309  20849026.020    85373290.15148
  22535187.620   118423193.61209  22535188.040    92277806.11247
  24506294.780   128781411.87608  24506302.060   100349153.97046
  21472537.660   112838938.46109  21472539.220    87926444.25248
  22061997.580   115936600.12709  22061997.940    90340220.51047
  22019764.140   115714627.16909  22019765.080    90167236.00447
  22580956.880   118663806.26309  22580958.520    92465340.70147
  20713617.080   108850792.72209  20713618.660    84818806.12249
 15 03 01 12 30 30.0000000  0  9G02G05G07G09G10G13G20G28G30
  22271836.060   117039269.16508  22271835.460    91199416.47147
  20840388.780   109516994.32309  20840388.620    85337921.63448
  22551095.680   118506791.09808  22551096.220    92342946.91147
  24520580.880   128856482.85808  24520587.580   100407650.61845
  21486353.820   112911542.56209  21486355.360    87983018.80748
  22051423.120   115881031.40609  22051423.560    90296920.25747
  22036197.980   115800986.69609  22036198.880    90234529.03747
  22568186.160   118596696.21509  22568187.620    92413047.29946
  20721955.300   108894610.51809  20721956.980    84852949.83748
 15 03 01 12 31  0.0000000  0  9G02G05G07G09G10G13G20G28G30
  22285137.440   117109168.09408  22285136.980    91253883.04047
  20831830.860   109472021.62709  20831830.600    85302877.99848
  22567041.000   118590584.42709  22567041.640    92408240.31147
  24534874.740   128931594.43908  24534880.860   100466178.92245
  21500239.060   112984509.41609  21500240.480    88039876.02747
  22040876.200   115825607.14409  22040876.680    90253732.56546
  22052690.860   115887656.43009  22052691.640    90302063.79747
  22555474.900   118529898.83909  22555476.300    92360997.52446
  20730376.320   108938863.56109  20730378.140    84887432.71148
 15 03 01 12 31 30.0000000  0  9G02G05G07G09G10G13G20G28G30
  22298500.160   117179389.38609  22298500.020    91308600.79847
  20823352.040   109427465.01609  20823351.760    85268158.58448
  22583022.720   118674568.57609  22583023.400    92473682.40647
  24549175.560   129006743.92408  24549181.420   100524736.76045
  21514192.600   113057835.04109  21514193.860    88097012.81248
  22030356.200   115770324.49909  22030356.680    90210655.22847
  22069242.000   115974631.93109  22069242.500    90369836.81047
  22542823.060   118463414.06709  22542824.580    92309191.32946
  20738879.160   108983547.01209  20738881.200    84922250.96848
 15 03 01 12 32  0.0000000  0  9G02G05G07G09G10G13G20G28G30
  22311924.240   117249932.85109  22311924.320    91363569.60547
  20814953.260   109383329.28209  20814953.000    85233767.12948
  22599040.880   118758743.97809  22599041.540    92539273.53647
  24563483.820   129081933.99108  24563489.780   100583326.24245
  21528214.820   113131521.09509  21528215.860    88154430.44848
  22019863.600   115715186.13109  22019864.020    90167690.32046
  22085851.520   116061914.31809  22085851.840    90437848.95347
  22530231.660   118397247.22409  22530233.380    92257632.87746
  20747464.020   109028661.48109  20747466.280    84957405.09048
 15 03 01 12 32 30.0000000  0  9G02G05G07G09G10G13G20G28G30
  22325408.600   117320792.54809  22325408.620    91418784.82047
  20806634.220   109339612.70509  20806634.000    85199702.28848
  22615094.460   118843105.43509  22615095.100    92605009.63647
  24577799.000   129157161.38207  24577805.280   100641944.79645
  21542304.820   113205563.29409  21542305.580    88212125.59648
  22009397.940   115660188.85609  22009398.280    90124835.35747
  22102518.420   116149498.65109  22102518.560    90506096.37747
  22517700.640   118331397.37609  22517702.540    92206321.42846
  20756129.900   109074201.65809  20756132.360    84992890.92148
 15 03 01 12 33  0.0000000  0  9G02G05G07G09G10G13G20G28G30
  22338953.120   117391968.64008  22338952.960    91474246.58147
  20798395.880   109296320.34909  20798395.700    85165968.00749
  22631183.580   118927653.64009  22631184.180    92670891.26347
  24592121.860   129232429.34107  24592128.560   100700594.94746
  21556462.860   113279963.37209  21556463.400    88270099.61548
  21998959.740   115605335.52409  21998959.960    90082092.56547
  22119242.940   116237386.41609  22119243.060    90574580.24347
  22505231.200   118265870.68309  22505233.160    92155261.78647
  20764877.060   109120168.66409  20764879.620    85028709.35649
 15 03 01 12 33 30.0000000  0  9G02G05G07G09G10G13G20G28G30
  22352556.780   117463455.93508  22352556.500    91529950.83047
  20790238.320   109253452.19209  20790238.080    85132564.26948
  22647307.400   119012384.31309  22647308.000    92736915.07447
  24606452.200   129307735.87607  24606459.160   100759275.15345
  21570688.260   113354717.91709  21570688.760    88328349.84348
