     2.11           OBSERVATION DATA    G                   RINEX VERSION / TYPE
SPIDER V4,0,0,3554                      2015 03 13 03:02    PGM / RUN BY / DATE 
ADJF                                                        MARKER NAME         
ADJF                                                        MARKER NUMBER       
                                                            OBSERVER / AGENCY   
496631              LEICA GRX1200+GNSS  8.20/4.007          REC # / TYPE / VERS 
103293              LEIAT504                                ANT # / TYPE        
  5273000.2084   285396.0090  3566759.2257                  APPROX POSITION XYZ 
        0.0480        0.0000        0.0000                  ANTENNA: DELTA H/E/N
     1     1                                                WAVELENGTH FACT L1/2
     4    C1    L1    P2    L2                              # / TYPES OF OBSERV 
    30.000                                                  INTERVAL            
  2015    02    22    00    00    0.0000000     GPS         TIME OF FIRST OBS   
  2015    02    22    23    59   30.0000000     GPS         TIME OF LAST OBS    
    16                                                      LEAP SECONDS        
    30                                                      # OF SATELLITES     
   G 1   835   835   835   835                              PRN / # OF OBS      
   G 2   934   933   932   932                              PRN / # OF OBS      
   G 3   853   853   853   853                              PRN / # OF OBS      
   G 4   852   852   852   852                              PRN / # OF OBS      
   G 5   668   667   667   667                              PRN / # OF OBS      
   G 6   760   760   760   760                              PRN / # OF OBS      
   G 7   657   657   657   657                              PRN / # OF OBS      
   G 9   799   799   799   799                              PRN / # OF OBS      
   G10   781   781   781   781                              PRN / # OF OBS      
   G11   797   797   797   797                              PRN / # OF OBS      
   G12   827   827   827   827                              PRN / # OF OBS      
   G13   822   822   822   822                              PRN / # OF OBS      
   G14   937   937   937   937                              PRN / # OF OBS      
   G15   726   726   726   726                              PRN / # OF OBS      
   G16   687   687   687   687                              PRN / # OF OBS      
   G17   935   935   935   935                              PRN / # OF OBS      
   G18   929   929   929   929                              PRN / # OF OBS      
   G19   778   778   778   778                              PRN / # OF OBS      
   G20   811   810   810   810                              PRN / # OF OBS      
   G21   724   724   724   724                              PRN / # OF OBS      
   G22   724   722   722   721                              PRN / # OF OBS      
   G23   740   740   740   740                              PRN / # OF OBS      
   G24   844   844   844   844                              PRN / # OF OBS      
   G25   873   873   872   872                              PRN / # OF OBS      
   G27   831   831   830   830                              PRN / # OF OBS      
   G28   897   897   897   897                              PRN / # OF OBS      
   G29   767   767   766   766                              PRN / # OF OBS      
   G30   704   704   704   704                              PRN / # OF OBS      
   G31   811   811   811   811                              PRN / # OF OBS      
   G32   755   755   755   755                              PRN / # OF OBS      
BIT 2 OF LLI FLAGS DATA COLLECTED UNDER A/S CONDITION       COMMENT             
SNR is mapped to RINEX snr flag value [2-9]                 COMMENT             
Lx:     = 25dBHz -> 1; 26-27dBHz -> 2; 28-31dBHz -> 3       COMMENT             
       32-35dBHz -> 4; 36-38dBHz -> 5; 39-41dBHz -> 6       COMMENT             
       42-44dBHz -> 7; 45-48dBHz -> 8; >=49dBHz -> 9        COMMENT             
                                                            END OF HEADER       
 15 02 22 00 00  0.0000000  0  7G16G18G21G25G27G29G31
  22385812.920   117638255.70908  22385810.380    91666161.40947
  23171206.140   121765570.05908  23171204.600    94882285.88246
  21067397.440   110709928.12909  21067394.600    86267467.61849
  24160482.860   126964174.07707  24160484.700    98933122.20545
  23387147.680   122900311.70808  23387148.120    95766492.73046
  23439699.100   123176440.44507  23439697.940    95981632.44846
  22017259.680   115701470.70409  22017257.900    90156976.97048
 15 02 22 00 00 30.0000000  0  7G16G18G21G25G27G29G31
  22370642.320   117558533.60508  22370639.760    91604040.29547
  23158131.720   121696863.38208  23158130.340    94828748.26745
  21072035.280   110734300.16909  21072032.460    86286458.81849
  24178047.960   127056479.47406  24178049.880    99005048.41546
  23374548.300   122834101.10707  23374548.480    95714900.05646
  23453477.000   123248844.07907  23453475.940    96038050.83446
  22031875.540   115778277.31709  22031873.720    90216826.23648
 15 02 22 00 01  0.0000000  0  7G16G18G21G25G27G29G31
  22355500.820   117478964.42808  22355498.260    91542038.34947
  23145091.300   121628335.68608  23145089.880    94775350.12946
  21076749.120   110759071.48209  21076746.260    86305761.14349
  24195648.760   127148973.21707  24195651.100    99077121.35745
  23361970.120   122768002.61107  23361970.420    95663394.75547
  23467257.620   123321261.97807  23467256.620    96094480.32346
  22046555.040   115855418.45609  22046553.220    90276936.17548
 15 02 22 00 01 30.0000000  0  7G16G18G21G25G27G29G31
  22340387.940   117399545.91208  22340385.480    91480153.81647
  23132084.740   121559986.32708  23132083.080    94722090.94645
  21081538.060   110784237.36309  21081535.160    86325370.92549
  24213284.740   127241650.79107  24213286.740    99149337.61645
  23349412.500   122702012.58507  23349413.200    95611974.00047
  23481040.420   123393690.67907  23481039.360    96150918.24546
  22061297.000   115932887.90709  22061295.180    90337301.94248
 15 02 22 00 02  0.0000000  0  7G16G18G21G25G27G29G31
  22325304.320   117320281.06408  22325301.960    91418389.02047
  23119112.800   121491819.08408  23119111.220    94668973.67846
  21086401.920   110809797.09109  21086399.000    86345287.60249
  24230955.800   127334512.06106  24230957.540    99221697.01345
  23336875.660   122636131.91307  23336876.820    95560638.45947
  23494825.420   123466130.89407  23494824.220    96207365.14546
  22076101.180   116010684.01709  22076099.320    90397922.25348
 15 02 22 00 02 30.0000000  0  7G16G18G21G25G27G29G31
  22310250.960   117241175.02908  22310248.560    91356747.95647
  23106176.600   121423839.23608  23106175.100    94616002.42746
  21091341.100   110835752.57309  21091338.160    86365512.65149
  24248662.120   127427559.10606  24248663.900    99294201.12145
  23324360.280   122570363.55707  23324361.620    95509390.40647
  23508613.220   123538585.58608  23508611.860    96263823.33846
  22090967.580   116088806.98309  22090965.660    90458797.24848
 15 02 22 00 03  0.0000000  0  8G16G18G21G22G25G27G29G31
  22295227.660   117162227.19708  22295225.220    91295230.18047
  23093276.200   121356047.41808  23093274.800    94563177.68546
  21096354.820   110862099.76509  21096351.820    86386042.93149
  24544440.860   128981909.66707  24544442.800   100505389.01445
  24266402.780   127520787.91807  24266405.140    99366846.81346
  23311865.760   122504704.49808  23311867.100    95458227.53347
  23522403.100   123611051.72407  23522401.660    96320290.43246
  22105895.080   116167251.37209  22105893.160    90519922.70748
 15 02 22 00 03 30.0000000  0  8G16G18G21G22G25G27G29G31
  22280232.480   117083426.89408  22280230.020    91233827.35747
  23080409.560   121288433.05208  23080408.180    94510491.21546
  21101440.340   110888824.16409  21101437.300    86406867.13149
  24527305.780   128891865.97607  24527305.840   100435215.32845
  24284175.640   127614184.58307  24284177.740    99439623.38445
  23299389.620   122439141.80808  23299390.980    95407139.75047
  23536192.620   123683516.04907  23536191.060    96376756.13146
  22120880.780   116246001.84409  22120878.900    90581286.66448
 15 02 22 00 04  0.0000000  0  8G16G18G21G22G25G27G29G31
  22265271.240   117004804.90008  22265268.700    91172563.47847
  23067582.920   121221028.34208  23067581.480    94457968.11746
  21106602.960   110915953.90009  21106599.900    86428007.19149
  24510155.380   128801744.25207  24510155.800   100364991.17645
  24301985.920   127707777.49307  24301987.760    99512552.85244
  23286937.520   122373704.90108  23286938.640    95356149.97847
  23549987.320   123756007.75707  23549985.760    96433243.17546
  22135929.800   116325085.11409  22135928.020    90642909.94548
 15 02 22 00 04 30.0000000  0  7G16G18G21G25G27G29G31
  22250341.660   116926349.31208  22250338.960    91111429.26047
  23054793.920   121153821.20908  23054792.400    94405598.97846
  21111839.680   110943473.03609  21111836.620    86449450.67649
  24319830.520   127801551.02006  24319832.000    99585623.09344
  23274506.520   122308379.04508  23274507.380    95305246.72246
  23563784.420   123828512.42807  23563783.140    96489740.28846
  22151038.900   116404483.96309  22151037.160    90704779.14448
 15 02 22 00 05  0.0000000  0  8G16G18G21G22G25G27G29G31
  22235442.800   116848055.39509  22235440.100    91050421.02147
  23042041.720   121086808.08008  23042040.080    94353381.00146
  21117148.980   110971373.67709  21117145.960    86471191.43549
  24475802.280                    24475805.420                  
  24337707.840   127895497.63106  24337709.400    99658828.13345
  23262095.240   122243157.68107  23262096.120    95254424.89247
  23577582.820   123901023.43007  23577581.580    96546242.35646
  22166206.280   116484188.94609  22166204.580    90766886.88148
 15 02 22 00 05 30.0000000  0  8G16G18G21G22G25G27G29G31
  22220572.720   116769912.51308  22220570.080    90989530.47447
  23029324.360   121019978.36208  23029322.680    94301305.94546
  21122528.140   110999641.38809  21122525.160    86493218.22749
  24458601.280   128530820.05507  24458600.120   100153887.53847
  24355615.500   127989603.06406  24355617.300    99732156.95445
  23249701.300   122178027.64608  23249702.160    95203674.24246
  23591379.820   123973527.42507  23591378.800    96602738.94246
  22181428.940   116564184.44909  22181427.300    90829220.99848
 15 02 22 00 06  0.0000000  0  8G16G18G21G22G25G27G29G31
  22205741.820   116691975.76008  22205739.300    90928800.55547
  23016652.440   120953387.87408  23016650.980    94249417.31046
  21127986.940   111028327.56809  21127983.960    86515571.09849
  24441387.000   128440349.80306  24441387.400   100083394.68054
  24373563.360   128083919.32907  24373565.120    99805650.07445
  23237334.900   122113041.92808  23237335.760    95153036.04547
  23605185.580   124046077.06807  23605184.500    96659271.10146
  22196716.520   116644520.63809  22196714.860    90891820.59148
 15 02 22 00 06 30.0000000  0  8G16G18G21G22G25G27G29G31
  22190939.940   116614191.53709  22190937.420    90868189.47447
  23004016.120   120886984.30508  23004014.700    94197674.31346
  21133514.600   111057375.74609  21133511.620    86538206.04449
  24424155.660                                                  
  24391540.640   128178390.25206  24391542.520    99879263.69445
  23224985.500   122048145.37408  23224986.300    95102467.31647
  23618989.640   124118617.89007  23618988.500    96715796.38846
  22212058.000   116725140.01609  22212056.300    90954640.84648
 15 02 22 00 07  0.0000000  0  7G16G18G21G25G27G29G31
  22176171.700   116536583.93808  22176169.100    90807716.02547
  22991420.060   120820792.12008  22991418.860    94146096.04046
  21139115.060   111086806.42709  21139112.060    86561139.04549
  24409551.160   128273036.42106  24409553.040    99953013.87045
  23212657.160   121983359.56808  23212657.920    95051984.89247
  23632796.080   124191171.02507  23632794.800    96772331.29446
  22227456.860   116806061.41109  22227455.180    91017696.43448
 15 02 22 00 07 30.0000000  0  8G16G18G21G22G25G27G29G31
  22161436.780   116459151.42409  22161434.120    90747379.00747
  22978864.120   120754810.20508  22978862.880    94094681.59546
  21144787.300   111116614.25809  21144784.320    86584365.93049
  24389648.380   128168455.54207  24389648.940    99871528.59843
  24427594.080   128367852.99706  24427596.020   100026896.83845
  23200349.120   121918680.65208  23200349.920    95001585.74547
  23646604.180   124263732.51807  23646602.720    96828872.69146
  22242911.880   116887278.20709  22242910.240    91080982.20648
 15 02 22 00 08  0.0000000  0  8G16G18G21G22G25G27G29G31
  22146735.240   116381894.20809  22146732.560    90687178.57447
  22966348.260   120689039.12408  22966346.860    94043431.43546
  21150530.700   111146796.05209  21150527.700    86607884.20949
  24372372.720   128077678.63508  24372374.880    99800784.95447
  24445669.020   128462836.87706  24445671.040   100100910.16545
  23188061.040   121854106.73908  23188061.740    94951268.43347
  23660413.600   124336300.87407  23660412.160    96885419.43546
  22258422.260   116968785.73409  22258420.580    91144494.51948
 15 02 22 00 08 30.0000000  0  8G16G18G21G22G25G27G29G31
  22132069.000   116304822.74609  22132066.340    90627122.88847
  22953874.620   120623489.95108  22953873.180    93992354.19445
  21156346.600   111177358.77909  21156343.560    86631699.31949
  24355084.160   127986828.18706  24355085.740    99729992.26843
  24463777.080   128557995.54606  24463779.320   100175059.65245
  23175794.620   121789646.23008  23175795.160    94901039.47946
  23674225.780   124408884.01007  23674224.340    96941977.69646
  22273989.100   117050589.92009  22273987.320    91208237.99848
 15 02 22 00 09  0.0000000  0  8G16G18G21G22G25G27G29G31
  22117436.940   116227930.86209  22117434.320    90567207.14647
  22941442.160   120558157.58708  22941440.900    93941445.91846
  21162233.120   111208292.62909  21162230.080    86655803.62449
  24337782.180   127895907.35507  24337783.880    99659145.24145
  24481916.580   128653319.56106  24481918.900   100249337.99145
  23163548.300   121725290.72808  23163548.760    94850892.33047
  23688039.060   124481473.75407  23688037.800    96998541.09246
  22289610.320   117132679.96109  22289608.600    91272204.22548
 15 02 22 00 09 30.0000000  0  8G16G18G21G22G25G27G29G31
  22102840.000   116151223.43509  22102837.380    90507435.12547
  22929051.900   120493046.72808  22929050.760    93890710.23146
  21168190.440   111239598.59109  21168187.380    86680197.88049
  24320468.120   127804920.49706  24320469.320    99588246.78344
  24500088.000   128748810.28507  24500090.000   100323746.28244
  23151322.400   121661042.64608  23151322.860    94800828.90447
  23701854.120   124554072.57307  23701853.080    97055111.56646
  22305285.860   117215055.30609  22305284.160    91336392.76148
 15 02 22 00 10  0.0000000  0  8G16G18G21G22G25G27G29G31
  22088278.680   116074702.91909  22088276.040    90447808.74547
  22916704.560   120428160.98108  22916703.340    93840149.94846
  21174218.420   111271276.06809  21174215.400    86704881.62749
  24303141.800   127713870.56207  24303143.220    99517299.38645
  24518291.160   128844466.91206  24518293.080   100398283.84044
  23139116.960   121596902.42808  23139117.460    94750849.54747
  23715671.100   124626680.56007  23715669.960    97111689.19846
  22321015.280   117297713.73209  22321013.580    91400801.87748
 15 02 22 00 10 30.0000000  0  8G16G18G21G22G25G27G29G31
  22073753.700   115998373.46909  22073751.040    90388331.26047
  22904400.780   120363504.41208  22904399.400    93789768.24446
  21180317.080   111303324.89509  21180314.100    86729854.73949
  24285804.120   127622762.03307  24285805.700    99446306.36846
  24536526.020   128940290.54506  24536527.660   100472951.54245
  23126932.320   121532871.99708  23126932.880    94700955.73547
  23729490.100   124699299.34407  23729488.720    97168275.24646
  22336798.480   117380654.48309  22336796.680    91465430.99448
 15 02 22 00 11  0.0000000  0  8G16G18G21G22G25G27G29G31
  22059266.200   115922241.16609  22059263.500    90329007.38747
  22892141.860   120299083.51808  22892140.380    93739570.18246
  21186486.920   111335747.58909  21186483.940    86755119.17149
  24268456.320   127531600.71807  24268457.880    99375272.12645
  24554792.740   129036283.54006  24554795.020   100547751.08245
  23114769.180   121468954.92908  23114769.780    94651150.25046
  23743311.940   124771933.51907  23743310.640    97224873.26646
  22352635.580   117463878.47209  22352633.620    91530280.81248
 15 02 22 00 11 30.0000000  0  8G16G18G21G22G25G27G29G31
  22044813.880   115846293.81209  22044811.180    90269827.63147
  22879925.720   120234887.51608  22879924.340    93689547.36846
  21192724.880   111368528.32709  21192721.940    86780662.60349
  24251096.300   127440375.73807  24251097.280    99304188.24445
  24573089.120   129132430.89006  24573091.340   100622671.03045
  23102624.960   121405137.33708  23102625.560    94601422.26347
  23757133.980   124844568.79007  23757132.780    97281472.14646
  22368523.400   117547369.06909  22368521.360    91595338.37848
 15 02 22 00 12  0.0000000  0  8G16G18G21G22G25G27G29G31
  22030398.840   115770542.19409  22030396.120    90210800.39247
  22867754.520   120170927.55008  22867753.420    93639708.48446
  21199032.540   111401675.24909  21199029.620    86806491.37449
  24233726.360   127349098.55507  24233727.080    99233063.69046
  24591416.440   129228740.18807  24591418.280   100697717.14444
  23090501.440   121341427.89608  23090501.980    94551778.55347
  23770957.880   124917213.82007  23770956.720    97338078.64046
  22384463.020   117631132.35609  22384461.080    91660608.42748
 15 02 22 00 12 30.0000000  0  8G16G18G21G22G25G27G29G31
  22016020.940   115694985.80909  22016018.260    90151925.29547
  22855628.180   120107203.14008  22855627.000    93590053.13746
  21205408.940   111435183.55709  21205406.040    86832601.74649
  24216346.260   127257768.54707  24216347.320    99161898.05946
  24609773.840   129325207.42606  24609775.380   100772886.34845
  23078398.020   121277823.68808  23078398.460    94502216.84247
  23784783.100   124989865.85707  23784781.820    97394690.57246
  22400453.500   117715162.84309  22400451.720    91726086.67948
 15 02 22 00 13  0.0000000  0  8G16G18G21G22G25G27G29G31
  22001681.780   115619633.30709  22001679.160    90093209.06847
  22843548.380   120043723.06508  22843547.080    93540588.18746
  21211854.980   111469057.66809  21211852.060    86858997.15749
  24198957.800   127166394.51407  24198959.200    99090698.04746
  24628161.700   129421837.50406  24628163.580   100848182.35545
  23066315.780   121214330.72508  23066316.220    94452741.80847
  23798610.900   125062530.86107  23798609.340    97451312.65745
  22416495.360   117799463.23409  22416493.720    91791775.24848
 15 02 22 00 13 30.0000000  0  8G16G18G21G22G25G27G29G31
  21987380.940   115544481.95309  21987378.320    90034649.57447
  22831514.620   119980485.31108  22831513.280    93491312.05646
  21218369.400   111503291.01109  21218366.460    86885672.48749
  24181560.840   127074974.19107  24181562.140    99019461.93845
  24646579.600   129518624.21206  24646581.920   100923600.47145
  23054253.680   121150944.05408  23054254.240    94403349.61747
  23812440.080   125135203.45307  23812438.560    97507940.62546
  22432587.160   117884026.10909  22432585.560    91857668.34648
 15 02 22 00 14  0.0000000  0  8G16G18G21G22G25G27G29G31
  21973118.980   115469535.07109  21973116.380    89976249.40847
  22819527.780   119917494.34708  22819526.300    93442228.23046
  21224952.320   111537884.46809  21224949.400    86912628.42549
  24164155.840   126983512.05907  24164156.480    98948193.17245
  24665027.560   129615568.48806  24665030.340   100999141.31845
  23042212.020   121087665.46508  23042212.800    94354041.65147
  23826271.000   125207886.01207  23826269.760    97564576.34345
  22448728.820   117968850.78909  22448727.060    91923765.45948
 15 02 22 00 14 30.0000000  0  8G16G18G21G22G25G27G29G31
  21958895.680   115394791.33009  21958893.180    89918007.54048
  22807587.560   119854748.52208  22807586.080    93393335.42746
  21231602.640   111572832.01909  21231599.720    86939860.27649
  24146742.500   126892006.69907  24146743.000    98876890.75745
  24683504.580   129712664.89906  24683507.040   101074800.78344
  23030190.160   121024490.89008  23030191.020    94304814.72347
  23840102.940   125280574.19307  23840101.960    97621216.44646
  22464918.940   118053930.32609  22464917.120    91990061.15748
 15 02 22 00 15  0.0000000  0  8G16G18G21G22G25G27G29G31
  21944712.280   115320257.14909  21944709.780    89859928.96147
  22795695.320   119792254.65208  22795693.880    93344638.94446
  21238320.840   111608136.54109  21238318.000    86967370.29449
  24129322.340   126800464.97707  24129323.000    98805559.98346
  24702010.840   129809916.69706  24702013.060   101150581.31745
  23018188.980   120961424.60008  23018189.800    94255672.17847
  23853937.040   125353272.45607  23853936.160    97677864.41645
  22481157.820   118139266.04809  22481156.020    92056556.48448
 15 02 22 00 15 30.0000000  0  8G16G18G21G22G25G27G29G31
  21930568.040   115245928.70309  21930565.460    89802010.69647
  22783850.500   119730009.86608  22783849.060    93296136.54846
  21245105.460   111643790.00109  21245102.660    86995152.20549
  24111894.700   126708883.14607  24111895.380    98734197.93946
  24720545.380   129907316.44106  24720547.980   101226477.04645
  23006207.340   120898460.47508  23006208.040    94206609.23647
  23867771.980   125425974.81807  23867770.980    97734515.57946
  22497443.820   118224849.35109  22497442.100    92123244.71248
 15 02 22 00 16  0.0000000  0  8G16G18G21G22G25G27G29G31
  21916464.760   115171815.66609  21916462.180    89744260.29048
  22772054.960   119668023.75008  22772053.340    93247835.72646
  21251957.720   111679798.96809  21251954.920    87023211.14249
  24094461.200   126617271.61307  24094461.700    98662812.75345
  24739109.560   130004870.47607  24739112.340   101302493.05545
  22994246.640   120835605.99708  22994247.160    94157631.74747
  23881609.040   125498688.65707  23881607.880    97791175.70745
  22513777.840   118310684.83008  22513776.140    92190129.46248
 15 02 22 00 16 30.0000000  0  8G16G18G21G22G25G27G29G31
  21902401.880   115097914.58109  21902399.220    89686675.03647
  22760308.020   119606293.41608  22760306.280    93199734.20046
  21258876.320   111716156.38009  21258873.480    87051541.59649
  24077021.580   126525627.72307  24077021.840    98591402.28445
  24757701.720   130102571.99306  24757704.600   101378623.99945
  22982305.700   120772855.35808  22982306.080    94108735.16047
  23895447.140   125571408.35607  23895445.880    97847840.35846
  22530158.120   118396764.07408  22530156.420    92257204.14848
 15 02 22 00 17  0.0000000  0  8G16G18G21G22G25G27G29G31
  21888380.500   115024231.49209  21888377.840    89629259.64748
  22748611.020   119544825.44508  22748609.260    93151837.11646
  21265861.600   111752864.25309  21265858.720    87080145.13149
  24059577.160   126433957.59907  24059577.140    98519971.35045
  24776322.280   130200423.64605  24776325.140   101454871.84245
  22970385.180   120710212.46908  22970385.680    94059922.52147
  23909287.000   125644137.71607  23909285.820    97904512.55646
  22546584.980   118483088.03708  22546583.400    92324469.51948
 15 02 22 00 17 30.0000000  0  8G16G18G21G22G25G27G29G31
  21874400.580   114950766.40109  21874397.900    89572014.12848
  22736963.980   119483619.93708  22736962.300    93104144.55146
  21272912.740   111789918.16009  21272909.800    87109018.29949
  24042127.660   126342261.31607  24042127.900    98448520.08246
  24794970.740   130298421.62306  24794972.860   101531233.83944
  22958484.640   120647674.81408  22958485.200    94011191.90547
  23923128.340   125716874.31207  23923127.220    97961190.38646
  22563057.520   118569651.48008  22563055.960    92391921.50348
 15 02 22 00 18  0.0000000  0  8G16G18G21G22G25G27G29G31
  21860462.580   114877521.72209  21860459.880    89514940.36047
  22725367.460   119422679.90508  22725365.880    93056658.85946
  21280029.600   111827317.27309  21280026.580    87138160.46949
  24024673.740   126250542.36807  24024674.220    98377051.13445
  24813647.180   130396565.27806  24813649.260   101607709.31545
  22946604.120   120585242.90108  22946604.820    93962543.69047
  23936971.220   125789618.77707  23936970.040    98017874.38346
  22579575.180   118656452.28008  22579573.620    92459558.44348
 15 02 22 00 18 30.0000000  0  7G16G18G21G22G27G29G31
  21846567.620   114804503.17009  21846564.880    89458042.78748
  22713822.600   119362011.08508  22713820.880    93009384.48546
  21287212.500   111865063.60109  21287209.460    87167573.18649
  24007216.680   126158806.65607  24007217.040    98305569.11146
  22934744.340   120522919.99108  22934745.260    93913980.39447
  23950816.220   125862374.63307  23950815.080    98074567.20246
  22596138.100   118743490.63108  22596136.480    92527380.48448
 15 02 22 00 19  0.0000000  0  7G16G18G21G22G27G29G31
  21832714.840   114731706.45609  21832712.220    89401318.09348
  22702328.600   119301609.81008  22702326.760    92962318.60346
  21294459.840   111903148.62709  21294456.800    87197249.83049
  23989755.880   126067050.64507  23989755.580    98234071.21545
  22922904.160   120460699.65108  22922905.160    93865497.02447
  23964662.000   125935135.26507  23964661.020    98131263.73246
  22612744.520   118830757.35208  22612742.740    92595380.48648
 15 02 22 00 19 30.0000000  0  7G16G18G21G22G27G29G31
  21818905.220   114659136.58909  21818902.700    89344770.15948
  22690886.500   119241481.38908  22690884.620    92915465.32346
  21301771.980   111941574.18009  21301768.960    87227191.81749
  23972292.120   125975279.43807  23972291.720    98162561.47946
  22911084.020   120398584.54608  22911085.020    93817095.66647
  23978509.340   126007903.27607  23978508.540    98187966.04146
  22629394.340   118918252.52108  22629392.560    92663558.47848
 15 02 22 00 20  0.0000000  0  7G16G18G21G22G27G29G31
  21805138.700   114586793.09909  21805136.160    89288398.61048
  22679496.320   119181625.76808  22679494.320    92868824.61646
  21309148.000   111980335.50509  21309145.020    87257395.44749
  23954825.480   125883492.97007  23954825.380    98091039.88646
  22899283.420   120336571.93008  22899284.360    93768774.17447
  23992357.780   126080676.35007  23992356.840    98244672.30546
  22646086.600   119005970.47408  22646084.840    92731910.08447
 15 02 22 00 20 30.0000000  0  7G16G18G21G22G27G29G31
  21791416.780   114514684.07509  21791414.200    89232209.77148
  22668159.600   119122051.00208  22668157.660    92822402.76046
  21316588.780   112019436.98409  21316585.840    87287864.13249
  23937357.540   125791699.71907  23937357.700    98019513.00646
  22887503.480   120274667.60408  22887504.340    93720537.04347
  24006208.120   126153460.31207  24006207.340    98301387.02245
  22662821.800   119093914.25809  22662820.060    92800437.65048
 15 02 22 00 21  0.0000000  0  7G16G18G21G22G27G29G31
  21777739.160   114442807.74209  21777736.600    89176202.25148
  22656876.120   119062755.83808  22656874.220    92776198.77746
  21324093.220   112058873.07509  21324090.300    87318593.55149
  23919888.160   125699898.57607  23919888.080    97947979.92345
  22875743.300   120212867.54908  22875744.120    93672381.17247
  24020059.720   126226251.02707  24020058.800    98358107.04746
  22679598.700   119182077.05508  22679596.840    92869135.89547
 15 02 22 00 21 30.0000000  0  7G16G18G21G22G27G29G31
  21764106.440   114371167.46209  21764103.960    89120378.67048
  22645646.580   119003744.01808  22645644.720    92730215.57747
  21331661.180   112098643.07009  21331658.280    87349583.15649
  23902417.960   125608093.37207  23902417.460    97876443.63645
  22864003.200   120151172.95208  22864004.000    93624307.46847
  24033912.800   126299049.69007  24033911.640    98414833.26045
  22696416.960   119270457.21108  22696415.120    92938003.49647
 15 02 22 00 22  0.0000000  0  7G16G18G21G22G27G29G31
  21750518.880   114299764.43909  21750516.360    89064739.95348
  22634471.180   118945016.82708  22634469.320    92684454.16046
  21339292.100   112138743.87509  21339289.200    87380830.53249
  23884947.120   125516285.62507  23884946.640    97804905.42046
  22852282.960   120089582.54308  22852283.780    93576314.95047
  24047767.360   126371855.47907  24047766.220    98471565.00245
  22713275.760   119359050.59508  22713273.920    93007037.24947
 15 02 22 00 22 30.0000000  0  7G16G18G21G22G27G29G31
  21736976.760   114228600.12009  21736974.200    89009287.25048
  22623350.280   118886576.02908  22623348.340    92638915.91146
  21346985.540   112179173.38309  21346982.680    87412334.04949
  23867476.480   125424477.60907  23867476.080    97733366.98046
  22840582.460   120028095.66708  22840583.220    93528403.11947
  24061623.080   126444667.64507  24061622.200    98528301.71045
  22730174.400   119447853.78408  22730172.720    93076234.48048
 15 02 22 00 23  0.0000000  0  7G16G18G21G22G27G29G31
  21723480.820   114157678.32209  21723478.220    88954023.51748
  22612284.540   118828425.48308  22612282.740    92593603.84846
  21354741.480   112219931.15709  21354738.620    87444093.34349
  23850006.600   125332672.70908  23850006.180    97661830.96146
  22828901.820   119966713.56308  22828902.580    93480572.92947
  24075480.320   126517487.34707  24075479.480    98585044.32346
  22747112.760   119536865.08308  22747111.040    93145593.88647
 15 02 22 00 23 30.0000000  0  7G16G18G21G22G27G29G31
  21710031.320   114087000.41209  21710028.680    88898949.82548
  22601274.380   118770566.84608  22601272.480    92548519.22346
  21362559.500   112261015.21309  21362556.640    87476106.88749
  23832537.460   125240872.80507  23832537.000    97590298.84345
  22817240.940   119905435.39308  22817241.720    93432823.71447
  24089338.860   126590314.15607  24089338.100    98641792.42845
  22764090.060   119626080.95308  22764088.260    93215112.69647
 15 02 22 00 24  0.0000000  0  7G16G18G21G22G27G29G31
  21696629.420   114016572.88709  21696626.760    88844071.24848
  22590321.120   118713007.03208  22590319.020    92503667.46046
  21370440.120   112302428.07509  21370437.260    87508376.65449
  23815070.700   125149085.78307  23815069.960    97518776.72945
  22805600.740   119844265.69008  22805601.500    93385159.04147
  24103199.540   126663152.49207  24103198.780    98698549.53946
  22781106.560   119715503.03808  22781104.860    93284792.18847
 15 02 22 00 24 30.0000000  0  7G16G18G21G22G27G29G31
  21683274.260   113946391.11809  21683271.560    88789384.15448
  22579423.880   118655741.38908  22579421.660    92459044.90446
  21378381.680   112344161.22309  21378378.840    87540895.97949
  23797605.560   125057306.86708  23797604.700    97447260.91646
  22793979.840   119783197.24908  22793980.500    93337573.26147
  24117061.040   126735995.24507  24117060.220    98755310.08846
  22798160.380   119805121.22508  22798158.600    93354624.47848
 15 02 22 00 25  0.0000000  0  7G16G18G21G22G27G29G31
  21669966.880   113876460.52509  21669964.180    88734892.79048
  22568583.700   118598775.74508  22568581.400    92414656.11946
  21386384.400   112386215.64809  21386381.520    87573665.66349
  23780143.200   124965542.09507  23780142.320    97375756.13546
  22782378.720   119722233.16208  22782379.400    93290068.80847
  24130924.160   126808846.01007  24130923.080    98812076.89745
  22815251.620   119894935.93808  22815249.860    93424609.91947
 15 02 22 00 25 30.0000000  0  7G16G18G21G22G27G29G31
  21656707.660   113806783.10009  21656705.040    88680598.70648
  22557800.900   118542112.15908  22557798.700    92370502.71446
  21394447.940   112428589.80209  21394445.060    87606684.48748
  23762683.840   124873793.82107  23762683.180    97304264.22946
  22770797.500   119661373.29008  22770798.100    93242645.55447
  24144788.660   126881704.33107  24144787.240    98868849.61745
  22832379.640   119984944.13008  22832377.880    93494746.12047
 15 02 22 00 26  0.0000000  0  7G16G18G21G22G27G29G31
  21643496.920   113737360.46109  21643494.340    88626503.15748
  22547075.920   118485752.63108  22547073.880    92326586.23246
  21402571.900   112471281.45009  21402569.020    87639950.71248
  23745228.120   124782064.25307  23745227.420    97232786.87946
  22759236.000   119600617.01408  22759236.520    93195303.01747
  24158654.380   126954569.29107  24158652.680    98925627.50445
  22849543.820   120075142.40708  22849542.100    93565030.43947
 15 02 22 00 26 30.0000000  0  7G16G18G21G22G27G29G31
  21630335.380   113668196.10709  21630332.780    88572608.85748
  22536409.520   118429700.85208  22536407.560    92282909.55147
  21410756.160   112514289.95609  21410753.300    87673463.82649
  23727776.740   124690357.42007  23727775.660    97161327.21046
  22747694.420   119539965.70408  22747694.860    93148042.28747
  24172521.720   127027443.20706  24172520.280    98982412.32646
  22866743.800   120165528.93108  22866742.160    93635461.44547
 15 02 22 00 27  0.0000000  0  7G16G18G21G22G27G29G31
  21617223.100   113599290.70009  21617220.560    88518916.34248
  22525801.800   118373957.38808  22525799.880    92239473.11747
  21419000.040   112557611.84809  21418997.220    87707221.15049
  23710329.900   124598674.15107  23710328.560    97089885.90446
  22736172.320   119479417.38808  22736172.880    93100861.80947
  24186390.480   127100323.77007  24186389.380    99039202.34145
  22883978.720   120256099.21208  22883977.140    93706035.63748
 15 02 22 00 27 30.0000000  0  7G16G18G21G22G27G29G31
  21604160.760   113530647.88909  21604158.340    88465428.45048
  22515253.460   118318525.95508  22515251.560    92196279.82347
  21427303.520   112601246.96909  21427300.700    87741222.54649
  23692888.300   124507018.77307  23692887.080    97018466.38146
  22724670.120   119418973.68108  22724670.800    93053762.85447
  24200260.820   127173212.90407  24200259.880    99095999.04846
  22901248.380   120346851.74108  22901246.820    93776751.83847
 15 02 22 00 28  0.0000000  0  7G16G18G21G22G27G29G31
  21591148.340   113462267.32309  21591145.960    88412144.89748
  22504764.480   118263406.32108  22504762.480    92153329.48647
  21435665.760   112645190.86109  21435662.960    87775464.53749
  23675452.080   124415391.43607  23675450.820    96947068.63446
  22713187.360   119358631.67208  22713188.140    93006743.12148
  24214132.400   127246107.94707  24214131.220    99152800.36245
  22918551.660   120437780.87308  22918550.100    93847605.64947
 15 02 22 00 28 30.0000000  0  7G16G18G21G22G27G29G31
  21578186.880   113394154.22809  21578184.460    88359069.76448
  22494335.920   118208604.43308  22494334.040    92110626.75146
  21444087.140   112689445.56909  21444084.340    87809948.73349
  23658022.160   124323797.35807  23658020.680    96875696.82246
  22701724.620   119298394.51108  22701725.380    92959805.10147
  24228005.720   127319011.43207  24228004.440    99209608.26445
  22935888.600   120528886.78208  22935887.060    93918597.21747
 15 02 22 00 29  0.0000000  0  7G16G18G21G22G27G29G31
  21565276.600   113326310.22809  21565274.140    88306204.31948
  22483968.040   118154121.40308  22483966.240    92068172.47447
  21452567.120   112734008.17309  21452564.320    87844672.84249
  23640599.120   124232239.28208  23640597.560    96804353.06546
  22690281.820   119238261.73908  22690282.420    92912948.41647
  24241880.360   127391923.42806  24241879.020    99266422.76845
  22953258.540   120620166.37708  22953257.100    93989724.11047
 15 02 22 00 29 30.0000000  0  7G16G18G21G22G27G29G31
  21552418.100   113258738.37609  21552415.620    88253550.93048
  22473661.480   118099960.48008  22473659.880    92025969.18647
  21461105.420   112778877.18409  21461102.580    87879635.71748
  23623183.460   124140720.34107  23623182.040    96733039.82146
  22678858.940   119178233.71608  22678859.300    92866173.34947
  24255756.620   127464844.50207  24255755.520    99323244.35545
  22970661.040   120711617.15808  22970659.620    94060984.40347
 15 02 22 00 30  0.0000000  0  7G16G18G21G22G27G29G31
  21539611.480   113191438.96809  21539608.940    88201109.84148
  22463416.320   118046122.15008  22463414.780    91984017.26947
  21469701.480   112824049.69309  21469698.600    87914835.07248
  23605775.480   124049241.56408  23605773.960    96661757.84646
  22667455.560   119118308.58908  22667455.880    92819478.46147
  24269634.340   127537772.86007  24269633.660    99380071.61246
  22988095.280   120803234.35808  22988093.820    94132374.36447
 15 02 22 00 30 30.0000000  0  7G16G18G21G22G27G29G31
  21526856.780   113124412.49609  21526854.160    88148881.42748
  22453232.720   117992606.95508  22453231.220    91942317.14847
  21478354.580   112869521.89009  21478351.660    87950267.95948
  23588375.280   123957803.76507  23588373.600    96590507.80446
  22656071.360   119058484.55608  22656071.820    92772862.37347
  24283513.380   127610706.78507  24283512.420    99436903.23445
  23005560.280   120895013.10108  23005558.780    94203890.22447
 15 02 22 00 31  0.0000000  0  7G16G18G21G22G27G29G31
  21514155.840   113057668.31709  21514153.140    88096872.98048
  22443112.400   117939424.29108  22443110.880    91900876.14447
  21487065.640   112915298.75909  21487062.680    87985938.25049
  23570984.620   123866416.40708  23570982.840    96519297.07246
  22644707.740   118998768.66908  22644708.400    92726330.53948
  24297394.820   127683653.59807  24297393.740    99493744.91345
  23023056.840   120986957.72408  23023055.280    94275535.32547
 15 02 22 00 31 30.0000000  0  7G16G18G21G22G27G29G31
  21501507.180   112991199.16009  21501504.500    88045078.84048
  22433053.960   117886567.16008  22433052.440    91859688.79647
  21495832.620   112961369.58709  21495829.640    88021837.59748
  23553602.400   123775073.00008  23553600.560    96448120.56946
  22633363.020   118939151.73708  22633363.720    92679875.81748
  24311276.920   127756604.11307  24311275.940    99550589.44545
  23040582.660   121079055.90208  23040581.080    94347300.08247
 15 02 22 00 32  0.0000000  0  7G16G18G21G22G27G29G31
  21488912.520   112925013.68009  21488909.820    87993505.74748
  22423059.000   117834043.54808  22423057.460    91818761.32546
  21504656.260   113007738.19609  21504653.260    88057968.98748
  23536230.320   123683782.93308  23536228.540    96376985.64346
  22622038.280   118879639.64808  22622038.920    92633502.77148
  24325160.600   127829564.29307  24325159.680    99607441.47846
  23058138.240   121171310.74808  23058136.580    94419186.90947
 15 02 22 00 32 30.0000000  0  7G16G18G21G22G27G29G31
  21476372.260   112859114.11409  21476369.480    87942155.43848
  22413128.000   117781856.00908  22413126.500    91778095.73947
  21513536.480   113054404.13609  21513533.500    88094332.05648
  23518868.960   123592548.73908  23518867.120    96305894.21646
  22610733.500   118820232.62008  22610734.020    92587211.59748
  24339046.260   127902534.58007  24339045.320    99664301.45046
  23075723.120   121263719.51708  23075721.400    94491193.68947
 15 02 22 00 33  0.0000000  0  7G16G18G21G22G27G29G31
  21463885.920   112793497.94409  21463883.160    87891025.96548
  22403260.540   117730002.54608  22403259.100    91737690.46947
  21522471.960   113101360.57609  21522469.020    88130921.49748
  23501517.740   123501368.11608  23501515.900    96234844.55446
  22599447.760   118760925.91108  22599448.300    92540998.60647
  24352933.060   127975510.17007  24352932.120    99721165.53244
  23093335.900   121356274.79608  23093334.140    94563314.64347
 15 02 22 00 33 30.0000000  0  7G16G18G21G22G27G29G31
  21451454.940   112728172.76109  21451452.220    87840123.22948
  22393458.160   117678490.71208  22393456.800    91697551.40447
  21531463.300   113148610.60209  21531460.420    88167739.69148
  23484178.260   123410249.46707  23484176.500    96163843.17746
  22588182.100   118701724.62808  22588182.580    92494867.75248
  24366821.760   128048496.45106  24366820.980    99778037.95345
  23110976.920   121448978.78208  23110975.300    94635551.43747
 15 02 22 00 34  0.0000000  0  7G16G18G21G22G27G29G31
  21439078.840   112663136.24209  21439076.160    87789445.42648
  22383720.300   117627317.85708  22383718.960    91657676.47547
  21540509.240   113196147.54809  21540506.380    88204781.46648
  23466850.140   123319190.76408  23466848.420    96092888.51646
  22576935.700   118642624.38908  22576936.100    92448815.62248
  24380711.780   128121489.02007  24380710.960    99834915.24245
  23128644.840   121541823.97308  23128643.320    94707898.26647
 15 02 22 00 34 30.0000000  0  7G16G18G21G22G27G29G31
  21426758.740   112598393.78709  21426756.040    87738996.76648
  22374048.000   117576489.29908  22374046.700    91618069.82347
  21549610.120   113243973.04209  21549607.280    88242048.08848
  23449534.720   123228198.27508  23449532.860    96021985.42146
  22565709.140   118583628.26908  22565709.420    92402844.63247
  24394603.600   128194490.67206  24394602.980    99891799.64645
  23146339.660   121634810.47008  23146338.000    94780355.21747
 15 02 22 00 35  0.0000000  0  7G16G18G21G22G27G29G31
  21414494.780   112533946.24309  21414492.080    87688777.90948
  22364441.380   117526005.79209  22364440.040    91578732.05647
  21558765.380   113292084.27909  21558762.600    88279537.36548
  23432232.160   123137273.08908  23432230.320    95951134.78246
  22554502.100   118524734.87908  22554502.300    92356953.69947
  24408497.020   128267500.91906  24408496.480    99948690.70745
  23164060.620   121727934.25208  23164058.920    94852919.15247
 15 02 22 00 35 30.0000000  0  7G16G18G21G22G27G29G31
  21402287.880   112469798.65309  21402285.220    87638792.78248
  22354901.440   117475872.44908  22354899.980    91539667.12547
  21567975.240   113340482.19209  21567972.460    88317250.02048
  23414943.380   123046420.32608  23414941.440    95880340.58146
  22543315.040   118465946.93308  22543315.280    92311144.92948
  24422392.400   128340522.35606  24422391.540   100005590.50346
  23181807.620   121821194.94608  23181805.940    94925589.75147
 15 02 22 00 36  0.0000000  0  7G16G18G21G22G27G29G31
  21390137.360   112405947.24409  21390134.720    87589038.44448
  22345427.280   117426085.05808  22345425.820    91500871.78247
  21577238.040   113389158.55309  21577235.280    88355179.65448
  23397667.980   122955637.32108  23397665.760    95809600.72646
  22532146.960   118407258.43508  22532147.280    92265413.64348
  24436288.960   128413548.95107  24436288.040   100062494.35245
  23199578.920   121914583.77408  23199577.380    94998360.18447
 15 02 22 00 36 30.0000000  0  7G16G18G21G22G27G29G31
  21378044.640   112342399.45909  21378042.000    87539520.69548
  22336020.460   117376651.75608  22336019.040    91462352.34147
  21586554.480   113438116.70209  21586551.700    88393328.85748
  23380407.200   122864931.74608  23380404.820    95738921.20346
  22520998.860   118348674.54508  22520999.240    92219763.88248
  24450187.520   128486586.09807  24450186.740   100119406.37845
  23217375.020   122008102.77108  23217373.540    95071232.07347
 15 02 22 00 37  0.0000000  0  7G16G18G21G22G27G29G31
  21366009.480   112279154.16409  21366006.860    87490238.65148
  22326680.800   117327571.24609  22326679.220    91424107.81447
  21595923.620   113487351.93009  21595920.820    88431693.97248
  23363161.120   122774303.32808  23363158.680    95668301.80446
  22509870.040   118290192.15108  22509870.540    92174193.20848
  24464087.620   128559630.67607  24464086.780   100176324.24945
  23235194.740   122101745.97108  23235193.100    95144200.73947
 15 02 22 00 37 30.0000000  0  7G16G18G21G22G27G29G31
  21354033.140   112216217.87009  21354030.520    87441197.39348
  22317409.440   117278849.58209  22317407.720    91386142.89547
  21605345.840   113536866.19409  21605343.080    88470276.50948
  23345930.880   122683758.11308  23345928.400    95597747.23246
  22498761.320   118231815.10008  22498761.820    92128704.61748
  24477989.700   128632686.48206  24477988.620   100233250.88445
  23253038.220   122195514.38908  23253036.620    95217266.96447
 15 02 22 00 38  0.0000000  0  7G16G18G21G22G27G29G31
  21342115.940   112153592.49309  21342113.320    87392398.39848
  22308206.660   117230488.34409  22308204.820    91348458.82647
  21614820.900   113586657.92309  21614818.100    88509075.25748
  23328717.020   122593299.48008  23328714.540    95527260.12146
  22487672.600   118173543.25708  22487673.060    92083298.00248
  24491893.840   128705753.88506  24491893.060   100290186.45345
  23270904.940   122289404.77308  23270903.480    95290428.21847
 15 02 22 00 38 30.0000000  0  7G16G18G21G22G27G29G31
  21330257.640   112091276.97109  21330255.040    87343840.85948
  22299072.260   117182486.64909  22299070.400    91311054.93047
  21624347.780   113636721.90709  21624344.940    88548086.15448
  23311519.560   122502926.68508  23311516.980    95456839.88646
  22476603.220   118115373.26208  22476603.500    92037970.73848
  24505799.520   128778829.28107  24505798.900   100347128.29945
  23288793.720   122383410.96208  23288792.440    95363679.71447
 15 02 22 00 39  0.0000000  0  7G16G18G21G22G27G29G31
  21318457.920   112029269.39209  21318455.380    87295523.27348
  22290005.820   117134842.53409  22290004.000    91273929.67347
  21633925.360   113687052.09909  21633922.440    88587304.48748
  23294338.140   122412638.15508  23294335.680    95386485.32946
  22465552.400   118057301.03408  22465552.520    91992719.65947
  24519706.220   128851908.58406  24519705.600   100404073.26246
  23306703.300   122477526.01908  23306702.180    95437016.04147
 15 02 22 00 39 30.0000000  0  7G16G18G21G22G27G29G31
  21306719.480   111967583.68409  21306716.980    87247456.48948
  22281010.080   117087569.90909  22281008.300    91237093.88747
  21643555.440   113737658.33209  21643552.440    88626737.91248
  23277175.520   122322448.34908  23277173.040    95316207.68546
  22454522.440   117999338.42908  22454522.480    91947553.99947
  24533615.880   128925004.62406  24533615.760   100461031.15845
  23324635.200   122571758.70908  23324634.060    95510444.02746
 15 02 22 00 40  0.0000000  0  7G16G18G21G22G27G29G31
  21295041.120   111906213.65809  21295038.600    87199635.70548
  22272083.840   117040662.31709  22272081.980    91200542.54647
  21653236.060   113788530.11509  21653233.000    88666378.26848
  23260030.560   122232351.78508  23260027.940    95246002.70546
  22443511.700   117941476.86608  22443511.840    91902467.09548
  24547526.980   128998108.27106  24547527.000   100517995.03945
  23342587.360   122666097.49908  23342586.000    95583954.71547
 15 02 22 00 40 30.0000000  0  6G16G18G21G22G27G31
  21283429.880   111845196.30909  21283427.320    87152089.72048
  22263234.120   116994156.67709  22263232.120    91164304.41847
  21662973.520   113839700.76109  21662970.420    88706251.50048
  23242910.520   122142385.81508  23242907.800    95175899.47246
  22432526.860   117883751.23108  22432527.140    91857486.10248
  23360565.780   122760574.48508  23360564.420    95657573.05547
 15 02 22 00 41  0.0000000  0  6G16G18G21G22G27G31
  21271872.360   111784461.13909  21271869.760    87104763.61848
  22254447.400   116947982.04109  22254445.360    91128324.20747
  21672753.720   113891096.03009  21672750.640    88746299.75648
  23225802.020   122052480.11408  23225799.220    95105843.18947
  22421554.080   117826088.70208  22421554.400    91812554.27748
  23378556.100   122855113.97608  23378554.800    95731240.11847
 15 02 22 00 41 30.0000000  0  6G16G18G21G22G27G31
  21260378.100   111724058.29809  21260375.440    87057696.47348
  22245733.220   116902188.63209  22245731.080    91092641.05347
  21682585.340   113942761.64909  21682582.320    88786558.67848
  23208714.640   121962686.11408  23208711.840    95035873.94546
  22410602.480   117768537.36408  22410602.780    91767709.09548
  23396566.840   122949760.63808  23396565.760    95804990.67347
 15 02 22 00 42  0.0000000  0  6G16G18G21G22G27G31
  21248946.240   111663983.30609  21248943.520    87010884.79748
  22237090.580   116856771.26609  22237088.320    91057250.92847
  21692466.740   113994689.01109  21692463.820    88827021.56048
  23191647.660   121872999.64008  23191645.020    94965988.50546
  22399670.620   117711090.37708  22399670.960    91722945.23648
  23414596.100   123044505.28808  23414595.140    95878817.59247
 15 02 22 00 42 30.0000000  0  6G16G18G21G22G27G31
  21237576.600   111604235.41509  21237573.900    86964328.00348
  22228519.340   116811729.41609  22228517.020    91022153.41247
  21702397.040   114046873.13209  21702394.200    88867684.50548
  23174601.120   121783420.08808  23174598.460    94896186.35347
  22388758.080   117653744.77408  22388758.440    91678260.36748
  23432642.940   123139341.97808  23432642.080    95952716.21147
 15 02 22 00 43  0.0000000  0  7G16G18G19G21G22G27G31
  21226270.060   111544819.30409  21226267.380    86918029.74149
  22220020.400   116767067.93409  22220018.200    90987352.27947
  24539772.720   128957371.29906  24539767.960   100486251.48145
  21712376.440   114099315.23809  21712373.600    88908548.48248
  23157575.940   121693952.76508  23157573.260    94826471.64847
  22377865.320   117596503.16008  22377865.680    91633656.53448
  23450707.160   123234269.90308  23450706.200    96026685.93447
 15 02 22 00 43 30.0000000  0  7G16G18G19G21G22G27G31
  21215016.520   111485681.56009  21215013.860    86871948.39048
  22211583.460   116722732.25309  22211581.320    90952805.02447
  24525172.360   128880646.79406  24525168.140   100426466.18945
  21722393.940   114151957.50609  21722391.080    88949568.43348
  23140562.080   121604544.87408  23140559.360    94756803.26247
  22366981.780   117539309.87608  22366982.080    91589090.36148
  23468777.720   123329230.63308  23468776.640    96100681.21846
 15 02 22 00 44  0.0000000  0  7G16G18G19G21G22G27G31
  21203838.260   111426939.31509  21203835.600    86826175.21948
  22203230.840   116678839.47509  22203228.800    90918602.89047
  24510597.300   128804055.23806  24510593.280   100366784.52946
  21732470.940   114204912.39609  21732468.060    88990831.98148
  23123581.920   121515313.98808  23123579.180    94687272.79647
  22356129.320   117482279.92208  22356129.620    91544651.45248
  23486875.860   123424336.23008  23486874.680    96174789.38846
 15 02 22 00 44 30.0000000  0  7G16G18G19G21G22G27G31
  21192723.380   111368530.04509  21192720.680    86780661.50649
  22194950.620   116635327.09309  22194948.640    90884697.15847
  24496035.180   128727531.91306  24496031.600   100307156.03045
  21742594.900   114258114.28909  21742592.040    89032288.00348
  23106623.640   121426198.28208  23106620.980    94617832.09847
  22345295.660   117425348.46708  22345295.920    91500289.29448
  23504988.660   123519518.97508  23504987.440    96248957.66247
 15 02 22 00 45  0.0000000  0  7G16G18G19G21G22G27G31
  21181672.960   111310459.88009  21181670.280    86735412.03149
  22186743.920   116592201.04509  22186741.960    90851092.47047
  24481486.900   128651080.84006  24481483.560   100247583.80645
  21752766.340   114311565.51909  21752763.440    89073938.31548
  23089688.660   121337204.60308  23089686.040    94548486.46146
  22334481.520   117368519.66508  22334481.760    91456007.12748
  23523116.380   123614779.94008  23523115.180    96323186.88947
 15 02 22 00 45 30.0000000  0  7G16G18G19G21G22G27G31
  21170689.240   111252740.08709  21170686.640    86690435.57649
  22178612.860   116549472.49309  22178610.900    90817797.51847
  24466954.040   128574710.88306  24466950.860   100188074.80645
  21762986.500   114365272.64709  21762983.540    89115788.02548
  23072779.160   121248344.60208  23072776.460    94479244.98147
  22323688.640   117311802.71408  22323688.780    91411812.12548
  23541260.220   123710125.45108  23541259.040    96397482.00347
 15 02 22 00 46  0.0000000  0  7G16G18G19G21G22G27G31
  21159769.260   111195355.31209  21159766.680    86645720.17648
  22170554.440   116507125.40509  22170552.500    90784799.80947
  24452433.380   128498404.29707  24452430.160   100128615.17445
  21773251.640   114419216.35009  21773248.640    89157822.08248
  23055892.300   121159603.57208  23055889.280    94410096.20646
  22312913.640   117255180.03208  22312913.800    91367690.57948
  23559416.000   123805534.65108  23559414.860    96471826.71947
 15 02 22 00 46 30.0000000  0  7G16G18G19G21G22G27G31
  21148915.480   111138318.45509  21148912.880    86601275.88448
  22162571.140   116465172.53409  22162569.180    90752109.28447
  24437926.740   128422171.75006  24437923.480   100069213.23845
  21783563.520   114473405.68709  21783560.540    89200047.54348
  23039030.520   121070994.91108  23039027.420    94341050.58346
  22302158.600   117198662.23608  22302158.740    91323650.76348
  23577585.540   123901015.84208  23577584.360    96546227.55146
 15 02 22 00 47  0.0000000  0  7G16G18G19G21G22G27G31
  21138127.940   111081629.70009  21138125.340    86557102.83848
  22154662.820   116423613.50109  22154660.760    90719725.63647
  24423433.840   128346011.67706  24423430.480   100009867.79845
  21793921.440   114527836.91709  21793918.480    89242461.48848
  23022194.160   120982519.21908  23022191.020    94272108.56447
  22291423.180   117142247.43908  22291423.380    91279691.19748
  23595767.920   123996563.96108  23595766.680    96620680.54746
 15 02 22 00 47 30.0000000  0  7G16G18G19G21G22G27G31
  21127407.720   111025294.84509  21127405.180    86513205.55748
  22146830.480   116382454.03409  22146828.280    90687653.34647
  24408955.280   128269927.47106  24408952.340    99950581.48645
  21804325.700   114582511.90009  21804322.800    89285065.36948
  23005384.400   120894183.22808  23005381.420    94203275.40147
  22280708.100   117085939.47908  22280708.400    91235814.88548
  23613963.120   124092179.69408  23613961.920    96695186.18146
 15 02 22 00 48  0.0000000  0  7G16G18G19G21G22G27G31
  21116754.800   110969313.35409  21116752.220    86469583.63049
  22139073.880   116341692.78409  22139071.540    90655891.35747
  24394490.480   128193915.76906  24394487.780    99891351.66145
  21814775.380   114637425.58909  21814772.520    89327855.26148
  22988601.100   120805986.52608  22988598.180    94134550.79447
  22270012.820   117029735.41108  22270013.160    91192019.53448
  23632170.100   124187857.18708  23632168.780    96769739.98446
 15 02 22 00 48 30.0000000  0  7G16G18G19G21G22G27G31
  21106169.260   110913685.96609  21106166.600    86426237.61348
  22131393.300   116301330.89109  22131390.840    90624440.54947
  24380039.340   128117975.45106  24380037.020    99832177.42745
  21825269.900   114692574.85809  21825267.080    89370828.71348
  22971844.540   120717930.73108  22971841.440    94065935.96146
  22259337.060   116973633.97108  22259337.400    91148304.14748
  23650387.900   124283592.11708  23650386.580    96844338.51446
 15 02 22 00 49  0.0000000  0  7G16G18G19G21G22G27G31
  21095651.420   110858414.57209  21095648.760    86383169.00749
  22123789.000   116261369.64909  22123786.520    90593301.92947
  24365601.880   128042106.25706  24365599.560    99773058.60145
  21835808.920   114747957.86609  21835806.140    89413984.30248
  22955115.300   120630018.18708  22955112.140    93997432.74747
  22248680.840   116917635.06308  22248681.080    91104668.65448
  23668616.040   124379381.35308  23668614.820    96918979.35246
 15 02 22 00 49 30.0000000  0  7G16G18G19G21G22G27G31
  21085202.020   110803502.62309  21085199.360    86340380.48749
  22116261.580   116221812.57909  22116259.140    90562478.26647
  24351178.300   127966309.83306  24351175.820    99713996.51445
  21846392.400   114803574.29509  21846389.620    89457321.78348
  22938414.060   120542253.08008  22938410.960    93929044.44447
  22238044.400   116861740.28008  22238044.600    91061114.30048
  23686854.300   124475223.74308  23686853.080    96993661.62046
 15 02 22 00 50  0.0000000  0  7G16G18G19G21G22G27G31
  21074822.020   110748955.16309  21074819.320    86297875.97749
  22108811.660   116182662.90909  22108809.300    90531972.03947
  24336768.880   127890588.17906  24336766.580    99654992.67945
  21857020.280   114859424.07109  21857017.480    89500841.08748
  22921741.960   120454640.77708  22921738.840    93860775.18047
  22227428.180   116805951.90108  22227428.420    91017642.85548
  23705102.600   124571118.54208  23705101.300    97068384.73346
 15 02 22 00 50 30.0000000  0  7G16G18G19G21G22G27G31
  21064511.300   110694771.92909  21064508.600    86255655.28649
  22101439.340   116143921.02509  22101437.160    90501783.57447
  24322373.320   127814938.99806  24322370.800    99596045.29046
  21867691.860   114915503.68709  21867689.100    89544539.48948
  22905099.000   120367181.45008  22905095.760    93792625.12347
  22216831.840   116750267.86108  22216832.120    90974252.72248
  23723359.920   124667060.74208  23723358.540    97143144.77446
 15 02 22 00 51  0.0000000  0  7G16G18G19G21G22G27G31
  21054269.500   110640951.12509  21054266.880    86213717.00749
  22094144.220   116105584.86309  22094142.180    90471911.26347
  24307990.840   127739358.58206  24307988.240    99537151.53545
  21878406.200   114971807.75509  21878403.460    89588412.79148
  22888484.900   120279874.46108  22888481.800    93724593.78647
  22206254.720   116694684.55208  22206254.900    90930941.07448
  23741625.060   124763043.48908  23741623.680    97217936.40246
 15 02 22 00 51 30.0000000  0  7G16G18G19G21G22G27G31
  21044098.500   110587502.17509  21044095.940    86172068.48149
  22086927.880   116067662.91909  22086925.780    90442361.70547
  24293622.880   127663854.10107  24293620.260    99478316.92145
  21889164.120   115028340.99609  21889161.400    89632464.66548
  22871901.560   120192729.34408  22871898.580    93656688.57747
  22195698.060   116639209.02408  22195698.220    90887713.39848
  23759898.600   124859071.34308  23759897.340    97292763.15046
 15 02 22 00 52  0.0000000  0  7G16G18G19G21G22G27G31
  21033997.820   110534422.65109  21033995.280    86130707.82249
  22079789.840   116030152.60509  22079787.780    90413132.90547
  24279268.500   127588421.02806  24279265.960    99419537.98545
  21899964.460   115085097.25509  21899961.740    89676690.32748
  22855348.720   120105744.30808  22855345.760    93588908.08947
  22185161.060   116583836.92008  22185161.260    90844566.33448
  23778179.320   124955136.47308  23778178.320    97367618.96746
 15 02 22 00 52 30.0000000  0  7G16G18G19G21G22G27G31
  21023968.200   110481716.61609  21023965.660    86089638.19049
  22072730.840   115993057.74009  22072728.800    90384227.83048
  24264928.060   127513061.20506  24264925.340    99360816.06846
  21910807.240   115142076.75609  21910804.540    89721089.93648
  22838827.460   120018924.55608  22838824.400    93521256.40347
  22174644.120   116528570.43508  22174644.400    90801501.56148
  23796466.940   125051238.40208  23796465.940    97442503.43946
 15 02 22 00 53  0.0000000  0  7G16G18G19G21G22G27G31
  21014009.940   110429385.55209  21014007.400    86048860.74549
  22065750.920   115956378.72009  22065748.940    90355646.78747
