     2.11           OBSERVATION DATA    G                   RINEX VERSION / TYPE
SPIDER V4,0,0,3554                      2015 03 16 00:34    PGM / RUN BY / DATE 
AKET                                                        MARKER NAME         
AKET                                                        MARKER NUMBER       
                                                            OBSERVER / AGENCY   
496661              LEICA GRX1200+GNSS  8.20/4.007          REC # / TYPE / VERS 
10271023            LEIAR25         NONE                    ANT # / TYPE        
  5151584.4739   350346.6892  3733756.9574                  APPROX POSITION XYZ 
        0.0480        0.0000        0.0000                  ANTENNA: DELTA H/E/N
     1     1                                                WAVELENGTH FACT L1/2
     4    C1    L1    P2    L2                              # / TYPES OF OBSERV 
    30.000                                                  INTERVAL            
  2015    02    22    08    53    0.0000000     GPS         TIME OF FIRST OBS   
  2015    02    22    11    32   30.0000000     GPS         TIME OF LAST OBS    
    16                                                      LEAP SECONDS        
    13                                                      # OF SATELLITES     
   G 1    44    44    44    44                              PRN / # OF OBS      
   G 2   247   247   247   247                              PRN / # OF OBS      
   G 3   243   243   243   243                              PRN / # OF OBS      
   G 5    71    71    71    71                              PRN / # OF OBS      
   G 6   320   320   320   320                              PRN / # OF OBS      
   G 7   259   259   259   259                              PRN / # OF OBS      
   G 9   320   320   320   320                              PRN / # OF OBS      
   G10   320   320   320   320                              PRN / # OF OBS      
   G13     1     1     1     1                              PRN / # OF OBS      
   G17   116   116   116   116                              PRN / # OF OBS      
   G20   320   320   320   320                              PRN / # OF OBS      
   G23   320   320   320   320                              PRN / # OF OBS      
   G30   153   153   153   153                              PRN / # OF OBS      
BIT 2 OF LLI FLAGS DATA COLLECTED UNDER A/S CONDITION       COMMENT             
SNR is mapped to RINEX snr flag value [2-9]                 COMMENT             
Lx:     = 25dBHz -> 1; 26-27dBHz -> 2; 28-31dBHz -> 3       COMMENT             
       32-35dBHz -> 4; 36-38dBHz -> 5; 39-41dBHz -> 6       COMMENT             
       42-44dBHz -> 7; 45-48dBHz -> 8; >=49dBHz -> 9        COMMENT             
                                                            END OF HEADER       
 15 02 22 08 53  0.0000000  0  8G01G03G06G09G10G17G20G23
  22655432.020   119055098.88908  22655435.360    92770220.44447
  21408804.780   112504027.81209  21408806.600    87665483.76248
  22161210.860   116457948.22609  22161212.580    90746460.34848
  20632671.240   108425418.16909  20632672.040    84487342.31749
  23219526.620   122019436.51108  23219526.760    95080077.66546
  22388392.560   117651796.48309  22388391.700    91676720.64448
  21895925.640   115063865.64309  21895924.740    89660151.87147
  20539345.380   107934988.37109  20539340.920    84105167.28648
 15 02 22 08 53 30.0000000  0  8G01G03G06G09G10G17G20G23
  22672786.540   119146297.00808  22672789.820    92841283.73147
  21417002.120   112547104.86509  21417003.900    87699050.21648
  22145549.740   116375648.88709  22145551.520    90682330.95148
  20625318.460   108386778.52309  20625319.220    84457233.45449
  23204507.500   121940510.51108  23204507.900    95018576.90645
  22398248.480   117703589.96209  22398247.660    91717079.05448
  21883883.680   115000584.47408  21883882.800    89610841.85747
  20542949.320   107953927.23209  20542944.860    84119924.75048
 15 02 22 08 54  0.0000000  0  8G01G03G06G09G10G17G20G23
  22690180.140   119237700.54908  22690183.380    92912507.09347
  21425219.560   112590287.40909  21425221.260    87732698.87748
  22129928.100   116293556.84909  22129929.840    90618363.09048
  20618038.120   108348520.01509  20618038.760    84427421.59749
  23189494.160   121861614.30408  23189494.920    94957099.35446
  22408174.160   117755750.41209  22408173.440    91757723.42747
  21871854.300   114937369.64509  21871853.480    89561583.53447
  20546617.160   107973202.08709  20546612.700    84134944.04448
 15 02 22 08 54 30.0000000  0  8G01G03G06G09G10G17G20G23
  22707626.240   119329380.05008  22707629.500    92983945.47748
  21433470.820   112633647.62109  21433472.480    87766485.98748
  22114360.140   116211746.75609  22114361.920    90554614.93648
  20610844.060   108310714.88309  20610844.620    84397963.02149
  23174500.280   121782820.46008  23174500.920    94895701.52746
  22418182.860   117808347.23709  22418182.480    91798707.81047
  21859851.400   114874294.07209  21859850.620    89512433.73747
  20550362.340   107992883.70309  20550357.980    84150280.29748
 15 02 22 08 55  0.0000000  0  8G01G03G06G09G10G17G20G23
  22725124.060   119421331.54108  22725127.380    93055595.82647
  21441755.500   112677183.19909  21441757.060    87800409.75748
  22098845.820   116130218.79609  22098847.720    90491086.63848
  20603735.820   108273360.78209  20603736.220    84368855.90548
  23159525.560   121704127.09408  23159525.820    94834382.03646
  22428273.760   117861375.83109  22428273.680    91840028.65848
  21847874.560   114811355.59209  21847873.740    89463390.76347
  20554184.260   108012968.53009  20554179.900    84165930.75648
 15 02 22 08 55 30.0000000  0  8G01G03G06G09G10G17G20G23
  22742674.220   119513557.87408  22742677.560    93127460.33747
  21450074.380   112720898.60109  21450075.800    87834473.65848
  22083386.500   116048979.88308  22083388.460    90427783.57848
  20596714.300   108236462.27209  20596714.560    84340103.79749
  23144570.640   121625538.71408  23144571.240    94773144.43146
  22438447.280   117914838.17109  22438447.280    91881687.50148
  21835924.740   114748559.47909  21835923.900    89414458.72147
  20558083.580   108033459.91609  20558079.200    84181898.03048
 15 02 22 08 56  0.0000000  0  8G01G03G06G09G10G17G20G23
  22760275.440   119606052.53108  22760278.880    93199533.92747
  21458426.480   112764788.98609  21458427.780    87868673.90648
  22067981.800   115968027.72509  22067983.720    90364703.96248
  20589778.480   108200014.47909  20589778.700    84311702.91149
  23129634.780   121547050.86308  23129635.700    94711985.14246
  22448701.980   117968726.70009  22448702.000    91923678.44248
  21824001.140   114685901.44409  21824000.380    89365634.27247
  20562059.060   108054351.13309  20562054.660    84198176.86248
 15 02 22 08 56 30.0000000  0  8G01G03G06G09G10G17G20G23
  22777927.520   119698814.29908  22777931.020    93271815.67947
  21466811.820   112808854.79209  21466813.200    87903010.82448
  22052632.260   115887365.18509  22052634.120    90301850.02048
  20582928.500   108164017.81709  20582928.720    84283653.54348
  23114718.080   121468664.36808  23114719.060    94650904.83346
  22459037.360   118023039.49309  22459037.380    91965999.95247
  21812103.980   114623382.50008  21812103.220    89316918.18147
  20566110.460   108075641.06309  20566106.080    84214766.37548
 15 02 22 08 57  0.0000000  0  8G01G03G06G09G10G17G20G23
  22795630.380   119791843.09608  22795633.920    93344305.48347
  21475230.960   112853097.61109  21475232.420    87937485.70348
  22037338.540   115806996.35709  22037340.480    90239224.95948
  20576164.600   108128473.84509  20576164.840    84255956.93848
  23099821.120   121390381.28208  23099821.720    94589905.08746
  22469453.320   118077775.31709  22469453.160    92008651.14748
  21800233.680   114561004.46409  21800232.880    89268311.90147
  20570237.900   108097330.41809  20570233.500    84231667.14748
 15 02 22 08 57 30.0000000  0  8G01G03G06G09G10G17G20G23
  22813383.580   119885136.34808  22813387.140    93417001.37647
  21483683.660   112897516.55209  21483685.020    87972097.80848
  22022100.960   115726922.80409  22022103.000    90176829.97248
  20569486.740   108093381.61109  20569486.960    84228612.31549
  23084943.720   121312201.13108  23084944.120    94528985.57945
  22479949.240   118132930.89009  22479948.900    92051629.38648
  21788390.280   114498766.86208  21788389.340    89219815.04647
  20574440.780   108119416.50509  20574436.400    84248877.05148
 15 02 22 08 58  0.0000000  0  8G01G03G06G09G10G17G20G23
  22831186.140   119978688.99608  22831189.660    93489899.39047
  21492169.220   112942108.26309  21492170.580    88006844.54448
  22006919.480   115647143.67709  22006921.480    90114664.41948
  20562894.240   108058737.69309  20562894.480    84201617.04048
  23070085.440   121234121.03608  23070085.900    94468144.02645
  22490523.880   118188500.13409  22490523.500    92094929.97748
  21776573.220   114436667.21209  21776572.020    89171425.66547
  20578718.160   108141894.49909  20578713.820    84266392.34748
 15 02 22 08 58 30.0000000  0  8G01G03G06G09G10G17G20G23
  22849038.180   120072501.61808  22849041.720    93562999.98147
  21500688.140   112986875.02509  21500689.440    88041727.68848
  21991795.020   115567663.70909  21991796.820    90052731.98948
  20556387.520   108024544.25909  20556387.740    84174972.77748
  23055246.740   121156143.65708  23055247.140    94407382.48346
  22501177.220   118244482.68409  22501176.740    92138552.64148
  21764783.040   114374708.58009  21764781.720    89123146.17547
  20583070.200   108164765.46409  20583065.980    84284213.84948
 15 02 22 08 59  0.0000000  0  8G01G03G06G09G10G17G20G23
  22866938.900   120166570.24508  22866942.560    93636300.04847
  21509240.020   113031814.59109  21509241.320    88076745.48748
  21976727.600   115488483.15209  21976729.120    89991032.85048
  20549966.000   107990798.95709  20549966.220    84148677.71049
  23040427.240   121078267.08708  23040427.460    94346699.46246
  22511908.280   118300873.82309  22511907.800    92182493.66548
  21753019.280   114312889.14709  21753017.940    89074975.13947
  20587496.240   108188025.74909  20587492.220    84302338.72448
 15 02 22 08 59 30.0000000  0  8G01G03G06G09G10G17G20G23
  22884888.760   120260897.14608  22884892.540    93709801.34547
  21517825.480   113076930.93309  21517826.860    88111901.01548
  21961718.360   115409608.43309  21961719.640    89929572.02348
  20543630.500   107957505.64309  20543630.700    84122734.83949
  23025627.740   121000495.53909  23025627.780    94286098.30146
  22522717.280   118357674.44509  22522716.640    92226753.78248
  21741282.920   114251213.30509  21741281.560    89026915.99047
  20591996.780   108211677.45209  20591993.000    84320768.59448
 15 02 22 09 00  0.0000000  0  8G01G03G06G09G10G17G20G23
  22902887.420   120355480.60608  22902891.340    93783502.57547
  21526444.400   113122224.07109  21526446.000    88147194.29348
  21946767.700   115331042.01109  21946768.980    89868351.43548
  20537380.960   107924664.19909  20537381.160    84097144.07149
  23010848.500   120922829.51508  23010848.120    94225579.30246
  22533603.760   118414882.29809  22533603.000    92271331.24047
  21729574.080   114189681.76609  21729572.580    88978969.30647
  20596571.680   108235719.39409  20596568.080    84339502.54248
 15 02 22 09 00 30.0000000  0  8G01G03G06G09G10G17G20G23
  22920934.900   120450320.57508  22920938.960    93857403.68347
  21535097.140   113167695.77909  21535099.020    88182626.70348
  21931876.460   115252788.13809  21931877.880    89807374.37648
  20531217.740   107892276.20709  20531217.980    84071906.64649
  22996089.780   120845271.24208  22996089.280    94165144.32846
  22544567.400   118472496.46309  22544566.920    92316225.27747
  21717893.200   114128296.84609  21717891.480    88931136.87447
  20601221.100   108260151.79609  20601217.560    84358540.73948
 15 02 22 09 01  0.0000000  0  8G01G03G06G09G10G17G20G23
  22939029.680   120545408.88108  22939033.840    93931498.29947
  21543782.720   113213339.57209  21543784.720    88218193.21348
  21917043.900   115174842.84509  21917045.520    89746637.76448
  20525139.560   107860335.03709  20525139.860    84047017.40049
  22981350.460   120767814.63408  22981349.980    94104788.51946
  22555606.500   118530507.55109  22555606.040    92361428.60847
  21706239.160   114067052.86809  21706237.240    88883414.26947
  20605943.380   108284966.79609  20605939.740    84377877.06648
 15 02 22 09 01 30.0000000  0  8G01G03G06G09G10G17G20G23
  22957172.620   120640750.29608  22957176.880    94005790.13347
  21552502.420   113259162.02109  21552504.380    88253898.93348
  21902271.880   115097215.10909  21902273.520    89686148.59248
  20519147.660   107828847.05709  20519147.880    84022481.27049
  22966631.640   120690466.45508  22966631.380    94044517.23146
  22566721.880   118588919.17209  22566721.500    92406944.04047
  21694613.100   114005956.87209  21694611.200    88835806.97947
  20610739.400   108310169.32409  20610735.600    84397515.34548
 15 02 22 09 02  0.0000000  0  8G01G03G06G09G10G17G20G23
  22975362.580   120736338.62708  22975366.900    94080274.39547
  21561255.340   113305158.70809  21561257.220    88289740.43048
  21887559.920   115019902.92809  21887561.520    89625905.33648
  20513241.140   107797807.59009  20513241.340    83998294.65349
  22951932.660   120613223.11708  22951932.460    93984327.62145
  22577912.200   118647724.70609  22577911.940    92452766.42647
  21683014.240   113945004.66609  21683012.380    88788311.73747
  20615607.980   108335753.44809  20615604.040    84417450.98448
 15 02 22 09 02 30.0000000  0  8G01G03G06G09G10G17G20G23
  22993599.800   120832175.10308  22993604.100    94154951.96847
  21570042.020   113351332.66509  21570043.820    88325720.03748
  21872909.020   114942911.85209  21872910.680    89565912.27448
  20507420.440   107767219.44509  20507420.560    83974459.70449
  22937254.180   120536087.78108  22937254.120    93924222.13046
  22589177.540   118706923.95809  22589177.260    92498895.59247
  21671443.400   113884200.12209  21671441.580    88740931.54947
  20620549.420   108361720.88009  20620545.400    84437685.28548
 15 02 22 09 03  0.0000000  0  8G01G03G06G09G10G17G20G23
  23011883.320   120928254.90808  23011887.640    94229819.17647
  21578861.920   113397680.84609  21578863.540    88361835.40248
  21858319.040   114866241.31609  21858320.780    89506168.99148
  20501684.960   107737079.36309  20501685.100    83950973.90349
  22922595.600   120459057.79708  22922595.700    93864198.77246
  22600516.740   118766511.17809  22600516.420    92545327.08348
  21659900.240   113823541.09309  21659898.440    88693664.77048
  20625562.820   108388066.65309  20625558.860    84458214.41448
 15 02 22 09 03 30.0000000  0  8G01G03G06G09G10G17G20G23
  23030213.040   121024577.46908  23030217.340    94304875.54847
  21587715.200   113444204.53709  21587716.720    88398087.53248
  21843790.720   114789894.97509  21843792.540    89446678.33448
  20496034.920   107707388.28609  20496035.060    83927837.98149
  22907957.520   120382134.79308  22907957.620    93804258.74046
  22611929.460   118826484.85909  22611929.080    92592059.70547
  21648385.180   113763029.11309  21648383.340    88646512.58047
  20630648.240   108414790.50809  20630644.320    84479038.16448
 15 02 22 09 04  0.0000000  0  8G01G03G06G09G10G17G20G23
  23048588.560   121121140.65108  23048592.860    94380119.41147
  21596601.820   113490903.39109  21596603.240    88434476.14348
  21829324.460   114713874.95209  21829326.400    89387441.93348
  20490470.280   107678145.62709  20490470.380    83905051.46449
  22893339.960   120305318.78108  22893339.940    93744402.05046
  22623415.080   118886842.03109  22623414.720    92639091.14547
  21636898.220   113702664.38609  21636896.280    88599475.13547
  20635805.340   108441890.61309  20635801.360    84500155.08248
 15 02 22 09 04 30.0000000  0  8G01G03G06G09G10G17G20G23
  23067010.180   121217945.98508  23067014.460    94455551.95747
  21605522.420   113537780.78509  21605523.840    88471003.89348
  21814921.400   114638187.06709  21814923.540    89328464.34348
  20484991.600   107649354.47509  20484991.600    83882616.77049
  22878743.400   120228613.39008  22878743.360    93684631.58946
  22634973.680   118947583.02909  22634973.360    92686421.66348
  21625440.020   113642450.91509  21625438.080    88552555.54747
  20641034.440   108469368.87309  20641030.460    84521566.66648
 15 02 22 09 05  0.0000000  0  8G01G03G06G09G10G17G20G23
  23085476.860   121314988.03708  23085481.100    94531168.96047
  21614476.320   113584833.06209  21614477.780    88507667.90448
  21800581.380   114562830.10809  21800583.680    89269744.62048
  20479598.040   107621010.81409  20479598.020    83860530.77949
  22864167.460   120152016.00408  22864167.240    93624945.27746
  22646604.200   119008701.63209  22646604.020    92734046.43248
  21614010.000   113582385.92309  21614008.160    88505751.67647
  20646334.400   108497220.07809  20646330.460    84543268.85448
 15 02 22 09 05 30.0000000  0  8G01G03G06G09G10G17G20G23
  23103987.780   121412262.62108  23103992.060    94606967.16447
  21623463.160   113632057.95609  21623464.560    88544466.43048
  21786304.480   114487804.19809  21786306.820    89211282.85548
  20474289.080   107593112.05109  20474289.120    83838791.45949
  22849611.660   120075524.34608  22849611.240    93565341.38445
  22658305.680   119070192.71509  22658305.460    92781961.44347
  21602607.800   113522467.67009  21602606.160    88459062.13047
  20651704.500   108525440.28609  20651700.660    84565258.56548
 15 02 22 09 06  0.0000000  0  8G01G03G06G09G10G17G20G23
  23122543.400   121509772.12708  23122547.680    94682948.41546
  21632483.560   113679459.69209  21632485.000    88581402.74448
  21772091.840   114413116.02709  21772094.100    89153084.25648
  20469065.480   107565662.00509  20469065.660    83817401.79749
  22835076.980   119999143.21509  22835076.640    93505823.60546
  22670078.240   119132057.41709  22670077.900    92830167.59247
  21591234.360   113462700.65609  21591232.900    88412490.43347
  20657145.260   108554032.13509  20657141.560    84587537.87348
 15 02 22 09 06 30.0000000  0  8G01G03G06G09G10G17G20G23
  23141143.480   121607515.37208  23141147.740    94759111.80846
  21641537.680   113727038.88509  21641539.120    88618477.35048
  21757944.040   114338768.67009  21757946.300    89095151.25148
  20463927.320   107538661.00509  20463927.540    83796362.03649
  22820563.580   119922873.75008  22820563.420    93446392.84346
  22681921.540   119194293.79009  22681921.140    92878663.36347
  21579889.940   113403086.37009  21579888.640    88366037.74247
  20662656.540   108582994.77109  20662653.060    84610106.11448
 15 02 22 09 07  0.0000000  0  8G01G03G06G09G10G17G20G23
  23159787.660   121705490.40808  23159791.920    94835455.80846
  21650625.480   113774795.55009  21650626.920    88655690.25948
  21743861.540   114264764.54909  21743863.840    89037485.68948
  20458874.580   107512108.65909  20458874.760    83775671.87149
  22806071.340   119846716.25008  22806071.320    93387049.33646
  22693834.980   119256898.67509  22693834.660    92927446.28447
  21568574.740   113343625.31809  21568573.600    88319704.45747
  20668238.080   108612326.19909  20668234.680    84632961.73548
 15 02 22 09 07 30.0000000  0  8G01G03G06G09G10G17G20G23
  23178476.260   121803698.72908  23178480.540    94911981.57146
  21659747.500   113822732.97409  21659749.180    88693044.00448
  21729845.320   114191109.34909  21729847.820    88980092.00548
  20453907.780   107486007.80209  20453907.940    83755333.52349
  22791600.940   119770674.10508  22791601.020    93327795.72546
  22705818.580   119319872.50109  22705818.400    92976516.64847
  21557289.600   113284321.68009  21557288.420    88273493.82848
  20673890.280   108642028.51809  20673886.940    84656106.37548
 15 02 22 09 08  0.0000000  0  8G01G03G06G09G10G17G20G23
  23197207.840   121902133.08908  23197212.200    94988683.50246
  21668902.940   113870845.90309  21668904.900    88730534.52948
  21715894.900   114117800.26409  21715897.640    88922968.03048
  20449025.840   107460352.77109  20449025.940    83735342.57949
  22777151.520   119694742.73708  22777151.740    93268628.44646
  22717870.800   119383207.27608  22717870.800    93025868.31847
  21546033.540   113225170.42809  21546032.240    88227401.94847
  20679611.800   108672094.63909  20679608.380    84679534.50048
 15 02 22 09 08 30.0000000  0  8G01G03G06G09G10G17G20G23
  23215982.280   122000792.80408  23215986.760    95065560.99545
  21678091.940   113919135.47209  21678094.160    88768162.66648
  21702011.000   114044840.79209  21702013.920    88866116.47348
  20444228.880   107435144.29509  20444228.880    83715699.58949
  22762723.420   119618923.72108  22762724.000    93209548.73846
  22729991.380   119446901.17309  22729991.580    93075499.81147
  21534806.900   113166173.37209  21534805.460    88181430.20747
  20685402.520   108702524.03209  20685398.900    84703245.69948
 15 02 22 09 09  0.0000000  0  8G01G03G06G09G10G17G20G23
  23234799.140   122099674.95707  23234803.500    95142611.84146
  21687314.500   113967600.69409  21687316.700    88805927.70448
  21688194.060   113972232.43209  21688196.800    88809538.51848
  20439516.500   107410380.91809  20439516.580    83696403.44449
  22748316.680   119543216.60008  22748317.460    93150556.22646
  22742179.520   119510950.22309  22742179.940    93125408.01748
  21523609.600   113107330.47809  21523608.000    88135578.58348
  20691262.020   108733314.40909  20691258.080    84727238.18148
 15 02 22 09 09 30.0000000  0  8G01G03G06G09G10G17G20G23
  23253657.480   122198775.11207  23253661.760    95219832.54945
  21696570.200   114016238.99809  21696572.320    88843827.62248
  21674444.040   113899975.00809  21674446.520    88753234.03448
  20434888.200   107386059.62009  20434888.340    83677451.78449
  22733930.920   119467619.06108  22733931.600    93091649.10746
  22754434.280   119575348.68309  22754434.780    93175588.50648
  21512441.200   113048639.68809  21512439.540    88089845.49147
  20697189.320   108764461.13909  20697185.060    84751508.34548
 15 02 22 09 10  0.0000000  0  8G01G03G06G09G10G17G20G23
  23272557.600   122298095.02507  23272561.860    95297224.48645
  21705859.580   114065054.09409  21705861.440    88881865.31848
  21660761.980   113828074.62509  21660764.340    88697207.77548
  20430344.600   107362183.60109  20430344.860    83658847.11449
  22719566.800   119392135.26108  22719567.380    93032830.62746
  22766755.660   119640097.42008  22766756.280    93226041.94048
  21501302.480   112990105.16909  21501300.800    88044234.18248
  20703184.780   108795966.49009  20703180.340    84776057.96548
 15 02 22 09 10 30.0000000  0  8G01G03G06G09G10G17G20G23
  23291499.780   122397635.88307  23291504.180    95374788.59345
  21715183.180   114114049.08909  21715184.960    88920043.18148
  21647148.900   113756536.73709  21647151.220    88641463.98148
  20425886.240   107338755.50709  20425886.620    83640591.47749
  22705224.940   119316768.76908  22705225.620    92974103.57546
  22779143.780   119705196.72608  22779144.400    93276768.53748
  21490194.200   112931730.63009  21490192.540    87998747.53248
  20709248.620   108827831.76909  20709244.100    84800888.03548
 15 02 22 09 11  0.0000000  0  8G01G03G06G09G10G17G20G23
  23310482.820   122497392.12706  23310487.240    95452520.50744
  21724540.260   114163220.30609  21724542.160    88958358.35648
  21633604.540   113685360.10409  21633606.900    88586001.68748
  20421512.360   107315771.11709  20421512.840    83622681.58749
  22690904.880   119241516.43009  22690905.480    92915465.42846
  22791597.320   119770639.97108  22791597.840    93327763.15547
  21479115.860   112873513.45009  21479114.180    87953383.48647
  20715379.820   108860051.69509  20715375.340    84825994.45248
 15 02 22 09 11 30.0000000  0  8G01G03G06G09G10G17G20G23
  23329506.820   122597363.38006  23329511.340    95530420.00744
  21733931.100   114212569.44309  21733933.100    88996812.14148
  21620129.680   113614548.80509  21620132.000    88530824.06548
  20417223.200   107293231.55809  20417223.700    83605118.31549
  22676607.080   119166380.32408  22676607.480    92856917.84146
  22804116.000   119836425.63709  22804116.380    93379024.59047
  21468067.820   112815455.93909  21468066.180    87908143.85747
  20721578.460   108892626.52209  20721574.040    84851377.39948
 15 02 22 09 12  0.0000000  0  8G01G03G06G09G10G17G20G23
  23348571.360   122697547.55506  23348575.920    95608485.40543
  21743355.800   114262096.24709  21743357.720    89035404.40148
  21606724.780   113544104.95809  21606727.020    88475932.77548
  20413018.620   107271136.08009  20413019.040    83587901.08249
  22662331.400   119091360.82008  22662331.520    92798461.15046
  22816699.260   119902550.84708  22816699.560    93430550.60947
  21457050.220   112757558.31709  21457048.500    87863028.82548
  20727844.240   108925553.91509  20727839.880    84877035.07948
 15 02 22 09 12 30.0000000  0  8G01G03G06G09G10G17G20G23
  23367675.500   122797939.93905  23367679.940    95686712.96342
  21752813.860   114311797.96509  21752815.620    89074132.95948
  21593389.660   113474028.25309  21593391.780    88421327.58848
  20408897.860   107249481.36209  20408898.320    83571027.31649
  22648077.400   119016455.34708  22648077.360    92740093.30146
  22829345.960   119969009.66708  22829346.180    93482336.58647
  21446062.500   112699818.07409  21446060.720    87818036.43848
  20734176.380   108958829.57709  20734172.000    84902964.13848
 15 02 22 09 13  0.0000000  0  8G01G03G06G09G10G17G20G23
  23386819.860   122898543.66205  23386824.260    95765105.30044
  21762306.260   114361679.68909  21762307.880    89113001.77348
  21580125.780   113404326.11209  21580127.780    88367014.25348
  20404861.960   107228271.95209  20404862.280    83554500.52649
  22633846.320   118941669.77409  22633846.160    92681818.84246
  22842056.500   120035803.86109  22842056.660    93534383.88747
  21435106.000   112642241.72509  21435104.260    87773171.76248
  20740575.380   108992456.72809  20740571.100    84929167.08448
 15 02 22 09 13 30.0000000  0  8G01G03G06G09G10G17G20G23
  23406003.440   122999352.96005  23406007.280    95843657.78944
  21771832.080   114411737.62609  21771833.700    89152007.89848
  21566932.860   113334997.11709  21566934.840    88312991.68948
  20400909.840   107207503.40009  20400910.100    83538317.26749
  22619637.280   118867000.39408  22619636.940    92623634.92846
  22854829.660   120102926.71009  22854829.880    93586687.30147
  21424180.140   112584825.96609  21424178.520    87728432.22948
  20747040.300   109026430.27709  20747036.040    84955639.93848
 15 02 22 09 14  0.0000000  0  8G01G03G06G09G10G17G20G23
  23425226.280   123100368.41205  23425229.940    95922370.90343
  21781391.780   114461974.41409  21781393.560    89191153.38448
  21553811.800   113266046.24609  21553813.960    88259263.78948
  20397041.980   107187177.72109  20397042.160    83522479.10749
  22605450.860   118792450.55608  22605450.560    92565544.19046
  22867665.340   120170378.08009  22867665.620    93639246.70447
  21413285.420   112527573.83709  21413283.960    87683820.23148
  20753571.320   109060750.97909  20753567.120    84982383.32448
 15 02 22 09 14 30.0000000  0  8G01G03G06G09G10G17G20G23
  23444485.880   123201606.31605  23444488.680    96001240.01743
  21790983.160   114512378.17309  21790985.240    89230428.95348
  21540760.840   113197463.99209  21540763.240    88205823.08848
  20393256.000   107167282.42009  20393256.200    83506976.29149
  22591284.920   118718008.78809  22591284.780    92507537.65746
  22880560.700   120238142.94309  22880561.020    93692050.37047
  21402419.760   112470474.23709  21402418.320    87639327.07148
  20760165.740   109095404.96909  20760161.560    85009386.39948
 15 02 22 09 15  0.0000000  0  7G03G06G09G10G17G20G23
  21800613.500   114562986.61609  21800615.860    89269864.01148
  21527787.700   113129290.40109  21527790.160    88152700.82348
  20389559.040   107147854.58509  20389559.200    83491837.71749
  22577146.820   118643713.01708  22577146.840    92449644.85746
  22893522.380   120306255.96109  22893522.640    93745125.32447
  21391590.420   112413565.57409  21391588.860    87594982.68948
  20766830.440   109130428.66109  20766826.360    85036677.54848
 15 02 22 09 15 30.0000000  0  7G03G06G09G10G17G20G23
  21810275.160   114613759.25809  21810277.620    89309427.03948
  21514885.120   113061487.31909  21514887.560    88099867.28448
  20385943.200   107128853.07309  20385943.380    83477031.35049
  22563028.880   118569523.44308  22563029.060    92391834.81146
  22906541.960   120374673.48608  22906542.140    93798437.57147
  21380789.820   112356808.15409  21380788.040    87550756.16347
  20773557.420   109165779.92109  20773553.560    85064223.94948
 15 02 22 09 16  0.0000000  0  7G03G06G09G10G17G20G23
  21819970.360   114664707.30809  21819972.720    89349126.75048
  21502055.640   112994068.29609  21502058.060    88047333.00048
  20382410.540   107110288.46209  20382410.640    83462565.40149
  22548933.440   118495451.83208  22548933.800    92334116.69946
  22919620.980   120443403.82708  22919621.260    93851993.54947
  21370020.180   112300213.47909  21370018.240    87506656.45548
  20780348.460   109201467.86809  20780344.860    85092032.70748
 15 02 22 09 16 30.0000000  0  7G03G06G09G10G17G20G23
  21829699.880   114715835.96009  21829702.300    89388967.19348
  21489300.660   112927040.91509  21489303.140    87995103.87448
  20378961.900   107092165.22509  20378961.900    83448443.37149
  22534861.620   118421503.94009  22534861.960    92276494.97946
  22932759.860   120512448.96309  22932760.240    93905794.83347
  21359282.760   112243787.93509  21359280.820    87462688.53248
  20787204.340   109237496.25209  20787200.880    85120106.74348
 15 02 22 09 17  0.0000000  0  7G03G06G09G10G17G20G23
  21839463.080   114767141.41809  21839465.520    89428945.40648
  21476619.960   112860403.64409  21476622.380    87943178.75548
  20375596.360   107074478.85609  20375596.320    83434661.77349
  22520812.700   118347676.31208  22520812.960    92218966.99946
  22945957.340   120581801.85409  22945957.860    93959835.94347
  21348576.980   112187528.47709  21348575.100    87418850.03348
  20794123.920   109273859.19709  20794120.500    85148441.47848
 15 02 22 09 17 30.0000000  0  7G03G06G09G10G17G20G23
  21849260.480   114818626.20409  21849262.900    89469063.36048
  21464014.540   112794161.34709  21464016.700    87891561.39148
  20372314.280   107057231.18109  20372314.220    83421222.00349
  22506787.300   118273971.79109  22506787.520    92161534.93346
  22959213.300   120651461.87408  22959214.000    94014116.35348
  21337903.420   112131437.99109  21337901.540    87375143.18248
  20801107.420   109310557.67709  20801103.960    85177037.65548
 15 02 22 09 18  0.0000000  0  7G03G06G09G10G17G20G23
  21859090.980   114870284.85809  21859093.360    89509316.77548
  21451483.780   112728310.90009  21451485.620    87840249.36048
  20369114.440   107040416.06809  20369114.420    83408119.28349
  22492784.460   118200385.56809  22492784.420    92104195.01346
  22972526.160   120721420.85508  22972527.020    94068629.69647
  21327261.060   112075511.74409  21327259.200    87331564.30448
  20808153.400   109347584.47009  20808149.920    85205889.67148
 15 02 22 09 18 30.0000000  0  7G03G06G09G10G17G20G23
  21868956.840   114922129.44809  21868959.140    89549715.08548
  21439030.300   112662866.66409  21439031.820    87789253.86248
  20365999.040   107024044.79609  20365999.080    83395362.41949
  22478806.360   118126930.16208  22478806.320    92046957.05147
  22985897.580   120791687.55308  22985898.460    94123382.81548
  21316652.280   112019762.61809  21316650.580    87288123.43748
  20815263.860   109384950.00309  20815260.360    85235005.61948
 15 02 22 09 19  0.0000000  0  7G03G06G09G10G17G20G23
  21878855.880   114974149.00709  21878858.080    89590249.73948
  21426652.400   112597819.97409  21426653.800    87738568.12648
  20362965.900   107008105.68509  20362965.900    83382942.30049
  22464851.100   118053595.10209  22464851.220    91989812.88946
  22999324.920   120862247.81308  22999325.700    94178364.70347
  21306075.240   111964180.31809  21306073.600    87244812.53848
  20822436.360   109422641.50609  20822432.820    85264375.57248
 15 02 22 09 19 30.0000000  0  7G03G06G09G10G17G20G23
  21888789.740   115026351.98309  21888791.940    89630927.30348
  21414352.140   112533181.55309  21414353.700    87688200.51948
  20360016.440   106992606.36509  20360016.520    83370864.87549
  22450920.400   117980389.37808  22450920.520    91932769.45046
  23012809.200   120933106.94208  23012809.780    94233579.48447
  21295531.740   111908774.03009  21295530.080    87201638.79948
  20829672.200   109460665.72909  20829668.660    85294004.78348
 15 02 22 09 20  0.0000000  0  7G03G06G09G10G17G20G23
  21898757.320   115078731.89109  21898759.660    89671742.74148
  21402128.660   112468947.24009  21402130.440    87638147.78648
  20357149.240   106977539.61609  20357149.480    83359124.52949
  22437013.160   117907307.10408  22437013.240    91875822.22446
  23026348.480   121004255.49608  23026349.020    94289019.76947
  21285020.660   111853537.93409  21285018.940    87158597.66147
  20836969.820   109499014.26109  20836966.220    85323886.70348
 15 02 22 09 20 30.0000000  0  7G03G06G09G10G17G20G23
  21908758.380   115131287.11409  21908760.640    89712694.80848
  21389982.180   112405117.69509  21389984.220    87588410.46048
  20354363.960   106962903.01309  20354364.320    83347719.35648
  22423129.240   117834347.26609  22423129.260    91818970.41746
  23039941.840   121075688.76408  23039942.500    94344681.91347
  21274541.800   111798471.22209  21274539.960    87115688.52447
  20844328.540   109537683.95409  20844324.880    85354018.88748
 15 02 22 09 21  0.0000000  0  7G03G06G09G10G17G20G23
  21918794.560   115184026.58709  21918796.720    89753790.43248
  21377914.880   112341704.13609  21377917.060    87538997.27348
  20351662.120   106948704.71909  20351662.480    83336655.73248
  22409270.520   117761519.47109  22409270.600    91762221.47446
  23053590.520   121147412.48308  23053591.220    94400570.37847
  21264096.900   111743583.51609  21264095.040    87072918.85747
  20851749.500   109576681.75109  20851746.000    85384406.73848
 15 02 22 09 21 30.0000000  0  7G03G06G09G10G17G20G23
  21928864.200   115236941.92309  21928866.220    89795023.09148
  21365925.480   112278700.46809  21365927.780    87489903.47948
  20349041.920   106934935.53509  20349042.300    83325926.48049
  22395435.360   117688815.38309  22395435.440    91705568.93446
  23067292.140   121219414.66509  23067292.860    94456675.82348
  21253684.600   111688867.71409  21253682.840    87030283.12448
  20859230.980   109615997.81909  20859227.700    85415042.57948
 15 02 22 09 22  0.0000000  0  7G03G06G09G10G17G20G23
  21938968.960   115290042.29809  21938971.000    89836399.93348
  21354016.220   112216118.11109  21354018.660    87441137.98348
  20346505.060   106921603.81809  20346505.340    83315538.10449
  22381625.560   117616244.84908  22381625.580    91649020.46746
  23081047.860   121291701.33209  23081048.680    94513002.94148
  21243306.880   111634332.99509  21243305.160    86987788.51547
  20866774.480   109655639.20009  20866771.260    85445931.91648
 15 02 22 09 22 30.0000000  0  7G03G06G09G10G17G20G23
  21949107.180   115343319.25109  21949109.360    89877914.36448
  21342186.160   112153950.83109  21342188.580    87392695.92548
  20344049.660   106908700.19409  20344049.900    83305483.31448
  22367839.740   117543800.04909  22367839.760    91592569.97246
  23094855.620   121364261.53809  23094856.560    94569543.20547
  21232962.360   111579971.80809  21232960.640    86945429.11947
  20874378.060   109695595.75209  20874374.760    85477066.84748
 15 02 22 09 23  0.0000000  0  7G03G06G09G10G17G20G23
  21959280.400   115396780.31609  21959282.740    89919572.25948
  21330437.160   112092208.45009  21330439.380    87344584.96248
  20341676.900   106896231.38509  20341677.200    83295767.35748
  22354079.380   117471488.83808  22354079.460    91536223.59246
  23108716.200   121437099.13009  23108717.140    94626299.62547
  21222652.540   111525792.69909  21222650.900    86903211.60647
  20882042.800   109735873.32109  20882039.360    85508451.92248
 15 02 22 09 23 30.0000000  0  8G03G06G07G09G10G17G20G23
  21969487.660   115450420.10309  21969490.140    89961369.40448
  21318768.500   112030887.78509  21318770.620    87296802.59548
  22992312.680   120825420.11704  22992313.820    94149691.95244
  20339385.700   106884191.12409  20339386.040    83286385.32948
  22340343.540   117399306.43209  22340343.660    91479977.60746
  23122628.000   121510205.71009  23122628.900    94683265.64547
  21212376.420   111471790.92009  21212374.960    86861132.25648
  20889767.240   109776464.67309  20889763.640    85540081.50648
 15 02 22 09 24  0.0000000  0  8G03G06G07G09G10G17G20G23
  21979728.820   115504237.75109  21979731.320    90003305.14848
  21307180.400   111969990.23509  21307182.380    87249349.93048
  22973807.140   120728173.56305  22973809.400    94073915.46344
  20337175.700   106872577.66309  20337176.000    83277335.87149
  22326632.280   117327252.92508  22326632.260    91423832.03646
  23136590.180   121583577.34308  23136591.120    94740438.18747
  21202134.000   111417966.54209  21202132.680    86819191.14848
  20897550.860   109817367.21309  20897547.160    85571953.57448
 15 02 22 09 24 30.0000000  0  8G03G06G07G09G10G17G20G23
  21990003.940   115558233.15709  21990006.280    90045379.40748
  21295673.040   111909517.92709  21295675.000    87202228.61848
  22955332.120   120631087.25305  22955334.100    93998263.83043
  20335046.740   106861390.04809  20335047.060    83268618.24048
  22312945.520   117255328.42908  22312945.520    91367787.01946
  23150602.160   121657210.47708  23150603.360    94797814.48747
  21191925.460   111364319.87909  21191924.180    86777388.52948
  20905393.460   109858579.29509  20905389.540    85604066.85248
 15 02 22 09 25  0.0000000  0  8G03G06G07G09G10G17G20G23
  22000313.800   115612411.13509  22000316.120    90087595.93448
  21284247.760   111849477.87309  21284249.800    87155444.13648
  22936889.080   120534168.64405  22936890.880    93922742.82444
  20332999.640   106850632.13109  20333000.000    83260235.44249
  22299284.420   117183538.51209  22299284.440    91311846.85246
  23164664.280   121731106.96408  23164665.700    94855395.99546
  21181751.880   111310856.96709  21181750.560    86735729.10048
  20913295.540   109900103.69009  20913291.400    85636423.51148
 15 02 22 09 25 30.0000000  0  8G03G06G07G09G10G17G20G23
  22010658.160   115666770.35709  22010660.460    90129953.69448
  21272904.860   111789870.99609  21272906.880    87108997.19848
  22918478.220   120437419.07705  22918480.140    93847353.54745
  20331033.960   106840301.75309  20331034.240    83252185.77849
  22285648.680   117111882.03408  22285648.700    91256010.67846
  23178775.640   121805261.97608  23178776.980    94913178.96246
  21171613.080   111257576.87409  21171611.780    86694212.13448
  20921256.420   109941937.42109  20921252.080    85669021.19348
 15 02 22 09 26  0.0000000  0  8G03G06G07G09G10G17G20G23
  22021037.100   115721311.94509  22021039.460    90172453.54648
  21261645.120   111730700.55509  21261647.000    87062890.34748
  22900100.280   120340842.30806  22900102.120    93772098.94044
  20329149.640   106830399.00409  20329149.800    83244469.33449
  22272038.660   117040360.77809  22272038.720    91200279.88146
  23192935.920   121879673.69608  23192936.880    94971161.96046
  21161509.420   111204481.66909  21161508.180    86652839.23548
  20929275.920   109984079.72109  20929271.440    85701859.32248
 15 02 22 09 26 30.0000000  0  8G03G06G07G09G10G17G20G23
  22031449.620   115776029.94409  22031452.060    90215090.85248
  21250467.800   111671962.81909  21250469.540    87017120.66048
  22881754.660   120244435.12506  22881756.480    93696976.44844
  20327345.300   106820917.03609  20327345.480    83237080.76749
  22258453.320   116968969.41009  22258453.380    91144650.28947
  23207143.380   121954333.05408  23207144.220    95029337.92646
  21151439.960   111151566.07709  21151438.780    86611606.29648
  20937352.600   110026522.91609  20937348.060    85734931.91948
 15 02 22 09 27  0.0000000  0  8G03G06G07G09G10G17G20G23
  22041896.320   115830927.72808  22041898.900    90257868.23948
  21239374.020   111613663.29309  21239375.660    86971692.44348
  22863442.580   120148203.96406  22863444.460    93621991.14644
  20325621.380   106811858.24809  20325621.660    83230021.95548
  22244893.480   116897712.03309  22244893.520    91089125.09547
  23221397.980   122029239.88808  23221398.800    95087706.70746
  21141405.520   111098834.49709  21141404.340    86570516.73048
  20945486.800   110069268.54709  20945482.300    85768240.17048
 15 02 22 09 27 30.0000000  0  8G03G06G07G09G10G17G20G23
  22052378.440   115886011.85809  22052381.220    90300790.84048
  21228365.280   111555810.73109  21228366.900    86926612.51948
  22845165.560   120052157.64706  22845167.460    93547149.88444
  20323979.060   106803228.28209  20323979.440    83223297.29448
  22231360.540   116826595.73009  22231360.500    91033709.82446
  23235700.320   122104397.71008  23235700.960    95146271.08846
  21131407.440   111046294.25309  21131406.280    86529576.27648
  20953679.320   110112320.96409  20953674.960    85801787.49848
 15 02 22 09 28  0.0000000  0  8G03G06G07G09G10G17G20G23
  22062894.120   115941272.28509  22062896.900    90343850.82348
  21217439.860   111498397.26709  21217441.620    86881874.73048
  22826922.340   119956288.67907  22826924.120    93472446.80345
  20322416.260   106795016.06209  20322416.800    83216898.15748
  22217852.580   116755611.15209  22217852.460    90978397.18547
  23250047.820   122179793.29308  23250048.540    95205020.72046
  21121443.960   110993935.83009  21121442.780    86488777.50048
  20961928.040   110155669.03909  20961923.900    85835565.19448
 15 02 22 09 28 30.0000000  0  8G03G06G07G09G10G17G20G23
  22073444.920   115996717.07609  22073447.680    90387054.47048
  21206599.800   111441433.09709  21206601.680    86837487.05748
  22808715.040   119860608.19407  22808716.680    93397890.61944
  20320934.380   106787228.73509  20320934.960    83210830.11548
  22204371.300   116684766.76309  22204371.060    90923193.77546
  23264441.320   122255431.41508  23264442.320    95263959.33346
  21111516.820   110941768.22909  21111515.620    86448127.41248
  20970234.140   110199318.88509  20970230.220    85869578.04548
 15 02 22 09 29  0.0000000  0  8G03G06G07G09G10G17G20G23
  22084030.320   116052343.21109  22084032.980    90430399.44348
  21195845.060   111384917.39809  21195847.000    86793448.83448
  22790543.560   119765115.84107  22790544.980    93323481.02245
  20319532.620   106779862.27409  20319533.120    83205090.02748
  22190916.200   116614059.99309  22190915.940    90868097.61946
  23278879.700   122331305.74308  23278881.160    95323081.97747
  21101625.760   110889789.50909  21101624.360    86407624.50848
  20978596.800   110243265.61209  20978593.060    85903822.22748
 15 02 22 09 29 30.0000000  0  9G02G03G06G07G09G10G17G20G23
  24861979.800   130650585.19808  24861977.240   101805640.59745
  22094650.520   116108152.13409  22094653.100    90473886.83048
  21185176.360   111328853.71609  21185178.260    86749762.83548
  22772408.660   119669815.67007  22772409.900    93249221.18045
  20318211.020   106772917.09609  20318211.380    83199678.21248
  22177487.620   116543492.98309  22177487.300    90813110.35346
  23293362.760   122407414.65808  23293364.500    95382387.43347
  21091771.020   110838001.83909  21091769.380    86367270.47148
  20987015.920   110287508.73009  20987012.340    85938297.34748
 15 02 22 09 30  0.0000000  0  9G02G03G06G07G09G10G17G20G23
  24842375.240   130547569.14508  24842374.220   101725368.39745
  22105306.620   116164149.87109  22105309.200    90517521.33848
  21174595.200   111273250.21709  21174597.040    86706435.43448
  22754312.060   119574716.59108  22754313.080    93175118.04245
  20316970.500   106766398.23209  20316970.860    83194598.59448
  22164086.960   116473072.71209  22164086.740    90758237.43346
  23307891.040   122483760.94608  23307892.900    95441877.84646
  21081953.880   110786412.08609  21081952.100    86327070.66148
  20995492.300   110332052.61009  20995488.900    85973006.83148
 15 02 22 09 30 30.0000000  0  9G02G03G06G07G09G10G17G20G23
  24822784.100   130444618.87008  24822783.800   101645147.38145
  22115994.880   116220316.75709  22115997.520    90561287.63248
  21164098.340   111218089.31609  21164100.200    86663452.90548
  22736250.380   119479801.45508  22736251.220    93101158.25346
  20315807.080   106760284.95709  20315807.520    83189835.03448
  22150710.540   116402779.86809  22150710.480    90703463.82147
  23322460.240   122560321.80208  23322461.940    95501535.46446
  21072170.700   110735001.31509  21072168.820    86287010.31248
  21004021.840   110376875.77409  21004018.500    86007933.93548
 15 02 22 09 31  0.0000000  0  9G02G03G06G07G09G10G17G20G23
  24803208.300   130341747.73807  24803207.900   101564988.06445
  22126717.540   116276664.18809  22126720.240    90605194.62048
  21153688.360   111163384.54909  21153690.400    86620825.79548
  22718226.280   119385084.30408  22718227.080    93027352.74046
  20314722.800   106754587.65509  20314723.360    83185395.60548
  22137360.820   116332626.48409  22137360.680    90648798.86347
  23337071.860   122637105.09008  23337073.440    95561366.42846
  21062423.800   110683781.75309  21062422.000    86247098.96548
  21012606.260   110421987.76009  21012603.020    86043086.08748
 15 02 22 09 31 30.0000000  0  9G02G03G06G07G09G10G17G20G23
  24783649.500   130238965.68408  24783649.000   101484898.13745
  22137476.040   116333200.00109  22137478.800    90649248.41248
  21143367.140   111109145.83809  21143369.280    86578561.84248
  22700241.880   119290575.99908  22700242.720    92953709.94846
  20313718.980   106749313.09209  20313719.640    83181285.57648
  22124039.320   116262621.10609  22124039.140    90594249.24247
  23351726.780   122714115.51208  23351728.200    95621374.36246
  21052714.900   110632762.25309  21052713.280    86207343.50948
  21021246.880   110467394.80809  21021243.820    86078468.16048
 15 02 22 09 32  0.0000000  0  9G02G03G06G07G09G10G17G20G23
  24764105.780   130136263.00508  24764105.000   101404870.06844
  22148268.120   116389912.43509  22148270.940    90693439.81748
  21133132.780   111055363.49309  21133134.900    86536653.50348
  22682295.480   119196267.25608  22682296.320    92880222.65146
  20312793.260   106744448.40309  20312793.920    83177494.91848
  22110743.900   116192752.72709  22110743.780    90539806.35646
  23366422.040   122791338.14808  23366423.440    95681547.66747
  21043041.940   110581931.74009  21043040.600    86167735.30447
  21029941.100   110513083.29209  21029938.180    86114069.52548
 15 02 22 09 32 30.0000000  0  9G02G03G06G07G09G10G17G20G23
  24744579.420   130033650.19208  24744577.940   101324912.01744
  22159095.460   116446809.70009  22159098.140    90737775.27348
  21122987.220   111002047.82109  21122989.260    86495108.81148
  22664389.100   119102168.93808  22664390.040    92806899.31746
  20311946.880   106740000.79409  20311947.560    83174029.27748
  22097476.140   116123030.18609  22097476.140    90485477.10647
  23381158.500   122868778.05108  23381159.940    95741890.27047
  21033406.720   110531299.36809  21033405.660    86128281.51648
  21038690.080   110559059.55609  21038687.280    86149895.14848
 15 02 22 09 33  0.0000000  0  9G02G03G06G07G09G10G17G20G23
  24725070.060   129931126.12708  24725067.960   101245023.20145
  22169957.240   116503888.51108  22169959.880    90782252.19448
  21112930.280   110949197.58009  21112932.140    86453926.79748
  22646522.620   119008280.44308  22646523.640    92733739.52146
  20311179.000   106735965.85909  20311179.720    83170885.18048
  22084235.640   116053450.79909  22084235.600    90431259.37647
  23395934.720   122946428.39108  23395936.380    95802396.84347
  21023808.780   110480862.86209  21023807.940    86088980.36948
  21047492.880   110605318.65609  21047490.140    86185941.16548
 15 02 22 09 33 30.0000000  0  9G02G03G06G07G09G10G17G20G23
  24705578.160   129828693.26008  24705575.040   101165205.34145
  22180853.640   116561149.43208  22180856.400    90826871.00048
  21102962.420   110896815.39709  21102964.200    86413109.49548
  22628696.660   118914605.07208  22628697.780    92660745.79846
  20310489.580   106732343.07209  20310490.260    83168062.23348
  22071022.600   115984015.75009  22071022.420    90377154.16046
  23410750.320   123024286.62908  23410752.340    95863065.39847
  21014248.440   110430623.73309  21014247.720    86049833.00848
  21056349.220   110651859.18909  21056346.520    86222206.47648
 15 02 22 09 34  0.0000000  0  9G02G03G06G07G09G10G17G20G23
  24686103.740   129726353.57708  24686100.080   101085460.16945
  22191784.720   116618592.07209  22191787.620    90871631.39048
  21093083.900   110844902.93009  21093085.560    86372658.22048
  22610911.760   118821145.24608  22610912.900    92587920.03247
  20309878.240   106729130.97109  20309878.960    83165559.29348
  22057837.000   115914725.42209  22057836.800    90323161.67047
  23425604.880   123102349.20108  23425607.360    95923893.17647
  21004725.780   110380582.12409  21004725.080    86010839.55948
  21065258.720   110698679.16609  21065255.980    86258689.52748
 15 02 22 09 34 30.0000000  0  9G02G03G06G07G09G10G17G20G23
  24666647.740   129624110.64607  24666644.120   101005790.32345
  22202750.720   116676217.63509  22202753.620    90916534.34248
  21083295.380   110793463.45309  21083297.000    86332575.49248
  22593168.720   118727904.93408  22593169.840    92515265.32346
  20309345.180   106726329.69009  20309345.820    83163376.46748
  22044679.280   115845581.74409  22044679.040    90269283.48146
  23440498.140   123180614.10408  23440500.800    95984878.61747
  20995241.320   110330740.22809  20995240.500    85972001.73648
  21074221.420   110745777.73709  21074218.460    86295389.65848
 15 02 22 09 35  0.0000000  0  9G02G03G06G07G09G10G17G20G23
  24647211.180   129521970.78608  24647207.680   100926200.83144
  22213752.320   116734030.66309  22213755.200    90961583.36548
  21073598.020   110742503.47209  21073599.780    86292866.40248
  22575468.780   118634891.11307  22575469.820    92442787.10946
  20308891.020   106723942.62209  20308891.540    83161516.39348
  22031550.480   115776589.60809  22031550.120    90215523.35046
  23455430.360   123259082.40408  23455432.960    96046022.57246
  20985796.020   110281103.54109  20985795.040    85933323.82548
  21083237.740   110793157.90709  21083234.600    86332309.22448
 15 02 22 09 35 30.0000000  0  9G02G03G06G07G09G10G17G20G23
  24627793.160   129419929.17008  24627790.420   100846687.92644
  22224788.220   116792023.81909  22224790.960    91006772.75948
  21063990.880   110692017.67609  21063992.700    86253526.80248
  22557811.040   118542099.19507  22557812.040    92370481.81646
  20308514.100   106721961.27609  20308514.500    83159972.46148
  22018449.360   115707742.53109  22018448.780    90161876.26146
  23470399.420   123337743.74808  23470401.780    96107316.94646
  20976388.460   110231665.51509  20976387.280    85894800.70447
  21092305.820   110840810.60009  21092302.680    86369441.13748
 15 02 22 09 36  0.0000000  0  9G02G03G06G07G09G10G17G20G23
  24608394.780   129317991.03308  24608392.460   100767255.62145
  22235858.920   116850200.10709  22235861.640    91052104.84748
  21054474.860   110642011.13709  21054476.720    86214560.65648
  22540196.640   118449535.04807  22540197.660    92298354.02446
  20308214.740   106720387.61909  20308215.060    83158746.20848
  22005376.520   115639044.17509  22005375.800    90108345.06446
  23485405.160   123416597.85408  23485407.340    96168761.52647
  20967019.360   110182430.18909  20967018.020    85856435.54048
  21101425.960   110888737.10409  21101422.900    86406786.42848
 15 02 22 09 36 30.0000000  0  9G02G03G06G07G09G10G17G20G23
  24589016.780   129216160.39508  24589015.360   100687907.11845
  22246964.840   116908561.57709  22246967.540    91097581.24448
  21045050.740   110592487.83009  21045052.760    86175971.05748
  22522626.460   118357203.29708  22522627.420    92226407.30846
  20307993.060   106719222.45909  20307993.320    83157838.25848
  21992332.580   115570497.34809  21992331.680    90054931.93646
  23500447.420   123495643.52308  23500449.460    96230355.38747
  20957689.280   110133400.30109  20957687.960    85818230.44848
  21110598.180   110936937.51909  21110595.220    86444345.13648
 15 02 22 09 37  0.0000000  0  9G02G03G06G07G09G10G17G20G23
  24569658.980   129114435.20808  24569658.220   100608640.77145
  22258105.160   116967103.89909  22258107.800    91143198.55848
  21035718.060   110543445.44809  21035720.300    86137756.20048
  22505100.200   118265102.33908  22505101.200    92154640.46346
  20307848.040   106718460.38509  20307848.360    83157244.39548
  21979316.840   115502098.49209  21979315.820    90001634.13446
  23515524.620   123574873.11708  23515526.620    96292092.54546
  20948397.620   110084572.61109  20948396.440    85780182.90848
  21119821.320   110985405.74909  21119818.440    86482112.53548
 15 02 22 09 37 30.0000000  0  9G02G03G06G07G09G10G17G20G23
  24550322.480   129012821.08808  24550322.340   100529460.97645
  22269280.500   117025830.36809  22269283.160    91188959.35148
  21026477.920   110494889.19309  21026480.420    86099920.15148
  22487618.980   118173238.11008  22487619.880    92083058.04746
  20307780.100   106718103.50209  20307780.560    83156966.26248
  21966329.980   115433851.36209  21966329.020    89948454.54947
  23530636.760   123654286.77108  23530638.700    96353973.13946
  20939145.280   110035951.61109  20939144.240    85742296.40748
  21129095.800   111034143.33609  21129092.900    86520089.81848
 15 02 22 09 38  0.0000000  0  9G02G03G06G07G09G10G17G20G23
  24531007.400   128911319.01408  24531007.280   100450368.45145
  22280490.640   117084739.94909  22280493.420    91234862.84448
  21017330.480   110446820.05409  21017333.240    86062463.66348
  22470183.120   118081612.44708  22470183.980    92011661.55546
  20307788.840   106718149.65209  20307789.540    83157002.20048
  21953371.940   115365755.90309  21953371.040    89895393.14847
  23545782.960   123733880.07208  23545785.000    96415993.69447
  20929932.140   109987536.95709  20929931.340    85704570.69348
  21138421.260   111083147.49609  21138418.060    86558274.82448
 15 02 22 09 38 30.0000000  0  9G02G03G06G07G09G10G17G20G23
  24511714.760   128809935.41708  24511714.460   100371368.30345
  22291736.340   117143836.71109  22291739.200    91280912.19648
  21008276.980   110399244.00009  21008279.800    86025391.42248
  22452793.840   117990231.75508  22452794.760    91940455.91846
  20307874.960   106718601.71109  20307875.600    83157354.41548
  21940443.560   115297816.81009  21940442.900    89842453.60946
  23560963.520   123813653.88608  23560965.740    96478154.93146
  20920759.180   109939333.51209  20920758.480    85667009.56448
  21147797.980   111132420.64809  21147794.440    86596669.44148
 15 02 22 09 39  0.0000000  0  9G02G03G06G07G09G10G17G20G23
  24492443.560   128708664.77808  24492443.160   100292456.22744
  22303016.180   117203112.90209  22303019.060    91327101.35848
  20999316.160   110352155.21509  20999318.980    85988698.85948
  22435450.220   117899091.01608  22435451.280    91869437.25446
  20308036.620   106719450.74309  20308037.160    83158015.95648
  21927543.500   115230026.94809  21927543.000    89789630.34147
  23576176.380   123893597.35608  23576178.740    96540448.36046
  20911625.260   109891334.50109  20911624.340    85629607.72748
  21157224.000   111181953.09809  21157220.140    86635266.09648
 15 02 22 09 39 30.0000000  0  9G02G03G06G07G09G10G17G20G23
  24473195.240   128607514.07108  24473194.580   100213637.50645
  22314331.160   117262573.29709  22314334.060    91373434.05548
  20990449.400   110305560.42309  20990452.200    85952391.22748
  22418153.740   117808197.90708  22418154.800    91798611.53546
  20308274.520   106720700.33009  20308274.920    83158989.62148
  21914672.880   115162391.94309  21914672.500    89736927.74846
  23591421.820   123973711.79008  23591424.220    96602875.01246
  20902531.460   109843545.64009  20902530.160    85592369.63748
  21166699.840   111231747.89109  21166695.920    86674067.17648
 15 02 22 09 40  0.0000000  0  9G02G03G06G07G09G10G17G20G23
  24453970.360   128506487.22807  24453969.320   100134915.29945
  22325681.660   117322220.00709  22325684.640    91419911.92348
  20981677.500   110259463.59909  20981680.100    85916471.64748
  22400905.200   117717556.89008  22400906.240    91727982.25546
  20308588.800   106722351.45509  20308589.080    83160276.17648
  21901832.280   115094914.75409  21901831.940    89684348.14846
  23606699.660   124053996.28808  23606701.980    96665434.17446
  20893478.340   109795970.19809  20893476.660    85555297.84247
  21176225.520   111281805.39609  21176221.740    86713072.95748
 15 02 22 09 40 30.0000000  0  9G02G03G06G07G09G10G17G20G23
  24434769.040   128405584.62708  24434767.700   100056289.96245
  22337067.100   117382050.48609  22337070.240    91466532.98548
  20973000.340   110213864.16609  20973002.780    85880939.63448
  22383704.720   117627168.37808  22383705.760    91657549.74646
  20308978.720   106724400.30109  20308979.000    83161872.64548
  21889021.340   115027593.70908  21889021.120    89631890.20347
  23622008.740   124134444.92208  23622011.020    96728121.21546
  20884465.500   109748606.39309  20884463.460    85518390.96048
  21185800.360   111332121.37009  21185796.700    86752280.15648
 15 02 22 09 41  0.0000000  0  9G02G03G06G07G09G10G17G20G23
  24415591.420   128304806.37608  24415589.640    99977761.47145
  22348487.140   117442062.67009  22348490.360    91513295.64448
  20964417.780   110168761.88109  20964420.240    85845795.00648
  22366552.480   117537032.92708  22366553.380    91587314.39847
  20309443.740   106726843.63809  20309444.040    83163776.51148
  21876239.880   114960427.37209  21876239.780    89579552.82346
  23637348.040   124215052.51308  23637350.380    96790932.12047
  20875492.700   109701453.21409  20875490.440    85481648.20548
  21195423.680   111382691.79809  21195420.060    86791685.63948
 15 02 22 09 41 30.0000000  0  9G02G03G06G07G09G10G17G20G23
  24396438.460   128204156.78708  24396436.240    99899333.28345
  22359942.100   117502258.78108  22359945.280    91560201.62548
  20955930.660   110124160.83709  20955933.100    85811040.96448
  22349449.320   117447155.35608  22349450.080    91517279.99746
  20309983.920   106729682.47909  20309984.320    83165988.56048
  21863488.440   114893418.42809  21863488.520    89527338.07247
  23652717.400   124295817.97008  23652719.740    96853866.02147
  20866560.480   109654513.66609  20866558.100    85445071.90748
  21205095.580   111433517.41609  21205091.980    86831289.96248
 15 02 22 09 42  0.0000000  0  9G02G03G06G07G09G10G17G20G23
