     2.11           OBSERVATION DATA    G                   RINEX VERSION / TYPE
SPIDER V4,0,0,3554                      2015 04 17 01:40    PGM / RUN BY / DATE 
CABS                                                        MARKER NAME         
CABS                                                        MARKER NUMBER       
                                                            OBSERVER / AGENCY   
462287              LEICA GRX1200PRO    8.10/2.127          REC # / TYPE / VERS 
103298              LEIAT504                                ANT # / TYPE        
  5116912.3402   671231.6412  3737143.4301                  APPROX POSITION XYZ 
        0.0600        0.0000        0.0000                  ANTENNA: DELTA H/E/N
     1     1                                                WAVELENGTH FACT L1/2
     4    C1    L1    P2    L2                              # / TYPES OF OBSERV 
    30.000                                                  INTERVAL            
  2015    02    22    00    00    0.0000000     GPS         TIME OF FIRST OBS   
  2015    02    22    23    59   30.0000000     GPS         TIME OF LAST OBS    
    16                                                      LEAP SECONDS        
    30                                                      # OF SATELLITES     
   G 1   801   801   800   800                              PRN / # OF OBS      
   G 2   935   935   935   935                              PRN / # OF OBS      
   G 3   847   847   847   847                              PRN / # OF OBS      
   G 4   831   831   831   831                              PRN / # OF OBS      
   G 5   642   642   642   642                              PRN / # OF OBS      
   G 6   830   830   830   830                              PRN / # OF OBS      
   G 7   673   673   673   673                              PRN / # OF OBS      
   G 9   807   807   807   807                              PRN / # OF OBS      
   G10   743   743   743   743                              PRN / # OF OBS      
   G11   767   767   767   767                              PRN / # OF OBS      
   G12   824   824   824   824                              PRN / # OF OBS      
   G13   792   792   792   792                              PRN / # OF OBS      
   G14   936   936   936   936                              PRN / # OF OBS      
   G15   697   697   697   697                              PRN / # OF OBS      
   G16   664   664   664   664                              PRN / # OF OBS      
   G17   943   943   943   943                              PRN / # OF OBS      
   G18   903   903   903   903                              PRN / # OF OBS      
   G19   749   749   749   749                              PRN / # OF OBS      
   G20   773   773   773   773                              PRN / # OF OBS      
   G21   742   742   742   742                              PRN / # OF OBS      
   G22   657   657   657   657                              PRN / # OF OBS      
   G23   755   755   755   755                              PRN / # OF OBS      
   G24   816   816   816   816                              PRN / # OF OBS      
   G25   856   856   856   856                              PRN / # OF OBS      
   G27   801   801   801   801                              PRN / # OF OBS      
   G28   878   878   878   878                              PRN / # OF OBS      
   G29   768   768   768   768                              PRN / # OF OBS      
   G30   719   719   719   719                              PRN / # OF OBS      
   G31   871   871   871   871                              PRN / # OF OBS      
   G32   767   767   767   767                              PRN / # OF OBS      
BIT 2 OF LLI FLAGS DATA COLLECTED UNDER A/S CONDITION       COMMENT             
SNR is mapped to RINEX snr flag value [2-9]                 COMMENT             
Lx:     = 25dBHz -> 1; 26-27dBHz -> 2; 28-31dBHz -> 3       COMMENT             
       32-35dBHz -> 4; 36-38dBHz -> 5; 39-41dBHz -> 6       COMMENT             
       42-44dBHz -> 7; 45-48dBHz -> 8; >=49dBHz -> 9        COMMENT             
                                                            END OF HEADER       
 15 02 22 00 00  0.0000000  0  7G16G18G21G25G27G29G31
  22469353.700   118077259.85608  22469355.180    92008264.91246
  23100325.840   121393059.16107  23100327.740    94591999.99345
  20961907.020   110155641.12708  20961907.880    85835604.49849
  23998488.860   126112935.46206  23998493.660    98269845.34744
  23727402.000   124688345.10706  23727406.420    97159768.11445
  23020699.520   120974865.32507  23020701.760    94266252.49946
  22334437.760   117368275.08508  22334439.580    91455805.39748
 15 02 22 00 00 30.0000000  0  7G16G18G21G25G27G29G31
  22453571.760   117994325.33608  22453573.180    91943640.62147
  23086204.440   121318850.58507  23086206.160    94534175.15745
  20965151.260   110172689.64708  20965152.100    85848889.05849
  24016887.740   126209620.28006  24016892.240    98345184.14645
  23713630.240   124615974.35306  23713634.640    97103375.35245
  23034126.880   121045426.55407  23034129.120    94321235.25347
  22349539.120   117447633.37608  22349541.020    91517642.99547
 15 02 22 00 01  0.0000000  0  7G16G18G21G25G27G29G31
  22437823.720   117911569.02408  22437825.060    91879155.18947
  23072117.380   121244822.61407  23072118.940    94476491.07145
  20968470.580   110190132.75508  20968471.400    85862481.08949
  24035322.060   126306491.10206  24035326.320    98420667.87945
  23699874.520   124543688.25305  23699878.960    97047048.56046
  23047564.080   121116039.28607  23047566.300    94376258.12946
  22364698.100   117527294.33208  22364700.020    91579716.43347
 15 02 22 00 01 30.0000000  0  7G16G18G21G25G27G29G31
  22422110.120   117828993.72208  22422111.400    91814810.81247
  23058065.500   121170979.46007  23058067.060    94418950.98845
  20971865.060   110207970.80408  20971865.880    85876380.87249
  24053791.700   126403548.11706  24053795.960    98496296.67545
  23686135.200   124471488.27005  23686139.660    96990788.85546
  23061011.400   121186704.97707  23061013.480    94431322.29446
  22379914.480   117607256.57308  22379916.260    91642024.64447
 15 02 22 00 02  0.0000000  0  7G16G18G21G25G27G29G31
  22406431.240   117746600.44408  22406432.440    91750608.26047
  23044049.040   121097322.76007  23044050.800    94361556.18545
  20975334.180   110226201.09508  20975335.000    85890586.29849
  24072296.140   126500788.78106  24072300.500    98572068.57946
  23672412.140   124399373.25005  23672416.520    96934595.38046
  23074468.440   121257422.15507  23074470.580    94486426.56646
  22395187.420   117687516.21508  22395189.080    91704564.58847
 15 02 22 00 02 30.0000000  0  7G16G18G21G25G27G29G31
  22390787.400   117664391.31808  22390788.600    91686549.21347
  23030068.520   121023854.72307  23030070.400    94304308.38545
  20978877.700   110244822.51608  20978878.540    85905096.49649
  24090835.080   126598211.80506  24090839.660    98647982.57744
  23658705.280   124327343.16406  23658709.680    96878468.07846
  23087935.220   121328190.64907  23087937.420    94541570.83546
  22410516.340   117768070.16508  22410517.960    91767333.86347
 15 02 22 00 03  0.0000000  0  7G16G18G21G25G27G29G31
  22375179.320   117582369.92808  22375180.480    91622636.44847
  23016124.840   120950579.96707  23016126.780    94247211.18845
  20982495.680   110263835.23108  20982496.540    85919911.59949
  24109408.440   126695816.97006  24109413.520    98724038.52645
  23645014.840   124255399.19806  23645019.180    96822407.89445
  23101411.900   121399011.40107  23101414.120    94596755.81646
  22425901.000   117848916.91208  22425902.600    91830331.29747
 15 02 22 00 03 30.0000000  0  7G16G18G21G25G27G29G31
  22359606.900   117500536.32508  22359608.120    91558870.02047
  23002217.940   120877498.53607  23002219.980    94190264.65145
  20986187.380   110283235.43508  20986188.280    85935028.64149
  24128015.740   126793600.72105  24128021.320    98800233.61945
  23631340.340   124183539.11106  23631344.720    96766413.06946
  23114898.120   121469881.77307  23114900.280    94651979.47246
  22441340.440   117930051.62208  22441342.080    91893553.11747
 15 02 22 00 04  0.0000000  0  7G16G18G21G25G27G29G31
  22344070.540   117418892.42508  22344071.860    91495251.41147
  22988348.440   120804613.58207  22988350.500    94133471.22245
  20989952.680   110303022.39308  20989953.600    85950447.05049
  24146656.960   126891562.29605  24146662.800    98876567.28445
  23617681.920   124111763.44506  23617686.320    96710484.00446
  23128393.820   121540801.94007  23128395.960    94707241.90346
  22456834.240   118011471.88608  22456835.980    91956997.45847
 15 02 22 00 04 30.0000000  0  7G16G18G21G25G27G29G31
  22328570.820   117337440.77608  22328572.140    91431782.60647
  22974516.740   120731927.38207  22974518.820    94076832.64345
  20993791.300   110323194.58008  20993792.260    85966165.63549
  24165331.800   126989699.93906  24165337.640    98953038.13945
  23604039.500   124040071.95006  23604043.940    96654620.53846
  23141898.940   121611771.67707  23141901.060    94762542.97146
  22472381.780   118093174.66508  22472383.600    92020661.93247
 15 02 22 00 05  0.0000000  0  7G16G18G21G25G27G29G31
  22313108.140   117256183.96008  22313109.460    91368465.61947
  22960723.440   120659443.50007  22960725.580    94020351.72745
  20997703.140   110343751.49108  20997704.140    85982184.00949
  24184040.160   127088013.20805  24184045.960    99029645.81845
  23590413.200   123968465.46206  23590417.680    96598823.30646
  23155413.640   121682791.62407  23155415.720    94817883.15846
  22487982.620   118175157.64608  22487984.520    92084544.74647
 15 02 22 00 05 30.0000000  0  7G16G18G21G25G27G29G31
  22297682.800   117175123.35108  22297684.100    91305301.52247
  22946968.860   120587163.19907  22946970.980    93964029.44145
  21001687.720   110364690.65208  21001688.720    85998500.24149
  24202781.620   127186499.49606  24202787.100    99106388.32544
  23576802.820   123896942.74506  23576807.320    96543091.35146
  23168937.580   121753860.23807  23168939.620    94873261.27446
  22503636.040   118257416.91608  22503637.960    92148642.84147
 15 02 22 00 06  0.0000000  0  7G16G18G21G25G27G29G31
  22282295.420   117094262.28608  22282296.760    91242292.91547
  22933253.700   120515090.47707  22933255.800    93907868.90746
  21005744.980   110386011.72408  21005745.980    86015114.06149
  24221556.060   127285158.64905  24221561.060    99183265.56445
  23563208.640   123825505.03606  23563213.040    96487425.62246
  23182470.900   121824978.28507  23182472.900    94928677.91446
  22519341.720   118339950.71808  22519343.580    92212954.86147
 15 02 22 00 06 30.0000000  0  7G16G18G21G25G27G29G31
  22266946.240   117013601.85308  22266947.600    91179440.64847
  22919578.460   120443227.46507  22919580.500    93851871.77945
  21009874.600   110407712.90308  21009875.580    86032024.07049
  24240363.080   127383988.77905  24240367.540    99260276.01845
  23549630.520   123754151.93606  23549634.900    96431825.81246
  23196013.520   121896145.75107  23196015.620    94984133.06446
  22535099.040   118422755.93108  22535100.780    92277478.36847
 15 02 22 00 07  0.0000000  0  7G16G18G21G25G27G29G31
  22251635.700   116933144.23108  22251637.020    91116746.41147
  22905943.620   120371576.69607  22905945.680    93796040.05045
  21014076.300   110429792.83008  21014077.240    86049229.20449
  24259202.340   127482988.24006  24259206.400    99337418.44944
  23536068.480   123682883.15306  23536072.780    96376291.73646
  23209565.420   121967361.73707  23209567.600    95039626.01146
  22550907.380   118505829.31008  22550909.020    92342210.82647
 15 02 22 00 07 30.0000000  0  8G16G18G21G22G25G27G29G31
  22236365.180   116852897.03808  22236366.460    91054216.13747
  22892350.760   120300145.98207  22892352.740    93740379.79045
  21018350.760   110452255.27708  21018351.680    86066732.40849
  24553889.080   129031542.14206  24553892.020   100544080.33244
  24278074.380   127582160.91506  24278078.360    99414695.82945
  23522523.540   123611703.97606  23522527.700    96320827.47746
  23223127.540   122038631.30607  23223129.680    95095160.70146
  22566767.180   118589173.11108  22566768.800    92407154.01947
 15 02 22 00 08  0.0000000  0  8G16G18G21G22G25G27G29G31
  22221131.280   116772842.53708  22221132.520    90991836.02346
  22878796.540   120228917.87007  22878798.400    93684877.39646
  21022694.040   110475079.14708  21022694.900    86084517.23749
  24535784.880   128936404.33106  24535786.720   100469947.22344
  24296975.240   127681485.53106  24296979.300    99492091.56845
  23508991.860   123540594.47106  23508995.920    96265417.49846
  23236696.120   122109934.85607  23236698.240    95150721.89946
  22582674.120   118672764.51408  22582675.740    92472290.14047
 15 02 22 00 08 30.0000000  0  8G16G18G21G22G25G27G29G31
  22205939.980   116693012.16108  22205941.200    90929630.55147
  22865287.000   120157924.22707  22865288.780    93629557.69345
  21027111.380   110498292.38808  21027112.220    86102605.47949
  24517669.260   128841207.63205  24517671.520   100395768.27645
  24315910.140   127780990.06905  24315914.700    99569627.50545
  23495478.980   123469584.14306  23495483.060    96210084.79846
  23250276.620   122181301.10207  23250278.860    95206331.93646
  22598633.240   118756630.22108  22598634.940    92537640.01347
 15 02 22 00 09  0.0000000  0  8G16G18G21G22G25G27G29G31
  22190788.540   116613391.01608  22190789.720    90867588.11747
  22851819.480   120087151.15407  22851821.240    93574409.85845
  21031599.260   110521876.49608  21031600.120    86120982.71049
  24499539.620   128745937.52005  24499542.500   100321532.09945
  24334875.840   127880656.00505  24334880.660    99647289.24444
  23481981.720   123398656.00706  23481985.860    96154816.14146
  23263865.820   122252712.94007  23263868.340    95261977.49646
  22614640.840   118840750.48608  22614642.600    92603188.24547
 15 02 22 00 09 30.0000000  0  8G16G18G21G22G25G27G29G31
  22175677.920   116533984.26708  22175679.060    90805712.74047
  22838394.840   120016603.45907  22838396.600    93519437.64045
  21036157.960   110545832.71608  21036158.840    86139649.89849
  24481396.940   128650598.95605  24481399.940   100247242.59445
  24353872.440   127980484.69405  24353877.580    99725077.76645
  23468500.680   123327812.65306  23468504.820    96099613.57046
  23277464.220   122324172.97307  23277466.900    95317660.61546
  22630696.780   118925124.82308  22630698.620    92668934.44947
 15 02 22 00 10  0.0000000  0  8G16G18G21G22G25G27G29G31
  22160608.720   116454795.11008  22160609.860    90744006.92047
  22825013.820   119946285.40107  22825015.740    93464644.36346
  21040787.500   110570161.24908  21040788.420    86158607.19749
  24463242.100   128555195.72905  24463245.040   100172902.66445
  24372900.020   128080475.82805  24372905.460    99802992.86345
  23455036.060   123257055.33206  23455040.180    96044478.04246
  23291071.900   122395681.97407  23291074.700    95373381.87646
  22646800.780   119009751.52508  22646802.620    92734877.30347
 15 02 22 00 10 30.0000000  0  8G16G18G21G22G25G27G29G31
  22145580.960   116375823.98708  22145582.220    90682470.99547
  22811676.500   119876197.19607  22811678.620    93410030.19546
  21045487.160   110594858.21808  21045488.100    86177851.57949
  24445074.980   128459728.42406  24445077.920   100098512.87044
  24391958.020   128180626.19405  24391963.680    99881032.05644
  23441587.400   123186382.23906  23441591.460    95989408.12446
  23304688.460   122467237.69007  23304691.420    95429139.55846
  22662951.960   119094625.91008  22662953.700    92801013.15947
 15 02 22 00 11  0.0000000  0  8G16G18G21G22G25G27G29G31
  22130595.360   116297074.46908  22130596.700    90621107.74647
  22798383.560   119806342.67407  22798385.840    93355598.09646
  21050256.920   110619923.62408  21050257.920    86197383.06349
  24426896.220   128364200.37905  24426899.520   100024075.68444
  24411046.200   128280935.38305  24411052.100    99959195.01145
  23428154.980   123115794.50106  23428159.000    95934404.70046
  23318314.260   122538841.93106  23318317.300    95484935.04046
  22679149.920   119179746.21008  22679151.540    92867340.62447
 15 02 22 00 11 30.0000000  0  8G16G18G21G22G25G27G29G31
  22115652.200   116218547.73908  22115653.540    90559918.09647
  22785135.540   119736724.37407  22785137.940    93301350.08146
  21055096.360   110645355.07608  21055097.360    86217199.78449
  24408706.420   128268613.89606  24408709.540    99949592.95845
  24430164.300   128381401.51305  24430170.280   100037480.25745
  23414738.740   123045291.72606  23414742.720    95879467.48746
  23331949.040   122610493.68806  23331952.140    95540767.54146
  22695393.900   119265108.90908  22695395.480    92933856.97647
 15 02 22 00 12  0.0000000  0  8G16G18G21G22G25G27G29G31
  22100751.680   116140244.99908  22100753.020    90498902.98847
  22771932.720   119667343.65207  22771935.080    93247287.21146
  21060005.180   110671151.15708  21060006.180    86237300.62849
  24390505.820   128172970.61306  24390508.960    99875065.99944
  24449311.900   128482022.24705  24449317.980   100115885.98344
  23401338.480   122974873.00506  23401342.500    95824595.77546
  23345592.600   122682191.90706  23345595.800    95596636.25746
  22711683.300   119350710.36008  22711684.860    93000559.37547
 15 02 22 00 12 30.0000000  0  8G16G18G21G22G25G27G29G31
  22085894.420   116062169.40208  22085895.700    90438064.86847
  22758775.740   119598203.66507  22758777.960    93193411.92146
  21064983.160   110697310.70808  21064984.160    86257684.69349
  24372295.080   128077273.51906  24372298.040    99800497.03245
  24468488.780   128582796.80705  24468494.960   100194411.58745
  23387954.360   122904539.07406  23387958.420    95769790.12946
  23359245.200   122753937.29606  23359248.380    95652541.72046
  22728017.700   119436548.50308  22728019.340    93067446.21147
 15 02 22 00 13  0.0000000  0  8G16G18G21G22G25G27G29G31
  22071080.760   115984322.90708  22071082.040    90377405.26947
  22745665.000   119529306.29507  22745667.000    93139725.68845
  21070029.900   110723831.48708  21070030.860    86278350.24049
  24354074.500   127981524.45806  24354077.340    99725887.60144
  24487694.620   128683723.05206  24487700.620   100273055.38045
  23374586.300   122834289.31606  23374590.340    95715050.06846
  23372906.680   122825729.01306  23372909.820    95708483.27046
  22744396.300   119522619.18408  22744398.120    93134514.24747
 15 02 22 00 13 30.0000000  0  8G16G18G21G22G25G27G29G31
  22056311.380   115906709.15208  22056312.660    90316927.02247
  22732601.240   119460655.77607  22732602.980    93086231.81746
  21075145.380   110750713.32708  21075146.300    86299297.12649
  24335844.720   127885727.44205  24335847.540    99651240.79345
  24506929.300   128784800.94006  24506935.080   100351817.30744
  23361234.520   122764125.18306  23361238.600    95660376.71646
  23386577.280   122897567.79907  23386580.220    95764461.51545
  22760818.920   119608921.10808  22760820.900    93201762.47547
 15 02 22 00 14  0.0000000  0  8G16G18G21G22G25G27G29G31
  22041586.240   115829328.06108  22041587.600    90256630.07747
  22719584.700   119392253.12907  22719586.240    93032931.08245
  21080329.060   110777953.73908  21080329.980    86320523.42349
  24317606.080   127789883.45206  24317608.700    99576557.36645
  24526192.280   128886027.49505  24526197.820   100430695.06845
  23347898.720   122694045.15206  23347902.880    95605768.89546
  23400256.680   122969452.52507  23400259.420    95820475.56846
  22777284.840   119695450.05408  22777286.860    93269187.59147
 15 02 22 00 14 30.0000000  0  8G16G18G21G22G25G27G29G31
  22026906.200   115752184.30908  22026907.660    90196518.07247
  22706616.120   119324102.56007  22706617.500    92979826.75545
  21085580.960   110805552.69608  21085581.860    86342029.10649
  24299359.240   127693996.86106  24299361.880    99501840.73945
  24545483.700   128987403.07005  24545488.820   100509689.01745
  23334579.240   122624051.18507  23334583.460    95551228.17546
  23413945.200   123041384.73507  23413947.840    95876526.60946
  22793793.860   119782204.87508  22793795.820    93336788.71747
 15 02 22 00 15  0.0000000  0  8G16G18G21G22G25G27G29G31
  22012271.640   115675279.57308  22012273.180    90136592.30847
  22693695.780   119256206.01207  22693697.140    92926920.37245
  21090900.740   110833508.39708  21090901.660    86363812.77549
  24281104.560   127598069.54106  24281107.480    99427092.37945
  24564802.940   129088925.78105  24564807.820   100588797.53944
  23321276.120   122554142.85207  23321280.280    95496754.16946
  23427642.720   123113363.93407  23427645.300    95932614.27546
  22810345.220   119869181.97308  22810347.060    93404563.04547
 15 02 22 00 15 30.0000000  0  8G16G18G21G22G25G27G29G31
  21997682.980   115598615.76308  21997684.500    90076854.28147
  22680824.320   119188566.22707  22680825.800    92874214.06146
  21096287.980   110861818.55808  21096288.900    86385872.64549
  24262842.460   127502103.41805  24262845.620    99352313.77245
  24584149.740   129190593.68305  24584154.380   100668019.20745
  23307989.240   122484319.79007  23307993.320    95442346.61346
  23441349.060   123185389.71307  23441351.500    95988738.22246
  22826938.320   119956378.28808  22826940.000    93472508.19047
 15 02 22 00 16  0.0000000  0  8G16G18G21G22G25G27G29G31
  21983140.500   115522194.48408  21983141.980    90017305.23447
  22668001.920   119121184.65707  22668003.680    92821708.96046
  21101742.440   110890481.72608  21101743.340    86408207.58749
  24244573.380   127406100.77605  24244577.020    99277506.71946
  24603523.840   129292404.68305  24603528.320   100747352.39445
  23294718.500   122414581.48807  23294722.540    95388005.11246
  23455064.020   123257461.28107  23455066.300    96044897.86946
  22843572.380   120043790.19808  22843573.960    93540621.33347
 15 02 22 00 16 30.0000000  0  8G16G18G21G22G25G27G29G31
  21968644.900   115446019.58608  21968646.320    89957948.16547
  22655229.460   119054065.53907  22655231.520    92769408.37746
  21107264.140   110919498.13508  21107265.000    86430817.78649
  24226298.220   127310065.87706  24226302.140    99202674.54145
  24622925.040   129394358.89805  24622929.580   100826797.19344
  23281464.160   122344929.53807  23281468.240    95333730.89146
  23468787.940   123329580.10307  23468790.120    96101094.34046
  22860247.100   120131416.36208  22860248.660    93608901.42946
 15 02 22 00 17  0.0000000  0  8G16G18G21G22G25G27G29G31
  21954196.580   115370092.99208  21954197.920    89898784.57647
  22642507.480   118987211.28307  22642509.720    92717314.17446
  21112852.640   110948865.73008  21112853.480    86453701.63249
  24208017.320   127214000.67605  24208021.220    99127818.73745
  24642353.160   129496454.54405  24642357.920   100906352.15644
  23268226.160   122275363.74307  23268230.380    95279523.79946
  23482520.620   123401745.73207  23482522.840    96157327.28346
  22876961.860   120219253.48908  22876963.520    93677345.90746
 15 02 22 00 17 30.0000000  0  8G16G18G21G22G25G27G29G31
  21939795.860   115294416.80008  21939797.180    89839816.11547
  22629836.400   118920623.98508  22629838.540    92665427.99046
  21118507.520   110978582.23808  21118508.340    86476857.35749
  24189731.240   127117907.24505  24189735.260    99052940.92445
  24661807.820   129598689.65905  24661812.800   100986015.82744
  23255004.520   122205883.81107  23255008.880    95225383.63746
  23496262.040   123473957.70207  23496264.160    96213596.33645
  22893716.060   120307298.28208  22893717.880    93745952.21246
 15 02 22 00 18  0.0000000  0  8G16G18G21G22G25G27G29G31
  21925442.980   115218991.72008  21925444.260    89781043.32147
  22617216.380   118854304.75608  22617218.260    92613750.70846
  21124228.300   111008645.10308  21124229.120    86500282.97349
  24171440.340   127021787.11706  24171444.000    98978042.30245
  24681288.440   129701061.50205  24681293.680   101065786.03144
  23241798.980   122136488.48807  23241803.420    95171309.38846
  23510012.040   123546214.77806  23510013.980    96269900.56246
  22910509.080   120395546.66808  22910511.020    93814717.15847
 15 02 22 00 18 30.0000000  0  8G16G18G21G22G25G27G29G31
  21911138.540   115143821.42508  21911139.840    89722469.06847
  22604648.080   118788257.26908  22604649.700    92562285.16446
  21130014.980   111039054.37208  21130015.820    86523978.50949
  24153145.080   126925644.08606  24153148.400    98903125.84545
  24700795.000   129803569.93605  24700800.380   101145662.69645
  23228609.880   122067179.23107  23228614.320    95117302.19946
  23523770.840   123618518.24607  23523772.640    96326240.87346
  22927340.580   120483996.70508  22927342.520    93883639.23046
 15 02 22 00 19  0.0000000  0  8G16G18G21G22G25G27G29G31
  21896882.860   115068907.17108  21896884.140    89664094.32247
  22592131.720   118722483.20308  22592133.180    92511032.68046
  21135867.000   111069807.08108  21135867.860    86547941.66349
  24134845.740   126829479.87506  24134848.720    98828192.87844
  24720326.880   129906212.42705  24720332.680   101225643.76744
  23215436.920   121997955.05607  23215441.380    95063361.29446
  23537538.400   123690866.85507  23537540.060    96382616.39845
  22944209.800   120572644.52408  22944211.640    93952715.42047
 15 02 22 00 19 30.0000000  0  8G16G18G21G22G25G27G29G31
  21882676.220   114994250.86608  21882677.580    89605920.58847
  22579667.740   118656984.81207  22579669.200    92459995.00946
  21141784.140   111100902.01708  21141785.000    86572171.49149
  24116542.760   126733296.46406  24116545.420    98753244.92545
  24739884.140   130008986.99704  24739889.920   101305727.80746
  23202280.060   121928815.68207  23202284.580    95009486.47146
  23551314.440   123763259.99007  23551315.900    96439026.55345
  22961116.060   120661487.01608  22961117.780    94021943.30046
 15 02 22 00 20  0.0000000  0  8G16G18G21G22G25G27G29G31
  21868519.220   114919855.19508  21868520.580    89547949.93847
  22567256.700   118591765.00308  22567258.220    92409174.40646
  21147766.120   111132337.62108  21147766.980    86596666.77949
  24098236.620   126637096.78106  24098239.180    98678284.31545
  24759466.600   130111892.53905  24759472.120   101385913.84444
  23189139.420   121859761.60406  23189143.980    94955678.10746
  23565099.080   123835698.47607  23565100.420    96495472.13346
  22978058.840   120750521.52308  22978060.420    94091320.79646
 15 02 22 00 20 30.0000000  0  8G16G18G21G22G25G27G29G31
  21854412.340   114845722.88508  21854413.680    89490184.50647
  22554899.120   118526826.39107  22554900.820    92358572.91046
  21153812.740   111164112.94408  21153813.620    86621426.77649
  24079927.840   126540883.78206  24079930.100    98603313.29445
  24779073.840   130214927.96405  24779079.080   101466201.09844
  23176015.080   121790793.33607  23176019.620    94901936.62346
  23578892.360   123908182.41507  23578893.760    96551953.08945
  22995037.640   120839745.51507  22995039.160    94160845.95546
 15 02 22 00 21  0.0000000  0  8G16G18G21G22G25G27G29G31
  21840356.340   114771857.79408  21840357.600    89432627.29647
  22542595.940   118462173.22908  22542597.780    92308193.83846
  21159924.060   111196228.13408  21159924.940    86646451.60549
  24061617.240   126444661.79106  24061619.420    98528335.27845
  24798705.920   130318093.32305  24798710.860   101546589.64243
  23162907.440   121721912.50207  23162911.920    94848263.27246
  23592694.380   123980713.25506  23592696.200    96608470.58646
  23012052.220   120929157.66807  23012053.760    94230517.72846
 15 02 22 00 21 30.0000000  0  8G16G18G21G22G25G27G29G31
  21826351.120   114698259.98708  21826352.380    89375278.36147
  22530347.260   118397805.89008  22530349.140    92258037.49046
  21166099.300   111228679.16108  21166100.160    86671738.13249
  24043304.860   126348431.25606  24043307.280    98453350.64846
  24818362.040   130421384.95505  24818366.620   101627076.54244
  23149816.140   121653117.09007  23149820.440    94794656.48846
  23606504.840   124053288.63506  23606507.020    96665022.81446
  23029101.620   121018752.91108  23029103.240    94300332.16946
 15 02 22 00 22  0.0000000  0  7G16G18G21G22G27G29G31
  21812397.880   114624935.28408  21812399.160    89318142.23547
  22518154.180   118333730.18108  22518156.000    92208108.38446
  21172338.760   111261467.66008  21172339.600    86697287.61848
  24024992.040   126252198.15406  24024994.420    98378363.95045
  23136741.800   121584410.53607  23136745.940    94741118.93846
  23620324.500   124125912.30306  23620327.020    96721612.66846
  23046185.900   121108531.58007  23046187.680    94370289.53246
 15 02 22 00 22 30.0000000  0  7G16G18G21G22G27G29G31
  21798496.260   114551881.68308  21798497.540    89261217.36447
  22506016.240   118269944.28708  22506017.960    92158405.11746
  21178641.400   111294588.09408  21178642.200    86723095.75448
  24006678.640   126155961.16506  24006680.940    98303374.27945
  23123683.580   121515788.84107  23123687.620    94687647.52846
  23634152.520   124198579.87406  23634155.360    96778236.74446
  23063303.800   121198486.62807  23063305.680    94440384.33246
 15 02 22 00 23  0.0000000  0  7G16G18G21G22G27G29G31
  21784646.760   114479101.75708  21784647.960    89204505.74547
  22493933.880   118206450.77008  22493935.500    92108929.67046
  21185006.860   111328038.86508  21185007.660    86749161.29049
  23988364.960   126059722.26606  23988367.060    98228383.07145
  23110641.500   121447252.08507  23110645.440    94634242.30146
  23647988.960   124271291.10406  23647992.020    96834894.83046
  23080454.740   121288615.01608  23080456.660    94510614.21447
 15 02 22 00 23 30.0000000  0  7G16G18G21G22G27G29G31
  21770849.700   114406597.62308  21770850.860    89148009.02847
  22481907.520   118143251.95608  22481909.080    92059683.86746
  21191434.940   111361818.75608  21191435.720    86775483.29548
  23970051.480   125963483.96406  23970053.300    98153392.34346
  23097615.580   121378800.26107  23097619.480    94580903.24846
  23661833.820   124344046.13706  23661836.940    96891587.04046
  23097638.160   121378913.82008  23097640.060    94580976.88146
 15 02 22 00 24  0.0000000  0  7G16G18G21G22G27G29G31
  21757105.680   114334372.47808  21757106.840    89091729.70247
  22469937.800   118080351.34408  22469939.340    92010670.42646
  21197925.540   111395927.02608  21197926.280    86802061.17448
  23951739.000   125867250.72506  23951740.380    98078405.55745
  23084606.020   121310434.64807  23084609.940    94527631.38146
  23675687.320   124416845.93507  23675690.240    96948314.13146
  23114853.620   121469381.23407  23114855.460    94651470.92346
 15 02 22 00 24 30.0000000  0  7G16G18G21G22G27G29G31
  21743415.240   114262429.13308  21743416.460    89035669.96148
  22458025.280   118017751.66608  22458026.880    91961891.48146
  21204478.420   111430362.66608  21204479.120    86828894.14748
  23933427.860   125771025.07407  23933428.960    98003424.67845
  23071612.920   121242155.62307  23071616.840    94474427.00146
  23689549.500   124489690.79307  23689552.140    97005076.33146
  23132100.620   121560014.45707  23132102.380    94722094.17747
 15 02 22 00 25  0.0000000  0  7G16G18G21G22G27G29G31
  21729779.020   114190770.47008  21729780.280    88979832.05247
  22446170.660   117955456.10908  22446172.320    91913349.51046
  21211093.340   111465124.19008  21211094.000    86855981.05248
  23915118.680   125674810.33806  23915119.700    97928452.31245
  23058636.460   121173963.84207  23058640.340    94421290.59346
  23703420.440   124562581.57407  23703422.880    97061874.32046
  23149378.720   121650811.26207  23149380.420    94792844.89146
 15 02 22 00 25 30.0000000  0  7G16G18G21G22G27G29G31
  21716197.560   114119399.51408  21716198.860    88924218.33248
  22434374.600   117893467.68908  22434376.300    91865046.86846
  21217770.180   111500211.13108  21217770.820    86883321.53548
  23896812.040   125578609.85906  23896813.180    97853491.04545
  23045676.760   121105860.26107  23045680.620    94368222.89647
  23717300.080   124635518.58907  23717302.340    97118708.31246
  23166687.500   121741769.53307  23166689.180    94863721.42346
 15 02 22 00 26  0.0000000  0  7G16G18G21G22G27G29G31
  21702671.420   114048319.11308  21702672.700    88868831.01748
  22422637.660   117831789.52208  22422639.460    91816985.97746
  21224508.740   111535622.51108  21224509.380    86910914.82248
  23878508.500   125482426.79306  23878509.720    97778543.33245
  23032733.920   121037845.59607  23032737.860    94315224.48247
  23731188.480   124708502.14807  23731190.580    97175578.57146
  23184026.520   121832886.92207  23184028.260    94934721.93046
 15 02 22 00 26 30.0000000  0  7G16G18G21G22G27G29G31
  21689200.780   113977530.27208  21689202.000    88813670.89448
  22410960.060   117770422.74408  22410961.940    91769167.73446
  21231308.480   111571355.30208  21231309.100    86938758.55948
  23860208.500   125386262.69106  23860210.040    97703610.39945
  23019807.820   120969918.86507  23019811.820    94262294.60147
  23745085.560   124781531.80206  23745087.660    97232484.80146
  23201394.920   121924159.02907  23201396.800    95005843.00446
 15 02 22 00 27  0.0000000  0  7G16G18G21G22G27G29G31
  21675785.920   113907034.62008  21675787.060    88758739.21748
  22399342.020   117709368.82008  22399343.920    91721593.26846
  21238168.940   111607407.04208  21238169.540    86966850.82648
  23841912.380   125290119.14306  23841914.260    97628693.48445
  23006898.240   120902079.11907  23006902.300    94209432.47446
  23758990.980   124854606.14206  23758993.280    97289425.79245
  23218792.120   122015582.19807  23218794.140    95077081.79946
 15 02 22 00 27 30.0000000  0  7G16G18G21G22G27G29G31
  21662427.040   113836833.19808  21662428.160    88704036.82248
  22387783.620   117648628.78108  22387785.540    91674263.39246
  21245089.540   111643775.00408  21245090.140    86995189.50748
  23823620.620   125193997.73305  23823622.820    97553793.80346
  22994005.060   120834325.52907  22994009.180    94156637.49947
  23772904.680   124927724.31606  23772907.340    97346400.97645
  23236217.280   122107152.20007  23236219.420    95148435.01146
 15 02 22 00 28  0.0000000  0  7G16G18G21G22G27G29G31
  21649124.440   113766927.70808  21649125.580    88649565.01448
  22376285.300   117588204.37608  22376287.120    91627179.45446
  21252069.840   111680456.88808  21252070.500    87023772.79648
  23805333.800   125097900.56306  23805335.960    97478913.00845
  22981128.180   120766657.31207  22981132.340    94103909.05146
  23786826.640   125000885.62706  23786829.440    97403409.76945
  23253669.720   122198865.34307  23253671.940    95219899.75146
 15 02 22 00 28 30.0000000  0  7G16G18G21G22G27G29G31
  21635878.700   113697321.09808  21635879.880    88595326.10748
  22364847.660   117528099.19308  22364849.360    91580344.26146
  21259109.860   111717452.47208  21259110.540    87052600.53048
  23787052.320   125001830.44606  23787054.280    97404053.30945
  22968267.780   120699075.44907  22968271.940    94051247.88847
  23800757.000   125074090.10806  23800759.640    97460452.24645
  23271149.040   122290719.42207  23271151.340    95291474.31346
 15 02 22 00 29  0.0000000  0  7G16G18G21G22G27G29G31
  21622690.040   113628014.25308  21622691.260    88541320.77848
  22353470.780   117468313.54308  22353472.320    91533758.05246
  21266208.880   111754758.20508  21266209.560    87081669.93648
  23768776.500   124905789.22606  23768778.180    97329216.13445
  22955423.580   120631578.79807  22955427.780    93998653.12447
  23814695.680   125147336.92806  23814698.060    97517527.66645
  23288654.460   122382710.46807  23288656.800    95363155.60946
 15 02 22 00 29 30.0000000  0  7G16G18G21G22G27G29G31
  21609559.600   113559013.36208  21609560.860    88487553.85648
  22342155.980   117408853.74708  22342157.300    91487425.76246
  21273367.260   111792375.78808  21273367.960    87110982.33648
  23750507.440   124809783.13306  23750508.780    97254406.31045
  22942596.300   120564171.06807  22942600.560    93946127.64547
  23828643.140   125220629.69907  23828645.360    97574638.87545
  23306186.080   122474839.07307  23306188.380    95434944.09346
 15 02 22 00 30  0.0000000  0  7G16G18G21G22G27G29G31
  21596487.880   113490321.17808  21596489.180    88434027.48548
  22330903.760   117349722.63708  22330904.900    91441349.59546
  21280584.900   111830304.82108  21280585.620    87140537.42948
  23732245.600   124713815.41506  23732246.760    97179626.38145
  22929786.080   120496852.95007  22929790.360    93893671.99747
  23842599.500   125293968.93707  23842601.480    97631786.32745
  23323743.380   122567102.81507  23323745.620    95506837.86946
 15 02 22 00 30 30.0000000  0  7G16G18G21G22G27G29G31
  21583474.900   113421937.69008  21583476.220    88380741.65848
  22319714.140   117290920.22008  22319715.120    91395529.55046
  21287861.020   111868541.08208  21287861.740    87170331.92048
  23713991.060   124617886.33506  23713992.100    97104876.55545
  22916992.520   120429622.25207  22916996.780    93841284.47247
  23856564.180   125367352.31007  23856566.000    97688968.12946
  23341325.300   122659496.23907  23341327.520    95578832.68646
 15 02 22 00 31  0.0000000  0  7G16G18G21G22G27G29G31
  21570522.020   113353870.30408  21570523.420    88327702.14748
  22308588.460   117232453.89808  22308589.340    91349971.40246
  21295196.180   111907087.66008  21295196.920    87200368.21748
  23695745.180   124522003.29606  23695746.300    97030162.61045
  22904216.600   120362484.22607  22904220.780    93788969.15047
  23870537.840   125440784.99506  23870539.840    97746188.37946
  23358932.240   122752021.55407  23358934.380    95650930.28246
 15 02 22 00 31 30.0000000  0  7G16G18G21G22G27G29G31
  21557628.620   113286115.24208  21557630.040    88274906.00348
  22297525.920   117174320.08208  22297526.920    91304672.34547
  21302589.060   111945937.41508  21302589.780    87230640.75348
  23677507.320   124426163.14206  23677508.620    96955482.07646
  22891457.240   120295433.28107  22891461.360    93736721.68147
  23884519.640   125514261.13506  23884522.000    97803442.51046
  23376562.640   122844669.94207  23376564.660    95723123.78046
 15 02 22 00 32  0.0000000  0  7G16G18G21G22G27G29G31
  21544795.540   113218677.10708  21544796.960    88222356.81548
  22286527.280   117116522.63708  22286528.520    91259635.40247
  21310039.600   111985090.18008  21310040.300    87261149.40348
  23659278.580   124330371.11606  23659280.060    96880839.05345
  22878714.800   120228471.36507  22878718.900    93684543.59747
  23898509.880   125587782.51806  23898512.680    97860731.86946
  23394216.300   122937440.27607  23394218.200    95795412.31946
 15 02 22 00 32 30.0000000  0  7G16G18G21G22G27G29G31
  21532022.960   113151556.61408  21532024.300    88170055.13248
  22275592.760   117059062.59508  22275594.300    91214861.35746
  21317547.420   112024544.07208  21317548.140    87291892.69648
  23641059.180   124234628.13206  23641060.820    96806234.23146
  22865989.100   120161597.34707  22865993.160    93632433.99347
  23912508.520   125661347.89606  23912511.580    97918055.55246
  23411892.320   123030328.33807  23411894.160    95867792.56846
 15 02 22 00 33  0.0000000  0  7G16G18G21G22G27G29G31
  21519310.920   113084754.08308  21519312.160    88118001.21448
  22264722.540   117001940.65108  22264724.420    91170350.77646
  21325111.760   112064295.14708  21325112.540    87322867.56348
  23622849.220   124138934.58306  23622850.960    96731667.92546
  22853279.780   120094809.44607  22853283.820    93580391.48547
  23926515.380   125734955.25406  23926518.420    97975411.90845
  23429589.900   123123329.39407  23429591.720    95940260.86445
 15 02 22 00 33 30.0000000  0  7G16G18G21G22G27G29G31
  21506660.260   113018274.03808  21506661.420    88066198.59348
  22253917.560   116945161.29308  22253919.640    91126107.14946
  21332732.720   112104343.53308  21332733.500    87354074.09848
  23604649.740   124043295.68306  23604651.460    96657144.20646
  22840587.220   120028109.80107  22840591.260    93528417.76047
  23940530.960   125808606.69706  23940533.800    98032802.60446
  23447308.700   123216442.50507  23447310.700    96012816.47246
 15 02 22 00 34  0.0000000  0  7G16G18G21G22G27G29G31
  21494071.580   112952119.91008  21494072.740    88014649.93248
  22243178.540   116888727.55708  22243180.500    91082132.83446
  21340410.100   112144688.37908  21340410.900    87385511.64548
  23586461.400   123947715.12707  23586462.980    96582665.96345
  22827911.720   119961499.96607  22827915.780    93476514.02247
  23954555.360   125882303.44607  23954557.920    98090228.62645
  23465048.520   123309665.82007  23465050.680    96085457.95646
 15 02 22 00 34 30.0000000  0  7G16G18G21G22G27G29G31
  21481545.400   112886294.35008  21481546.600    87963357.29948
  22232505.880   116832641.95308  22232507.600    91038429.79546
  21348143.700   112185328.64008  21348144.500    87417179.38348
  23568284.700   123852196.20807  23568286.160    96508235.72445
  22815253.380   119894980.34807  22815257.440    93424680.57247
  23968588.340   125956045.45606  23968590.540    98147689.91446
  23482808.880   123402996.66907  23482811.120    96158183.24646
 15 02 22 00 35  0.0000000  0  7G16G18G21G22G27G29G31
  21469082.140   112820799.35908  21469083.340    87912322.24548
  22221899.900   116776906.37708  22221901.360    90994999.50046
  21355933.220   112226262.76008  21355934.020    87449076.10148
  23550120.080   123756741.17107  23550121.460    96433855.27546
  22802612.200   119828550.91107  22802616.260    93372917.40547
  23982629.920   126029833.23506  23982631.940    98205186.84646
  23500589.160   123496432.15107  23500591.460    96230990.04546
 15 02 22 00 35 30.0000000  0  7G16G18G21G22G27G29G31
  21456682.420   112755638.41909  21456683.660    87861547.49748
  22211361.160   116721524.28308  22211362.420    90951844.65346
  21363778.540   112267490.19508  21363779.360    87481201.37948
  23531968.180   123661353.44406  23531969.540    96359527.26646
  22789988.440   119762212.93308  22789992.500    93321225.50047
  23996680.200   126103667.64506  23996682.240    98262720.12745
  23518388.980   123589970.19807  23518391.240    96303876.78046
 15 02 22 00 36  0.0000000  0  7G16G18G21G22G27G29G31
  21444346.380   112690811.93409  21444347.540    87811033.35848
  22200889.620   116666495.65108  22200890.760    90908965.22647
  21371678.900   112309006.98808  21371679.740    87513552.12748
  23513829.260   123566034.39906  23513830.640    96285252.78246
  22777381.800   119695964.71907  22777385.880    93269603.53847
  24010738.780   126177546.78506  24010741.040    98320288.25246
  23536207.360   123683606.18607  23536209.620    96376839.81546
 15 02 22 00 36 30.0000000  0  7G16G18G21G22G27G29G31
  21432074.360   112626322.12508  21432075.480    87760781.57048
  22190485.740   116611823.31608  22190486.940    90866363.42947
  21379633.980   112350811.33108  21379634.840    87546126.94248
  23495703.900   123470786.45106  23495705.200    96211033.67345
  22764792.320   119629806.40508  22764796.380    93218051.63047
  24024805.760   126251470.53906  24024808.360    98377891.13645
  23554043.700   123777336.87407  23554046.000    96449876.65646
 15 02 22 00 37  0.0000000  0  7G16G18G21G22G27G29G31
  21419866.620   112562170.15809  21419867.720    87710793.02848
  22180149.840   116557508.24708  22180151.140    90824040.02747
  21387643.340   112392900.90908  21387644.200    87578924.01648
  23477592.540   123375611.45006  23477593.740    96136871.42446
  22752219.840   119563737.30608  22752223.880    93166569.22747
  24038881.180   126325438.10606  24038883.920    98435528.24045
  23571897.280   123871158.52007  23571899.600    96522984.36045
 15 02 22 00 37 30.0000000  0  7G16G18G21G22G27G29G31
  21407723.780   112498359.26309  21407724.880    87661070.26148
  22169882.480   116503553.16608  22169883.860    90781997.12547
  21395706.740   112435274.48108  21395707.600    87611942.37948
  23459495.780   123280512.15507  23459496.700    96062768.15846
  22739664.520   119497758.16808  22739668.480    93115156.92647
  24052964.980   126399449.86505  24052967.880    98493199.70446
  23589767.720   123965068.83106  23589770.080    96596161.15646
 15 02 22 00 38  0.0000000  0  7G16G18G21G22G27G29G31
  21395646.840   112434894.45209  21395647.940    87611617.16848
  22159684.620   116449962.71908  22159685.960    90740238.36647
  21403824.440   112477933.65008  21403825.360    87645183.28448
  23441414.720   123185494.87907  23441415.360    95988728.80445
  22727126.860   119431872.08908  22727130.800    93063817.14147
  24067057.780   126473509.07506  24067060.800    98550908.15846
  23607655.100   124059067.60807  23607657.420    96669406.88346
 15 02 22 00 38 30.0000000  0  7G16G18G21G22G27G29G31
  21383635.420   112371773.78509  21383636.480    87562432.23948
  22149555.840   116396735.12408  22149557.120    90698762.34047
  21411995.360   112520872.46808  21411996.320    87678642.10248
  23423348.960   123090557.88607  23423349.340    95914752.01846
  22714606.100   119366074.98308  22714610.040    93012546.67647
  24081158.880   126547611.05006  24081161.980    98608649.93945
  23625558.080   124153147.69806  23625560.300    96742715.98946
 15 02 22 00 39  0.0000000  0  7G16G18G21G22G27G29G31
  21371689.980   112309000.01709  21371691.000    87513517.61648
  22139496.560   116343873.04308  22139497.780    90657571.12947
  21420219.260   112564089.61708  21420220.260    87712317.80248
  23405299.000   122995704.23107  23405299.280    95840840.17546
  22702102.400   119300367.65608  22702106.360    92961346.17247
  24095268.380   126621756.49706  24095271.240    98666425.62845
  23643476.200   124247306.91406  23643478.320    96816086.73746
 15 02 22 00 39 30.0000000  0  7G16G18G21G22G27G29G31
  21359811.340   112246577.37109  21359812.320    87464876.59948
  22129507.600   116291380.64108  22129508.820    90616667.98747
  21428496.240   112607585.33608  21428497.200    87746210.56848
  23387265.640   122900938.55007  23387266.000    95766996.87646
  22689616.220   119234752.34007  22689620.200    92910217.36747
  24109386.660   126695948.22806  24109389.080    98724237.33645
  23661409.160   124341544.18007  23661411.180    96889518.29346
 15 02 22 00 40  0.0000000  0  7G16G18G21G22G27G29G31
  21347999.580   112184506.25109  21348000.540    87416509.48848
  22119588.920   116239258.05208  22119590.220    90576053.01147
  21436825.520   112651355.81108  21436826.440    87780317.43248
  23369249.120   122806261.91306  23369249.620    95693222.96146
  22677147.180   119169227.28407  22677151.220    92859158.88647
  24123513.360   126770183.55007  24123515.600    98782082.93945
  23679356.020   124435854.57307  23679357.980    96963006.82346
 15 02 22 00 40 30.0000000  0  7G16G18G21G22G27G29G31
  21336255.640   112122791.64709  21336256.660    87368420.18948
  22109741.500   116187510.14108  22109742.940    90535729.98647
  21445207.360   112695402.46208  21445208.220    87814639.49848
  23351250.540   122711679.56707  23351251.180    95619522.51546
  22664695.900   119103795.51407  22664699.940    92808173.11147
  24137648.960   126844465.19407  24137650.940    98839964.75045
  23697316.740   124530238.11007  23697318.700    97036552.35546
 15 02 22 00 41  0.0000000  0  7G16G18G21G22G27G29G31
  21324579.760   112061434.61009  21324580.820    87320609.51748
  22099965.520   116136137.50008  22099967.040    90495699.37147
  21453641.260   112739722.70908  21453642.080    87849174.75548
  23333270.100   122617192.57607  23333270.960    95545896.36046
  22652262.120   119038455.91307  22652266.140    92757259.15347
  24151793.220   126918792.43207  24151795.040    98897882.08445
  23715290.520   124624690.63306  23715292.520    97110151.65445
 15 02 22 00 41 30.0000000  0  7G16G18G21G22G27G29G31
  21312972.360   112000437.35909  21312973.440    87273079.18948
  22090261.480   116085142.39208  22090262.980    90455962.95247
  21462126.800   112784314.40908  21462127.620    87883921.53248
  23315308.560   122522804.44307  23315309.480    95472347.24246
  22639845.940   118973208.80707  22639849.960    92706417.27347
  24165946.040   126993164.90206  24165947.860    98955834.68146
  23733276.800   124719208.84706  23733278.820    97183802.13446
 15 02 22 00 42  0.0000000  0  7G16G18G21G22G27G29G31
  21301434.340   111939804.79409  21301435.460    87225833.04148
  22080630.120   116034529.00108  22080631.520    90416523.96947
  21470664.160   112829178.49408  21470665.020    87918880.55848
  23297366.860   122428520.27307  23297367.740    95398879.12946
  22627447.900   118908056.97708  22627451.900    92655649.63447
  24180107.640   127067585.32706  24180109.860    99013824.55945
  23751275.580   124813792.95306  23751277.720    97257503.94545
 15 02 22 00 42 30.0000000  0  7G16G18G21G22G27G29G31
  21289965.600   111879536.40009  21289966.760    87178870.65648
  22071071.320   115984297.00008  22071072.620    90377382.16847
  21479252.440   112874310.28608  21479253.340    87954048.18448
  23279444.900   122334339.61707  23279445.660    95325491.67046
  22615067.540   118842997.80108  22615071.480    92604954.19247
  24194277.680   127142051.02705  24194280.460    99071849.76746
  23769285.800   124908437.20406  23769287.960    97331252.62746
 15 02 22 00 43  0.0000000  0  7G16G18G21G22G27G29G31
  21278566.080   111819631.85209  21278567.300    87132191.79148
  22061585.060   115934446.24108  22061586.260    90338537.44747
  21487891.000   112919706.12308  21487891.880    87989421.55948
  23261542.620   122240262.69707  23261543.360    95252185.04146
  22602704.460   118778029.11707  22602708.320    92554329.26847
  24208456.060   127216559.48106  24208459.100    99129908.25445
  23787306.300   125003135.76206  23787308.540    97405043.62245
 15 02 22 00 43 30.0000000  0  7G16G18G21G22G27G29G31
  21267236.960   111760097.16108  21267238.220    87085801.12148
  22052172.260   115884981.58508  22052173.440    90299993.58447
  21496580.120   112965367.73608  21496581.000    88025002.03248
  23243661.220   122146296.06307  23243662.120    95178964.36346
  22590359.300   118713154.81608  22590363.160    92503777.89047
  24222643.300   127291114.30106  24222646.720    99188002.89046
  23805337.340   125097889.62506  23805339.680    97478877.71046
 15 02 22 00 44  0.0000000  0  7G16G18G21G22G27G29G31
  21255978.320   111700932.77409  21255979.620    87039699.00548
  22042832.960   115835903.39808  22042834.140    90261750.86447
  21505319.020   113011290.98908  21505319.900    88060786.38148
  23225800.880   122052440.54307  23225802.000    95105830.24746
  22578031.820   118648373.46108  22578035.720    92453298.93647
  24236839.160   127365714.04705  24236842.340    99246132.55245
  23823377.940   125192694.15906  23823380.520    97552751.29746
 15 02 22 00 44 30.0000000  0  7G16G18G21G22G27G29G31
  21244790.260   111642139.18509  21244791.600    86993885.82548
  22033567.260   115787212.22308  22033568.500    90223809.70547
  21514107.240   113057473.40508  21514108.120    88096772.67748
  23207961.900   121958697.26906  23207963.260    95032783.62146
  22565721.740   118583683.44908  22565725.640    92402891.15547
  24251043.520   127440356.90905  24251046.200    99304295.85446
  23841427.260   125287544.61406  23841430.180    97626660.66346
 15 02 22 00 45  0.0000000  0  7G16G18G21G22G27G29G31
  21233673.940   111583722.61809  21233675.320    86948366.42948
  22024376.340   115738914.03308  22024377.640    90186174.76247
  21522945.260   113103917.52908  21522946.160    88132962.90248
  23190145.720   121865073.02107  23190147.140    94959829.72946
  22553429.860   118519089.13108  22553433.760    92352557.94747
  24265256.840   127515046.84706  24265259.180    99362495.76245
  23859485.700   125382442.21506  23859488.640    97700606.74745
 15 02 22 00 45 30.0000000  0  7G16G18G21G22G27G29G31
  21222629.580   111525684.00709  21222630.940    86903141.54148
  22015260.460   115691009.70508  22015261.800    90148846.72847
  21531832.320   113150619.69708  21531833.280    88169354.19548
  23172352.620   121771569.19007  23172353.840    94886969.65846
  22541156.060   118454589.62208  22541159.920    92302298.60947
  24279478.760   127589782.82105  24279480.620    99420731.52745
  23877552.420   125477382.92006  23877555.280    97774586.43046
 15 02 22 00 46  0.0000000  0  7G16G18G21G22G27G29G31
  21211657.680   111468026.08109  21211659.020    86858213.29348
  22006219.960   115643501.25508  22006221.280    90111827.16747
  21540768.300   113197578.81508  21540769.280    88205945.70748
  23154583.120   121678188.99307  23154584.120    94814205.92746
  22528900.380   118390185.63608  22528904.220    92252113.70447
  24293709.500   127664565.13405  24293711.120    99479003.53746
  23895626.920   125572363.90806  23895629.540    97848597.47646
 15 02 22 00 46 30.0000000  0  7G16G18G21G22G27G29G31
  21200758.700   111410751.45408  21200760.040    86813583.72248
  21997255.260   115596391.15708  21997256.560    90075118.01047
  21549752.960   113244793.74008  21549753.960    88242736.55848
  23136837.800   121584935.53007  23136838.540    94741540.96046
  22516662.920   118325877.68408  22516666.740    92202003.63147
  24307949.100   127739394.30307  24307950.840    99537311.87244
  23913708.780   125667383.28906  23913711.140    97922638.45046
 15 02 22 00 47  0.0000000  0  7G16G18G21G22G27G29G31
  21189933.160   111353862.58708  21189934.460    86769254.73748
  21988366.700   115549681.32208  21988367.940    90038720.74747
  21558786.060   113292263.16308  21558787.100    88279725.71348
  23119117.060   121491811.58807  23119117.580    94668976.91346
  22504443.820   118261666.35007  22504447.680    92151968.85347
  24322197.460   127814270.75807  24322198.880    99595657.21945
  23931797.420   125762438.26006  23931799.480    97996707.16246
 15 02 22 00 47 30.0000000  0  7G16G18G21G22G27G29G31
  21179180.800   111297358.50908  21179182.060    86725225.59448
  21979554.060   115503370.75208  21979555.300    90002634.59647
  21567866.680   113339982.29608  21567867.760    88316909.44948
  23101420.860   121398817.09307  23101421.220    94596513.73146
  22492242.640   118197548.98208  22492246.500    92102007.29048
  24336453.980   127889191.12006  24336455.800    99654036.64445
  23949891.560   125857522.72906  23949893.560    98070798.85545
 15 02 22 00 48  0.0000000  0  7G16G18G21G22G27G29G31
  21168502.700   111241244.83908  21168503.960    86681500.66448
  21970818.300   115457464.19908  21970819.580    89966863.27947
  21576995.140   113387952.34908  21576996.180    88354288.70948
  23083750.260   121305957.73407  23083750.620    94524155.86746
  22480059.960   118133528.90508  22480063.860    92052121.53847
  24350719.620   127964158.91806  24350721.940    99712453.12844
  23967991.280   125952637.04506  23967993.400    98144913.79546
 15 02 22 00 48 30.0000000  0  7G16G18G21G22G27G29G31
  21157898.600   111185520.11708  21157899.860    86638078.80848
  21962159.140   115411960.64208  21962160.520    89931405.97847
  21586170.360   113436168.13708  21586171.380    88391859.44748
  23066105.140   121213232.86907  23066105.540    94451902.78946
  22467895.200   118069602.94108  22467899.140    92002309.13147
  24364993.660   128039170.87605  24364996.300    99770903.96144
  23986095.280   126047774.64406  23986097.700    98219046.87846
 15 02 22 00 49  0.0000000  0  7G16G18G21G22G27G29G31
  21147369.200   111130187.82808  21147370.460    86594962.74748
  21953577.240   115366862.97908  21953578.640    89896264.96247
  21595392.320   113484629.55408  21595393.280    88429621.59048
  23048486.300   121120646.36007  23048486.700    94379757.51846
  22455748.700   118005772.74708  22455752.660    91952571.34547
  24379276.760   128114227.88006  24379279.100    99829390.06844
  24004203.440   126142934.07906  24004206.160    98293196.99046
 15 02 22 00 49 30.0000000  0  7G16G18G21G22G27G29G31
  21136915.240   111075251.71109  21136916.480    86552155.38948
  21945073.340   115322175.01108  21945074.700    89861443.17947
  21604661.040   113533336.69608  21604661.940    88467575.20748
  23030894.660   121028202.67707  23030895.080    94307723.53946
  22443620.880   117942040.43108  22443624.780    91902909.82847
  24393568.740   128189332.32407  24393571.040    99887912.89245
  24022315.580   126238114.42506  24022318.560    98367363.37246
 15 02 22 00 50  0.0000000  0  7G16G18G21G22G27G29G31
  21126536.540   111020711.22709  21126537.800    86509656.31748
  21936647.020   115277894.45308  21936648.300    89826938.86347
  21613975.420   113582284.04108  21613976.280    88505715.99348
  23013330.220   120935901.53607  23013330.560    94235800.63246
  22431511.120   117878402.94008  22431514.960    91853322.19947
  24407869.080   128264480.54505  24407871.480    99946469.98746
  24040430.560   126333309.48406  24040433.820    98441541.25045
 15 02 22 00 50 30.0000000  0  7G16G18G21G22G27G29G31
  21116234.580   110966573.93509  21116235.800    86467471.41548
  21928299.860   115234029.46908  21928301.040    89792758.36847
  21623336.340   113631476.01808  21623337.220    88544047.40448
  22995794.460   120843750.86107  22995794.700    94163994.98446
  22419420.500   117814866.23208  22419424.280    91803813.09747
  24422178.840   128339678.27906  24422181.320   100005065.54444
  24058548.960   126428521.97506  24058552.260    98515732.69045
 15 02 22 00 51  0.0000000  0  7G16G18G21G22G27G29G31
  21106008.660   110912836.44409  21106009.860    86425598.05448
  21920031.060   115190576.45608  21920032.240    89758898.89347
  21632742.500   113680905.80108  21632743.380    88582564.12048
  22978286.980   120751748.41407  22978287.100    94092304.83646
  22407348.040   117751425.30708  22407351.760    91754378.63747
  24436497.100   128414920.20505  24436499.340   100063695.65145
  24076669.060   126523743.63506  24076672.440    98589931.26046
 15 02 22 00 51 30.0000000  0  7G16G18G21G22G27G29G31
  21095860.280   110859506.61609  21095861.520    86384042.35348
  21911841.920   115147542.37408  21911843.140    89725365.85947
  21642194.600   113730576.68808  21642195.440    88621268.70948
  22960809.200   120659902.13107  22960809.360    94020736.36146
  22395294.900   117688085.94508  22395298.600    91705023.31647
  24450824.620   128490212.14906  24450826.780   100122364.69244
  24094791.520   126618977.39306  24094794.940    98664139.27046
 15 02 22 00 52  0.0000000  0  7G16G18G21G22G27G29G31
  21085788.920   110806581.55609  21085790.220    86342802.05148
  21903731.900   115104924.18308  21903733.200    89692156.89647
  21651691.340   113780482.18908  21651692.120    88660156.11548
  22943360.680   120568209.66607  22943360.960    93949287.73846
  22383260.220   117624843.49208  22383263.900    91655743.50947
  24465160.400   128565548.79504  24465162.900   100181068.55547
  24112914.800   126714215.03406  24112918.180    98738350.27446
 15 02 22 00 52 30.0000000  0  7G16G18G21G22G27G29G31
  21075795.580   110754066.41809  21075796.920    86301881.17248
  21895701.960   115062726.83708  21895703.400    89659275.85347
  21661232.980   113830623.76908  21661233.740    88699227.47448
  22925942.620   120476677.30807  22925943.100    93877963.87247
