     2.11           OBSERVATION DATA    G                   RINEX VERSION / TYPE
SPIDER V4,0,0,3554                      2015 03 24 00:06    PGM / RUN BY / DATE 
CBEJ                                                        MARKER NAME         
CBEJ                                                        MARKER NUMBER       
                                                            OBSERVER / AGENCY   
496519              LEICA GRX1200+GNSS  8.10/4.007          REC # / TYPE / VERS 
                    LEIAR25         NONE                    ANT # / TYPE        
  5095766.4657   453329.2088  3797108.6657                  APPROX POSITION XYZ 
        0.0730        0.0000        0.0000                  ANTENNA: DELTA H/E/N
     1     1                                                WAVELENGTH FACT L1/2
     4    C1    L1    P2    L2                              # / TYPES OF OBSERV 
    30.000                                                  INTERVAL            
  2015    02    22    00    00    0.0000000     GPS         TIME OF FIRST OBS   
  2015    02    22    23    59   30.0000000     GPS         TIME OF LAST OBS    
    16                                                      LEAP SECONDS        
    30                                                      # OF SATELLITES     
   G 1   811   811   811   811                              PRN / # OF OBS      
   G 2   857   857   857   857                              PRN / # OF OBS      
   G 3   833   833   833   833                              PRN / # OF OBS      
   G 4   832   832   832   832                              PRN / # OF OBS      
   G 5   633   633   633   633                              PRN / # OF OBS      
   G 6   691   691   690   690                              PRN / # OF OBS      
   G 7   646   646   644   644                              PRN / # OF OBS      
   G 9   784   784   783   783                              PRN / # OF OBS      
   G10   745   745   745   745                              PRN / # OF OBS      
   G11   777   777   777   777                              PRN / # OF OBS      
   G12   813   813   813   813                              PRN / # OF OBS      
   G13   799   799   799   799                              PRN / # OF OBS      
   G14   858   858   855   855                              PRN / # OF OBS      
   G15   710   710   710   710                              PRN / # OF OBS      
   G16   672   672   672   672                              PRN / # OF OBS      
   G17   859   859   859   859                              PRN / # OF OBS      
   G18   847   847   845   845                              PRN / # OF OBS      
   G19   758   758   758   758                              PRN / # OF OBS      
   G20   779   779   778   778                              PRN / # OF OBS      
   G21   664   663   654   653                              PRN / # OF OBS      
   G22   696   696   696   696                              PRN / # OF OBS      
   G23   721   720   710   710                              PRN / # OF OBS      
   G24   822   822   822   822                              PRN / # OF OBS      
   G25   850   850   850   850                              PRN / # OF OBS      
   G27   808   808   808   808                              PRN / # OF OBS      
   G28   805   805   804   804                              PRN / # OF OBS      
   G29   750   750   750   750                              PRN / # OF OBS      
   G30   665   662   655   654                              PRN / # OF OBS      
   G31   764   761   754   752                              PRN / # OF OBS      
   G32   735   734   732   732                              PRN / # OF OBS      
BIT 2 OF LLI FLAGS DATA COLLECTED UNDER A/S CONDITION       COMMENT             
SNR is mapped to RINEX snr flag value [2-9]                 COMMENT             
Lx:     = 25dBHz -> 1; 26-27dBHz -> 2; 28-31dBHz -> 3       COMMENT             
       32-35dBHz -> 4; 36-38dBHz -> 5; 39-41dBHz -> 6       COMMENT             
       42-44dBHz -> 7; 45-48dBHz -> 8; >=49dBHz -> 9        COMMENT             
                                                            END OF HEADER       
 15 02 22 00 00  0.0000000  0  7G16G18G21G25G27G29G31
  22316014.740   117271458.74809  22316012.000    91380344.70847
  23258615.740   122224881.22408  23258614.360    95240169.60645
  21002373.420   110368218.95408  21002369.420    86001200.22848
  24189176.140   127114965.83307  24189176.320    99050621.64444
  23521671.420   123607224.05608  23521670.860    96317322.02645
  23179670.420   121809973.62506  23179670.400    94916865.02645
  22277185.020   117067381.72609  22277181.560    91221321.22248
 15 02 22 00 00 30.0000000  0  7G16G18G21G25G27G29G31
  22300714.920   117191058.63909  22300711.740    91317695.27347
  23244592.920   122151190.16409  23244590.520    95182748.04345
  21005714.620   110385777.88508  21005710.720    86014882.50848
  24207545.260   127211498.84007  24207545.540    99125842.13445
  23508014.500   123535456.70608  23508013.580    96261399.44946
  23193656.480   121883468.58306  23193655.880    94974133.77144
  22292571.580   117148237.13109  22292568.040    91284325.39548
 15 02 22 00 01  0.0000000  0  7G16G18G21G25G27G29G31
  22285449.740   117110839.34309  22285446.040    91255186.75147
  23230601.640   122077664.21209  23230598.100    95125455.17745
  21009132.620   110403739.75708  21009128.660    86028878.76648
  24225947.340   127308203.22508  24225948.420    99201196.19845
  23494376.940   123463790.21708  23494375.200    96205555.47846
  23207649.980   121957002.83305  23207649.320    95031433.20144
  22308015.320   117229395.83009  22308012.260    91347565.93848
 15 02 22 00 01 30.0000000  0  7G16G18G21G25G27G29G31
  22270219.900   117030804.22809  22270216.060    91192821.73047
  23216642.800   122004308.20709  23216638.960    95068294.71646
  21012627.560   110422105.49108  21012623.440    86043189.72948
  24244382.580   127405079.82208  24244384.200    99276684.43546
  23480758.960   123392226.68207  23480756.400    96149791.75046
  23221650.920   122030578.41105  23221650.640    95088764.84345
  22323516.480   117310857.11009  22323513.920    91411042.22748
 15 02 22 00 02  0.0000000  0  7G16G18G21G25G27G29G31
  22255026.380   116950961.26009  22255022.880    91130606.42547
  23202717.840   121931130.80309  23202714.100    95011273.40345
  21016200.200   110440879.44108  21016195.980    86057818.79448
  24262851.740   127502133.20408  24262853.380    99352310.41446
  23467161.220   123320772.04608  23467158.840    96094112.78746
  23235660.600   122104200.64805  23235660.460    95146132.86345
  22339076.040   117392624.05009  22339073.780    91474756.71448
 15 02 22 00 02 30.0000000  0  7G16G18G21G25G27G29G31
  22239867.760   116871302.81309  22239864.220    91068534.90747
  23188825.020   121858124.61108  23188821.460    94954385.49445
  21019848.420   110460050.87209  21019844.320    86072757.56548
  24281352.520   127599352.41608  24281353.740    99428065.60646
  23453582.600   123249416.47908  23453580.900    96038511.06446
  23249677.320   122177859.86806  23249676.860    95203529.58844
  22354691.540   117474683.98609  22354689.580    91538699.48248
 15 02 22 00 03  0.0000000  0  7G16G18G21G25G27G29G31
  22224745.220   116791833.38409  22224741.200    91006610.70847
  23174965.440   121785295.19208  23174962.640    94897635.31246
  21023572.500   110479620.92908  21023568.560    86088006.96248
  24299884.880   127696738.32108  24299885.560    99503950.68845
  23440023.420   123178162.22608  23440022.340    95982988.27846
  23263701.960   122251557.79407  23263700.660    95260956.55044
  22370362.580   117557036.38209  22370361.020    91602870.14948
 15 02 22 00 03 30.0000000  0  7G16G18G21G25G27G29G31
  22209659.160   116712555.43009  22209655.280    90944835.67747
  23161140.240   121712645.00009  23161138.380    94841024.78046
  21027372.100   110499588.29308  21027368.440    86103565.93548
  24318448.360   127794289.87308  24318448.940    99579964.85745
  23426483.520   123107009.52108  23426482.680    95927544.62246
  23277734.500   122325294.20807  23277732.100    95318413.44444
  22386088.660   117639678.86709  22386087.380    91667266.87148
 15 02 22 00 04  0.0000000  0  7G16G18G21G25G27G29G31
  22194611.660   116633479.92409  22194608.160    90883218.39547
  23147351.760   121640186.34509  23147350.320    94784563.51246
  21031248.860   110519961.38008  21031245.380    86119441.07148
  24337044.760   127892015.48908  24337045.460    99656114.64345
  23412964.520   123035968.08108  23412964.260    95872187.63647
  23291776.160   122399078.34807  23291772.900    95375907.48744
  22401871.400   117722618.22509  22401869.800    91731894.90348
 15 02 22 00 04 30.0000000  0  7G16G18G21G25G27G29G31
  22179601.020   116554600.45209  22179597.820    90821753.85347
  23133598.640   121567912.64208  23133597.160    94728246.37546
  21035200.780   110540729.79808  21035197.520    86135624.24648
  24355672.100   127989904.71308  24355673.080    99732391.93045
  23399464.920   122965028.70208  23399465.440    95816910.20846
  23305824.620   122472900.91806  23305821.520    95433431.54945
  22417708.440   117805842.49209  22417706.380    91796744.95248
 15 02 22 00 05  0.0000000  0  7G16G18G21G25G27G29G31
  22164628.140   116475918.33009  22164625.020    90760443.13547
  23119881.240   121495826.30609  23119879.660    94672075.23546
  21039227.700   110561891.89409  21039224.540    86152114.19148
  24374330.400   128087955.94508  24374331.200    99808795.42845
  23385985.060   122894191.03708  23385985.740    95761712.03346
  23319880.040   122546761.42706  23319877.260    95490985.13945
  22433599.040   117889348.28309  22433597.120    91861814.35048
 15 02 22 00 05 30.0000000  0  7G16G18G21G25G27G29G31
  22149693.220   116397435.65409  22149690.480    90699287.80847
  23106199.960   121423929.32809  23106197.860    94616051.65346
  21043329.400   110583445.90509  21043326.120    86168909.53948
  24393019.440   128186167.39708  24393020.160    99885323.78345
  23372524.560   122823454.70208  23372524.820    95706592.86046
  23333942.260   122620658.80305  23333940.160    95548567.52644
  22449542.580   117973132.37109  22449541.100    91927100.62248
 15 02 22 00 06  0.0000000  0  7G16G18G21G25G27G29G31
  22134798.880   116319165.20409  22134796.120    90638297.86747
  23092557.140   121352235.28409  23092554.380    94560186.21146
  21047507.560   110605401.13309  21047504.140    86186017.52948
  24411740.860   128284548.51708  24411741.720    99961984.35445
  23359085.180   122752830.47007  23359084.840    95651561.02446
  23348012.220   122694603.43704  23348011.520    95606186.79944
  22465540.600   118057202.61509  22465539.260    91992609.88148
 15 02 22 00 06 30.0000000  0  7G16G18G21G25G27G29G31
  22119943.940   116241101.17909  22119941.000    90577468.76347
  23078951.900   121280739.47309  23078949.040    94504475.23446
  21051760.340   110627748.91509  21051756.720    86203431.39148
  24430492.860   128383090.72608  24430493.740   100038770.47745
  23345665.320   122682311.13408  23345665.120    95596610.84946
  23362089.800   122768588.39306  23362090.620    95663837.35544
  22481591.320   118141549.08009  22481589.460    92058334.36647
 15 02 22 00 07  0.0000000  0  7G16G18G21G25G27G29G31
  22105127.180   116163236.84609  22105123.960    90516795.28947
  23065383.100   121209435.64408  23065380.400    94448913.85446
  21056085.860   110650479.09609  21056081.960    86221143.23948
  24449273.740   128481783.66308  24449274.300   100115674.02445
  23332263.980   122611887.44708  23332264.080    95541735.32246
  23376173.960   122842603.99606  23376174.780    95721511.81644
  22497692.260   118226159.70409  22497689.940    92124264.71948
 15 02 22 00 07 30.0000000  0  7G16G18G21G25G27G29G31
  22090349.860   116085579.63909  22090346.220    90456283.18447
  23051852.260   121138331.43808  23051849.320    94393508.01646
  21060484.680   110673595.36608  21060480.780    86239155.91348
  24468084.040   128580631.10708  24468084.160   100192697.94245
  23318882.060   122541564.72808  23318882.160    95486938.42747
  23390265.340   122916654.97906  23390265.380    95779213.86344
  22513843.880   118311036.65709  22513841.240    92190402.58548
 15 02 22 00 08  0.0000000  0  7G16G18G21G25G27G29G31
  22075612.740   116008133.86409  22075608.620    90395935.83747
  23038360.220   121067431.57908  23038357.320    94338261.43646
  21064957.120   110697098.67808  21064953.300    86257470.19048
  24486923.740   128679633.94608  24486923.580   100269842.94445
  23305519.760   122471345.17008  23305519.660    95432221.89746
  23404364.560   122990743.86907  23404363.640    95836945.40444
  22530046.120   118396179.26409  22530043.380    92256747.43548
 15 02 22 00 08 30.0000000  0  7G16G18G21G25G27G29G31
  22060916.060   115930901.30209  22060911.700    90335754.64048
  23024907.360   120996738.34308  23024905.100    94283175.83147
  21069502.920   110720987.46508  21069499.100    86276084.82548
  24505792.520   128778790.68208  24505792.920   100347107.90946
  23292177.260   122401228.61908  23292176.900    95377585.61946
  23418471.140   123064869.56507  23418469.280    95894705.64245
  22546298.420   118481584.62909  22546295.840    92323297.04148
 15 02 22 00 09  0.0000000  0  7G16G18G21G25G27G29G31
  22046259.880   115853883.28609  22046256.040    90275740.60648
  23011494.480   120926254.07909  23011492.560    94228253.07746
  21074121.660   110745259.49308  21074117.960    86294998.09648
  24524690.300   128878099.23908  24524690.660   100424491.12045
  23278854.440   122331214.31008  23278853.240    95323029.07046
  23432584.240   123139031.26106  23432582.000    95952493.96444
  22562600.060   118567249.32909  22562597.600    92390048.72948
 15 02 22 00 09 30.0000000  0  8G16G18G21G22G25G27G29G31
  22031645.520   115777084.00409  22031641.960    90215897.03647
  22998122.260   120855982.79609  22998120.200    94173496.28246
  21078813.500   110769915.18708  21078809.920    86314210.32748
  24563458.560   129081845.79508  24563456.700   100583245.88145
  24543617.060   128977560.04208  24543617.180   100501992.97945
  23265551.480   122261304.05908  23265549.440    95268553.61946
  23446704.160   123213230.64607  23446701.260    96010311.64445
  22578950.680   118653172.03909  22578948.060    92457001.45947
 15 02 22 00 10  0.0000000  0  8G16G18G21G22G25G27G29G31
  22017071.880   115700499.09809  22017068.080    90156220.48047
  22984790.060   120785921.17909  22984787.740    94118902.86346
  21083577.020   110794947.16209  21083573.460    86333715.77248
  24545586.980   128987930.50308  24545584.660   100510065.46745
  24562571.440   129077165.39508  24562572.140   100579607.51145
  23252266.400   122191491.67507  23252265.240    95214154.37747
  23460830.040   123287460.87307  23460825.680    96068153.31144
  22595348.340   118739343.50608  22595345.700    92524148.02248
 15 02 22 00 10 30.0000000  0  8G16G18G21G22G25G27G29G31
  22002543.700   115624153.83509  22002539.840    90096730.67747
  22971502.480   120716094.44609  22971500.000    94064492.46546
  21088416.180   110820376.53108  21088412.460    86353530.87348
  24527704.380   128893958.55808  24527701.860   100436840.86845
  24581557.480   129176937.07808  24581558.520   100657351.63545
  23239003.460   122121800.18507  23239004.160    95159849.30047
  23474965.940   123361744.50906  23474960.720    96126036.61945
  22611797.060   118825784.00808  22611794.840    92591504.22748
 15 02 22 00 11  0.0000000  0  8G16G18G21G22G25G27G29G31
  21988058.200   115548033.70109  21988054.580    90037416.28247
  22958256.820   120646488.39508  22958254.420    94010254.01546
  21093327.540   110846185.26108  21093323.520    86373641.58648
  24509807.980   128799915.05808  24509805.480   100363560.54445
  24600571.580   129276856.77008  24600572.620   100735211.09546
  23225760.620   122052212.74308  23225762.180    95105625.30947
  23489108.100   123436065.23606  23489103.760    96183948.88245
  22628293.460   118912473.78709  22628291.620    92659054.67747
 15 02 22 00 11 30.0000000  0  8G16G18G21G22G25G27G29G31
  21973614.380   115472131.98109  21973610.880    89978272.10447
  22945052.020   120577097.73808  22945049.720    93956183.42446
  21098309.180   110872363.15208  21098304.920    86394039.95348
  24491897.100   128705794.53508  24491894.660   100290220.18645
  24619612.120   129376914.86007  24619613.040   100813178.37745
  23212536.860   121982721.01008  23212538.440    95051475.96247
  23503255.600   123510414.27406  23503252.560    96241883.20345
  22644835.400   118999401.55709  22644833.620    92726790.56148
 15 02 22 00 12  0.0000000  0  8G16G18G21G22G25G27G29G31
  21959213.700   115396456.35709  21959210.120    89919304.11147
  22931889.740   120507930.46009  22931887.440    93902286.87245
  21103361.860   110898915.33308  21103357.620    86414729.95848
  24473973.060   128611605.21608  24473971.420   100216826.18145
  24638679.320   129477115.55907  24638679.960   100891256.77644
  23199332.940   121913330.62708  23199334.320    94997405.58646
  23517409.980   123584796.99107  23517407.700    96299843.70344
  22661423.200   119086570.15909  22661421.440    92794714.12047
 15 02 22 00 12 30.0000000  0  8G16G18G21G22G25G27G29G31
  21944857.680   115321015.77909  21944854.200    89860519.26247
  22918771.840   120438995.48209  22918769.500    93848571.36246
  21108486.480   110925846.55108  21108482.520    86435715.31948
  24456037.560   128517355.77908  24456037.040   100143385.32645
  24657774.480   129577464.09007  24657775.760   100969450.38844
  23186149.640   121844048.35708  23186150.740    94943419.42147
  23531571.880   123659219.81506  23531570.520    96357835.51244
  22678057.600   119173983.50409  22678055.780    92862828.38547
 15 02 22 00 13  0.0000000  0  8G16G18G21G22G25G27G29G31
  21930547.080   115245812.20209  21930543.400    89801919.08647
  22905698.660   120370294.86409  22905696.120    93795038.43846
  21113682.700   110953154.61408  21113679.120    86456994.31048
  24438091.260   128423048.29208  24438091.360   100069899.23345
  24676897.240   129677958.44007  24676899.480   101047757.66945
  23172986.600   121774873.55608  23172987.080    94889517.02146
  23545741.260   123733681.97606  23545740.920    96415858.00544
  22694737.740   119261637.45609  22694735.560    92931130.12747
 15 02 22 00 13 30.0000000  0  8G16G18G21G22G25G27G29G31
  21916280.100   115170836.80009  21916276.000    89743496.71247
  22892668.540   120301820.49309  22892665.400    93741681.83445
  21118948.380   110980826.96809  21118945.040    86478557.18648
  24420132.440   128328674.25608  24420132.060    99996361.29945
  24696046.020   129778586.35208  24696047.660   101126168.92944
  23159841.720   121705795.27908  23159840.740    94835689.85646
  23559916.640   123808171.80407  23559916.160    96473901.98044
  22711460.960   119349518.41809  22711458.220    92999608.75947
 15 02 22 00 14  0.0000000  0  8G16G18G21G22G25G27G29G31
  21902057.600   115096097.22909  21902053.520    89685258.07347
  22879683.040   120233581.07509  22879679.620    93688508.29446
  21124284.500   111008868.89408  21124281.140    86500408.04348
  24402162.780   128234242.43008  24402160.580    99922778.37745
  24715221.580   129879352.58208  24715223.300   101204688.00445
  23146715.820   121636819.75908  23146714.020    94781942.73746
  23574098.800   123882695.80306  23574097.260    96531972.56743
  22728228.040   119437629.91309  22728224.980    93068267.02247
 15 02 22 00 14 30.0000000  0  8G16G18G21G22G25G27G29G31
  21887881.480   115021601.69109  21887877.600    89627209.60847
  22866743.940   120165584.53709  22866740.020    93635524.02246
  21129691.760   111037284.02909  21129688.320    86522549.71548
  24384183.880   128139760.79408  24384179.940    99849156.63344
  24734424.540   129980261.27308  24734426.260   101283318.09646
  23133609.920   121567952.70108  23133609.140    94728280.09247
  23588288.100   123957259.04707  23588285.600    96590073.74943
  22745039.460   119525974.46609  22745036.480    93137106.90347
 15 02 22 00 15  0.0000000  0  8G16G18G21G22G25G27G29G31
  21873751.320   114947346.13509  21873747.140    89569348.16247
  22853850.360   120097827.15809  22853845.800    93582726.14645
  21135168.660   111066064.92609  21135165.180    86544976.38448
  24366194.500   128045225.63808  24366190.160    99775493.16145
  24753652.960   130081304.91108  24753654.760   101362053.33145
  23120523.680   121499187.92908  23120523.680    94674697.16546
  23602483.740   124031855.48606  23602481.140    96648200.77643
  22761893.500   119614542.80009  22761890.560    93206121.16647
 15 02 22 00 15 30.0000000  0  8G16G18G21G22G25G27G29G31
  21859667.480   114873335.29009  21859663.060    89511677.38847
  22841003.160   120030314.60109  22840998.960    93530118.99546
  21140715.320   111095212.11909  21140711.760    86567688.48348
  24348195.420   127950641.62408  24348191.920    99701791.59445
  24772907.080   130182484.50808  24772909.340   101440894.53646
  23107458.000   121430527.88208  23107458.240    94621195.86247
  23616685.520   124106487.27905  23616683.620    96706355.42444
  22778790.080   119703334.79109  22778787.060    93275309.69447
 15 02 22 00 16  0.0000000  0  8G16G18G21G22G25G27G29G31
  21845630.300   114799571.37209  21845626.540    89454199.00648
  22828202.680   119963048.95108  22828199.360    93477704.21046
  21146331.520   111124724.85009  21146327.860    86590685.41848
  24330187.400   127856011.66708  24330185.380    99628054.24046
  24792186.860   130283798.75108  24792189.080   101519840.64245
  23094412.620   121361972.78308  23094413.160    94567776.35047
  23630893.160   124181154.31007  23630892.120    96764537.59144
  22795728.660   119792347.50009  22795725.840    93344670.20847
 15 02 22 00 16 30.0000000  0  8G16G18G21G22G25G27G29G31
  21831640.060   114726053.45409  21831636.980    89396912.31347
  22815448.980   119896029.93109  22815446.420    93425481.59046
  21152016.380   111154598.73409  21152012.740    86613963.76548
  24312170.720   127761335.55308  24312169.580    99554280.86845
  24811491.020   130385243.14407  24811492.680   101598888.13044
  23081386.540   121293519.61408  23081386.700    94514436.24546
  23645107.780   124255853.49107  23645105.700    96822744.67743
  22812708.200   119881574.95509  22812705.780    93414198.06247
 15 02 22 00 17  0.0000000  0  7G16G18G21G22G27G29G31
  21817697.480   114652786.24209  21817694.900    89339820.97948
  22802743.400   119829262.67409  22802741.120    93373455.18946
  21157770.060   111184834.54709  21157766.340    86637524.13348
  24294146.260   127666617.83508  24294145.140    99480475.13246
  23068380.200   121225170.93308  23068379.980    94461177.58146
  23659329.340   124330587.04508  23659326.720    96880978.54844
  22829728.640   119971016.70709  22829726.140    93483892.89447
 15 02 22 00 17 30.0000000  0  7G16G18G21G22G27G29G31
  21803803.320   114579773.21209  21803800.800    89282927.71547
  22790086.560   119762750.77509  22790083.960    93321627.76546
  21163592.360   111215431.40508  21163588.520    86661365.83848
  24276114.460   127571862.10408  24276113.240    99406639.74345
  23055393.840   121156927.88108  23055394.320    94408001.17347
  23673557.380   124405355.76308  23673555.280    96939239.88144
  22846789.360   120060670.86709  22846786.420    93553753.24747
 15 02 22 00 18  0.0000000  0  7G16G18G21G22G27G29G31
  21789957.900   114507015.31009  21789955.480    89226233.26848
  22777478.920   119696495.69309  22777475.620    93270000.50946
  21169482.980   111246387.10109  21169479.080    86685487.17648
  24258075.740   127477070.21608  24258074.120    99332776.19045
  23042427.600   121088789.58308  23042428.260    94354906.40646
  23687791.980   124480158.78408  23687790.260    96997527.88145
  22863889.600   120150533.74809  22863886.600    93623776.24347
 15 02 22 00 18 30.0000000  0  7G16G18G21G22G27G29G31
  21776160.440   114434509.35009  21776158.300    89169735.11948
  22764919.520   119630494.29509  22764916.140    93218570.90646
  21175440.580   111277694.89408  21175436.680    86709882.85748
  24240029.660   127382239.12008  24240027.600    99258882.07045
  23029480.380   121020750.57108  23029480.380    94301889.04747
  23702032.260   124554990.49708  23702030.620    97055838.27245
  22881027.900   120240596.60309  22881025.100    93693955.06347
 15 02 22 00 19  0.0000000  0  7G16G18G21G22G27G29G31
  21762412.300   114362261.74809  21762410.040    89113438.28748
  22752409.160   119564753.64108  22752406.300    93167344.42246
  21181465.660   111309357.03008  21181461.880    86734554.64948
  24221977.580   127287375.75108  24221974.820    99184962.82545
  23016552.740   120952815.23308  23016552.640    94248952.44046
  23716278.780   124629854.84608  23716277.440    97114174.10646
  22898204.700   120330860.89109  22898201.600    93764290.81347
 15 02 22 00 19 30.0000000  0  7G16G18G21G22G27G29G31
  21748714.640   114290279.04209  21748711.680    89057347.90947
  22739949.740   119499280.61809  22739947.000    93116326.51346
  21187558.940   111341377.04309  21187555.180    86759505.30648
  24203920.560   127192486.89208  24203917.700    99111023.66345
  23003645.520   120884987.87308  23003645.120    94196099.97246
  23730532.340   124704755.96008  23730531.020    97172538.57146
  22915420.160   120421328.17109  22915416.580    93834784.75647
 15 02 22 00 20  0.0000000  0  7G16G18G21G22G27G29G31
  21735066.980   114218560.93509  21735063.820    89001463.67647
  22727541.440   119434075.18609  22727538.740    93065517.14946
  21193719.440   111373750.36109  21193715.720    86784731.26248
  24185859.020   127097572.32208  24185856.240    99037064.50245
  22990758.260   120817266.01008  22990756.800    94143329.70446
  23744792.140   124779691.35207  23744790.800    97230929.75145
  22932673.440   120511992.83909  22932669.300    93905432.50847
 15 02 22 00 20 30.0000000  0  7G16G18G21G22G27G29G31
  21721470.900   114147113.89009  21721467.760    88945790.65547
  22715185.420   119369143.86009  22715182.820    93014921.34446
  21199947.640   111406479.91508  21199944.060    86810234.80048
  24167793.840   127002638.96108  24167791.360    98963090.65345
  22977891.940   120749654.06408  22977890.720    94090645.13446
  23759058.340   124854665.12707  23759057.740    97289350.87746
  22949964.720   120602856.26209  22949960.000    93976235.11647
 15 02 22 00 21  0.0000000  0  7G16G18G21G22G27G29G31
  21707925.500   114075930.53809  21707922.080    88890323.13848
  22702880.240   119304479.84809  22702877.940    92964533.80347
  21206241.520   111439554.71409  21206238.120    86836007.36548
  24149723.520   126907680.05008  24149721.660    98889096.87646
  22965044.900   120682142.55808  22965044.540    94038038.77646
  23773330.280   124929667.45808  23773330.480    97347794.27046
  22967291.360   120693906.01309  22967286.420    94047182.92347
 15 02 22 00 21 30.0000000  0  7G16G18G21G22G27G29G31
  21694430.440   114005012.84109  21694426.920    88835062.61648
  22690626.440   119240085.39709  22690624.400    92914356.33047
  21212600.800   111472972.66709  21212597.440    86862047.33248
  24131648.820   126812697.85108  24131647.140    98815084.96646
  22952217.200   120614731.31808  22952217.220    93985510.55947
  23787608.160   125004697.98408  23787608.640    97406259.59147
  22984652.680   120785138.94909  22984647.960    94118273.48347
 15 02 22 00 22  0.0000000  0  7G16G18G21G22G27G29G31
  21680986.980   113934368.39309  21680983.600    88780014.99247
  22678425.460   119175968.18609  22678423.240    92864394.90846
  21219026.040   111506737.19709  21219022.540    86888357.35448
  24113571.180   126717700.15508  24113568.940    98741060.99445
  22939409.480   120547425.60408  22939409.880    93933064.55747
  23801892.460   125079762.07808  23801892.680    97464751.06145
  23002049.040   120876557.18809  23002044.680    94189508.42847
 15 02 22 00 22 30.0000000  0  7G16G18G21G22G27G29G31
  21667596.400   113864002.17609  21667593.080    88725184.18347
  22666278.180   119112133.55708  22666275.460    92814653.69446
  21225517.480   111540849.88409  21225513.780    86914938.68348
  24095491.380   126622692.75508  24095488.700    98667029.44645
  22926622.360   120480228.57208  22926622.800    93880703.22947
  23816183.720   125154862.48107  23816183.200    97523270.82145
  23019480.300   120968160.84609  23019476.560    94260887.88347
 15 02 22 00 23  0.0000000  0  7G16G18G21G22G27G29G31
  21654257.620   113793906.68909  21654254.300    88670564.34648
  22654183.100   119048574.13708  22654180.360    92765126.89346
  21232072.860   111575299.11909  21232069.060    86941782.23748
  24077408.220   126527667.64408  24077405.420    98592984.11145
  22913854.140   120413130.21608  22913854.500    93828418.83747
  23830480.100   125229988.86407  23830478.880    97581810.79345
  23036944.180   121059936.94009  23036941.280    94332401.68248
 15 02 22 00 23 30.0000000  0  7G16G18G21G22G27G29G31
  21640972.740   113724093.69309  21640969.480    88616164.60748
  22642142.640   118985301.88608  22642139.960    92715823.84346
  21238693.860   111610093.33709  21238690.100    86968894.62048
  24059324.160   126432637.02208  24059321.400    98518934.47946
  22901106.400   120346140.26208  22901106.540    93776218.86247
  23844783.140   125305150.93007  23844781.820    97640378.62845
  23054442.140   121151892.18108  23054439.760    94404055.08747
 15 02 22 00 24  0.0000000  0  7G16G18G21G22G27G29G31
  21627741.320   113654561.43609  21627738.340    88561983.63048
  22630156.900   118922315.46009  22630154.040    92666743.58047
  21245379.520   111645226.97209  21245375.820    86996271.48548
  24041239.240   126337600.38908  24041236.560    98444880.15646
  22888378.660   120279255.02408  22888378.240    93724100.52047
  23859092.100   125380344.85107  23859090.580    97698971.23445
  23071973.040   121244019.95708  23071970.560    94475842.90447
 15 02 22 00 24 30.0000000  0  7G16G18G21G22G27G29G31
  21614564.880   113585316.49609  21614561.580    88508026.54648
  22618226.820   118859621.49909  22618223.920    92617891.18047
  21252130.380   111680702.82909  21252126.760    87023915.01848
  24023154.520   126242564.19408  24023151.600    98370826.17345
  22875671.640   120212478.81608  22875671.320    93672067.13747
  23873407.800   125455574.64607  23873406.420    97757591.78045
  23089537.160   121336321.36008  23089534.640    94547766.03047
 15 02 22 00 25  0.0000000  0  7G16G18G21G22G27G29G31
  21601442.320   113516355.05709  21601438.460    88454290.37648
  22606351.440   118797216.64209  22606348.740    92569264.03346
  21258944.860   111716512.75809  21258941.280    87051818.85748
  24005069.140   126147525.08108  24005066.080    98296769.88346
  22862984.300   120145805.59008  22862984.120    93620113.96847
  23887728.920   125530834.35307  23887727.960    97816235.68546
  23107132.880   121428787.46909  23107130.500    94619817.49047
 15 02 22 00 25 30.0000000  0  7G16G18G21G22G27G29G31
  21588373.780   113447679.73409  21588370.040    88400777.14348
  22594531.460   118735103.52009  22594529.000    92520864.24146
  21265822.700   111752655.94409  21265819.120    87079982.39248
  23986983.580   126052485.98308  23986980.720    98222713.63945
  22850316.920   120079235.88309  22850316.420    93568241.52947
  23902055.840   125606124.04507  23902054.940    97874903.00245
  23124759.700   121521415.88009  23124757.260    94691995.42447
 15 02 22 00 26  0.0000000  0  7G16G18G21G22G27G29G31
  21575359.840   113379291.84809  21575356.740    88347487.86948
  22582767.140   118673283.86708  22582765.140    92472693.08447
  21272763.440   111789129.94708  21272759.860    87108403.68948
  23968898.020   125957448.70608  23968895.260    98148658.76446
  22837668.960   120012768.98808  22837668.440    93516449.14747
  23916388.560   125681442.43207  23916387.420    97933592.65246
  23142416.860   121614202.80109  23142414.140    94764296.86147
 15 02 22 00 26 30.0000000  0  7G16G18G21G22G27G29G31
  21562401.880   113311197.49509  21562399.220    88294427.33848
  22571059.960   118611763.99109  22571058.160    92424755.55846
  21279767.540   111825936.93008  21279764.000    87137084.45148
  23950814.200   125862419.87908  23950811.440    98074610.48545
  22825041.220   119946409.12809  22825040.680    93464740.17847
  23930727.840   125756794.24608  23930726.760    97992308.37646
  23160104.380   121707149.02609  23160101.540    94836722.45047
 15 02 22 00 27  0.0000000  0  7G16G18G21G22G27G29G31
  21549499.760   113243396.21809  21549497.120    88241595.19748
  22559409.840   118550543.38509  22559407.980    92377051.21646
  21286834.280   111863072.37909  21286830.520    87166021.17548
  23932732.400   125767399.15508  23932729.740    98000568.51646
  22812433.320   119880153.29209  22812432.660    93413112.30647
  23945072.820   125832176.05608  23945071.860    98051047.42846
  23177821.080   121800248.93209  23177818.280    94909267.77247
 15 02 22 00 27 30.0000000  0  7G16G18G21G22G27G29G31
  21536655.920   113175901.06009  21536653.080    88189001.57048
  22547819.340   118489635.20909  22547817.340    92329590.33047
  21293965.340   111900545.60308  21293961.360    87195221.11548
  23914655.000   125672400.10008  23914651.940    97926543.43245
  22799846.800   119814012.71108  22799846.520    93361574.17547
  23959425.240   125907598.87208  23959424.280    98109818.46846
  23195568.340   121893510.27209  23195565.660    94981938.91747
 15 02 22 00 28  0.0000000  0  7G16G18G21G22G27G29G31
  21523868.300   113108701.86309  21523865.580    88136638.57349
  22536286.720   118429029.42609  22536284.140    92282365.09047
  21301157.880   111938342.55108  21301153.920    87224673.27848
  23896579.900   125577413.03808  23896576.240    97852527.70746
  22787279.660   119747974.79308  22787279.560    93310116.07847
  23973783.200   125983050.22408  23973781.600    98168611.72946
  23213343.200   121986917.68709  23213340.760    95054723.88148
 15 02 22 00 28 30.0000000  0  7G16G18G21G22G27G29G31
  21511136.760   113041798.12809  21511134.320    88084505.79148
  22524811.740   118368726.28409  22524808.740    92235375.66546
  21308411.220   111976459.55108  21308407.540    87254374.82848
  23878506.820   125482437.41008  23878502.920    97778520.86045
  22774732.040   119682037.07009  22774731.520    93258736.07747
  23988146.120   126058526.72207  23988143.640    98227424.54045
  23231144.700   122080465.55009  23231142.020    95127618.26547
 15 02 22 00 29  0.0000000  0  7G16G18G21G22G27G29G31
  21498463.160   112975199.45509  21498460.900    88032610.74848
  22513396.020   118308734.93509  22513393.200    92188629.18747
  21315726.360   112014901.86008  21315723.020    87284329.87348
  23860437.760   125387483.89108  23860433.700    97704531.22546
  22762205.300   119616207.21708  22762204.220    93207440.16347
  24002515.140   126134036.21607  24002512.600    98286263.16245
  23248973.880   122174158.71009  23248970.480    95200625.85847
 15 02 22 00 29 30.0000000  0  7G16G18G21G22G27G29G31
  21485848.500   112908909.22209  21485846.120    87980956.01648
  22502040.040   118249058.97609  22502037.580    92142128.45747
  21323103.260   112053668.40908  21323100.000    87314537.57447
  23842373.600   125292555.84708  23842369.500    97630561.45446
  22749698.660   119550486.24608  22749698.280    93156228.98648
  24016890.640   126209579.55007  24016888.380    98345128.08945
  23266830.200   122267995.02509  23266826.360    95273744.99546
 15 02 22 00 30  0.0000000  0  7G16G18G21G22G27G29G31
  21473293.100   112842930.14709  21473290.980    87929543.75448
  22490744.520   118189701.35109  22490742.340    92095875.78347
  21330541.960   112092758.83308  21330538.580    87344997.64747
  23824314.880   125197656.68308  23824311.400    97556614.16446
  22737212.400   119484874.77608  22737213.300    93105103.15147
  24031272.760   126285157.28708  24031270.600    98404019.82444
  23284713.380   122361972.10909  23284709.580    95346973.84146
 15 02 22 00 30 30.0000000  0  7G16G18G21G22G27G29G31
  21460796.220   112777258.03409  21460794.160    87878370.68548
  22479508.860   118130657.97709  22479506.820    92049867.96147
  21338040.840   112132164.79408  21338037.140    87375703.60347
  23806260.960   125102782.53808  23806258.040    97482686.35546
  22724746.320   119419366.47408  22724747.600    93054057.75647
  24045660.120   126360762.85608  24045657.600    98462933.19144
  23302621.640   122456080.48809  23302618.320    95420304.97747
 15 02 22 00 31  0.0000000  0  7G16G18G21G22G27G29G31
  21448358.680   112711898.08709  21448356.360    87827440.83648
  22468334.080   118071934.12509  22468331.980    92004109.11747
  21345600.060   112171887.17108  21345595.900    87406656.12747
  23788212.740   125007938.59108  23788209.500    97408782.11446
  22712300.600   119353964.45108  22712301.820    93003095.16747
  24060053.260   126436399.28608  24060050.800    98521870.59945
  23320554.860   122550320.19208  23320552.080    95493738.44447
 15 02 22 00 31 30.0000000  0  7G16G18G21G22G27G29G31
  21435981.520   112646855.03909  21435978.940    87776757.93748
  22457221.120   118013534.83409  22457218.640    91958603.20746
  21353219.700   112211927.39408  21353215.060    87437856.31547
  23770170.920   124913130.28908  23770167.200    97334905.65246
  22699875.760   119288671.67609  22699876.800    92952217.68647
  24074452.800   126512069.21108  24074450.680    98580834.18344
  23338512.760   122644690.92308  23338510.500    95567274.04747
 15 02 22 00 32  0.0000000  0  7G16G18G21G22G27G29G31
  21423664.240   112582125.71609  21423661.160    87726319.50848
  22446168.960   117955456.37909  22446166.220    91913347.29346
  21360898.220   112252277.64508  21360893.520    87469298.08147
  23752135.340   124818355.24908  23752131.380    97261055.07845
  22687471.120   119223482.36509  22687471.420    92901420.85947
  24088857.560   126587766.72808  24088855.840    98639819.23344
  23356493.780   122739184.03108  23356492.380    95640904.99747
 15 02 22 00 32 30.0000000  0  7G16G18G21G22G27G29G31
  21411406.420   112517710.14109  21411403.060    87676125.56548
  22435178.040   117897699.09909  22435175.040    91868341.66747
  21368635.000   112292935.37608  21368630.680    87500979.42447
  23734106.580   124723613.69708  23734102.240    97187230.61446
  22675086.020   119158394.73309  22675085.200    92850703.29247
  24103267.220   126663489.93108  24103264.840    98698824.26544
  23374497.140   122833794.53908  23374496.560    95714627.44047
 15 02 22 00 33  0.0000000  0  7G16G18G21G22G27G29G31
  21399210.780   112453622.80509  21399207.460    87626187.36348
  22424251.240   117840278.01709  22424248.260    91823597.98447
  21376432.100   112333910.81907  21376428.240    87532908.31647
  23716087.080   124628920.20408  23716082.240    97113443.59646
  22662722.220   119093421.27208  22662720.580    92800074.64347
  24117683.920   126739250.81908  24117680.960    98757858.64144
  23392524.960   122928532.02108  23392524.480    95788448.81047
 15 02 22 00 33 30.0000000  0  7G16G18G21G22G27G29G31
  21387077.560   112389862.49209  21387074.340    87576504.01748
  22413388.220   117783192.04709  22413385.280    91779115.43247
  21384288.620   112375198.49507  21384285.220    87565080.50847
  23698076.760   124534274.47708  23698072.200    97039693.80446
  22650378.980   119028558.40608  22650377.620    92749532.16747
  24132107.020   126815045.96108  24132104.620    98816919.75245
  23410576.020   123023389.92809  23410574.860    95862363.99546
 15 02 22 00 34  0.0000000  0  7G16G18G21G22G27G29G31
  21375005.660   112326424.87609  21375002.540    87527072.11948
  22402588.160   117726436.52309  22402585.160    91734890.40046
  21392203.180   112416789.74908  21392199.640    87597489.29246
  23680074.460   124439672.41408  23680070.940    96965977.98946
  22638055.720   118963799.91809  22638055.480    92699071.04448
  24146535.500   126890868.82408  24146533.800    98876002.50646
  23428648.380   123118358.73209  23428646.200    95936365.59746
 15 02 22 00 34 30.0000000  0  7G16G18G21G22G27G29G31
  21362995.700   112263312.33109  21362992.420    87477893.51048
  22391851.200   117670013.87209  22391848.580    91690924.70247
  21400175.500   112458683.33808  21400171.660    87630133.66646
  23662080.920   124345117.14508  23662078.040    96892298.63847
  22625752.540   118899146.05809  22625752.640    92648691.41947
  24160969.500   126966719.04408  24160968.000    98935106.54346
  23446741.380   123213435.52709  23446738.000    96010451.33146
 15 02 22 00 35  0.0000000  0  7G16G18G21G22G27G29G31
  21351048.820   112200530.25909  21351045.300    87428972.43648
  22381178.580   117613929.44309  22381176.500    91647222.53747
  21408205.820   112500881.17808  21408201.720    87663015.11447
  23644097.480   124250614.32808  23644094.680    96818660.17246
  22613469.700   118834600.24408  22613469.600    92598395.99447
  24175409.540   127042600.60208  24175407.840    98994234.98546
  23464854.940   123308620.88309  23464850.740    96084621.65846
 15 02 22 00 35 30.0000000  0  7G16G18G21G22G27G29G31
  21339165.940   112138085.25909  21339162.260    87380313.98348
  22370571.820   117558189.87109  22370569.740    91603789.13847
  21416294.400   112543385.90708  21416290.220    87696135.67246
  23626125.380   124156170.62308  23626122.320    96745067.74246
  22601208.200   118770166.85408  22601208.240    92548188.16447
  24189856.080   127118517.41508  24189854.320    99053390.92046
  23482989.140   123403915.98008  23482985.060    96158877.48847
 15 02 22 00 36  0.0000000  0  7G16G18G21G22G27G29G31
  21327345.860   112075970.60609  21327342.320    87331912.95548
  22360029.160   117502788.20208  22360026.960    91560619.02847
  21424439.000   112586186.43707  21424434.780    87729486.75346
  23608163.500   124061780.31208  23608159.440    96671516.98546
  22588966.600   118705837.15608  22588966.880    92498061.16947
  24204307.520   127194460.49708  24204305.620    99112567.30546
  23501141.720   123499309.06208  23501138.540    96233209.72547
 15 02 22 00 36 30.0000000  0  7G16G18G21G22G27G29G31
  21315590.920   112014197.45409  21315587.640    87283778.03748
  22349552.760   117447736.32709  22349550.760    91517721.47547
  21432640.980   112629290.01207  21432637.100    87763073.93346
  23590213.820   123967454.83508  23590209.300    96598016.70946
  22576746.140   118641620.25708  22576746.880    92448022.02747
  24218765.660   127270438.73708  24218763.740    99171771.10846
  23519314.060   123594806.02608  23519311.720    96307622.87847
 15 02 22 00 37  0.0000000  0  7G16G18G21G22G27G29G31
  21303900.420   111952762.76209  21303897.260    87235906.85248
  22339142.380   117393031.06609  22339140.620    91475094.01747
  21440899.380   112672690.09907  21440895.780    87796892.16446
  23572276.020   123873191.92908  23572271.540    96524565.17946
  22564546.440   118577511.23908  22564547.060    92398066.98547
  24233229.340   127346447.16307  24233227.840    99230998.46146
  23537504.740   123690398.93108  23537503.020    96382110.79747
 15 02 22 00 37 30.0000000  0  7G16G18G21G22G27G29G31
  21292274.420   111891667.32109  21292271.260    87188300.02848
  22328798.300   117338672.86909  22328796.600    91432737.01747
  21449213.760   112716383.06207  21449210.200    87830938.62146
  23554350.240   123778991.93708  23554346.080    96451162.67346
  22552367.220   118513508.49108  22552367.840    92348194.76148
  24247698.420   127422483.59308  24247697.260    99290247.63747
  23555712.820   123786083.12708  23555711.540    96456669.86147
 15 02 22 00 38  0.0000000  0  7G16G18G21G22G27G29G31
  21280714.440   111830919.64709  21280711.200    87140964.18248
  22318522.100   117284669.95909  22318520.460    91390656.84248
  21457585.120   112760374.04407  21457581.260    87865217.31746
  23536438.380   123684864.77708  23536434.940    96377816.91646
  22540209.260   118449618.65508  22540210.660    92298410.46148
  24262174.360   127498554.97408  24262173.320    99349524.04047
  23573939.000   123881862.01308  23573937.920    96531302.69846
 15 02 22 00 38 30.0000000  0  7G16G18G21G22G27G29G31
  21269220.180   111770517.69909  21269217.000    87093897.74048
  22308313.220   117231020.58209  22308311.620    91348852.11548
  21466012.020   112804657.05607  21466008.040    87899723.54546
  23518539.960   123590808.66508  23518537.100    96304526.50747
  22528072.040   118385837.60908  22528073.800    92248710.95148
  24276656.100   127574656.59508  24276654.920    99408824.02146
  23592181.880   123977728.43208  23592180.600    96606003.73446
 15 02 22 00 39  0.0000000  0  7G16G18G21G22G27G29G31
  21257791.280   111710458.65309  21257788.180    87047098.49548
  22298171.220   117177721.96609  22298169.320    91307320.72948
  21474493.120   112849225.28307  21474489.300    87934452.01946
  23500654.480   123496821.21008  23500651.620    96231289.59947
  22515954.760   118322160.56108  22515956.140    92199092.52347
  24291142.860   127650783.48308  24291141.340    99468143.64346
  23610439.980   124073674.65408  23610438.180    96680766.96746
 15 02 22 00 39 30.0000000  0  7G16G18G21G22G27G29G31
  21246429.420   111650751.94109  21246426.340    87000573.78748
  22288097.900   117124783.56609  22288095.180    91266070.08347
  21483029.400   112894084.13107  21483025.760    87969406.95246
  23482784.060   123402912.27108  23482780.980    96158113.88646
  22503858.780   118258595.08109  22503859.800    92149561.00948
  24305635.920   127726943.64808  24305634.160    99527489.20146
  23628714.020   124169704.90708  23628711.340    96755595.66646
 15 02 22 00 40  0.0000000  0  7G16G18G21G22G27G29G31
  21235134.480   111591397.50509  21235131.460    86954323.55948
  22278092.600   117072205.22308  22278089.380    91225099.95247
  21491620.120   112939229.39507  21491616.720    88004585.06746
  23464929.040   123309082.48509  23464925.960    96084999.85547
  22491783.640   118195138.86709  22491784.820    92100114.62548
  24320134.560   127803134.06008  24320132.720    99586858.34646
  23647002.960   124265813.87508  23646999.820    96830485.68646
 15 02 22 00 40 30.0000000  0  7G16G18G21G22G27G29G31
  21223906.900   111532395.69609  21223903.680    86908348.12748
  22268155.480   117019987.31009  22268152.280    91184410.66346
  21500264.880   112984657.91207  21500261.400    88039983.91845
  23447089.440   123215332.59208  23447086.400    96011948.07247
  22479728.920   118131790.41908  22479730.020    92050752.21648
  24334638.660   127879352.81108  24334636.600    99646249.53146
  23665306.060   124361997.04408  23665303.140    96905433.55346
 15 02 22 00 41  0.0000000  0  7G16G18G21G22G27G29G31
  21212747.820   111473752.42509  21212744.120    86862652.10448
  22258288.080   116968135.31009  22258284.740    91144006.53646
  21508964.140   113030372.03607  21508960.580    88075605.31945
  23429265.980   123121668.67609  23429262.700    95938963.28546
  22467695.320   118068553.58708  22467695.920    92001476.77948
  24349148.880   127955604.09608  24349146.700    99705666.07846
  23683623.580   124458255.24209  23683621.160    96980439.87846
 15 02 22 00 41 30.0000000  0  7G16G18G21G22G27G29G31
  21201657.840   111415473.67909  21201654.100    86817240.09548
  22248491.700   116916655.40309  22248488.300    91103892.35847
  21517718.160   113076373.37907  21517714.440    88111450.56245
  23411459.980   123028097.97508  23411456.400    95866051.12747
  22455683.760   118005432.35208  22455684.280    91952291.43048
  24363665.620   128031891.26208  24363663.680    99765110.61947
  23701955.480   124554588.97008  23701953.240    97055505.03947
 15 02 22 00 42  0.0000000  0  7G16G18G21G22G27G29G31
  21190636.060   111357554.74109  21190632.700    86772108.44848
  22238765.340   116865542.26109  22238762.060    91064063.96847
  21526525.200   113122653.30707  21526521.100    88147512.87544
  23393670.720   122934616.09908  23393666.560    95793208.16946
  22443692.720   117942420.02108  22443693.340    91903190.90048
  24378187.920   128108207.49308  24378186.420    99824577.81247
  23720299.900   124650988.83308  23720297.600    97130621.74546
 15 02 22 00 42 30.0000000  0  7G16G18G21G22G27G29G31
  21179683.200   111299996.57409  21179679.760    86727257.92748
  22229109.080   116814797.20309  22229105.960    91024522.38747
  21535384.480   113169208.66706  21535380.080    88183789.81245
  23375898.800   122841224.07609  23375894.220    95720435.26846
  22431722.380   117879515.44409  22431722.780    91854174.35648
  24392715.660   128184551.56608  24392714.340    99884066.69046
  23738656.020   124747450.72108  23738654.260    97205786.77947
 15 02 22 00 43  0.0000000  0  7G16G18G21G22G27G29G31
  21168799.920   111242804.32609  21168796.140    86682692.54948
  22219523.760   116764425.64909  22219520.780    90985271.84647
  21544295.980   113216041.39605  21544292.080    88220282.83745
  23358144.800   122747927.80008  23358140.720    95647736.91746
  22419773.400   117816721.94209  22419773.440    91805244.39248
  24407249.320   128260926.57508  24407248.200    99943579.65746
  23757023.780   124843974.34108  23757022.820    97280999.93647
 15 02 22 00 43 30.0000000  0  7G16G18G21G22G27G29G31
  21157985.920   111185978.87908  21157982.280    86638412.98848
  22210009.180   116714427.48409  22210006.620    90946312.23747
  21553259.380   113263148.00705  21553256.000    88256989.26044
  23340409.220   122654728.69508  23340405.720    95575114.28947
  22407845.320   117754038.36608  22407845.000    91756400.08647
  24421788.520   128337330.88408  24421787.480   100003115.47845
  23775402.440   124940555.59408  23775401.900    97356258.00246
 15 02 22 00 44  0.0000000  0  7G16G18G21G22G27G29G31
  21147241.760   111129521.10809  21147238.740    86594419.92448
  22200565.660   116664803.62208  22200563.560    90907644.28447
  21562274.320   113310524.85305  21562271.680    88293906.23045
  23322692.800   122561628.02509  23322689.420    95502568.37747
  22395937.700   117691463.69509  22395937.360    91707640.62647
  24436333.160   128413763.57708  24436332.000   100062673.38445
  23793791.220   125037190.37108  23793790.360    97431557.76346
 15 02 22 00 44 30.0000000  0  7G16G18G21G22G27G29G31
  21136569.640   111073439.28609  21136567.020    86550719.81348
  22191195.000   116615562.51808  22191193.220    90869274.59147
  21571342.220   113358177.28906  21571339.680    88331038.00645
  23304997.120   122468634.89409  23304993.200    95430106.29546
  22384052.060   117629004.14308  22384051.540    91658970.87848
  24450884.440   128490230.78909  24450883.040   100122258.18146
  23812190.900   125133881.85408  23812189.280    97506901.70246
 15 02 22 00 45  0.0000000  0  7G16G18G21G22G27G29G31
  21125969.240   111017733.12209  21125966.640    86507312.44148
  22181897.380   116566703.76309  22181895.540    90831202.83347
  21580462.140   113406101.41206  21580459.480    88368381.45746
  23287321.560   122375749.68508  23287317.280    95357728.29746
  22372187.800   117566657.64609  22372187.420    91610389.20247
  24465441.860   128566729.84309  24465440.520   100181867.81646
  23830600.440   125230624.76608  23830598.020    97582285.71746
 15 02 22 00 45 30.0000000  0  7G16G18G21G22G27G29G31
  21115440.120   110962402.65409  21115437.340    86464197.80148
  22172672.840   116518227.35809  22172670.640    90793429.05947
  21589633.020   113454292.59207  21589629.980    88405933.06046
  23269666.300   122282972.83508  23269662.060    95285434.70747
  22360344.720   117504422.31808  22360344.440    91561894.17548
  24480004.940   128643258.77009  24480003.460   100241500.74146
  23849018.880   125327414.23708  23849015.640    97657706.00346
 15 02 22 00 46  0.0000000  0  7G16G18G21G22G27G29G31
  21104983.120   110907452.05609  21104980.360    86421379.13548
  22163521.860   116470136.96609  22163519.080    90755956.06047
  21598854.720   113502751.28407  21598851.300    88443693.05946
  23252032.600   122190309.08208  23252028.660    95213229.24047
  22348523.160   117442300.42109  22348523.120    91513487.50448
  24494574.060   128719819.54909  24494572.200   100301158.45746
  23867446.100   125424248.91008  23867442.380    97733161.50046
 15 02 22 00 46 30.0000000  0  7G16G18G21G22G27G29G31
  21094598.480   110852879.63509  21094595.640    86378855.17048
  22154444.020   116422430.93109  22154440.880    90718782.54547
  21608126.280   113551472.05807  21608122.220    88481657.30546
  23234420.620   122097757.40709  23234416.680    95141111.12047
  22336722.640   117380288.22009  22336723.420    91465166.31648
  24509148.440   128796408.30209  24509146.400   100360837.96346
  23885880.980   125521122.80808  23885877.440    97808647.55646
 15 02 22 00 47  0.0000000  0  7G16G18G21G22G27G29G31
  21084287.280   110798692.64409  21084284.380    86336631.54948
  22145440.540   116375116.05309  22145437.180    90681913.81747
  21617448.320   113600458.51307  21617443.940    88519828.56046
  23216831.420   122005325.41408  23216827.700    95069086.24947
  22324944.140   117318391.10708  22324945.460    91416934.81648
  24523729.220   128873030.17208  24523726.920   100420543.31246
  23904323.660   125618037.90408  23904320.940    97884165.72746
 15 02 22 00 47 30.0000000  0  7G16G18G21G22G27G29G31
  21074049.920   110744894.41609  21074046.880    86294710.83148
  22136512.000   116328195.68009  22136508.620    90645352.49047
  21626820.520   113649710.07707  21626816.140    88558206.39646
  23199265.860   121913017.35309  23199262.460    94997157.94147
  22313187.140   117256610.75808  22313188.240    91368794.27647
  24538316.340   128949686.27008  24538314.080   100480275.33146
  23922773.620   125714992.46008  23922771.920    97959714.69046
 15 02 22 00 48  0.0000000  0  8G16G18G19G21G22G27G29G31
  21063886.580   110691484.44209  21063883.260    86253092.67448
  22127658.260   116281668.65509  22127655.020    90609097.67148
  24531244.660   128912563.15406  24531244.480   100451342.35044
  21636242.200   113699221.92008  21636238.180    88596787.03346
  23181723.900   121820832.95009  23181720.360    94925325.99646
  22301451.880   117194944.36408  22301452.480    91320742.56847
  24552909.400   129026374.12708  24552907.360   100540032.06646
  23941229.760   125811980.86608  23941228.960    98035289.99246
 15 02 22 00 48 30.0000000  0  7G16G18G19G21G22G27G31
  21053800.580   110638480.60409  21053797.020    86211791.01348
  22118882.900   116235553.42509  22118879.880    90573163.73648
  24515830.340   128831558.44806  24515829.540   100388221.81045
  21645716.320   113749008.24208  21645712.240    88635581.56546
  23164208.860   121728790.98309  23164204.200    94853605.05346
  22289741.960   117133408.15409  22289742.120    91272792.29047
  23959694.600   125909015.92108  23959694.580    98110901.65746
 15 02 22 00 49  0.0000000  0  7G16G18G19G21G22G27G31
  21043776.860   110585805.53209  21043773.500    86170745.51448
  22110171.040   116189772.11809  22110168.040    90537490.00348
  24500416.960   128750555.23207  24500412.980   100325102.50744
  21655227.340   113798988.07208  21655223.180    88674526.89847
  23146706.380   121636814.48109  23146700.940    94781935.14146
  22278042.120   117071922.88609  22278041.680    91224881.72848
  23978152.720   126006015.36008  23978153.220    98186485.54646
 15 02 22 00 49 30.0000000  0  7G16G18G19G21G22G27G31
  21033830.100   110533536.08809  21033827.100    86130016.06148
  22101537.280   116144401.81109  22101534.280    90502136.51047
  24485018.220   128669628.58706  24485011.700   100262042.88844
  21664789.040   113849234.65908  21664784.840    88713680.08447
  23129231.220   121544981.12009  23129225.920    94710376.73147
  22266366.180   117010563.86509  22266365.720    91177069.52948
  23996617.920   126103051.50308  23996618.560    98262098.07146
 15 02 22 00 50  0.0000000  0  7G16G18G19G21G22G27G31
  21023960.080   110481668.88009  21023957.020    86089600.06748
  22092980.780   116099437.50909  22092977.500    90467099.41347
  24469632.580   128588772.62507  24469624.440   100199038.33844
  21674399.980   113899739.69808  21674395.620    88753034.66546
  23111782.720   121453287.89509  23111777.760    94638927.50647
  22254713.220   116949325.22809  22254712.820    91129351.14148
  24015088.580   126200115.35208  24015088.700    98337732.15845
 15 02 22 00 50 30.0000000  0  7G16G18G19G21G22G27G31
  21014169.920   110430221.02909  21014166.820    86049510.84348
  22084504.940   116054897.03509  22084501.120    90432392.60747
  24454262.640   128508002.48807  24454253.860   100136100.62944
  21684062.600   113950517.19907  21684058.180    88792601.55246
  23094363.940   121361752.36909  23094359.340    94567601.17547
  22243086.020   116888222.48509  22243085.760    91081738.62648
  24033567.120   126297219.34808  24033566.220    98413397.49745
 15 02 22 00 51  0.0000000  0  7G16G18G19G21G22G27G31
  21004458.340   110379186.78109  21004455.380    86009743.89048
  22076108.660   116010774.53309  22076104.740    90398011.48147
  24438906.760   128427310.77006  24438899.580   100073223.93444
  21693775.100   114001557.96808  21693770.900    88832373.58246
  23076974.340   121270369.96609  23076969.700    94496394.16547
  22231482.980   116827248.34209  22231482.960    91034226.31648
  24052051.320   126394352.77708  24052049.160    98489085.78945
 15 02 22 00 51 30.0000000  0  7G16G18G19G21G22G27G31
  20994822.500   110328550.45409  20994819.680    85970287.02148
  22067788.620   115967053.63908  22067785.200    90363943.23447
  24423562.360   128346679.76307  24423558.100   100010394.57844
  21703533.720   114052841.80207  21703529.900    88872335.01346
  23059611.040   121179125.18509  23059606.040    94425294.40647
  22219900.960   116766385.00009  22219900.840    90986800.32648
  24070537.140   126491495.16408  24070534.220    98564781.04245
 15 02 22 00 52  0.0000000  0  7G16G18G19G21G22G27G31
  20985265.320   110278326.43809  20985262.280    85931151.43248
  22059547.600   115923748.71709  22059544.700    90330199.11347
  24408232.460   128266121.83707  24408229.720    99947622.20344
  21713340.720   114104379.53508  21713337.380    88912494.28946
  23042276.660   121088033.09209  23042271.960    94354313.61146
  22208342.540   116705645.15809  22208342.160    90939470.58648
  24089026.360   126588655.71208  24089023.060    98640490.45245
 15 02 22 00 52 30.0000000  0  7G16G18G19G21G22G27G31
  20975783.880   110228500.30209  20975780.540    85892325.89248
  22051383.240   115880845.16309  22051380.300    90296767.81847
  24392913.460   128185620.66906  24392910.540    99884894.06544
  21723192.820   114156153.07908  21723189.820    88952837.31346
  23024968.720   120997080.44909  23024964.780    94283441.46747
  22196804.500   116645012.76409  22196804.100    90892224.57948
  24107515.280   126685815.49008  24107512.280    98716199.25545
 15 02 22 00 53  0.0000000  0  7G16G18G19G21G22G27G31
  20966381.160   110179088.32809  20966377.680    85853823.05548
  22043298.320   115838358.36109  22043295.280    90263661.26347
  24377607.380   128105190.14406  24377604.820    99822220.89844
  21733092.240   114208174.82708  21733089.320    88993373.75746
  23007690.560   120906283.59409  23007687.000    94212690.71447
  22185289.780   116584502.05509  22185289.080    90845073.38548
  24126006.100   126782985.33108  24126003.800    98791915.91846
 15 02 22 00 53 30.0000000  0  7G16G18G19G21G22G27G31
  20957055.600   110130082.46809  20957052.160    85815636.67548
  22035291.280   115796280.78809  22035288.320    90230873.53747
