     2.11           OBSERVATION DATA    G                   RINEX VERSION / TYPE
SPIDER V4,0,0,3554                      2015 03 24 00:31    PGM / RUN BY / DATE 
CFKZ                                                        MARKER NAME         
CFKZ                                                        MARKER NUMBER       
                                                            OBSERVER / AGENCY   
496632              LEICA GRX1200+GNSS  8.10/4.007          REC # / TYPE / VERS 
10301036            LEIAR25         NONE                    ANT # / TYPE        
  5212138.8290   540257.5452  3624418.8863                  APPROX POSITION XYZ 
        0.0720        0.0000        0.0000                  ANTENNA: DELTA H/E/N
     1     1                                                WAVELENGTH FACT L1/2
     4    C1    L1    P2    L2                              # / TYPES OF OBSERV 
    30.000                                                  INTERVAL            
  2015    02    22    00    00    0.0000000     GPS         TIME OF FIRST OBS   
  2015    02    22    23    59   30.0000000     GPS         TIME OF LAST OBS    
    16                                                      LEAP SECONDS        
    30                                                      # OF SATELLITES     
   G 1   820   820   820   820                              PRN / # OF OBS      
   G 2   940   940   940   940                              PRN / # OF OBS      
   G 3   855   855   854   854                              PRN / # OF OBS      
   G 4   843   843   843   843                              PRN / # OF OBS      
   G 5   631   631   631   631                              PRN / # OF OBS      
   G 6   800   799   799   799                              PRN / # OF OBS      
   G 7   669   669   669   669                              PRN / # OF OBS      
   G 9   808   808   808   808                              PRN / # OF OBS      
   G10   742   742   742   742                              PRN / # OF OBS      
   G11   782   782   782   782                              PRN / # OF OBS      
   G12   828   828   828   828                              PRN / # OF OBS      
   G13   781   781   781   781                              PRN / # OF OBS      
   G14   938   938   938   938                              PRN / # OF OBS      
   G15   674   673   673   673                              PRN / # OF OBS      
   G16   674   674   674   674                              PRN / # OF OBS      
   G17   938   938   938   938                              PRN / # OF OBS      
   G18   912   912   912   912                              PRN / # OF OBS      
   G19   763   763   763   763                              PRN / # OF OBS      
   G20   777   777   777   777                              PRN / # OF OBS      
   G21   736   736   736   736                              PRN / # OF OBS      
   G22   654   653   653   653                              PRN / # OF OBS      
   G23   753   752   752   752                              PRN / # OF OBS      
   G24   832   832   831   831                              PRN / # OF OBS      
   G25   867   866   866   866                              PRN / # OF OBS      
   G27   816   816   816   816                              PRN / # OF OBS      
   G28   866   866   866   866                              PRN / # OF OBS      
   G29   757   757   757   757                              PRN / # OF OBS      
   G30   715   715   715   715                              PRN / # OF OBS      
   G31   850   850   850   850                              PRN / # OF OBS      
   G32   767   767   767   767                              PRN / # OF OBS      
BIT 2 OF LLI FLAGS DATA COLLECTED UNDER A/S CONDITION       COMMENT             
SNR is mapped to RINEX snr flag value [2-9]                 COMMENT             
Lx:     = 25dBHz -> 1; 26-27dBHz -> 2; 28-31dBHz -> 3       COMMENT             
       32-35dBHz -> 4; 36-38dBHz -> 5; 39-41dBHz -> 6       COMMENT             
       42-44dBHz -> 7; 45-48dBHz -> 8; >=49dBHz -> 9        COMMENT             
                                                            END OF HEADER       
 15 02 22 00 00  0.0000000  0  7G16G18G21G25G27G29G31
  22486454.540   118167130.71909  22486450.980    92078270.79747
  23066995.740   121217940.20709  23066992.780    94455543.28846
  21001469.520   110363692.25308  21001465.820    85997768.61348
  24005289.440   126148770.18808  24005290.380    98297805.38846
  23617390.740   124110243.14007  23617390.600    96709286.05746
  23196024.760   121896264.27308  23196022.760    94984229.77847
  22169001.360   116498904.63209  22168998.440    90778359.67348
 15 02 22 00 00 30.0000000  0  7G16G18G21G25G27G29G31
  22470804.780   118084890.78809  22470801.220    92014187.73647
  23053445.220   121146731.66709  23053442.220    94400056.13946
  21005504.600   110384896.93608  21005500.860    86014291.75348
  24023214.000   126242964.00008  24023214.780    98371203.13346
  23604250.180   124041189.12608  23604250.300    96655477.76447
  23209416.180   121966636.94708  23209414.480    95039065.56847
  22183695.360   116576122.14709  22183692.520    90838529.12848
 15 02 22 00 01  0.0000000  0  7G16G18G21G25G27G29G31
  22455185.320   118002810.30509  22455181.740    91950228.93647
  23039929.700   121075707.49608  23039926.760    94344712.68246
  21009614.260   110406493.08309  21009610.380    86031119.92748
  24041175.180   126337349.54508  24041175.820    98444750.28746
  23591126.780   123972225.93908  23591126.680    96601740.27646
  23222813.560   122037041.62408  23222812.020    95093926.36146
  22198450.040   116653658.44009  22198447.200    90898946.99648
 15 02 22 00 01 30.0000000  0  7G16G18G21G25G27G29G31
  22439595.660   117920886.42509  22439592.000    91886392.13547
  23026448.940   121004866.20208  23026446.280    94289511.71046
  21013797.400   110428475.19009  21013793.340    86048248.84848
  24059171.700   126431921.39708  24059172.460    98518442.56946
  23578020.280   123903349.47708  23578020.380    96548070.27947
  23236216.160   122107474.10708  23236214.840    95148808.78346
  22213264.000   116731506.42809  22213261.220    90959607.73148
 15 02 22 00 02  0.0000000  0  7G16G18G21G25G27G29G31
  22424038.080   117839131.27109  22424034.540    91822686.83647
  23013005.420   120934220.64009  23013002.920    94234463.26146
  21018055.560   110450851.73608  21018051.400    86065685.11948
  24077205.300   126526688.39908  24077206.200    98592286.93946
  23564931.980   123834569.47908  23564931.620    96494475.46946
  23249626.120   122177944.29108  23249624.640    95203720.59247
  22228138.720   116809673.55909  22228135.980    91020517.15348
 15 02 22 00 02 30.0000000  0  7G16G18G21G25G27G29G31
  22408511.560   117757539.22109  22408508.120    91759108.59247
  22999598.140   120863765.24409  22999595.700    94179563.00446
  21022387.000   110473613.75608  21022382.800    86083421.76548
  24095274.300   126621641.49808  24095275.440    98666276.30845
  23551860.400   123765878.19108  23551860.740    96440949.84547
  23263041.920   122248444.13108  23263040.140    95258655.51446
  22243072.140   116888149.01109  22243069.440    91081666.82748
 15 02 22 00 03  0.0000000  0  7G16G18G21G25G27G29G31
  22393016.820   117676114.23009  22393013.420    91695660.58747
  22986228.080   120793505.18609  22986225.760    94124814.93646
  21026791.880   110496761.79308  21026787.680    86101459.19648
  24113378.860   126716781.16508  24113379.920    98740411.08246
  23538806.240   123697277.28908  23538806.340    96387494.58146
  23276463.780   122318975.22808  23276461.680    95313614.77946
  22258064.080   116966931.84109  22258061.400    91143056.01148
 15 02 22 00 03 30.0000000  0  7G16G18G21G25G27G29G31
  22377554.720   117594860.63009  22377551.280    91632346.08747
  22972896.040   120723444.73009  22972893.580    94070222.42446
  21031270.300   110520296.21809  21031266.120    86119797.71548
  24131519.100   126812108.19908  24131520.260    98814691.82746
  23525769.480   123628768.62908  23525769.780    96334111.24447
  23289891.780   122389539.20308  23289889.440    95368599.66646
  22273114.460   117046021.52309  22273111.720    91204684.29548
 15 02 22 00 04  0.0000000  0  8G16G18G21G22G25G27G29G31
  22362125.400   117513779.34809  22362122.020    91569165.88847
  22959602.360   120653586.13509  22959599.820    94015787.18646
  21035821.940   110544215.30008  21035817.840    86138435.96748
  24540958.980   128963608.03108  24540959.160   100491122.15245
  24149694.540   126907620.95408  24149695.460    98889117.31146
  23512750.060   123560351.75608  23512750.160    96280799.44846
  23303325.880   122460135.39408  23303323.320    95423609.68546
  22288222.620   117125414.79309  22288219.800    91266549.15248
 15 02 22 00 04 30.0000000  0  8G16G18G21G22G25G27G29G31
  22346726.500   117432857.82409  22346723.260    91506110.17147
  22946344.620   120583916.61509  22946342.100    93961499.29346
  21040443.580   110568502.42409  21040439.600    86157360.99448
  24523301.160   128870815.53908  24523300.880   100418816.64445
  24167902.280   127003302.88508  24167903.380    98963674.59246
  23499745.340   123492011.36008  23499745.800    96227547.16747
  23316763.200   122530748.63008  23316760.520    95478632.97247
  22303385.100   117205093.61109  22303382.180    91328636.50448
 15 02 22 00 05  0.0000000  0  8G16G18G21G22G25G27G29G31
  22331364.160   117352128.39209  22331360.960    91443204.11647
  22933129.180   120514469.49709  22933126.720    93907384.69546
  21045140.860   110593186.67308  21045136.920    86176595.48948
  24505630.280   128777954.86408  24505629.540   100346458.02845
  24186147.740   127099183.27508  24186148.760    99038386.54846
  23486760.920   123423777.75408  23486760.600    96174378.14246
  23330209.440   122601409.30608  23330206.800    95533693.17947
  22318607.100   117285085.46209  22318604.120    91390967.79248
 15 02 22 00 05 30.0000000  0  8G16G18G21G22G25G27G29G31
  22316035.940   117271578.15809  22316032.740    91380437.72047
  22919953.680   120445231.91209  22919951.240    93853433.36046
  21049910.520   110618251.35009  21049906.620    86196126.41248
  24487943.760   128685013.64208  24487942.440   100274036.62645
  24204427.660   127195245.50708  24204428.900    99113240.17246
  23473793.720   123355635.59609  23473794.460    96121280.48146
  23343661.620   122672101.71908  23343659.340    95588778.16846
  22333885.180   117365372.31109  22333882.220    91453528.94748
 15 02 22 00 06  0.0000000  0  8G16G18G21G22G25G27G29G31
  22300741.420   117191204.86309  22300738.220    91317809.18947
  22906817.760   120376202.21209  22906815.200    93799644.01146
  21054751.440   110643690.43809  21054747.520    86215949.07848
  24470241.360   128591989.36407  24470239.740   100201550.50445
  24222741.160   127291483.89908  24222742.560    99188231.08545
  23460843.160   123287580.51208  23460843.260    96068250.50247
  23357119.040   122742821.09908  23357116.800    95643884.14646
  22349218.000   117445946.88709  22349215.120    91516314.29648
 15 02 22 00 06 30.0000000  0  8G16G18G21G22G25G27G29G31
  22285481.400   117111012.66709  22285478.220    91255321.75947
  22893722.480   120307385.74909  22893719.800    93746020.82346
  21059663.880   110669505.22209  21059659.920    86236064.50248
  24452524.020   128498887.69507  24452522.480   100129004.10945
  24241088.540   127387899.92608  24241090.160    99263360.41645
  23447910.100   123219615.08308  23447909.940    96015290.41446
  23370582.360   122813570.73409  23370579.760    95699013.70746
  22364605.560   117526809.26109  22364602.820    91579323.90548
 15 02 22 00 07  0.0000000  0  8G16G18G21G22G25G27G29G31
  22270257.320   117031009.26309  22270254.040    91192981.45947
  22880669.340   120238790.49409  22880666.540    93692570.00446
  21064648.540   110695699.71408  21064644.540    86256475.79648
  24434793.440   128405716.18708  24434792.180   100056403.28245
  24259470.420   127484497.48908  24259471.960    99338631.16945
  23434994.800   123151744.30909  23434994.900    95962404.11847
  23384052.340   122884355.24509  23384049.440    95754170.42446
  22380048.380   117607961.74609  22380045.660    91642559.57348
 15 02 22 00 07 30.0000000  0  8G16G18G21G22G25G27G29G31
  22255068.360   116951190.26409  22255065.000    91130784.83747
  22867657.480   120170412.39609  22867654.660    93639288.40246
  21069703.820   110722265.70208  21069699.900    86277176.57948
  24417048.880   128312470.52208  24417048.040    99983744.63445
  24277885.400   127581268.67808  24277887.000    99414037.21845
  23422096.080   123083961.61909  23422095.560    95909586.47346
  23397527.820   122955167.81209  23397524.920    95809349.00546
  22395544.580   117689394.70909  22395541.840    91706013.79248
 15 02 22 00 08  0.0000000  0  8G16G18G21G22G25G27G29G31
  22239914.740   116871557.15109  22239911.340    91068733.06947
  22854687.220   120102253.20609  22854684.380    93586177.37446
  21074829.400   110749201.24008  21074825.580    86298165.31048
  24399290.740   128219152.53208  24399289.940    99911029.64945
  24296333.180   127678211.48108  24296334.140    99489577.02845
  23409214.040   123016266.33308  23409214.160    95856836.95946
  23411008.540   123026008.08108  23411005.380    95864549.20246
  22411093.500   117771104.62409  22411090.680    91769683.82448
 15 02 22 00 08 30.0000000  0  8G16G18G21G22G25G27G29G31
  22224797.620   116792115.81909  22224794.120    91006830.75847
  22841759.720   120034319.33209  22841756.960    93533241.93846
  21080025.800   110776508.73009  21080022.060    86319443.88248
  24381520.380   128125768.74408  24381519.660    99838263.32145
  24314814.240   127775328.57508  24314814.940    99565252.63246
  23396349.460   122948662.24408  23396349.260    95804158.43647
  23424495.080   123096879.42609  23424491.760    95919773.57546
  22426695.420   117853092.79409  22426692.520    91833570.67948
 15 02 22 00 09  0.0000000  0  8G16G18G21G22G25G27G29G31
  22209717.460   116712868.82509  22209713.900    90945079.83947
  22828875.800   119966614.32508  22828873.100    93480484.81446
  21085292.820   110804186.98608  21085289.080    86341011.35648
  24363737.840   128032321.90908  24363736.820    99765447.88545
  24333328.220   127872618.99008  24333328.680    99641063.28045
  23383502.200   122881149.68908  23383501.860    95751551.27947
  23437987.580   123167782.16708  23437984.380    95975022.49147
  22442349.840   117935356.91709  22442346.920    91897672.56448
 15 02 22 00 09 30.0000000  0  8G16G18G21G22G25G27G29G31
  22194673.960   116633814.63009  22194670.360    90883479.18547
  22816035.040   119899136.36609  22816032.420    93427904.62846
  21090629.360   110832230.58009  21090625.560    86362863.51748
  24345943.060   127938810.53708  24345941.840    99692582.16145
  24351874.100   127970077.53508  24351874.500    99717004.93045
  23370671.600   122813724.64108  23370671.360    95699012.32347
  23451485.260   123238712.45209  23451482.000    96030292.79646
  22458055.420   118017889.91809  22458052.480    91961983.95548
 15 02 22 00 10  0.0000000  0  8G16G18G21G22G25G27G29G31
  22179668.680   116554961.33109  22179665.020    90822035.07047
  22803239.300   119831894.60409  22803236.700    93375508.47646
  21096036.320   110860644.52808  21096032.540    86385004.26248
  24328137.640   127845243.26708  24328136.420    99619672.90545
  24370452.720   128067708.92108  24370453.100    99793081.27745
  23357858.980   122746393.14608  23357858.500    95646546.23347
  23464989.140   123309675.93408  23464985.980    96085588.98146
  22473812.780   118100695.08909  22473809.860    92026507.41948
 15 02 22 00 10 30.0000000  0  8G16G18G21G22G25G27G29G31
  22164700.980   116476305.71209  22164697.380    90760744.98147
  22790487.900   119764885.73309  22790485.220    93323293.78446
  21101512.320   110889421.29408  21101508.540    86407427.72248
  24310320.920   127751617.31608  24310319.700    99546717.91245
  24389062.900   128165506.43507  24389063.360    99869287.08545
  23345063.120   122679149.75908  23345062.680    95594148.81047
  23478498.100   123380666.81008  23478495.380    96140906.52446
  22489620.320   118183764.19109  22489617.420    92091236.55948
 15 02 22 00 11  0.0000000  0  8G16G18G21G22G25G27G29G31
  22149772.460   116397855.83409  22149768.860    90699615.22247
  22777782.400   119698118.00909  22777779.640    93271267.02346
  21107058.200   110918565.24809  21107054.460    86430137.29948
  24292494.520   127657940.38408  24292493.240    99473723.16245
  24407705.400   128263474.28207  24407706.100    99945625.59145
  23332284.960   122611999.94708  23332284.000    95541824.26246
  23492013.480   123451691.49909  23492011.080    96196250.40946
  22505478.580   118267100.00909  22505475.720    92156173.51747
 15 02 22 00 11 30.0000000  0  8G16G18G21G22G25G27G29G31
  22134882.580   116319608.88909  22134878.960    90638643.56947
  22765122.560   119631590.02709  22765119.720    93219427.05546
  21112672.720   110948069.99608  21112669.060    86453128.01248
  24274658.100   127564210.92008  24274656.880    99400687.47645
  24426379.220   128361606.73308  24426380.040   100022092.35845
  23319523.620   122544939.27809  23319523.140    95489569.25746
  23505534.340   123522745.10709  23505532.240    96251616.82046
  22521386.140   118350695.09809  22521383.320    92221312.51548
 15 02 22 00 12  0.0000000  0  8G16G18G21G22G25G27G29G31
  22120031.560   116241566.36509  22120028.020    90577831.23747
  22752508.600   119565303.53309  22752505.860    93167775.26446
  21118355.660   110977934.34208  21118352.100    86476398.93548
  24256812.020   127470430.92308  24256810.660    99327612.45145
  24445084.120   128459901.87408  24445085.060   100098685.90545
  23306779.040   122477967.14609  23306778.680    95437383.20447
  23519060.500   123593826.96609  23519058.780    96307005.23646
  22537342.400   118434546.17609  22537339.620    92286650.97247
 15 02 22 00 12 30.0000000  0  8G16G18G21G22G25G27G29G31
  22105219.780   116163729.93609  22105216.300    90517179.48247
  22739940.920   119499260.17809  22739938.380    93116312.94046
  21124106.540   111008155.67008  21124102.920    86499948.03048
  24238956.720   127376601.98308  24238955.120    99254499.22945
  24463819.660   128558357.58608  24463820.720   100175404.54445
  23294051.200   122411082.73808  23294051.120    95385265.51947
  23532592.020   123664936.38708  23532590.820    96362415.15546
  22553346.780   118518649.82909  22553344.020    92352186.25548
 15 02 22 00 13  0.0000000  0  8G16G18G21G22G25G27G29G31
  22090448.100   116086104.11009  22090444.640    90456691.85347
  22727420.340   119433464.39909  22727417.840    93065043.53946
  21129925.360   111038734.13508  21129921.700    86523775.40948
  24221092.820   127282728.51008  24221091.360    99181351.37545
  24482585.960   128656974.39908  24482586.940   100252248.76245
  23281340.600   122344287.91908  23281340.560    95333217.60247
  23546129.280   123736075.07708  23546127.780    96417847.93646
  22569398.960   118603004.41209  22569396.180    92417917.04848
 15 02 22 00 13 30.0000000  0  8G16G18G21G22G25G27G29G31
  22075717.180   116008692.42209  22075713.700    90396371.06148
  22714947.740   119367920.47209  22714945.340    93013970.37846
  21135812.180   111069669.47008  21135808.500    86547880.86948
  24203221.400   127188814.61308  24203220.020    99108171.96646
  24501382.820   128755752.29408  24501384.020   100329218.46745
  23268647.280   122277583.93008  23268647.000    95281240.47647
  23559672.280   123807243.95608  23559670.820    96473304.14746
  22585498.680   118687608.70209  22585495.900    92483842.42748
 15 02 22 00 14  0.0000000  0  8G16G18G21G22G25G27G29G31
  22061027.180   115931495.72509  22061023.660    90336217.80948
  22702523.460   119302630.22209  22702521.140    92963094.87746
  21141766.660   111100960.02209  21141762.880    86572263.11148
  24185342.680   127094862.12508  24185341.180    99034962.47146
  24520209.780   128854689.36207  24520211.280   100406312.17945
  23255970.980   122210970.14409  23255971.100    95229333.68747
  23573221.180   123878442.69509  23573219.580    96528783.64746
  22601645.300   118772459.40009  22601642.480    92549959.80947
 15 02 22 00 14 30.0000000  0  8G16G18G21G22G25G27G29G31
  22046378.220   115854514.60809  22046374.600    90276232.53148
  22690147.520   119237593.92409  22690145.160    92912417.26947
  21147787.940   111132601.67308  21147784.040    86596918.95548
  24167456.760   127000871.45408  24167454.980    98961723.24146
  24539066.540   128953781.97408  24539067.960   100483527.15245
  23243311.420   122144444.40108  23243311.580    95177495.49147
  23586775.340   123949668.98608  23586773.420    96584284.62646
  22617837.840   118857551.38009  22617835.040    92616265.21648
 15 02 22 00 15  0.0000000  0  8G16G18G21G22G25G27G29G31
  22031770.560   115777750.64209  22031766.820    90216416.46647
  22677820.280   119172813.37309  22677817.760    92861938.94446
  21153875.640   111164592.43708  21153871.660    86621846.82148
  24149563.960   126906844.52008  24149561.980    98888455.73646
  24557952.680   129053028.24007  24557954.180   100560861.82545
  23230668.580   122078006.12008  23230668.780    95125725.38547
  23600334.580   124020922.30108  23600332.380    96639806.66546
  22634075.600   118942881.00209  22634072.860    92682755.78548
 15 02 22 00 15 30.0000000  0  8G16G18G21G22G25G27G29G31
  22017205.020   115701208.17609  22017201.200    90156773.00648
  22665542.680   119108293.81909  22665539.940    92811663.99746
  21160029.740   111196932.42209  21160025.740    86647046.81248
  24131665.100   126812785.61808  24131663.080    98815163.32846
  24576868.120   129152428.85208  24576869.440   100638316.73345
  23218042.960   122011657.32508  23218043.020    95074025.01947
  23613899.380   124092204.76008  23613896.940    96695351.42846
  22650358.500   119028447.68809  22650355.820    92749431.08648
 15 02 22 00 16  0.0000000  0  8G16G18G21G22G25G27G29G31
  22002682.160   115624890.00509  22002678.260    90097304.32247
  22653315.200   119044037.90109  22653312.300    92761594.48446
  21166250.260   111229621.33309  21166246.220    86672518.69548
  24113760.820   126718698.35908  24113758.560    98741848.81546
  24595812.780   129251983.05008  24595813.860   100715891.35744
  23205434.400   121945398.57408  23205434.260    95022394.85847
  23627469.760   124163516.88209  23627467.180    96750919.25246
  22666686.020   119114249.10909  22666683.360    92816289.29747
 15 02 22 00 16 30.0000000  0  8G16G18G21G22G25G27G29G31
  21988202.260   115548797.92509  21988198.360    90038011.80247
  22641138.220   118980047.90709  22641135.180    92711732.16346
  21172536.900   111262657.28209  21172532.740    86698260.99448
  24095851.460   126624585.04608  24095849.180    98668514.01146
  24614786.260   129351688.95307  24614787.200   100793584.15645
  23192842.880   121879229.41409  23192842.800    94970834.50147
  23641045.480   124234858.10808  23641042.760    96806509.79546
  22683057.560   119200281.91909  22683054.920    92883327.80447
 15 02 22 00 17  0.0000000  0  8G16G18G21G22G25G27G29G31
  21973765.760   115472933.82309  21973761.900    89978896.93647
  22629012.240   118916326.12009  22629009.200    92662078.84946
  21178889.100   111296038.13709  21178884.920    86724272.05448
  24077937.500   126530447.65508  24077935.300    98595160.43146
  24633788.400   129451544.84208  24633789.240   100871393.88144
  23180268.320   121813149.52909  23180268.000    94919343.70847
  23654626.620   124306228.09008  23654624.020    96862122.76046
  22699472.420   119286542.85909  22699469.860    92950544.07148
 15 02 22 00 17 30.0000000  0  8G16G18G21G22G25G27G29G31
  21959373.300   115397301.23509  21959369.520    89919962.45448
  22616938.020   118852876.13809  22616935.060    92612637.33746
  21185306.720   111329762.98908  21185302.500    86750551.16648
  24060019.480   126436289.65508  24060017.380    98521790.78946
  24652818.960   129551550.45607  24652819.780   100949320.22044
  23167710.880   121747159.92609  23167710.660    94867923.27047
  23668213.480   124377627.86308  23668211.100    96917758.91446
  22715930.280   119373030.08809  22715927.840    93017936.66848
 15 02 22 00 18  0.0000000  0  8G16G18G21G22G25G27G29G31
  21945024.480   115321897.87909  21945020.760    89861206.62347
  22604915.260   118789696.15009  22604912.240    92563406.21147
  21191788.700   111363826.23208  21191784.460    86777093.96148
  24042097.200   126342109.79208  24042095.480    98448404.12446
  24671877.000   129651700.05008  24671877.860   101027358.78345
  23155169.840   121681256.40208  23155169.360    94816569.86747
  23681805.240   124449053.25908  23681802.860    96973415.04046
  22732429.920   119459736.61809  22732427.580    93085500.15748
 15 02 22 00 18 30.0000000  0  8G16G18G21G22G25G27G29G31
  21930720.480   115246730.09109  21930716.840    89802634.32148
  22592945.140   118726792.46409  22592941.940    92514390.37646
  21198335.600   111398230.53609  21198331.420    86803902.50848
  24024171.980   126247914.48808  24024170.520    98375005.40946
  24690962.920   129751996.26108  24690963.800   101105511.58344
  23142645.940   121615442.93708  23142645.560    94765286.65847
  23695402.800   124520508.38908  23695400.440    97029094.31146
  22748971.540   119546663.20209  22748969.160    93153235.11747
 15 02 22 00 19  0.0000000  0  8G16G18G21G22G25G27G29G31
  21916461.660   115171799.73009  21916458.080    89744247.05748
  22581028.000   118664167.42809  22581024.720    92465591.67146
  21204946.940   111432973.51009  21204942.820    86830974.95948
  24006244.200   126153706.22108  24006243.120    98301596.60346
  24710076.340   129852437.31508  24710077.380   101183777.24345
  23130139.100   121549719.16508  23130138.740    94714073.35247
  23709006.060   124591992.72308  23709003.580    97084796.37147
  22765554.480   119633806.70909  22765552.060    93221139.10747
 15 02 22 00 19 30.0000000  0  8G16G18G21G22G25G27G29G31
  21902248.260   115097107.99809  21902244.740    89686045.70248
  22569164.180   118601822.53109  22569160.860    92417011.25646
  21211622.320   111468053.09709  21211618.320    86858309.69848
  23988314.460   126059486.31308  23988313.420    98228178.70246
  24729216.900   129953020.63607  24729217.960   101262153.73545
  23117649.020   121484083.91109  23117648.480    94662929.00447
  23722614.560   124663504.99308  23722611.880    97140520.16246
  22782177.960   119721163.28109  22782175.520    93289209.11247
 15 02 22 00 20  0.0000000  0  8G16G18G21G22G25G27G29G31
  21888080.520   115022656.36109  21888077.080    89628031.44748
  22557353.980   118539759.51609  22557350.600    92368650.50146
  21218361.180   111503466.52908  21218357.280    86885904.58048
  23970383.000   125965256.45608  23970381.820    98154753.06445
  24748384.040   130053744.00607  24748385.020   101340639.39245
  23105175.620   121418536.40109  23105175.400    94611853.07347
  23736228.280   124735044.71008  23736225.540    97196265.38046
  22798841.180   119808729.12509  22798838.780    93357442.19447
 15 02 22 00 20 30.0000000  0  8G16G18G21G22G25G27G29G31
  21873959.580   114948450.49109  21873956.160    89570208.70848
  22545598.500   118477983.97109  22545595.160    92320513.73647
  21225163.960   111539215.74408  21225160.140    86913761.10748
  23952450.880   125871022.70808  23952449.620    98081324.36246
  24767578.160   130154609.47707  24767579.480   101419235.72045
  23092719.600   121353080.10508  23092719.380    94560848.16147
  23749847.540   124806615.27108  23749845.140    97252034.64046
  22815544.280   119896504.72909  22815541.920    93425838.71947
 15 02 22 00 21  0.0000000  0  8G16G18G21G22G25G27G29G31
  21859885.280   114874489.74309  21859881.920    89512576.96048
  22533897.620   118416495.65409  22533894.440    92272600.78547
  21232029.840   111575296.29509  21232026.020    86941875.82648
  23934518.040   125776784.89308  23934516.520    98007892.50346
  24786798.300   130255612.57507  24786799.760   101497939.32244
  23080280.440   121287712.06408  23080280.340    94509912.05847
  23763472.160   124878213.56408  23763469.780    97307825.49146
  22832286.220   119984484.28809  22832283.880    93494394.17947
 15 02 22 00 21 30.0000000  0  8G16G18G21G22G25G27G29G31
  21845858.480   114800778.28309  21845855.160    89455139.47048
  22522252.220   118355299.04009  22522249.180    92224915.14947
  21238958.820   111611708.22309  21238954.980    86970248.76748
  23916585.260   125682547.65808  23916583.600    97934461.10745
  24806044.740   130356753.83107  24806046.420   101576750.58044
  23067858.420   121222434.25508  23067858.800    94459046.26047
  23777102.360   124949841.50208  23777100.220    97363639.43846
  22849066.860   120072666.86009  22849064.500    93563107.82747
 15 02 22 00 22  0.0000000  0  7G16G18G21G22G27G29G31
  21831880.080   114727321.09209  21831876.720    89397900.10248
  22510663.220   118294399.12809  22510660.300    92177460.70447
  21245950.960   111648452.26609  21245947.200    86998880.48548
  23898653.580   125588316.13608  23898651.740    97861034.13146
  23055454.080   121157249.19508  23055454.280    94408252.70247
  23790738.640   125021502.04008  23790736.980    97419478.75547
  22865886.060   120161051.99009  22865883.600    93631979.31847
 15 02 22 00 22 30.0000000  0  7G16G18G21G22G27G29G31
  21817948.620   114654110.64209  21817945.220    89340853.01448
  22499129.300   118233788.57109  22499126.480    92130231.72947
  21253004.180   111685517.29009  21253000.460    87027762.32048
  23880721.680   125494083.53808  23880719.640    97787606.32546
  23043065.540   121092147.27208  23043065.660    94357523.96047
  23804379.340   125093185.38008  23804378.360    97475335.85847
  22882741.460   120249627.15809  22882738.860    93700998.90047
 15 02 22 00 23  0.0000000  0  7G16G18G21G22G27G29G31
  21804065.780   114581155.58409  21804062.340    89284004.90848
  22487652.200   118173476.03209  22487649.320    92083234.96047
  21260119.280   111722907.66908  21260115.620    87056897.67648
  23862791.140   125399858.00908  23862788.980    97714184.03246
  23030694.060   121027134.56208  23030694.300    94306864.75247
  23818025.540   125164897.34108  23818024.900    97531215.27446
  22899633.580   120338395.43809  22899630.960    93770168.92947
 15 02 22 00 23 30.0000000  0  7G16G18G21G22G27G29G31
  21790231.380   114508455.37909  21790227.900    89227355.40248
  22476231.860   118113461.16509  22476228.800    92036470.16847
  21267295.560   111760619.53208  21267291.940    87086283.54348
  23844861.980   125305639.54808  23844859.520    97640767.21146
  23018339.140   120962208.42808  23018338.940    94256272.98647
  23831677.040   125236635.59908  23831676.240    97587115.22546
  22916561.340   120427351.27009  22916558.760    93839485.11547
 15 02 22 00 24  0.0000000  0  7G16G18G21G22G27G29G31
  21776445.960   114436012.33409  21776442.400    89170906.27648
  22464868.660   118053746.61509  22464865.480    91989939.36847
  21274532.680   111798651.18808  21274529.080    87115918.59448
  23826934.760   125211431.63408  23826932.200    97567358.64346
  23006000.780   120897369.10708  23006000.480    94205748.85647
  23845333.560   125308400.32308  23845332.440    97643035.73246
  22933524.240   120516492.03409  22933521.800    93908945.40047
 15 02 22 00 24 30.0000000  0  7G16G18G21G22G27G29G31
  21762710.860   114363833.67109  21762707.220    89114663.16448
  22453563.900   117994339.49809  22453560.740    91943648.14347
  21281831.380   111837005.93909  21281827.720    87145805.40948
  23809010.800   125117241.26908  23809008.200    97493963.74446
  22993679.780   120832621.28408  22993679.560    94155296.02047
  23858996.060   125380196.11608  23858994.340    97698980.55846
  22950522.640   120605819.34509  22950520.360    93978551.03747
 15 02 22 00 25  0.0000000  0  7G16G18G21G22G27G29G31
  21749026.460   114291921.58209  21749022.800    89058627.77248
  22442318.120   117935242.34409  22442314.980    91897598.44747
  21289191.220   111875681.56109  21289187.420    87175942.26548
  23791090.720   125023071.25408  23791088.080    97420584.68846
  22981376.080   120767964.84608  22981375.580    94104914.40047
  23872664.360   125452023.51708  23872662.620    97754949.88446
  22967556.000   120695330.31409  22967553.820    94048299.79047
 15 02 22 00 25 30.0000000  0  7G16G18G21G22G27G29G31
  21735391.840   114220271.32309  21735388.200    89002796.40948
  22431130.440   117876450.38109  22431127.300    91851786.55147
  21296610.460   111914669.74909  21296606.600    87206322.67148
  23773173.720   124928917.07008  23773170.920    97347217.96346
  22969088.340   120703392.90708  22969087.860    94054598.64647
  23886337.260   125523874.95508  23886334.800    97810938.04446
  22984622.420   120785015.08209  22984620.260    94118183.97447
 15 02 22 00 26  0.0000000  0  7G16G18G21G22G27G29G31
  21721808.960   114148893.21909  21721805.400    88947177.11448
  22420002.820   117817974.21009  22419999.660    91806220.73347
  21304090.420   111953976.94909  21304086.460    87236951.65248
  23755261.680   124834789.54708  23755258.880    97273872.01746
  22956818.220   120638913.58008  22956818.000    94004355.05447
  23900016.120   125595758.34008  23900013.900    97866951.02746
  23001722.960   120874878.82409  23001720.700    94188207.60447
 15 02 22 00 26 30.0000000  0  7G16G18G21G22G27G29G31
  21708277.240   114077783.87109  21708273.760    88891767.24148
  22408934.620   117759810.56009  22408931.440    91760898.44247
  21311629.620   111993595.66009  21311625.640    87267823.37548
  23737354.140   124740685.78508  23737351.300    97200544.57046
  22944564.740   120574521.42309  22944564.460    93954179.36447
  23913700.040   125667668.93208  23913697.980    97922985.21546
  23018855.900   120964912.72409  23018853.580    94258363.84647
 15 02 22 00 27  0.0000000  0  7G16G18G21G22G27G29G31
  21694797.480   114006947.26709  21694794.000    88836569.89148
  22397926.640   117701963.23709  22397923.440    91715822.61447
  21319228.100   112033525.70309  21319224.020    87298937.69048
  23719451.860   124646609.80208  23719449.120    97127238.80146
  22932328.060   120510217.73808  22932327.880    93904072.63747
  23927389.500   125739607.77408  23927387.720    97979041.42545
  23036021.040   121055115.57309  23036018.640    94328651.72247
 15 02 22 00 27 30.0000000  0  7G16G18G21G22G27G29G31
  21681369.720   113936384.00909  21681366.240    88781585.54948
  22386978.960   117644432.87209  22386975.700    91670993.78947
  21326885.260   112073763.84309  21326881.140    87330292.08548
  23701555.040   124552562.80708  23701552.320    97053955.58946
  22920108.020   120446001.13808  22920108.060    93854033.76947
  23941084.240   125811573.51108  23941082.480    98035118.60746
  23053217.460   121145482.66609  23053214.940    94399067.59547
 15 02 22 00 28  0.0000000  0  7G16G18G21G22G27G29G31
  21667994.680   113866097.77309  21667991.180    88726817.05748
  22376092.280   117587223.13009  22376089.020    91626414.81447
  21334600.980   112114309.70209  21334596.800    87361886.26948
  23683664.560   124458548.89308  23683661.860    96980698.18446
  22907904.840   120381872.76308  22907904.780    93804063.61947
  23954784.520   125883567.60808  23954782.500    98091217.87446
  23070444.840   121236012.36009  23070442.180    94469610.16347
 15 02 22 00 28 30.0000000  0  7G16G18G21G22G27G29G31
  21654672.720   113796090.63009  21654669.240    88672266.03648
  22365267.120   117530336.75609  22365263.840    91582087.80647
  21342374.980   112155162.13009  21342370.740    87393719.32248
  23665780.820   124364570.11408  23665778.020    96907468.09746
  22895718.460   120317832.64408  22895718.280    93754162.24647
  23968490.100   125955589.41108  23968488.140    98147338.72746
  23087702.520   121326701.56909  23087699.860    94540277.01547
 15 02 22 00 29  0.0000000  0  7G16G18G21G22G27G29G31
  21641404.780   113726367.13409  21641401.260    88617936.05048
  22354504.200   117473777.71609  22354501.020    91538015.85947
  21350207.280   112196321.12309  21350203.020    87425791.27748
  23647904.880   124270631.95108  23647902.040    96834269.71146
  22883549.400   120253883.17409  22883549.080    93704331.52347
  23982201.280   126027641.64408  23982199.380    98203483.33246
  23104990.480   121417549.98609  23104987.880    94611067.93247
 15 02 22 00 29 30.0000000  0  7G16G18G21G22G27G29G31
  21628190.960   113656927.98909  21628187.380    88563827.62348
  22343803.720   117417546.85009  22343800.580    91494199.61947
  21358097.200   112237782.89809  21358092.880    87458099.14948
  23630036.800   124176735.21108  23630033.800    96761103.59246
  22871397.160   120190022.49908  22871396.840    93654569.97247
  23995917.900   126099722.55808  23995915.680    98259650.27846
  23122307.840   121508552.77009  23122305.280    94681979.13147
 15 02 22 00 30  0.0000000  0  7G16G18G21G22G27G29G31
  21615032.140   113587777.85709  21615028.560    88509944.41448
  22333166.600   117361648.87409  22333163.580    91450642.79847
  21366044.980   112279548.85909  21366040.660    87490644.05648
  23612177.600   124082885.13408  23612174.580    96687973.81146
  22859262.300   120126253.12208  22859261.860    93604879.56847
  24009640.160   126171834.80908  24009638.360    98315841.55446
  23139654.500   121599709.41109  23139651.960    94753010.22447
 15 02 22 00 30 30.0000000  0  7G16G18G21G22G27G29G31
  21601927.820   113518914.17009  21601924.280    88456284.41048
  22322592.360   117306081.23309  22322589.360    91407343.36447
  21374049.320   112321612.15209  21374045.040    87523420.64448
  23594326.880   123989079.44008  23594323.760    96614878.62546
  22847143.860   120062570.24208  22847143.400    93555256.58547
  24023367.520   126243973.36608  24023365.440    98372053.49145
  23157028.900   121691011.90809  23157026.380    94824154.97047
 15 02 22 00 31  0.0000000  0  7G16G18G21G22G27G29G31
  21588878.920   113450341.59609  21588875.380    88402851.24148
  22312081.880   117250848.54609  22312078.840    91364304.93947
  21382110.320   112363973.06909  21382106.060    87556429.14648
  23576485.460   123895322.72808  23576482.320    96541821.62146
  22835042.280   119998976.27008  22835041.700    93505702.84847
  24037100.480   126316140.92808  24037098.700    98428287.87146
  23174430.920   121782459.77509  23174428.460    94895412.96847
 15 02 22 00 31 30.0000000  0  7G16G18G21G22G27G29G31
  21575885.760   113382061.92709  21575882.180    88349646.31348
  22301635.480   117195952.80809  22301632.440    91321529.07247
  21390227.620   112406629.92609  21390223.360    87589668.26448
  23558653.880   123801617.62608  23558650.640    96468804.80446
  22822957.580   119935470.98208  22822956.900    93456218.25347
  24050839.080   126388337.16508  24050837.160    98484544.70545
  23191859.980   121874049.73009  23191857.560    94966781.70147
 15 02 22 00 32  0.0000000  0  7G16G18G21G22G27G29G31
  21562949.040   113314078.88909  21562945.380    88296672.52148
  22291253.840   117141397.00609  22291250.800    91279018.08847
  21398401.080   112449581.68509  21398396.840    87623137.16348
  23540832.900   123707968.38308  23540829.560    96395831.52146
  22810889.940   119872055.50008  22810889.360    93406803.60647
  24064583.200   126460563.12408  24064581.460    98540824.65746
  23209315.660   121965779.84009  23209313.320    95038259.64347
 15 02 22 00 32 30.0000000  0  7G16G18G21G22G27G29G31
  21550068.900   113246393.25209  21550065.180    88243930.46248
  22280937.080   117087182.18709  22280934.080    91236772.79147
  21406630.280   112492826.40509  21406626.120    87656834.33348
  23523022.720   123614376.12808  23523019.360    96322902.60846
  22798839.100   119808728.57309  22798838.540    93357457.96947
  24078332.960   126532817.63108  24078331.380    98597126.85846
  23226797.180   122057645.86609  23226794.820    95109843.48447
 15 02 22 00 33  0.0000000  0  7G16G18G21G22G27G29G31
  21537246.000   113179008.46209  21537242.280    88191422.84248
  22270685.960   117033312.17009  22270682.880    91194796.19147
  21414915.120   112536363.20409  21414911.020    87690759.11048
  23505224.040   123520844.31608  23505220.720    96250020.80346
  22786805.360   119745491.44409  22786804.780    93308182.30347
  24092088.260   126605101.90008  24092086.360    98653452.23146
  23244304.280   122149646.25609  23244301.880    95181532.04047
 15 02 22 00 33 30.0000000  0  7G16G18G21G22G27G29G31
  21524481.020   113111927.86109  21524477.280    88139152.25248
  22260501.080   116979790.20109  22260497.900    91153090.80447
  21423255.240   112580190.92809  21423251.120    87724910.57648
  23487437.680   123427377.11709  23487434.360    96177189.39046
  22774788.940   119682344.96809  22774788.360    93258977.29547
  24105849.360   126677416.88208  24105847.000    98709801.58846
  23261836.560   122241778.85609  23261834.140    95253323.61947
 15 02 22 00 34  0.0000000  0  7G16G18G21G22G27G29G31
  21511773.860   113045151.22909  21511770.100    88087118.50948
  22250382.280   116926615.70809  22250379.020    91111656.16547
  21431649.920   112624305.04809  21431645.760    87759285.21848
  23469663.620   123333974.50808  23469660.340    96104408.24946
  22762789.380   119619287.02009  22762788.920    93209841.25247
  24119615.720   126749760.44008  24119613.880    98766173.11546
  23279392.960   122334038.21909  23279390.540    95325213.97147
 15 02 22 00 34 30.0000000  0  7G16G18G21G22G27G29G31
  21499124.480   112978678.16309  21499120.680    88035321.32248
  22240329.520   116873788.10309  22240326.140    91070491.81847
  21440098.300   112668701.36909  21440094.160    87793879.76248
  23451901.940   123240636.81008  23451898.660    96031677.67347
  22750806.140   119556314.75508  22750805.720    93160771.97448
  24133387.060   126822129.23408  24133384.360    98822564.47545
  23296972.380   122426418.62709  23296969.960    95397198.62647
 15 02 22 00 35  0.0000000  0  7G16G18G21G22G27G29G31
  21486534.920   112912519.54409  21486531.100    87983769.15648
  22230344.800   116821318.10809  22230341.380    91029606.13847
  21448601.740   112713387.14309  21448597.640    87828699.83548
  23434154.720   123147375.17708  23434151.440    95959006.39846
  22738840.860   119493436.94508  22738840.360    93111776.32448
  24147164.880   126894532.95508  24147162.140    98878982.92246
  23314576.000   122518925.99309  23314573.620    95469282.22247
 15 02 22 00 35 30.0000000  0  7G16G18G21G22G27G29G31
  21474003.740   112846667.87009  21473999.920    87932456.15948
  22220426.680   116769198.20709  22220423.240    90988993.23447
  21457158.020   112758350.75809  21457153.940    87863736.40848
  23416420.520   123054182.09208  23416417.300    95886388.50647
  22726891.720   119430643.80609  22726891.220    93062846.63047
  24160947.800   126966961.37408  24160945.120    98935420.62346
  23332201.320   122611547.30709  23332198.960    95541454.59947
 15 02 22 00 36  0.0000000  0  7G16G18G21G22G27G29G31
  21461533.020   112781133.79409  21461529.180    87881390.65948
  22210577.100   116717438.58509  22210573.780    90948661.09447
  21465768.380   112803598.43509  21465764.320    87898994.34248
  23398701.640   122961069.21208  23398698.420    95813833.14147
  22714960.220   119367943.80009  22714959.960    93013989.51547
  24174736.760   127039423.03208  24174734.380    98991884.20145
  23349849.380   122704288.18109  23349847.020    95613720.14747
 15 02 22 00 36 30.0000000  0  7G16G18G21G22G27G29G31
  21449122.340   112715915.12009  21449118.520    87830570.92448
  22200795.800   116666037.60409  22200792.580    90908608.41447
  21474431.540   112849123.84709  21474427.500    87934468.68748
  23380997.700   122868034.53408  23380994.320    95741338.68647
  22703045.620   119305332.45109  22703045.460    92965201.49447
  24188531.280   127111913.39008  24188529.180    99048370.17445
  23367518.720   122797140.93709  23367516.300    95686072.87547
 15 02 22 00 37  0.0000000  0  7G16G18G21G22G27G29G31
  21436772.100   112651014.10809  21436768.340    87779998.70848
  22191083.100   116614997.33909  22191080.000    90868836.81447
  21483147.320   112894925.72809  21483143.320    87970158.46248
  23363309.240   122775081.07009  23363305.820    95668907.52246
  22691148.000   119242810.11209  22691147.780    92916482.81947
  24202331.280   127184432.89308  24202329.340    99104878.86345
  23385208.800   122890102.91609  23385206.360    95758510.69747
 15 02 22 00 37 30.0000000  0  7G16G18G21G22G27G29G31
  21424483.240   112586435.58409  21424479.500    87729677.78748
  22181439.800   116564322.05409  22181436.820    90829349.60247
  21491915.720   112941004.34809  21491911.820    88006063.88348
  23345637.040   122682213.11908  23345633.540    95596542.99147
  22679267.780   119180379.02109  22679267.500    92867835.25547
  24216137.080   127256983.48708  24216134.860    99161411.79945
  23402919.440   122983173.42308  23402917.080    95831033.10446
 15 02 22 00 38  0.0000000  0  7G16G18G21G22G27G29G31
  21412255.560   112522178.81809  21412251.900    87679607.58848
  22171865.780   116514010.62309  22171862.820    90790145.91447
  21500735.920   112987355.50909  21500732.140    88042181.67248
  23327981.240   122589431.37208  23327977.660    95524245.63446
  22667404.400   119118036.36309  22667403.980    92819256.59147
  24229948.320   127329562.71608  24229946.160    99217967.06546
  23420649.620   123076346.50709  23420647.240    95903635.42446
 15 02 22 00 38 30.0000000  0  7G16G18G21G22G27G29G31
  21400090.140   112458249.46909  21400086.540    87629792.51748
  22162362.200   116464068.84709  22162359.120    90751230.27347
  21509608.240   113033980.73509  21509604.680    88078513.00948
  23310342.920   122496741.65008  23310339.300    95452019.98047
  22655558.480   119055785.62809  22655558.060    92770749.53947
  24243765.560   127402173.80308  24243763.680    99274547.10246
  23438399.480   123169622.63008  23438397.180    95976318.04147
 15 02 22 00 39  0.0000000  0  7G16G18G21G22G27G29G31
  21387986.340   112394643.85009  21387982.760    87580229.69948
  22152928.200   116414492.89809  22152925.060    90712599.69847
  21518531.280   113080872.19609  21518527.860    88115051.80648
  23292721.520   122404140.64508  23292717.820    95379863.44247
  22643728.920   118993620.97509  22643728.480    92722309.56348
  24257588.020   127474810.83508  24257586.100    99331147.39946
  23456167.340   123262993.07308  23456165.120    96049074.13646
 15 02 22 00 39 30.0000000  0  7G16G18G21G22G27G29G31
  21375946.020   112331371.47509  21375942.420    87530926.56248
  22143565.620   116365292.20809  22143562.380    90674261.51847
  21527506.080   113128035.35909  21527502.680    88151802.33148
  23275118.840   122311638.24408  23275115.140    95307783.76447
  22631917.160   118931549.88109  22631916.660    92673942.50748
  24271416.860   127547482.11108  24271415.340    99387774.36746
  23473954.080   123356462.06909  23473951.780    96121907.04247
 15 02 22 00 40  0.0000000  0  7G16G18G21G22G27G29G31
  21363968.760   112268430.33409  21363965.140    87481881.52548
  22134274.000   116316464.39409  22134270.700    90636213.89447
  21536531.420   113175463.92009  21536528.020    88188759.64748
  23257534.620   122219233.15908  23257530.960    95235779.89646
  22620122.380   118869568.01009  22620121.860    92625644.97748
  24285251.360   127620182.54108  24285249.780    99444424.01145
  23491758.220   123450022.26309  23491755.840    96194811.01447
 15 02 22 00 40 30.0000000  0  7G16G18G21G22G27G29G31
  21352055.160   112205823.79609  21352051.520    87433097.20648
  22125053.880   116268012.73909  22125050.600    90598459.37747
  21545607.220   113223157.57909  21545603.860    88225923.53148
  23239969.560   122126928.95509  23239965.940    95163854.66946
  22608344.780   118807676.66609  22608344.260    92577417.98948
  24299091.640   127692913.31008  24299089.980    99501097.32645
  23509579.400   123543672.06109  23509576.960    96267784.79847
 15 02 22 00 41  0.0000000  0  7G16G18G21G22G27G29G31
  21340205.760   112143554.60309  21340202.100    87384575.76348
  22115905.720   116219939.44009  22115902.560    90560999.69147
  21554733.320   113271115.35609  21554729.880    88263293.23348
  23222424.200   122034728.54108  23222420.600    95092010.27247
  22596584.540   118745876.35609  22596584.060    92529261.90248
  24312937.900   127765675.39808  24312936.320    99557795.03346
  23527417.080   123637408.92209  23527414.640    96340826.41847
 15 02 22 00 41 30.0000000  0  7G16G18G21G22G27G29G31
  21328420.080   112081620.51209  21328416.420    87336315.43948
  22106829.140   116172242.27909  22106826.200    90523833.09447
  21563908.380   113319330.61109  21563904.900    88300863.56448
  23204898.360   121942630.88908  23204894.820    95020245.94346
  22584840.880   118684162.78609  22584840.360    92481173.41748
  24326789.380   127838464.06608  24326787.900    99614513.46346
  23545269.800   123731225.12009  23545267.420    96413929.85947
 15 02 22 00 42  0.0000000  0  7G16G18G21G22G27G29G31
  21316700.300   112020032.87909  21316696.660    87288325.09148
  22097826.180   116124931.87309  22097823.340    90486967.86147
  21573133.800   113367810.58309  21573130.360    88338640.16048
  23187394.320   121850647.60708  23187390.840    94948570.75947
  22573115.440   118622545.08509  22573114.920    92433159.61548
  24340647.620   127911288.59408  24340645.940    99671259.85546
  23563138.800   123825127.26009  23563136.520    96487100.26947
 15 02 22 00 42 30.0000000  0  7G16G18G21G22G27G29G31
  21305045.400   111958786.42809  21305041.800    87240600.58848
  22088895.900   116078003.04509  22088892.980    90450399.94947
  21582407.800   113416545.79309  21582404.300    88376615.64548
  23169911.100   121758773.43808  23169907.700    94876980.58447
  22561406.800   118561015.73309  22561406.260    92385214.69748
  24354511.340   127984141.44508  24354509.420    99728028.33046
  23581022.160   123919104.78809  23581020.040    96560329.41047
 15 02 22 00 43  0.0000000  0  7G16G18G21G22G27G29G31
  21293456.760   111897888.26309  21293453.200    87193147.48148
  22080039.700   116031463.02409  22080036.600    90414135.02747
  21591731.120   113465539.89409  21591727.580    88414792.86548
  23152450.160   121667016.11809  23152446.820    94805481.44546
  22549715.900   118499579.84909  22549715.440    92337342.60448
  24368381.320   128057027.79408  24368379.220    99784822.87046
  23598920.160   124013159.27909  23598918.220    96633618.53947
 15 02 22 00 43 30.0000000  0  7G16G18G21G22G27G29G31
  21281934.480   111837338.73309  21281930.960    87145966.03548
  22071257.400   115985310.94609  22071254.080    90378172.39147
  21601102.900   113514788.87509  21601099.320    88453168.69348
  23135011.740   121575376.52108  23135008.340    94734074.05947
  22538042.420   118438235.55809  22538042.020    92289541.88748
  24382257.100   128129945.57308  24382254.660    99841641.92045
  23616831.880   124107286.05008  23616830.100    96706963.96147
 15 02 22 00 44  0.0000000  0  7G16G18G21G22G27G29G31
  21270479.300   111777141.46409  21270475.760    87099059.07248
  22062549.520   115939550.37309  22062546.140    90342514.82847
  21610522.960   113564291.70309  21610519.340    88491742.31948
  23117596.420   121483858.62009  23117593.040    94662761.48546
  22526386.700   118376984.51409  22526386.240    92241813.81748
  24396139.020   128202896.57407  24396136.980    99898486.84846
  23634757.020   124201483.60708  23634755.380    96780364.56047
 15 02 22 00 44 30.0000000  0  7G16G18G21G22G27G29G31
  21259091.360   111717297.60609  21259087.780    87052427.50748
  22053916.240   115894182.41109  22053912.920    90307163.18847
  21619991.080   113614046.44509  21619987.360    88530512.25148
  23100204.680   121392464.24108  23100201.260    94591545.16747
  22514748.540   118315825.58609  22514748.020    92194157.51248
  24410026.880   128275879.75208  24410025.320    99955356.83046
  23652694.880   124295747.85508  23652693.380    96853817.11046
 15 02 22 00 45  0.0000000  0  7G16G18G21G22G27G29G31
  21247770.000   111657803.40509  21247766.400    87006068.37948
  22045356.880   115849202.99709  22045353.580    90272114.31847
  21629505.780   113664045.60309  21629501.860    88569472.62248
  23082835.800   121301190.23208  23082832.440    94520422.63447
  22503126.860   118254753.08009  22503126.260    92146568.53248
  24423920.060   128348889.00808  24423918.320   100012247.15045
  23670643.800   124390069.96408  23670642.340    96927314.73346
 15 02 22 00 45 30.0000000  0  7G16G18G21G22G27G29G31
  21236517.200   111598669.45809  21236513.620    86959989.99548
  22036873.460   115804622.63609  22036870.220    90237376.39647
  21639068.120   113714295.09109  21639064.040    88608628.07148
  23065491.960   121210047.59009  23065488.540    94449402.48047
  22491523.280   118193775.54609  22491522.580    92099053.62348
  24437819.920   128421933.11908  24437818.480   100069164.62446
  23688604.880   124484455.53209  23688603.340    97000861.82846
 15 02 22 00 46  0.0000000  0  7G16G18G21G22G27G29G31
  21225332.400   111539893.02109  21225328.880    86914190.18048
  22028465.360   115760437.78809  22028462.100    90202946.67547
  21648676.800   113764788.21509  21648672.600    88647973.36048
  23048172.620   121119034.11008  23048169.140    94378482.94647
  22479936.820   118132888.14609  22479936.060    92051608.93748
  24451725.580   128495006.98508  24451724.160   100126105.26046
  23706576.520   124578896.20208  23706574.840    97074451.86346
 15 02 22 00 46 30.0000000  0  7G16G18G21G22G27G29G31
  21214216.340   111481477.78109  21214212.860    86868671.82048
  22020133.180   115716651.97609  22020129.860    90168827.88747
  21658331.740   113815524.86209  21658327.500    88687508.40848
  23030878.640   121028153.95709  23030875.100    94307667.31547
  22468367.780   118072092.41409  22468366.920    92004235.63547
  24465637.280   128568112.22208  24465635.540   100183070.41345
  23724558.480   124673391.17309  23724556.740    97148084.18746
 15 02 22 00 47  0.0000000  0  7G16G18G21G22G27G29G31
  21203170.220   111423430.02909  21203166.720    86823439.80348
  22011877.960   115673270.83109  22011874.720    90135024.40947
  21668033.380   113866507.41909  21668029.140    88727235.06848
  23013611.360   120937413.72309  23013607.600    94236960.71047
  22456816.920   118011392.53009  22456816.100    91956937.01648
  24479555.400   128641253.02808  24479553.460   100240063.22845
  23742551.000   124767941.36309  23742549.180    97221759.55346
 15 02 22 00 47 30.0000000  0  7G16G18G21G22G27G29G31
  21192193.700   111365747.96409  21192190.220    86778492.74348
  22003699.340   115630292.46809  22003696.280    90101534.80947
  21677780.740   113917730.19409  21677776.580    88767148.91948
  22996370.640   120846812.48609  22996366.600    94166362.40247
  22445283.560   117950784.83408  22445282.800    91909710.27748
  24493479.520   128714425.37608  24493477.560   100297080.62446
  23760552.720   124862539.83709  23760550.780    97295472.54146
 15 02 22 00 48  0.0000000  0  7G16G18G21G22G27G29G31
  21181287.180   111308433.84909  21181283.760    86733832.40248
  21995597.680   115587718.26009  21995594.740    90068360.11947
  21687573.340   113969190.93809  21687569.180    88807248.19648
  22979156.840   120756352.62909  22979152.580    94095874.27747
  22433767.820   117890269.28809  22433767.100    91862555.34548
  24507409.580   128787629.56508  24507407.760   100354122.85346
  23778563.020   124957183.53808  23778561.060    97369220.76746
 15 02 22 00 48 30.0000000  0  7G16G18G21G22G27G29G31
  21170451.000   111251489.31009  21170447.600    86689460.03448
  21987573.300   115545550.18109  21987570.400    90035501.89747
  21697410.800   114020887.46809  21697406.680    88847531.20848
  22961970.380   120666036.54709  22961965.920    94025498.18347
  22422269.540   117829845.60809  22422268.820    91815471.95248
  24521345.800   128860865.23708  24521343.920   100411189.62545
  23796581.120   125051868.96908  23796579.320    97443001.49647
 15 02 22 00 49  0.0000000  0  7G16G18G21G22G27G29G31
  21159685.940   111194918.52409  21159682.580    86645378.91148
  21979626.900   115503791.74309  21979624.060    90002962.86547
  21707293.280   114072820.26909  21707289.180    88887998.32648
  22944812.020   120575868.81209  22944807.480    93955237.67747
  22410789.160   117769515.98008  22410788.460    91768461.88148
  24535288.560   128934134.30208  24535286.620   100468282.41746
  23814606.960   125146595.25408  23814605.240    97516814.04946
 15 02 22 00 49 30.0000000  0  7G16G18G21G22G27G29G31
  21148992.340   111138723.24009  21148989.000    86601590.38448
  21971758.860   115462444.71409  21971755.920    89970744.42347
  21717220.340   114124987.34809  21717216.220    88928648.00648
  22927682.260   120485851.87509  22927677.720    93885094.67547
  22399326.680   117709280.38009  22399326.000    91721525.10148
  24549237.600   129007436.86608  24549235.960   100525401.27945
  23832640.020   125241359.54208  23832638.440    97590656.21946
 15 02 22 00 50  0.0000000  0  6G16G18G21G22G27G31
  21138379.300   111082951.47509  21138375.960    86558131.86548
  21963977.920   115421555.28609  21963974.880    89938882.54147
  21727200.140   114177431.66909  21727196.040    88969513.70048
  22910590.400   120396034.03809  22910585.800    93815106.81647
  22387890.740   117649184.26009  22387890.120    91674696.94148
  23850688.320   125336204.06408  23850686.840    97664560.89246
 15 02 22 00 50 30.0000000  0  6G16G18G21G22G27G31
  21127828.840   111027508.41809  21127825.500    86514929.49148
  21956266.040   115381029.16709  21956262.980    89907303.76147
  21737214.080   114230055.15009  21737210.020    89010519.02448
  22893518.420   120306320.81909  22893513.780    93745200.48547
  22376462.880   117589130.89708  22376462.360    91627902.16448
  23868732.920   125431029.14008  23868731.520    97738450.44746
 15 02 22 00 51  0.0000000  0  7G16G18G19G21G22G27G31
  21117352.020   110972452.24709  21117348.600    86472028.58948
  21948634.300   115340924.25309  21948631.220    89876053.19747
  24546844.500   128994541.02208  24546837.480   100515204.96145
  21747272.500   114282912.46709  21747268.440    89051706.54648
  22876477.640   120216771.58009  22876473.040    93675421.90147
  22365053.960   117529176.89309  22365053.500    91581184.77748
  23886783.940   125525887.98308  23886782.620    97812366.26446
 15 02 22 00 51 30.0000000  0  7G16G18G19G21G22G27G31
  21106946.180   110917768.97609  21106942.720    86429418.24848
  21941079.920   115301225.58609  21941076.720    89845119.18447
  24532018.340   128916640.34706  24532015.320   100454503.19446
  21757371.860   114335984.94409  21757367.780    89093061.70948
  22859465.380   120127372.29409  22859460.860    93605760.17047
  22353660.820   117469305.90109  22353660.500    91534532.09048
  23904837.860   125620761.55708  23904836.600    97886293.59046
 15 02 22 00 52  0.0000000  0  7G16G18G19G21G22G27G31
  21096618.620   110863497.29709  21096615.180    86387128.64548
  21933610.220   115261971.67009  21933606.840    89814531.71247
  24517209.240   128838819.37608  24517207.160   100393863.59946
  21767518.820   114389307.60809  21767514.700    89134611.84848
  22842489.140   120038162.30009  22842484.800    93536245.95947
  22342290.520   117409554.80509  22342290.260    91487972.82348
  23922900.980   125715683.35008  23922899.680    97960258.48846
